~Version Information
 VERS.                  2.0:   CWLS log ASCII Standard -VERSION 2.0
 WRAP.                   NO:   One line per depth step
~Well Information Block
#MNEM.UNIT       Data Type    Information
#---------     -----------    ---------------------------
 STRT.M              2954.2739:
 STOP.M              3647.5415:
 STEP.M                 0.1524:
 NULL.               -999.2500:
 UWI .            NO 15/9-F-14:  UWI
 API .            NO 15/9-F-14:  UWI
 WELL.               15/9-F-14:  COMMON WELL NAME
 COMP.                 STATOIL:  WELL OPERATOR
 FLD .                   VOLVE:  FIELD
 LIC .              NO PL046BS:  AUTHORIZATION NO
 LOC .                 UNKNOWN:  BASIN
 CTRY.                  Norway:  COUNTRY
 STAT.                 UNKNOWN:  STATE
 CNTY.                 UNKNOWN:  COUNTY
 PROV.                 UNKNOWN:  STATE
 SRVC.                 UNKNOWN:  COMPANY
 DATE.                 UNKNOWN:  LOG RUN DATE
 LONG.             1.887521912:  LONGITUDE
 LATI.            58.441602475:  LATITUDE
 XCOORD.           435052.4375:  X COORDINATE
 YCOORD.          6478562.5000:  Y COORDINATE
 ELEV.M                54.9000:  ELEVATION
 TD  .M              3750.0000:  TOTAL DEPTH
~Parameter Information Block
#MNEM.UNIT       Value        Description
#---------     -----------    ---------------------------
~Curve Information Block
#MNEM.UNIT                 API CODE     Curve Description
#---------               -----------    ---------------------------
 DEPTH.M                00 000 000 000:  Index Curve
 sat201IC-BHOF.NONE        00 000 000 000:  IC mode, Estimated Borehole Oil Fraction
 sat201IC-BVW.V/V         00 000 000 000:  IC mode, Estimated Bulk Volume of Water; 'sat201IC-SW'*'PHIF'
 sat201IC-CRRA.NONE        00 000 000 000:  IC mode, RST Near/Far Instantaneous Count Rate Ratio
 sat201IC-FBEF.UA          00 000 000 000:  IC mode, RST Far Effective Beam Current
 sat201IC-FCOR.NONE        00 000 000 000:  IC mode, RST Far Carbon/Oxygen Ratio
 sat201IC-GR.GAPI        00 000 000 000:  IC mode, Gamma Ray
 sat201IC-NCOR.NONE        00 000 000 000:  IC mode, RST Near Carbon/Oxygen Ratio
 sat201IC-SW.V/V         00 000 000 000:  IC mode, Estimated Water Saturation
~A DEPTH     sat201IC-BHOF sat201IC-BVW sat201IC-CRRA sat201IC-FBEF sat201IC-FCOR sat201IC-GR sat201IC-NCOR sat201IC-SW
# ...
 3539.4898     0.0040     0.0420     2.7380   120.4940     0.0090    21.9630     0.0290     0.1970 
 3539.6422     0.0040     0.0390     2.7610   119.8540     0.0180    22.1760     0.0370     0.1830 
 3539.7946     0.0050     0.0320     2.7450   119.7480     0.0250    21.8620     0.0410     0.1510 
 3539.9470     0.0060     0.0210     2.7330   119.6440     0.0510    21.8550     0.0400     0.0950 
 3540.0994     0.0090     0.0090     2.7500   120.2570     0.0730    21.8110     0.0480     0.0400 
 3540.2518     0.0110     0.0000     2.7610   121.0940     0.0890    21.4850     0.0480     0.0000 
 3540.4042     0.0140     0.0000     2.7980   121.2260     0.1000    20.5290     0.0510     0.0000 
 3540.5566     0.0170     0.0000     2.8170   121.5360     0.1070    20.5070     0.0560     0.0000 
 3540.7090     0.0180     0.0000     2.8210   123.0330     0.1010    20.2340     0.0460     0.0000 
 3540.8614     0.0200     0.0000     2.8580   121.3850     0.0980    20.3100     0.0330     0.0000 
 3541.0138     0.0210     0.0000     2.8030   121.6570     0.0850    20.6140     0.0280     0.0000 
 3541.1662     0.0230     0.0000     2.7920   121.0780     0.0520    21.2130     0.0260     0.0000 
 3541.3186     0.0240     0.0020     2.7790   119.8640     0.0510    21.3220     0.0290     0.0100 
 3541.4710     0.0240     0.0140     2.7680   119.4320     0.0450    21.7310     0.0330     0.0610 
 3541.6234     0.0240     0.0250     2.7560   120.3510     0.0220    21.8640     0.0320     0.1180 
 3541.7758     0.0240     0.0420     2.7720   118.9230     0.0240    21.9170     0.0400     0.2040 
 3541.9282     0.0240     0.0580     2.7340   119.4680     0.0240    21.8870     0.0500     0.2820 
 3542.0806     0.0240     0.0720     2.7510   119.8180     0.0120    21.9090     0.0490     0.3370 
 3542.2330     0.0230     0.0810     2.7590   119.5610     0.0290    21.8760     0.0400     0.3610 
 3542.3854     0.0230     0.0760     2.7650   119.0930     0.0190    22.1150     0.0330     0.3420 
 3542.5378     0.0230     0.0790     2.7470   119.3500     0.0230    22.1320     0.0330     0.3480 
 3542.6902     0.0230     0.0780     2.7630   120.4070     0.0400    22.4410     0.0290     0.3430 
 3542.8426     0.0230     0.0790     2.7510   119.9440     0.0290    22.7440     0.0270     0.3380 
 3542.9950     0.0220     0.0730     2.7510   121.0820     0.0270    22.9840     0.0210     0.3140 
 3543.1474     0.0210     0.0780     2.7660   120.5080     0.0400    22.9630     0.0190     0.3260 
 3543.2998     0.0210     0.0820     2.7650   120.5790     0.0420    23.1110     0.0200     0.3540 
 3543.4522     0.0210     0.0980     2.7670   121.0400     0.0300    23.4380     0.0230     0.4140 
 3543.6046     0.0210     0.1000     2.7690   121.8620     0.0260    23.5810     0.0260     0.4270 
 3543.7570     0.0200     0.1040     2.7880   122.1580     0.0180    23.7360     0.0360     0.4370 
 3543.9094     0.0200     0.1050     2.7940   121.2070     0.0150    24.2070     0.0380     0.4380 
 3544.0618     0.0190     0.1100     2.7700   121.7310     0.0200    24.4480     0.0410     0.4590 
 3544.2142     0.0180     0.1130     2.7700   121.5420     0.0100    24.4800     0.0520     0.4780 
 3544.3666     0.0170     0.1050     2.7830   122.3410     0.0080    24.5530     0.0590     0.4590 
 3544.5190     0.0150     0.0930     2.7790   122.7900     0.0220    24.2440     0.0580     0.4150 
 3544.6714     0.0130     0.0790     2.8050   122.7180     0.0140    23.8290     0.0590     0.3510 
 3544.8238     0.0120     0.0670     2.8120   121.2170     0.0070    23.8400     0.0520     0.2980 
 3544.9762     0.0120     0.0650     2.7800   120.4160     0.0200    23.6390     0.0580     0.2740 
 3545.1286     0.0110     0.0530     2.7630   120.4680     0.0350    23.6410     0.0650     0.2270 
 3545.2810     0.0110     0.0440     2.7490   120.0110     0.0610    23.6760     0.0580     0.1900 
 3545.4334     0.0110     0.0340     2.7460   121.0440     0.0650    23.6510     0.0520     0.1490 
 3545.5858     0.0110     0.0280     2.7690   120.8910     0.0520    23.7660     0.0440     0.1220 
 3545.7382     0.0110     0.0280     2.7580   120.6890     0.0600    24.2740     0.0340     0.1200 
 3545.8906     0.0110     0.0240     2.7930   120.4370     0.0770    24.1420     0.0340     0.1040 
 3546.0430     0.0100     0.0250     2.7540   119.7530     0.0710    24.5770     0.0240     0.1100 
 3546.1954     0.0090     0.0250     2.7570   120.0600     0.0610    24.3080     0.0150     0.1070 
 3546.3478     0.0090     0.0190     2.7660   119.6140     0.0400    24.2390     0.0100     0.0820 
 3546.5002     0.0090     0.0060     2.7470   119.7890     0.0260    23.8560     0.0150     0.0250 
 3546.6526     0.0100     0.0060     2.7590   119.2150     0.0430    24.1020     0.0230     0.0260 
 3546.8050     0.0100     0.0130     2.7510   120.5750     0.0480    23.7980     0.0280     0.0570 
 3546.9574     0.0110     0.0210     2.8480   123.1370     0.0330    24.2000     0.0310     0.0930 
 3547.1098     0.0110     0.0260     2.9550   118.3290     0.0360    23.9440     0.0350     0.1160 
 3547.2622     0.0120     0.0270     2.7650   117.1830     0.0380    23.8810     0.0410     0.1210 
 3547.4146     0.0130     0.0280     2.7040   117.5380     0.0430    23.9060     0.0440     0.1270 
 3547.5670     0.0140     0.0270     2.7210   117.0180     0.0570    24.3850     0.0410     0.1230 
 3547.7194     0.0140     0.0160     2.7180   117.9180     0.0620    24.7780     0.0400     0.0730 
 3547.8718     0.0130     0.0000     2.7260   118.1710     0.0670    25.3700     0.0390     0.0000 
 3548.0242     0.0130     0.0000     2.7190   119.0940     0.0830    26.2750     0.0350     0.0000 
 3548.1766     0.0120     0.0000     2.7330   120.3580     0.0860    27.0940     0.0240     0.0000 
 3548.3290     0.0120     0.0000     2.7730   121.2670     0.0830    27.5400     0.0110     0.0000 
 3548.4814     0.0110     0.0000     2.7840   122.5240     0.0750    28.4790     0.0040     0.0000 
 3548.6338     0.0100     0.0000     2.8200   122.2700     0.0660    29.1920     0.0060     0.0010 
 3548.7862     0.0090     0.0050     2.8210   124.0160     0.0660    29.9530     0.0160     0.0210 
 3548.9386     0.0090     0.0230     2.8490   123.8570     0.0620    30.0090     0.0210     0.0930 
 3549.0910     0.0090     0.0260     2.8530   124.3960     0.0540    30.0750     0.0260     0.1030 
 3549.2434     0.0090     0.0330     2.8360   123.3600     0.0540    29.8330     0.0330     0.1300 
 3549.3958     0.0100     0.0340     2.8270   122.4670     0.0390    30.0390     0.0440     0.1360 
 3549.5482     0.0110     0.0440     2.8220   121.4860     0.0500    29.1930     0.0480     0.1760 
 3549.7006     0.0120     0.0500     2.7860   121.9100     0.0480    28.7250     0.0500     0.2040 
 3549.8530     0.0130     0.0620     2.7900   122.1000     0.0370    28.6190     0.0410     0.2540 
 3550.0054     0.0150     0.0750     2.7910   121.5710     0.0310    28.1600     0.0380     0.3090 
 3550.1578     0.0170     0.0860     2.7850   120.9500     0.0230    27.3460     0.0310     0.3740 
 3550.3102     0.0190     0.0980     2.7660   120.7650     0.0110    27.2780     0.0290     0.4290 
 3550.4626     0.0200     0.1010     2.7700   119.9810     0.0150    27.4090     0.0250     0.4690 
 3550.6150     0.0210     0.1000     2.7510   121.2380    -0.0020    27.2110     0.0250     0.4840 
 3550.7674     0.0220     0.1010     2.7790   122.2440     0.0040    27.2470     0.0210     0.4860 
 3550.9198     0.0230     0.0910     2.7940   122.5170     0.0070    27.4420     0.0180     0.4500 
 3551.0722     0.0230     0.0860     2.8020   122.3920     0.0100    28.0820     0.0170     0.4140 
 3551.2246     0.0220     0.0950     2.8070   123.4680     0.0110    28.2190     0.0310     0.4170 
 3551.3770     0.0220     0.0930     2.8200   123.2130     0.0180    29.2230     0.0370     0.3980 
 3551.5294     0.0210     0.0920     2.8440   123.7170     0.0240    29.5560     0.0360     0.3910 
