~Version Information
 VERS.                  2.0:   CWLS log ASCII Standard -VERSION 2.0
 WRAP.                   NO:   One line per depth step
~Well Information Block
#MNEM.UNIT       Data Type    Information
#---------     -----------    ---------------------------
 STRT.M              2954.2739:
 STOP.M              3647.5415:
 STEP.M                 0.1524:
 NULL.               -999.2500:
 UWI .            NO 15/9-F-14:  UWI
 API .            NO 15/9-F-14:  UWI
 WELL.               15/9-F-14:  COMMON WELL NAME
 COMP.                 STATOIL:  WELL OPERATOR
 FLD .                   VOLVE:  FIELD
 LIC .              NO PL046BS:  AUTHORIZATION NO
 LOC .                 UNKNOWN:  BASIN
 CTRY.                  Norway:  COUNTRY
 STAT.                 UNKNOWN:  STATE
 CNTY.                 UNKNOWN:  COUNTY
 PROV.                 UNKNOWN:  STATE
 SRVC.                 UNKNOWN:  COMPANY
 DATE.                 UNKNOWN:  LOG RUN DATE
 LONG.             1.887521912:  LONGITUDE
 LATI.            58.441602475:  LATITUDE
 XCOORD.           435052.4375:  X COORDINATE
 YCOORD.          6478562.5000:  Y COORDINATE
 ELEV.M                54.9000:  ELEVATION
 TD  .M              3750.0000:  TOTAL DEPTH
~Parameter Information Block
#MNEM.UNIT       Value        Description
#---------     -----------    ---------------------------
~Curve Information Block
#MNEM.UNIT                 API CODE     Curve Description
#---------               -----------    ---------------------------
 DEPTH.M                00 000 000 000:  Index Curve
 sat201IC-BHOF.NONE        00 000 000 000:  IC mode, Estimated Borehole Oil Fraction
 sat201IC-BVW.V/V         00 000 000 000:  IC mode, Estimated Bulk Volume of Water; 'sat201IC-SW'*'PHIF'
 sat201IC-CRRA.NONE        00 000 000 000:  IC mode, RST Near/Far Instantaneous Count Rate Ratio
 sat201IC-FBEF.UA          00 000 000 000:  IC mode, RST Far Effective Beam Current
 sat201IC-FCOR.NONE        00 000 000 000:  IC mode, RST Far Carbon/Oxygen Ratio
 sat201IC-GR.GAPI        00 000 000 000:  IC mode, Gamma Ray
 sat201IC-NCOR.NONE        00 000 000 000:  IC mode, RST Near Carbon/Oxygen Ratio
 sat201IC-SW.V/V         00 000 000 000:  IC mode, Estimated Water Saturation
~A DEPTH     sat201IC-BHOF sat201IC-BVW sat201IC-CRRA sat201IC-FBEF sat201IC-FCOR sat201IC-GR sat201IC-NCOR sat201IC-SW
# ...
 3088.3859     0.0290     0.2790     2.8880   129.7500    -0.0200    37.1700     0.0460     0.8960 
 3088.5383     0.0310     0.2350     2.8930   128.0330    -0.0210    37.2350     0.0460     0.8090 
 3088.6907     0.0320     0.1680     2.8610   123.3230    -0.0090    36.0350     0.0350     0.6870 
 3088.8431     0.0340     0.1010     2.8490   120.0140    -0.0020    35.5370     0.0310     0.5280 
 3088.9955     0.0360     0.0450     2.8080   116.7370     0.0110    34.9220     0.0280     0.3110 
 3089.1479     0.0360     0.0180     2.7290   116.6150    -0.0010    34.2590     0.0150     0.1480 
 3089.3003     0.0360     0.0080     2.7360   117.8750     0.0190    33.5800     0.0130     0.0650 
 3089.4527     0.0350     0.0060     2.7410   119.5110     0.0130    32.8890     0.0170     0.0480 
 3089.6051     0.0360     0.0260     2.7830   119.9690     0.0210    32.8220     0.0190     0.1760 
 3089.7575     0.0380     0.0650     2.7790   119.7170     0.0090    32.5560     0.0270     0.3970 
 3089.9099     0.0410     0.0970     2.7740   121.2590    -0.0010    32.6070     0.0310     0.5500 
 3090.0623     0.0430     0.1190     2.7860   121.9980    -0.0140    32.4810     0.0300     0.6370 
 3090.2147     0.0470     0.1250     2.7890   121.7890     0.0060    32.6460     0.0310     0.6180 
 3090.3671     0.0520     0.1260     2.7710   122.5800    -0.0030    33.2260     0.0240     0.6020 
 3090.5195     0.0550     0.1200     2.7950   123.7420    -0.0150    33.4140     0.0140     0.5940 
 3090.6719     0.0560     0.1140     2.8160   123.0610    -0.0140    33.9070     0.0140     0.5960 
 3090.8243     0.0570     0.1080     2.8190   122.3050    -0.0070    34.8070     0.0100     0.5850 
 3090.9767     0.0580     0.1100     2.8080   122.5740     0.0150    35.5940     0.0130     0.5830 
 3091.1291     0.0570     0.1190     2.8140   122.9350     0.0300    36.2240     0.0130     0.6070 
 3091.2815     0.0550     0.1200     2.8160   123.8910     0.0120    36.6750     0.0170     0.6170 
 3091.4339     0.0530     0.1330     2.8210   123.9630     0.0150    36.9050     0.0190     0.6400 
 3091.5863     0.0510     0.1520     2.8160   124.2500     0.0270    36.5380     0.0180     0.6860 
 3091.7387     0.0490     0.1830     2.8290   125.1010     0.0160    35.8950     0.0120     0.8010 
 3091.8911     0.0460     0.2070     2.8440   124.8710    -0.0020    35.5520     0.0120     0.9260 
 3092.0435     0.0420     0.2230     2.8440   123.1220    -0.0280    34.8150     0.0130     1.0000 
 3092.1959     0.0390     0.2150     2.7980   124.6510    -0.0590    34.3390     0.0160     1.0000 
 3092.3483     0.0380     0.2210     2.8310   123.0890    -0.0370    33.7130     0.0140     1.0000 
 3092.5007     0.0370     0.2150     2.7960   123.4100    -0.0420    33.1570     0.0100     1.0000 
 3092.6531     0.0380     0.2130     2.8160   121.8830    -0.0750    32.0160     0.0190     1.0000 
 3092.8055     0.0390     0.1940     2.7960   123.0020    -0.0930    31.1450     0.0200     1.0000 
 3092.9579     0.0400     0.1790     2.8990   124.8290    -0.0530    29.6860     0.0260     1.0000 
 3093.1103     0.0420     0.1660     3.0040   124.0400    -0.0320    29.1610     0.0200     1.0000 
 3093.2627     0.0450     0.1530     2.9230   122.1840    -0.0210    28.7800     0.0210     1.0000 
 3093.4151     0.0470     0.1520     2.8420   118.5840    -0.0470    28.3170     0.0280     1.0000 
 3093.5675     0.0500     0.1480     2.7520   119.1220    -0.0680    28.4800     0.0400     1.0000 
 3093.7199     0.0520     0.1520     2.7620   119.1100    -0.0520    29.3550     0.0420     1.0000 
 3093.8723     0.0540     0.1500     2.7680   120.2300    -0.0300    29.6630     0.0460     1.0000 
 3094.0247     0.0550     0.1530     2.7840   120.7350    -0.0510    30.5600     0.0410     1.0000 
 3094.1771     0.0570     0.1660     2.7820   120.6720    -0.0570    31.2510     0.0410     0.9870 
 3094.3295     0.0580     0.1620     2.7710   120.2990    -0.0270    31.8090     0.0370     0.9140 
 3094.4819     0.0600     0.1440     2.7790   121.7970    -0.0080    32.4500     0.0260     0.8030 
 3094.6343     0.0610     0.1210     2.7910   123.0680     0.0080    32.9030     0.0200     0.6860 
 3094.7867     0.0630     0.1020     2.8240   123.2000     0.0200    32.5230     0.0280     0.5630 
 3094.9391     0.0650     0.0770     2.8270   122.9800     0.0380    33.0110     0.0290     0.4160 
 3095.0915     0.0680     0.0550     2.8210   123.5840     0.0640    33.3710     0.0220     0.2960 
 3095.2439     0.0700     0.0450     2.8350   123.1110     0.0650    33.1030     0.0210     0.2420 
 3095.3963     0.0730     0.0540     2.8220   123.5570     0.0530    32.6140     0.0210     0.2840 
 3095.5487     0.0760     0.0660     2.8280   123.0700     0.0430    32.7200     0.0220     0.3500 
 3095.7011     0.0800     0.0880     2.8180   122.7420     0.0310    32.6070     0.0230     0.4560 
 3095.8535     0.0840     0.1160     2.8040   124.0370     0.0190    32.5650     0.0130     0.5870 
 3096.0059     0.0880     0.1520     2.8230   122.5550    -0.0090    32.7040     0.0100     0.7380 
 3096.1583     0.0900     0.1760     2.7980   123.7910    -0.0380    33.1650     0.0210     0.8750 
 3096.3107     0.0930     0.1920     2.8220   123.4270    -0.0460    32.6690     0.0230     0.9600 
 3096.4631     0.0940     0.2030     2.8090   123.9640    -0.0600    32.1810     0.0240     1.0000 
 3096.6155     0.0940     0.2030     2.8240   124.4610    -0.0510    32.5810     0.0180     1.0000 
 3096.7679     0.0930     0.2090     2.8360   124.1600    -0.0300    32.9480     0.0270     1.0000 
 3096.9203     0.0920     0.2100     2.8280   124.4610    -0.0220    33.4630     0.0360     1.0000 
 3097.0727     0.0920     0.2100     2.8150   125.6270    -0.0180    33.9380     0.0400     1.0000 
 3097.2251     0.0940     0.2070     2.8520   124.3520    -0.0310    33.7800     0.0340     1.0000 
 3097.3775     0.0950     0.2130     2.8260   123.8520    -0.0260    32.6580     0.0370     1.0000 
 3097.5299     0.0940     0.2090     2.8000   124.5190    -0.0220    31.7290     0.0410     1.0000 
 3097.6823     0.0950     0.2080     2.8250   124.3230    -0.0370    30.2970     0.0460     1.0000 
 3097.8347     0.0960     0.2080     2.8250   124.9980    -0.0460    29.0370     0.0370     1.0000 
 3097.9871     0.0950     0.2160     2.8300   124.6400    -0.0470    27.3540     0.0320     1.0000 
 3098.1395     0.0950     0.2220     2.8280   124.6080    -0.0370    25.7410     0.0330     1.0000 
 3098.2919     0.0950     0.2310     2.8170   123.7390    -0.0290    23.7030     0.0320     1.0000 
 3098.4443     0.0960     0.2350     2.8200   125.2580    -0.0360    21.8670     0.0290     1.0000 
 3098.5967     0.0970     0.2360     2.8840   125.6370    -0.0270    20.0490     0.0310     1.0000 
 3098.7491     0.0990     0.2340     2.8940   125.0960    -0.0070    19.1030     0.0350     1.0000 
 3098.9015     0.1010     0.2310     2.8640   124.2480    -0.0060    18.2620     0.0380     1.0000 
 3099.0539     0.1040     0.2360     2.8290   123.3180    -0.0160    17.8950     0.0360     1.0000 
 3099.2063     0.1070     0.2390     2.8130   123.3570    -0.0340    17.1300     0.0410     1.0000 
 3099.3587     0.1110     0.2440     2.8020   123.2350    -0.0420    17.2840     0.0470     1.0000 
 3099.5111     0.1130     0.2440     2.8070   123.8450    -0.0490    17.0660     0.0510     1.0000 
 3099.6635     0.1160     0.2500     2.8150   123.5670    -0.0490    17.8080     0.0530     1.0000 
 3099.8159     0.1180     0.2450     2.8130   124.0220    -0.0660    18.4500     0.0510     1.0000 
 3099.9683     0.1200     0.2410     2.8160   123.4690    -0.0570    20.0970     0.0500     1.0000 
 3100.1207     0.1190     0.2280     2.8080   124.0690    -0.0460    22.2040     0.0550     1.0000 
 3100.2731     0.1190     0.2270     2.8220   123.9130    -0.0270    23.9910     0.0490     1.0000 
 3100.4255     0.1180     0.2240     2.8200   124.1700    -0.0070    25.3110     0.0480     1.0000 
