~Version Information
 VERS.                  2.0:   CWLS log ASCII Standard -VERSION 2.0
 WRAP.                   NO:   One line per depth step
~Well Information Block
#MNEM.UNIT       Data Type    Information
#---------     -----------    ---------------------------
 STRT.M              2954.2739:
 STOP.M              3647.5415:
 STEP.M                 0.1524:
 NULL.               -999.2500:
 UWI .            NO 15/9-F-14:  UWI
 API .            NO 15/9-F-14:  UWI
 WELL.               15/9-F-14:  COMMON WELL NAME
 COMP.                 STATOIL:  WELL OPERATOR
 FLD .                   VOLVE:  FIELD
 LIC .              NO PL046BS:  AUTHORIZATION NO
 LOC .                 UNKNOWN:  BASIN
 CTRY.                  Norway:  COUNTRY
 STAT.                 UNKNOWN:  STATE
 CNTY.                 UNKNOWN:  COUNTY
 PROV.                 UNKNOWN:  STATE
 SRVC.                 UNKNOWN:  COMPANY
 DATE.                 UNKNOWN:  LOG RUN DATE
 LONG.             1.887521912:  LONGITUDE
 LATI.            58.441602475:  LATITUDE
 XCOORD.           435052.4375:  X COORDINATE
 YCOORD.          6478562.5000:  Y COORDINATE
 ELEV.M                54.9000:  ELEVATION
 TD  .M              3750.0000:  TOTAL DEPTH
~Parameter Information Block
#MNEM.UNIT       Value        Description
#---------     -----------    ---------------------------
~Curve Information Block
#MNEM.UNIT                 API CODE     Curve Description
#---------               -----------    ---------------------------
 DEPTH.M                00 000 000 000:  Index Curve
 sat201IC-BHOF.NONE        00 000 000 000:  IC mode, Estimated Borehole Oil Fraction
 sat201IC-BVW.V/V         00 000 000 000:  IC mode, Estimated Bulk Volume of Water; 'sat201IC-SW'*'PHIF'
 sat201IC-CRRA.NONE        00 000 000 000:  IC mode, RST Near/Far Instantaneous Count Rate Ratio
 sat201IC-FBEF.UA          00 000 000 000:  IC mode, RST Far Effective Beam Current
 sat201IC-FCOR.NONE        00 000 000 000:  IC mode, RST Far Carbon/Oxygen Ratio
 sat201IC-GR.GAPI        00 000 000 000:  IC mode, Gamma Ray
 sat201IC-NCOR.NONE        00 000 000 000:  IC mode, RST Near Carbon/Oxygen Ratio
 sat201IC-SW.V/V         00 000 000 000:  IC mode, Estimated Water Saturation
~A DEPTH     sat201IC-BHOF sat201IC-BVW sat201IC-CRRA sat201IC-FBEF sat201IC-FCOR sat201IC-GR sat201IC-NCOR sat201IC-SW
# ...
 3039.6179     0.0400     0.0000     2.9060   130.1900     0.0170    47.5350     0.0470     0.0000 
 3039.7703     0.0390     0.0000     2.9800   130.2010     0.0080    46.3190     0.0460     0.0000 
 3039.9227     0.0370     0.0000     2.9670   129.9360     0.0180    46.4910     0.0410     0.0000 
 3040.0751     0.0350     0.0000     2.9640   128.7180     0.0330    46.5060     0.0500     0.0000 
 3040.2275     0.0350     0.0000     2.9290   129.1400     0.0420    45.9680     0.0550     0.0000 
 3040.3799     0.0330     0.0000     2.9460   128.3590     0.0380    45.7690     0.0590     0.0000 
 3040.5323     0.0320     0.0000     2.9390   127.7070     0.0390    45.8530     0.0450     0.0000 
 3040.6847     0.0310     0.0000     2.9310   125.9410     0.0360    44.5630     0.0390     0.0000 
 3040.8371     0.0300     0.0000     2.8900   126.2450     0.0170    42.6720     0.0410     0.0000 
 3040.9895     0.0270     0.0000     2.8940   126.3250     0.0160    41.0980     0.0390     0.0000 
 3041.1419     0.0250     0.0000     2.8920   127.1670     0.0040    39.2430     0.0350     0.0000 
 3041.2943     0.0220     0.0000     2.8980   130.5290     0.0150    36.7270     0.0250     0.0000 
 3041.4467     0.0200     0.0000     2.9450   130.3600     0.0040    34.1000     0.0210     0.0000 
 3041.5991     0.0170     0.0000     2.9380   130.8830     0.0360    32.2590     0.0240     0.0000 
 3041.7515     0.0140     0.0000     2.9490   127.5480     0.0400    30.0900     0.0250     0.0000 
 3041.9039     0.0100     0.0010     2.8820   125.7790     0.0670    28.6330     0.0230     0.0060 
 3042.0563     0.0060     0.0060     2.8340   125.5480     0.0720    27.6270     0.0160     0.0250 
 3042.2087     0.0030     0.0000     2.8190   125.8360     0.0670    26.5840     0.0200     0.0000 
 3042.3611     0.0010     0.0000     2.8290   124.5310     0.0840    26.0690     0.0300     0.0000 
 3042.5135    -0.0010     0.0000     2.8010   125.1220     0.1070    25.2660     0.0330     0.0000 
 3042.6659    -0.0030     0.0000     2.8060   124.4570     0.0930    24.7150     0.0360     0.0000 
 3042.8183    -0.0050     0.0000     2.7970   125.9560     0.1060    24.8930     0.0390     0.0000 
 3042.9707    -0.0060     0.0000     2.8180   124.9770     0.1110    25.2100     0.0410     0.0000 
 3043.1231    -0.0060     0.0000     2.8030   124.8660     0.1030    24.7600     0.0520     0.0000 
 3043.2755    -0.0050     0.0000     2.8070   125.1580     0.1020    24.7150     0.0450     0.0000 
 3043.4279    -0.0040     0.0010     2.8030   125.7980     0.0880    24.6800     0.0400     0.0040 
 3043.5803    -0.0040     0.0090     2.8320   125.2190     0.0660    24.0560     0.0490     0.0310 
 3043.7327    -0.0050     0.0240     2.8140   125.1970     0.0550    23.4620     0.0520     0.0880 
 3043.8851    -0.0040     0.0480     2.8170   125.6360     0.0570    23.3110     0.0590     0.1720 
 3044.0375    -0.0030     0.0520     2.8210   124.9350     0.0410    23.3090     0.0730     0.1920 
 3044.1899    -0.0030     0.0560     2.8160   124.8260     0.0680    23.2530     0.0760     0.2080 
 3044.3423    -0.0020     0.0530     2.8120   123.7290     0.0840    23.3840     0.0780     0.1980 
 3044.4947    -0.0010     0.0580     2.7760   123.8380     0.0820    23.4660     0.0640     0.2140 
 3044.6471     0.0010     0.0480     2.7740   125.4450     0.0840    23.4780     0.0410     0.1810 
 3044.7995     0.0020     0.0320     2.8160   125.5470     0.1020    23.5960     0.0250     0.1200 
 3044.9519     0.0020     0.0170     2.8130   126.2730     0.0920    23.4010     0.0280     0.0640 
 3045.1043     0.0010     0.0290     2.8720   128.1890     0.1030    22.4740     0.0080     0.1050 
 3045.2567     0.0000     0.0480     2.9720   131.5440     0.0610    22.2290     0.0040     0.1730 
 3045.4091    -0.0010     0.0490     3.0700   130.1360     0.0240    22.6670     0.0090     0.1830 
 3045.5615     0.0000     0.0550     2.9760   125.3590     0.0160    23.0810     0.0140     0.1990 
 3045.7139     0.0000     0.0560     2.8290   122.8850     0.0310    23.6230     0.0220     0.2070 
 3045.8663     0.0020     0.0710     2.8250   121.2330     0.0130    24.0460     0.0270     0.2580 
 3046.0187     0.0050     0.0720     2.7820   119.7270     0.0250    23.2230     0.0190     0.2740 
 3046.1711     0.0070     0.0530     2.7490   118.6270     0.0210    21.7020     0.0210     0.2120 
 3046.3235     0.0100     0.0280     2.7360   119.5930     0.0410    19.6100     0.0230     0.1260 
 3046.4759     0.0130     0.0080     2.7440   119.3510     0.0540    17.3480     0.0180     0.0420 
 3046.6283     0.0160     0.0210     2.7420   120.3850     0.0600    16.4010     0.0210     0.1130 
 3046.7807     0.0180     0.0250     2.7740   120.1390     0.0540    15.6370     0.0270     0.1440 
 3046.9331     0.0200     0.0300     2.7710   120.2370     0.0420    14.8800     0.0410     0.1670 
 3047.0855     0.0220     0.0250     2.7770   121.0230     0.0250    14.3290     0.0580     0.1400 
 3047.2379     0.0250     0.0200     2.7770   120.5440     0.0170    14.2540     0.0560     0.1130 
 3047.3903     0.0270     0.0090     2.7590   120.8680     0.0130    13.7580     0.0430     0.0490 
 3047.5427     0.0280     0.0000     2.7590   120.8080     0.0160    13.7560     0.0390     0.0000 
 3047.6951     0.0270     0.0000     2.7600   120.1250     0.0250    13.4730     0.0530     0.0000 
 3047.8475     0.0260     0.0000     2.7490   119.6350     0.0290    13.3330     0.0540     0.0000 
 3047.9999     0.0230     0.0000     2.7410   119.5740     0.0760    13.2010     0.0570     0.0000 
 3048.1523     0.0200     0.0000     2.7320   119.4360     0.0900    12.9400     0.0460     0.0000 
 3048.3047     0.0170     0.0000     2.7280   119.1670     0.1070    12.3700     0.0530     0.0000 
 3048.4571     0.0150     0.0000     2.7260   118.5760     0.1070    12.6520     0.0750     0.0020 
 3048.6095     0.0150     0.0060     2.7110   119.0440     0.0990    13.1100     0.0710     0.0240 
 3048.7619     0.0160     0.0220     2.7180   119.3220     0.0710    13.1280     0.0480     0.0940 
 3048.9143     0.0160     0.0340     2.7230   119.4020     0.0760    13.2880     0.0350     0.1460 
 3049.0667     0.0170     0.0450     2.7130   120.4400     0.0450    13.9430     0.0140     0.1910 
 3049.2191     0.0180     0.0560     2.7280   120.6180     0.0340    13.7260     0.0150     0.2340 
 3049.3715     0.0170     0.0640     2.7480   119.6790     0.0090    13.2300     0.0170     0.2690 
 3049.5239     0.0160     0.0700     2.7260   119.3920     0.0100    12.7350     0.0140     0.2940 
 3049.6763     0.0150     0.0730     2.7250   119.9520     0.0080    12.6790     0.0290     0.2990 
 3049.8287     0.0140     0.0730     2.7250   119.3060     0.0310    12.4550     0.0460     0.3010 
 3049.9811     0.0150     0.0680     2.7100   120.2770     0.0340    12.7290     0.0560     0.2850 
 3050.1335     0.0160     0.0700     2.7350   120.2000     0.0360    13.1300     0.0600     0.2910 
 3050.2859     0.0180     0.0770     2.7290   119.5500     0.0440    13.9900     0.0620     0.3180 
 3050.4383     0.0210     0.0930     2.7130   121.1010     0.0500    14.1270     0.0640     0.3870 
 3050.5907     0.0220     0.1150     2.7430   121.9100     0.0410    14.7370     0.0520     0.4800 
 3050.7431     0.0220     0.1380     2.7580   123.2850     0.0270    14.8770     0.0500     0.5610 
 3050.8955     0.0200     0.1500     2.7730   123.1730     0.0070    15.0280     0.0480     0.5950 
 3051.0479     0.0170     0.1640     2.7740   123.6680    -0.0110    14.6370     0.0410     0.6410 
 3051.2003     0.0140     0.1800     2.8070   124.4470    -0.0260    14.8100     0.0320     0.7110 
 3051.3527     0.0120     0.2010     2.8270   125.1670    -0.0300    14.7300     0.0230     0.7810 
 3051.5051     0.0100     0.2120     2.8240   125.3490    -0.0220    15.0990     0.0120     0.8080 
 3051.6575     0.0090     0.2080     2.7470   125.9410    -0.0280    15.5880     0.0090     0.7940 
