~Version Information
 VERS.                  2.0:   CWLS log ASCII Standard -VERSION 2.0
 WRAP.                   NO:   One line per depth step
~Well Information Block
#MNEM.UNIT       Data Type    Information
#---------     -----------    ---------------------------
 STRT.M              2954.2739:
 STOP.M              3647.5415:
 STEP.M                 0.1524:
 NULL.               -999.2500:
 UWI .            NO 15/9-F-14:  UWI
 API .            NO 15/9-F-14:  UWI
 WELL.               15/9-F-14:  COMMON WELL NAME
 COMP.                 STATOIL:  WELL OPERATOR
 FLD .                   VOLVE:  FIELD
 LIC .              NO PL046BS:  AUTHORIZATION NO
 LOC .                 UNKNOWN:  BASIN
 CTRY.                  Norway:  COUNTRY
 STAT.                 UNKNOWN:  STATE
 CNTY.                 UNKNOWN:  COUNTY
 PROV.                 UNKNOWN:  STATE
 SRVC.                 UNKNOWN:  COMPANY
 DATE.                 UNKNOWN:  LOG RUN DATE
 LONG.             1.887521912:  LONGITUDE
 LATI.            58.441602475:  LATITUDE
 XCOORD.           435052.4375:  X COORDINATE
 YCOORD.          6478562.5000:  Y COORDINATE
 ELEV.M                54.9000:  ELEVATION
 TD  .M              3750.0000:  TOTAL DEPTH
~Parameter Information Block
#MNEM.UNIT       Value        Description
#---------     -----------    ---------------------------
~Curve Information Block
#MNEM.UNIT                 API CODE     Curve Description
#---------               -----------    ---------------------------
 DEPTH.M                00 000 000 000:  Index Curve
 sat201IC-BHOF.NONE        00 000 000 000:  IC mode, Estimated Borehole Oil Fraction
 sat201IC-BVW.V/V         00 000 000 000:  IC mode, Estimated Bulk Volume of Water; 'sat201IC-SW'*'PHIF'
 sat201IC-CRRA.NONE        00 000 000 000:  IC mode, RST Near/Far Instantaneous Count Rate Ratio
 sat201IC-FBEF.UA          00 000 000 000:  IC mode, RST Far Effective Beam Current
 sat201IC-FCOR.NONE        00 000 000 000:  IC mode, RST Far Carbon/Oxygen Ratio
 sat201IC-GR.GAPI        00 000 000 000:  IC mode, Gamma Ray
 sat201IC-NCOR.NONE        00 000 000 000:  IC mode, RST Near Carbon/Oxygen Ratio
 sat201IC-SW.V/V         00 000 000 000:  IC mode, Estimated Water Saturation
~A DEPTH     sat201IC-BHOF sat201IC-BVW sat201IC-CRRA sat201IC-FBEF sat201IC-FCOR sat201IC-GR sat201IC-NCOR sat201IC-SW
# ...
 3356.6099     0.0330     0.1330     2.8190   122.7760    -0.0070    36.6860    -0.0020     0.6700 
 3356.7623     0.0340     0.1430     2.8170   123.0820    -0.0110    37.9300    -0.0050     0.7050 
 3356.9147     0.0360     0.1580     2.8300   122.0830    -0.0260    39.1200    -0.0020     0.7520 
 3357.0671     0.0380     0.1800     2.7950   121.5540    -0.0260    39.7510     0.0020     0.8290 
 3357.2195     0.0390     0.1970     2.7860   122.8190    -0.0330    39.0970     0.0010     0.9040 
 3357.3719     0.0400     0.1980     2.8030   122.0640    -0.0250    38.5820     0.0010     0.9240 
 3357.5243     0.0400     0.1900     2.7970   122.5840    -0.0240    37.4940     0.0070     0.8830 
 3357.6767     0.0400     0.1730     2.8070   123.5050    -0.0150    37.1610     0.0100     0.8200 
 3357.8291     0.0380     0.1700     2.8270   123.4130    -0.0110    37.6600     0.0110     0.8000 
 3357.9815     0.0370     0.1650     2.8210   123.3230    -0.0010    36.9660     0.0250     0.7810 
 3358.1339     0.0350     0.1620     2.8160   123.3840     0.0010    36.9330     0.0280     0.7580 
 3358.2863     0.0350     0.1460     2.8070   123.3200     0.0020    36.7880     0.0330     0.7050 
 3358.4387     0.0350     0.1400     2.8260   124.2410    -0.0020    36.9240     0.0320     0.6780 
 3358.5911     0.0350     0.1330     2.8500   123.6290     0.0110    36.4920     0.0260     0.6530 
 3358.7435     0.0360     0.1230     2.8200   124.0560     0.0130    36.7930     0.0300     0.5970 
 3358.8959     0.0380     0.0980     2.8420   123.7840     0.0230    37.0590     0.0370     0.4930 
 3359.0483     0.0410     0.0770     2.8260   124.9740     0.0070    37.3400     0.0390     0.3930 
 3359.2007     0.0420     0.0650     2.8480   123.6160     0.0020    37.2960     0.0410     0.3330 
 3359.3531     0.0430     0.0610     2.8410   123.2710     0.0000    37.9210     0.0440     0.3050 
 3359.5055     0.0430     0.0580     2.8270   123.1350     0.0080    37.8980     0.0570     0.2920 
 3359.6579     0.0430     0.0660     2.8220   123.3450     0.0200    37.8870     0.0660     0.3320 
 3359.8103     0.0430     0.1010     2.8160   123.5920     0.0080    37.8950     0.0630     0.4870 
 3359.9627     0.0440     0.1250     2.8280   123.8900     0.0030    37.3970     0.0570     0.6200 
 3360.1151     0.0450     0.1440     2.8280   123.9230     0.0170    36.8470     0.0480     0.7310 
 3360.2675     0.0470     0.1510     2.8350   124.6150     0.0260    36.7500     0.0420     0.7680 
 3360.4199     0.0480     0.1630     2.8500   124.7790     0.0150    36.8310     0.0390     0.8260 
 3360.5723     0.0510     0.1740     2.8510   125.5260    -0.0050    36.3580     0.0260     0.8930 
 3360.7247     0.0530     0.1800     2.8730   124.6780    -0.0350    36.6700     0.0140     0.9460 
 3360.8771     0.0540     0.1830     2.8630   123.7340    -0.0470    36.5680     0.0100     0.9600 
 3361.0295     0.0550     0.1830     2.8440   124.0200    -0.0470    36.7650     0.0140     0.9720 
 3361.1819     0.0560     0.1880     2.8460   123.3410    -0.0460    37.4280     0.0150     0.9920 
 3361.3343     0.0580     0.1930     2.8210   123.1530    -0.0570    37.9990     0.0120     1.0000 
 3361.4867     0.0590     0.1960     2.8300   122.5930    -0.0460    37.1890     0.0070     0.9940 
 3361.6391     0.0620     0.1970     2.8120   124.9720    -0.0210    36.5510     0.0100     0.9570 
 3361.7915     0.0660     0.1880     2.8860   127.1760     0.0000    35.1880     0.0180     0.8870 
 3361.9439     0.0680     0.1700     2.9490   126.9100     0.0120    33.8770     0.0290     0.8190 
 3362.0963     0.0710     0.1570     2.9310   125.8350    -0.0030    33.4310     0.0340     0.7670 
 3362.2487     0.0720     0.1540     2.8930   124.7010    -0.0140    33.6080     0.0330     0.7500 
 3362.4011     0.0740     0.1530     2.8520   124.4470    -0.0050    33.7050     0.0280     0.7720 
 3362.5535     0.0770     0.1650     2.8560   124.1180    -0.0010    33.8940     0.0300     0.8390 
 3362.7059     0.0780     0.1830     2.8520   125.6320    -0.0220    33.3690     0.0380     0.9330 
 3362.8583     0.0790     0.1940     2.8680   124.1090    -0.0340    32.8730     0.0390     1.0000 
 3363.0107     0.0800     0.1930     2.8440   124.0480    -0.0270    33.4310     0.0270     1.0000 
 3363.1631     0.0800     0.1950     2.8360   123.4010    -0.0180    33.7710     0.0190     0.9860 
 3363.3155     0.0800     0.1800     2.8220   124.6270     0.0030    34.5270     0.0210     0.9160 
 3363.4679     0.0790     0.1640     2.8550   124.0780    -0.0030    34.7710     0.0310     0.8360 
 3363.6203     0.0760     0.1550     2.8350   123.9280    -0.0100    34.4380     0.0290     0.7630 
 3363.7727     0.0740     0.1470     2.8430   123.7190     0.0010    33.4430     0.0280     0.6860 
 3363.9251     0.0710     0.1410     2.8200   123.4540    -0.0080    32.6320     0.0220     0.6400 
 3364.0775     0.0700     0.1450     2.8080   123.8820    -0.0200    32.2570     0.0260     0.6370 
 3364.2299     0.0680     0.1590     2.8350   124.0890    -0.0120    31.8670     0.0270     0.6950 
 3364.3823     0.0680     0.1740     2.8440   123.4500    -0.0190    31.5120     0.0250     0.7540 
 3364.5347     0.0670     0.1850     2.8060   123.0760     0.0000    31.1890     0.0280     0.8000 
 3364.6871     0.0680     0.1950     2.8230   123.8640     0.0000    30.6610     0.0360     0.8300 
 3364.8395     0.0690     0.1980     2.8180   123.1680     0.0080    29.3120     0.0340     0.8610 
 3364.9919     0.0700     0.2030     2.8160   123.1470     0.0090    28.5430     0.0330     0.8800 
 3365.1443     0.0710     0.2040     2.7990   122.9170     0.0110    27.7920     0.0380     0.8780 
 3365.2967     0.0720     0.2080     2.8250   123.8130    -0.0040    27.1260     0.0420     0.8620 
 3365.4491     0.0730     0.2000     2.8190   123.5060    -0.0280    26.9810     0.0490     0.8620 
 3365.6015     0.0750     0.2060     2.8070   123.3120    -0.0450    27.4200     0.0520     0.8790 
 3365.7539     0.0770     0.2100     2.8140   122.8430    -0.0360    27.2490     0.0510     0.9000 
 3365.9063     0.0780     0.2150     2.8070   123.1140    -0.0340    27.4540     0.0510     0.9190 
 3366.0587     0.0790     0.2170     2.8030   122.7400    -0.0150    28.0990     0.0540     0.9540 
 3366.2111     0.0780     0.2230     2.8020   122.3350    -0.0200    28.7990     0.0520     0.9870 
 3366.3635     0.0780     0.2230     2.7930   122.0070    -0.0200    28.7260     0.0570     0.9910 
 3366.5159     0.0770     0.2140     2.7740   122.4320     0.0000    29.5350     0.0480     0.9430 
 3366.6683     0.0760     0.2030     2.7870   121.9260    -0.0010    29.5450     0.0440     0.8760 
 3366.8207     0.0740     0.1850     2.7920   122.5370    -0.0080    29.0840     0.0380     0.8100 
 3366.9731     0.0730     0.1800     2.7970   122.9600    -0.0130    28.0630     0.0370     0.7810 
 3367.1255     0.0730     0.1780     2.8040   123.3370    -0.0310    27.5550     0.0270     0.7620 
 3367.2779     0.0740     0.1770     2.8110   123.7210    -0.0160    27.0690     0.0240     0.7640 
 3367.4303     0.0750     0.1810     2.8090   123.2970     0.0000    26.8800     0.0190     0.7890 
 3367.5827     0.0750     0.1940     2.8160   122.9720     0.0000    27.4950     0.0150     0.8310 
 3367.7351     0.0760     0.1960     2.8010   122.7650     0.0020    27.8820     0.0140     0.8600 
 3367.8875     0.0760     0.2000     2.7890   123.1630     0.0020    28.5390     0.0150     0.8550 
 3368.0399     0.0770     0.1970     2.8020   124.7190     0.0060    27.7640     0.0110     0.8290 
 3368.1923     0.0780     0.1940     2.8670   126.1340     0.0080    27.3460     0.0240     0.8010 
 3368.3447     0.0790     0.1820     2.9680   129.3810    -0.0060    26.6370     0.0240     0.7670 
 3368.4971     0.0800     0.1790     3.0550   126.3950    -0.0190    27.3550     0.0290     0.7580 
 3368.6495     0.0800     0.1810     2.9340   124.2520    -0.0180    27.6590     0.0400     0.7690 
