~Version Information
 VERS.                  2.0:   CWLS log ASCII Standard -VERSION 2.0
 WRAP.                   NO:   One line per depth step
~Well Information Block
#MNEM.UNIT       Data Type    Information
#---------     -----------    ---------------------------
 STRT.M              2954.2739:
 STOP.M              3647.5415:
 STEP.M                 0.1524:
 NULL.               -999.2500:
 UWI .            NO 15/9-F-14:  UWI
 API .            NO 15/9-F-14:  UWI
 WELL.               15/9-F-14:  COMMON WELL NAME
 COMP.                 STATOIL:  WELL OPERATOR
 FLD .                   VOLVE:  FIELD
 LIC .              NO PL046BS:  AUTHORIZATION NO
 LOC .                 UNKNOWN:  BASIN
 CTRY.                  Norway:  COUNTRY
 STAT.                 UNKNOWN:  STATE
 CNTY.                 UNKNOWN:  COUNTY
 PROV.                 UNKNOWN:  STATE
 SRVC.                 UNKNOWN:  COMPANY
 DATE.                 UNKNOWN:  LOG RUN DATE
 LONG.             1.887521912:  LONGITUDE
 LATI.            58.441602475:  LATITUDE
 XCOORD.           435052.4375:  X COORDINATE
 YCOORD.          6478562.5000:  Y COORDINATE
 ELEV.M                54.9000:  ELEVATION
 TD  .M              3750.0000:  TOTAL DEPTH
~Parameter Information Block
#MNEM.UNIT       Value        Description
#---------     -----------    ---------------------------
~Curve Information Block
#MNEM.UNIT                 API CODE     Curve Description
#---------               -----------    ---------------------------
 DEPTH.M                00 000 000 000:  Index Curve
 sat201IC-BHOF.NONE        00 000 000 000:  IC mode, Estimated Borehole Oil Fraction
 sat201IC-BVW.V/V         00 000 000 000:  IC mode, Estimated Bulk Volume of Water; 'sat201IC-SW'*'PHIF'
 sat201IC-CRRA.NONE        00 000 000 000:  IC mode, RST Near/Far Instantaneous Count Rate Ratio
 sat201IC-FBEF.UA          00 000 000 000:  IC mode, RST Far Effective Beam Current
 sat201IC-FCOR.NONE        00 000 000 000:  IC mode, RST Far Carbon/Oxygen Ratio
 sat201IC-GR.GAPI        00 000 000 000:  IC mode, Gamma Ray
 sat201IC-NCOR.NONE        00 000 000 000:  IC mode, RST Near Carbon/Oxygen Ratio
 sat201IC-SW.V/V         00 000 000 000:  IC mode, Estimated Water Saturation
~A DEPTH     sat201IC-BHOF sat201IC-BVW sat201IC-CRRA sat201IC-FBEF sat201IC-FCOR sat201IC-GR sat201IC-NCOR sat201IC-SW
# ...
 3490.7218     0.0140     0.1980     2.8270   125.4570    -0.0330    12.6830     0.0050     1.0000 
 3490.8742     0.0130     0.2010     2.8530   124.3260    -0.0290    12.6410    -0.0040     0.9900 
 3491.0266     0.0080     0.1860     2.8170   124.1340    -0.0300    12.7800    -0.0150     0.9330 
 3491.1791     0.0040     0.1690     2.8330   123.9930    -0.0230    12.5210    -0.0140     0.8500 
 3491.3315     0.0000     0.1530     2.8230   123.9040    -0.0160    12.7180    -0.0090     0.7630 
 3491.4839    -0.0060     0.1470     2.8140   124.0880    -0.0200    12.5970    -0.0110     0.7170 
 3491.6363    -0.0100     0.1330     2.8280   124.1350    -0.0170    12.6390    -0.0020     0.6620 
 3491.7886    -0.0060     0.1380     2.8260   124.2770    -0.0120    12.8810    -0.0090     0.6730 
 3491.9410    -0.0080     0.1470     2.8190   124.0960    -0.0030    12.8970    -0.0080     0.7260 
 3492.0934    -0.0050     0.1730     2.8120   124.1680    -0.0040    12.7780    -0.0050     0.8480 
 3492.2458    -0.0060     0.1910     2.8110   123.7340    -0.0210    13.1510    -0.0140     0.9520 
 3492.3983    -0.0080     0.2030     2.8040   123.5350    -0.0380    13.1240    -0.0130     1.0000 
 3492.5507    -0.0100     0.2050     2.8170   123.2340    -0.0320    12.5740    -0.0100     1.0000 
 3492.7031    -0.0120     0.2000     2.8080   123.7650    -0.0340    12.6700    -0.0170     1.0000 
 3492.8555    -0.0140     0.2060     2.8060   123.5050    -0.0450    12.6260    -0.0140     1.0000 
 3493.0078    -0.0170     0.2090     2.8150   123.6510    -0.0630    12.5560    -0.0090     1.0000 
 3493.1602    -0.0210     0.2070     2.8080   124.2130    -0.0720    12.3910    -0.0160     1.0000 
 3493.3126    -0.0230     0.2010     2.8280   124.7410    -0.0490    12.2570    -0.0120     0.9920 
 3493.4650    -0.0240     0.1900     2.8740   126.2450    -0.0290    11.9290    -0.0170     0.9570 
 3493.6175    -0.0250     0.1840     2.9060   125.3120    -0.0370    11.9020    -0.0270     0.9420 
 3493.7699    -0.0250     0.1850     2.9000   122.6860    -0.0360    11.7640    -0.0230     0.9060 
 3493.9223    -0.0260     0.1820     2.8190   122.4550    -0.0310    11.7820    -0.0210     0.8520 
 3494.0747    -0.0260     0.1750     2.8020   121.9930    -0.0220    12.0940    -0.0300     0.8100 
 3494.2270    -0.0250     0.1780     2.7890   123.7250    -0.0180    12.5350    -0.0270     0.8160 
 3494.3794    -0.0240     0.1840     2.8280   123.7780    -0.0190    12.3570    -0.0270     0.8330 
 3494.5318    -0.0230     0.1810     2.8300   123.9680    -0.0210    12.3740    -0.0260     0.8180 
 3494.6842    -0.0210     0.1740     2.8170   123.7710    -0.0100    12.5400    -0.0260     0.7790 
 3494.8367    -0.0200     0.1600     2.8250   123.8580    -0.0040    12.6870    -0.0180     0.7400 
 3494.9891    -0.0180     0.1610     2.8190   124.0380    -0.0050    12.3680    -0.0150     0.7500 
 3495.1415    -0.0150     0.1710     2.8260   124.4870    -0.0150    12.5300     0.0000     0.7930 
 3495.2939    -0.0110     0.1820     2.8320   124.3280    -0.0100    12.2780     0.0100     0.8510 
 3495.4462    -0.0080     0.1910     2.8440   123.6100    -0.0190    12.3550     0.0120     0.8960 
 3495.5986    -0.0040     0.1990     2.8180   123.5500    -0.0360    12.3720     0.0120     0.9430 
 3495.7510     0.0000     0.2130     2.8130   124.2200    -0.0480    12.8200     0.0150     0.9900 
 3495.9034     0.0040     0.2080     2.8250   123.5570    -0.0510    12.6720     0.0120     1.0000 
 3496.0559     0.0080     0.2110     2.8110   124.5140    -0.0510    12.7680     0.0070     1.0000 
 3496.2083     0.0120     0.2080     2.8400   124.0060    -0.0460    12.9750     0.0010     1.0000 
 3496.3607     0.0130     0.2130     2.8260   123.3080    -0.0520    12.9150    -0.0010     1.0000 
 3496.5131     0.0140     0.2180     2.8090   123.3390    -0.0500    12.4260    -0.0050     0.9870 
 3496.6654     0.0140     0.2020     2.8200   123.8040    -0.0350    12.4700     0.0020     0.9280 
 3496.8178     0.0130     0.1910     2.8240   123.6680    -0.0140    12.9150     0.0060     0.8800 
 3496.9702     0.0150     0.1730     2.8130   124.3150    -0.0060    12.6480     0.0050     0.8050 
 3497.1226     0.0220     0.1610     2.8370   124.5180    -0.0020    12.5450     0.0150     0.7390 
 3497.2751     0.0140     0.1500     2.8270   124.7610     0.0020    12.9140     0.0210     0.6920 
 3497.4275     0.0170     0.1490     2.8460   123.7370     0.0010    13.1120     0.0210     0.6860 
 3497.5799     0.0200     0.1510     2.8270   123.3670     0.0000    12.8390     0.0300     0.7010 
 3497.7323     0.0230     0.1600     2.8070   123.0340     0.0040    12.8740     0.0300     0.7380 
 3497.8846     0.0260     0.1720     2.8030   124.0790    -0.0060    12.7950     0.0270     0.7800 
 3498.0370     0.0300     0.1750     2.8280   123.1430    -0.0070    13.3190     0.0340     0.8220 
 3498.1894     0.0330     0.1870     2.8140   122.9160    -0.0170    13.5600     0.0330     0.8640 
 3498.3418     0.0350     0.1890     2.7960   122.2610    -0.0270    13.9080     0.0290     0.8910 
 3498.4943     0.0370     0.2040     2.7860   122.0930    -0.0220    13.9670     0.0320     0.9430 
 3498.6467     0.0390     0.2150     2.7820   123.5230    -0.0190    14.0970     0.0220     1.0000 
 3498.7991     0.0410     0.2130     2.8310   123.5420    -0.0220    13.6070     0.0190     1.0000 
 3498.9515     0.0420     0.2170     2.8100   122.2050    -0.0390    13.3320     0.0320     1.0000 
 3499.1038     0.0420     0.2080     2.8080   122.6350    -0.0490    12.8210     0.0300     1.0000 
 3499.2562     0.0400     0.2060     2.8050   122.2830    -0.0560    12.9520     0.0220     1.0000 
 3499.4086     0.0380     0.2050     2.7900   121.5930    -0.0640    13.1840     0.0270     1.0000 
 3499.5610     0.0370     0.2030     2.7900   122.2610    -0.0830    13.3570     0.0250     1.0000 
 3499.7135     0.0350     0.2030     2.8120   122.1450    -0.0850    13.1930     0.0260     1.0000 
 3499.8659     0.0340     0.2030     2.8590   126.4520    -0.0980    13.0980     0.0230     1.0000 
 3500.0183     0.0320     0.2030     3.0110   124.8750    -0.0690    12.9600     0.0080     1.0000 
 3500.1707     0.0310     0.2200     2.8860   121.3240    -0.0570    12.8560    -0.0080     1.0000 
 3500.3230     0.0310     0.2190     2.7800   119.9890    -0.0420    12.6660    -0.0030     1.0000 
 3500.4754     0.0310     0.2160     2.7570   121.6370    -0.0290    12.6200    -0.0090     1.0000 
 3500.6278     0.0300     0.2120     2.7770   121.7520    -0.0300    12.9650    -0.0210     1.0000 
 3500.7802     0.0290     0.2130     2.7870   120.0620    -0.0370    12.7210    -0.0150     1.0000 
 3500.9327     0.0300     0.2150     2.7690   121.6560    -0.0450    12.6870    -0.0040     1.0000 
 3501.0851     0.0310     0.2140     2.7820   121.8590    -0.0740    12.8160    -0.0040     1.0000 
 3501.2375     0.0330     0.2140     2.7890   122.2130    -0.0790    12.7580     0.0050     1.0000 
 3501.3899     0.0340     0.2110     2.7890   121.7180    -0.0770    12.4050     0.0060     1.0000 
 3501.5422     0.0360     0.2010     2.7780   120.8030    -0.0630    12.5280     0.0080     1.0000 
 3501.6946     0.0380     0.1980     2.7620   121.7880    -0.0400    12.4160     0.0220     1.0000 
 3501.8470     0.0400     0.2070     2.7730   121.7800    -0.0290    12.0480     0.0240     0.9960 
 3501.9994     0.0410     0.2030     2.7880   121.8210    -0.0090    11.9880     0.0210     0.9540 
 3502.1518     0.0400     0.1830     2.7960   121.9240     0.0210    12.0830     0.0240     0.8360 
 3502.3042     0.0400     0.1600     2.7850   122.1110     0.0170    12.3830     0.0150     0.7490 
 3502.4566     0.0400     0.1550     2.7940   122.6460     0.0030    12.3580     0.0060     0.7280 
 3502.6090     0.0390     0.1490     2.8090   123.0510    -0.0030    12.5550     0.0070     0.7100 
 3502.7614     0.0380     0.1500     2.8040   122.9170    -0.0060    12.8830     0.0070     0.6970 
