~Version Information
 VERS.                  2.0:   CWLS log ASCII Standard -VERSION 2.0
 WRAP.                   NO:   One line per depth step
~Well Information Block
#MNEM.UNIT       Data Type    Information
#---------     -----------    ---------------------------
 STRT.M              2880.6599:
 STOP.M              3414.2598:
 STEP.M                 0.1524:
 NULL.               -999.2500:
 UWI .            NO 15/9-F-14:  UWI
 API .            NO 15/9-F-14:  UWI
 WELL.               15/9-F-14:  COMMON WELL NAME
 COMP.                 STATOIL:  WELL OPERATOR
 FLD .                   VOLVE:  FIELD
 LIC .              NO PL046BS:  AUTHORIZATION NO
 LOC .                 UNKNOWN:  BASIN
 CTRY.                  Norway:  COUNTRY
 STAT.                 UNKNOWN:  STATE
 CNTY.                 UNKNOWN:  COUNTY
 PROV.                 UNKNOWN:  STATE
 SRVC.                 UNKNOWN:  COMPANY
 DATE.                 UNKNOWN:  LOG RUN DATE
 LONG.             1.887521912:  LONGITUDE
 LATI.            58.441602475:  LATITUDE
 XCOORD.           435052.4375:  X COORDINATE
 YCOORD.          6478562.5000:  Y COORDINATE
 ELEV.M                54.9000:  ELEVATION
 TD  .M              3750.0000:  TOTAL DEPTH
~Parameter Information Block
#MNEM.UNIT       Value        Description
#---------     -----------    ---------------------------
~Curve Information Block
#MNEM.UNIT                 API CODE     Curve Description
#---------               -----------    ---------------------------
 DEPTH.M                00 000 000 000:  Index Curve
 plt302S-QGAS.            00 000 000 000:  gas rate
 plt302S-QOIL.            00 000 000 000:  oil rate
 plt302S-QTOT.            00 000 000 000:  
 plt302S-QWAT.            00 000 000 000:  
 plt302S-WPRE.BAR         00 000 000 000:  
 plt302S-WTEP.DEGC        00 000 000 000:  
 plt302S-YG.NONE        00 000 000 000:  
 plt302S-YO.NONE        00 000 000 000:  
~A DEPTH     plt302S-QGAS plt302S-QOIL plt302S-QTOT plt302S-QWAT plt302S-WPRE plt302S-WTEP plt302S-YG plt302S-YO
# ...
 3234.1583     0.0000     0.0000    11.1563    11.1563   331.4289   106.9268     0.0000     0.0000 
 3234.3107     0.0000     0.0000    10.7175    10.7175   331.4338   106.9267     0.0000     0.0000 
 3234.4630     0.0000     0.0000    10.2787    10.2787   331.4384   106.9272     0.0000     0.0000 
 3234.6154     0.0000     0.0000     9.8398     9.8398   331.4428   106.9275     0.0000     0.0000 
 3234.7678     0.0000     2.4201    11.0048     8.5847   331.4454   106.9265     0.0000     0.0067 
 3234.9202     0.0000     5.5207    12.6207     7.1000   331.4467   106.9253     0.0000     0.0152 
 3235.0725     0.0000     8.6212    14.2366     5.6154   331.4480   106.9249     0.0000     0.0237 
 3235.2249     0.0000    11.7218    15.8525     4.1307   331.4491   106.9251     0.0000     0.0322 
 3235.3773     0.0000    14.8223    17.4684     2.6460   331.4495   106.9251     0.0000     0.0408 
 3235.5296     0.0000    17.9229    19.0843     1.1614   331.4493   106.9246     0.0000     0.0493 
 3235.6820     0.0000    19.8267    19.8268     0.0001   331.4505   106.9241     0.0000     0.0545 
 3235.8344     0.0000    17.4321    17.4322     0.0000   331.4534   106.9237     0.0000     0.0479 
 3235.9868     0.0000    15.0376    15.0376     0.0000   331.4563   106.9239     0.0000     0.0414 
 3236.1391     0.0000    12.6430    12.6430     0.0000   331.4589   106.9244     0.0000     0.0348 
 3236.2915     0.0000    10.2484    10.2484     0.0000   331.4614   106.9245     0.0000     0.0282 
 3236.4439     0.0000     7.8538     7.8539     0.0000   331.4632   106.9239     0.0000     0.0216 
 3236.5962     0.0000     5.4593     5.4593     0.0000   331.4653   106.9231     0.0000     0.0150 
 3236.7486     0.0000     4.1707     6.3069     2.1362   331.4687   106.9233     0.0000     0.0115 
 3236.9010     0.0000     3.4648     8.8622     5.3975   331.4732   106.9235     0.0000     0.0095 
 3237.0533     0.0000     2.7588    11.4175     8.6587   331.4772   106.9231     0.0000     0.0076 
 3237.2057     0.0000     2.0528    13.9728    11.9200   331.4804   106.9225     0.0000     0.0057 
 3237.3581     0.0000     1.3468    16.5281    15.1813   331.4832   106.9216     0.0000     0.0037 
 3237.5105     0.0000     0.6409    19.0834    18.4426   331.4855   106.9210     0.0000     0.0018 
 3237.6628     0.0000     0.0038    21.3076    21.3038   331.4873   106.9211     0.0000     0.0000 
 3237.8152     0.0000     0.0447    20.2738    20.2290   331.4889   106.9219     0.0000     0.0001 
 3237.9676     0.0000     0.0857    19.2399    19.1542   331.4904   106.9223     0.0000     0.0002 
 3238.1199     0.0000     0.1267    18.2061    18.0794   331.4908   106.9221     0.0000     0.0003 
 3238.2723     0.0000     0.1676    17.1722    17.0046   331.4896   106.9221     0.0000     0.0004 
 3238.4247     0.0000     0.2086    16.1384    15.9298   331.4907   106.9223     0.0000     0.0006 
 3238.5770     0.0000     0.2496    15.1046    14.8550   331.4931   106.9220     0.0000     0.0007 
 3238.7294     0.0000     0.2472    14.3635    14.1163   331.4950   106.9212     0.0000     0.0007 
 3238.8818     0.0000     0.2062    13.8826    13.6764   331.4976   106.9205     0.0000     0.0005 
 3239.0341     0.0000     0.1652    13.4017    13.2364   331.5019   106.9197     0.0000     0.0004 
 3239.1865     0.0000     0.1243    12.9208    12.7965   331.5059   106.9187     0.0000     0.0003 
 3239.3389     0.0000     0.0833    12.4399    12.3566   331.5092   106.9187     0.0000     0.0002 
 3239.4913     0.0000     0.0423    11.9590    11.9166   331.5138   106.9194     0.0000     0.0001 
 3239.6436     0.0000     0.0014    11.4781    11.4767   331.5170   106.9197     0.0000     0.0000 
 3239.7960     0.0000     0.0000    13.6322    13.6322   331.5186   106.9191     0.0000     0.0000 
 3239.9484     0.0000     0.0000    15.8770    15.8770   331.5210   106.9184     0.0000     0.0000 
 3240.1007     0.0000     0.0000    18.1218    18.1218   331.5242   106.9182     0.0000     0.0000 
 3240.2531     0.0000     0.0000    20.3666    20.3666   331.5258   106.9182     0.0000     0.0000 
 3240.4055     0.0000     0.0000    22.6114    22.6114   331.5256   106.9184     0.0000     0.0000 
 3240.5579     0.0000     0.0000    24.8563    24.8563   331.5264   106.9191     0.0000     0.0000 
 3240.7102     0.0000     0.0000    24.9035    24.9035   331.5286   106.9183     0.0000     0.0000 
 3240.8626     0.0000     0.0000    21.7080    21.7080   331.5309   106.9169     0.0000     0.0000 
 3241.0150     0.0000     0.0000    18.5126    18.5126   331.5332   106.9171     0.0000     0.0000 
 3241.1673     0.0000     0.0000    15.3171    15.3171   331.5374   106.9178     0.0000     0.0000 
 3241.3197     0.0000     0.0000    12.1216    12.1216   331.5393   106.9183     0.0000     0.0000 
 3241.4721     0.0000     0.0000     8.9261     8.9261   331.5388   106.9184     0.0000     0.0000 
 3241.6244     0.0000     0.0000     5.7307     5.7307   331.5410   106.9181     0.0000     0.0000 
 3241.7768     0.0000     0.0000     7.6120     7.6120   331.5441   106.9174     0.0000     0.0000 
 3241.9292     0.0000     0.0000    10.4519    10.4519   331.5467   106.9166     0.0000     0.0000 
 3242.0815     0.0000     0.0000    13.2918    13.2918   331.5495   106.9166     0.0000     0.0000 
 3242.2339     0.0000     0.0000    16.1317    16.1317   331.5534   106.9165     0.0000     0.0000 
 3242.3863     0.0000     0.0000    18.9716    18.9716   331.5574   106.9160     0.0000     0.0000 
 3242.5387     0.0000     0.0000    21.8115    21.8115   331.5604   106.9152     0.0000     0.0000 
 3242.6910     0.0000     0.0000    23.7800    23.7800   331.5627   106.9155     0.0000     0.0000 
 3242.8434     0.0000     0.0000    23.4903    23.4903   331.5645   106.9158     0.0000     0.0000 
 3242.9958     0.0000     0.0000    23.2006    23.2006   331.5654   106.9151     0.0000     0.0000 
 3243.1481     0.0000     0.0000    22.9109    22.9109   331.5670   106.9155     0.0000     0.0000 
 3243.3005     0.0000     0.0000    22.6211    22.6211   331.5696   106.9166     0.0000     0.0000 
 3243.4529     0.0000     0.0000    22.3314    22.3314   331.5710   106.9163     0.0000     0.0000 
 3243.6053     0.0000     0.0000    22.0417    22.0417   331.5706   106.9153     0.0000     0.0000 
 3243.7576     0.0000     0.0000    20.2157    20.2157   331.5713   106.9151     0.0000     0.0000 
 3243.9100     0.0000     0.0000    17.7794    17.7794   331.5742   106.9147     0.0000     0.0000 
 3244.0624     0.0000     0.0000    15.3430    15.3430   331.5782   106.9138     0.0000     0.0000 
 3244.2147     0.0000     0.0000    12.9066    12.9066   331.5823   106.9133     0.0000     0.0000 
 3244.3671     0.0000     0.0000    10.4703    10.4703   331.5863   106.9129     0.0000     0.0000 
 3244.5195     0.0000     0.0000     8.0339     8.0339   331.5885   106.9132     0.0000     0.0000 
 3244.6718     0.0000     0.0000     6.4418     6.4418   331.5903   106.9138     0.0000     0.0000 
 3244.8242     0.0000     0.0000     9.5277     9.5277   331.5950   106.9139     0.0000     0.0000 
 3244.9766     0.0000     0.0000    12.6136    12.6136   331.5982   106.9139     0.0000     0.0000 
 3245.1289     0.0000     0.0000    15.6995    15.6995   331.5991   106.9136     0.0000     0.0000 
 3245.2813     0.0000     0.0000    18.7854    18.7854   331.6000   106.9129     0.0000     0.0000 
 3245.4337     0.0000     0.0000    21.8713    21.8713   331.6024   106.9121     0.0000     0.0000 
 3245.5861     0.0000     0.0000    24.9572    24.9572   331.6055   106.9119     0.0000     0.0000 
 3245.7384     0.0000     0.0000    24.8409    24.8409   331.6076   106.9115     0.0000     0.0000 
 3245.8908     0.0000     0.0000    22.5003    22.5003   331.6090   106.9110     0.0000     0.0000 
 3246.0432     0.0000     0.0000    20.1597    20.1597   331.6114   106.9106     0.0000     0.0000 
 3246.1955     0.0000     0.0000    17.8190    17.8190   331.6136   106.9102     0.0000     0.0000 
