~Version Information
 VERS.                  2.0:   CWLS log ASCII Standard -VERSION 2.0
 WRAP.                   NO:   One line per depth step
~Well Information Block
#MNEM.UNIT       Data Type    Information
#---------     -----------    ---------------------------
 STRT.M              2954.2739:
 STOP.M              3647.5415:
 STEP.M                 0.1524:
 NULL.               -999.2500:
 UWI .            NO 15/9-F-14:  UWI
 API .            NO 15/9-F-14:  UWI
 WELL.               15/9-F-14:  COMMON WELL NAME
 COMP.                 STATOIL:  WELL OPERATOR
 FLD .                   VOLVE:  FIELD
 LIC .              NO PL046BS:  AUTHORIZATION NO
 LOC .                 UNKNOWN:  BASIN
 CTRY.                  Norway:  COUNTRY
 STAT.                 UNKNOWN:  STATE
 CNTY.                 UNKNOWN:  COUNTY
 PROV.                 UNKNOWN:  STATE
 SRVC.                 UNKNOWN:  COMPANY
 DATE.                 UNKNOWN:  LOG RUN DATE
 LONG.             1.887521912:  LONGITUDE
 LATI.            58.441602475:  LATITUDE
 XCOORD.           435052.4375:  X COORDINATE
 YCOORD.          6478562.5000:  Y COORDINATE
 ELEV.M                54.9000:  ELEVATION
 TD  .M              3750.0000:  TOTAL DEPTH
~Parameter Information Block
#MNEM.UNIT       Value        Description
#---------     -----------    ---------------------------
~Curve Information Block
#MNEM.UNIT                 API CODE     Curve Description
#---------               -----------    ---------------------------
 DEPTH.M                00 000 000 000:  Index Curve
 sat201IC-BHOF.NONE        00 000 000 000:  IC mode, Estimated Borehole Oil Fraction
 sat201IC-BVW.V/V         00 000 000 000:  IC mode, Estimated Bulk Volume of Water; 'sat201IC-SW'*'PHIF'
 sat201IC-CRRA.NONE        00 000 000 000:  IC mode, RST Near/Far Instantaneous Count Rate Ratio
 sat201IC-FBEF.UA          00 000 000 000:  IC mode, RST Far Effective Beam Current
 sat201IC-FCOR.NONE        00 000 000 000:  IC mode, RST Far Carbon/Oxygen Ratio
 sat201IC-GR.GAPI        00 000 000 000:  IC mode, Gamma Ray
 sat201IC-NCOR.NONE        00 000 000 000:  IC mode, RST Near Carbon/Oxygen Ratio
 sat201IC-SW.V/V         00 000 000 000:  IC mode, Estimated Water Saturation
~A DEPTH     sat201IC-BHOF sat201IC-BVW sat201IC-CRRA sat201IC-FBEF sat201IC-FCOR sat201IC-GR sat201IC-NCOR sat201IC-SW
# ...
 3405.3779     0.0360     0.1570     2.8560   124.1870    -0.0380    49.6860     0.0330     0.7760 
 3405.5303     0.0330     0.1520     2.8430   124.2640    -0.0280    49.5890     0.0330     0.7620 
 3405.6827     0.0350     0.1770     2.8480   125.2080    -0.0150    49.0420     0.0280     0.7710 
 3405.8351     0.0360     0.1780     2.8770   124.9840     0.0090    48.4120     0.0230     0.7580 
 3405.9875     0.0410     0.1880     2.8490   124.1010    -0.0020    48.1060     0.0240     0.7660 
 3406.1399     0.0390     0.1930     2.8370   124.9190     0.0000    47.3260     0.0260     0.7860 
 3406.2923     0.0360     0.1840     2.8530   124.5790    -0.0040    46.8460     0.0310     0.7680 
 3406.4447     0.0320     0.1750     2.8480   125.0600     0.0130    45.8870     0.0370     0.7350 
 3406.5971     0.0270     0.1640     2.8510   124.8280     0.0070    45.2620     0.0390     0.6870 
 3406.7495     0.0240     0.1590     2.8500   125.5140    -0.0060    44.4610     0.0440     0.6510 
 3406.9019     0.0210     0.1560     2.8630   124.6280    -0.0120    44.4530     0.0490     0.6250 
 3407.0543     0.0180     0.1490     2.8420   125.5320    -0.0050    44.7880     0.0430     0.6000 
 3407.2067     0.0170     0.1480     2.8560   125.6800     0.0140    45.2030     0.0350     0.6010 
 3407.3591     0.0160     0.1490     2.8710   124.9590     0.0150    46.0050     0.0300     0.6260 
 3407.5115     0.0150     0.1600     2.8510   124.7520    -0.0030    46.9990     0.0130     0.6710 
 3407.6639     0.0150     0.1630     2.8360   124.3060    -0.0080    46.8680     0.0060     0.6860 
 3407.8163     0.0140     0.1630     2.8450   124.7330     0.0010    47.5210    -0.0030     0.6860 
 3407.9687     0.0130     0.1690     2.8420   124.8430    -0.0040    48.2230    -0.0120     0.6880 
 3408.1211     0.0140     0.1640     2.8490   124.9020    -0.0080    47.8570    -0.0140     0.6850 
 3408.2735     0.0150     0.1630     2.8380   124.6350    -0.0200    47.8600    -0.0110     0.6850 
 3408.4259     0.0150     0.1600     2.8250   124.0520    -0.0100    46.8450     0.0040     0.6610 
 3408.5783     0.0160     0.1520     2.8350   124.2770     0.0080    45.4600     0.0160     0.6170 
 3408.7307     0.0170     0.1410     2.8430   123.9120     0.0220    44.7630     0.0220     0.5690 
 3408.8831     0.0180     0.1360     2.8290   124.1570     0.0250    43.7710     0.0310     0.5410 
 3409.0355     0.0180     0.1350     2.8280   124.0980     0.0350    42.1690     0.0390     0.5340 
 3409.1879     0.0170     0.1360     2.8260   124.5580     0.0320    41.7840     0.0470     0.5350 
 3409.3403     0.0150     0.1270     2.8290   124.5790     0.0300    40.8930     0.0500     0.5110 
 3409.4927     0.0140     0.1260     2.8480   126.7500     0.0290    40.0320     0.0390     0.4920 
 3409.6451     0.0140     0.1140     2.9040   127.9790     0.0180    40.1050     0.0440     0.4500 
 3409.7975     0.0130     0.1180     2.9330   129.3240     0.0110    40.3030     0.0310     0.4550 
 3409.9499     0.0120     0.1120     2.9770   128.1480     0.0050    41.1060     0.0230     0.4440 
 3410.1023     0.0100     0.1110     2.9140   126.3900    -0.0020    41.1770     0.0210     0.4420 
 3410.2547     0.0090     0.1070     2.8710   126.2820    -0.0010    41.0180     0.0130     0.4270 
 3410.4071     0.0080     0.1100     2.8570   127.9140     0.0130    40.8830     0.0070     0.4350 
 3410.5595     0.0050     0.1010     2.9110   126.6180     0.0130    41.0410     0.0080     0.4240 
 3410.7119     0.0020     0.0980     2.8790   126.3850     0.0240    40.6700     0.0030     0.4300 
 3410.8643     0.0000     0.0890     2.8710   126.5090     0.0290    41.2680     0.0150     0.3990 
 3411.0167    -0.0020     0.0680     2.8710   125.4390     0.0380    42.0710     0.0270     0.3210 
 3411.1691    -0.0020     0.0500     2.8570   125.5010     0.0440    42.3910     0.0290     0.2420 
 3411.3215    -0.0030     0.0370     2.8570   125.4020     0.0390    42.3960     0.0320     0.1800 
 3411.4739    -0.0020     0.0310     2.8730   122.4130     0.0370    41.9630     0.0280     0.1490 
 3411.6263    -0.0010     0.0190     2.8040   122.9850     0.0350    42.1980     0.0280     0.0930 
 3411.7787     0.0010     0.0150     2.8380   122.9200     0.0270    42.0090     0.0250     0.0730 
 3411.9311     0.0040     0.0130     2.8290   123.0650     0.0370    41.9790     0.0230     0.0620 
 3412.0835     0.0060     0.0200     2.8530   122.6270     0.0360    42.2310     0.0230     0.0960 
 3412.2359     0.0080     0.0260     2.8290   122.5280     0.0350    42.9070     0.0240     0.1290 
 3412.3883     0.0090     0.0380     2.8280   122.5760     0.0420    43.0610     0.0260     0.1940 
 3412.5407     0.0090     0.0430     2.8310   122.4940     0.0380    43.1740     0.0340     0.2190 
 3412.6931     0.0090     0.0480     2.8070   122.4460     0.0270    43.6630     0.0360     0.2450 
 3412.8455     0.0090     0.0410     2.8190   121.9320     0.0280    43.5630     0.0370     0.2140 
 3412.9979     0.0090     0.0420     2.8180   122.3460     0.0220    43.3310     0.0320     0.2150 
 3413.1503     0.0080     0.0290     2.8410   121.5770     0.0220    42.9470     0.0300     0.1510 
 3413.3027     0.0070     0.0280     2.8030   120.5100     0.0130    42.8370     0.0320     0.1400 
 3413.4551     0.0070     0.0220     2.7920   120.9670     0.0160    42.4520     0.0300     0.1130 
 3413.6075     0.0060     0.0260     2.8060   119.7830     0.0180    42.3490     0.0200     0.1300 
 3413.7599     0.0060     0.0200     2.7800   121.1530     0.0320    42.1840     0.0180     0.1010 
 3413.9123     0.0060     0.0120     2.8070   121.3070     0.0320    41.6250     0.0200     0.0620 
 3414.0647     0.0060     0.0040     2.7920   120.7920     0.0400    41.1650     0.0300     0.0210 
 3414.2171     0.0060     0.0000     2.7910   120.5210     0.0560    40.7700     0.0280     0.0000 
 3414.3695     0.0080     0.0000     2.7870   119.8230     0.0700    40.2180     0.0260     0.0000 
 3414.5219     0.0100     0.0000     2.7730   120.4870     0.0720    39.8050     0.0300     0.0000 
 3414.6743     0.0120     0.0000     2.7950   120.4030     0.0740    40.1750     0.0470     0.0000 
 3414.8267     0.0140     0.0000     2.7830   120.1350     0.0740    39.5050     0.0490     0.0000 
 3414.9791     0.0150     0.0000     2.7770   120.7710     0.0700    39.1110     0.0450     0.0000 
 3415.1315     0.0160     0.0020     2.8050   120.4760     0.0530    39.5590     0.0410     0.0080 
 3415.2839     0.0160     0.0090     2.7860   120.5560     0.0420    40.4600     0.0450     0.0440 
 3415.4363     0.0160     0.0130     2.7960   120.6880     0.0410    40.7530     0.0450     0.0620 
 3415.5887     0.0160     0.0070     2.7960   120.2740     0.0320    41.9550     0.0470     0.0330 
 3415.7411     0.0160     0.0000     2.7830   121.6130     0.0350    41.8040     0.0400     0.0000 
 3415.8935     0.0160     0.0000     2.8220   124.3660     0.0490    40.6100     0.0420     0.0000 
 3416.0459     0.0160     0.0000     2.9610   126.5610     0.0620    39.0790     0.0490     0.0000 
 3416.1983     0.0170     0.0000     3.0140   123.5050     0.0730    38.6750     0.0540     0.0000 
 3416.3507     0.0180     0.0000     2.8500   122.0060     0.0830    38.6750     0.0510     0.0000 
 3416.5031     0.0190     0.0000     2.8020   121.2260     0.0850    39.0030     0.0520     0.0000 
 3416.6555     0.0190     0.0000     2.7810   122.3500     0.0930    40.3030     0.0560     0.0000 
 3416.8079     0.0190     0.0000     2.8020   122.2960     0.0970    41.0120     0.0610     0.0000 
 3416.9603     0.0190     0.0000     2.8060   122.0340     0.0990    41.3670     0.0620     0.0000 
 3417.1127     0.0200     0.0000     2.8050   122.0290     0.1100    40.8660     0.0610     0.0000 
 3417.2651     0.0190     0.0000     2.8010   122.8850     0.1090    40.0750     0.0630     0.0000 
 3417.4175     0.0180     0.0000     2.8280   122.8960     0.1030    39.3870     0.0690     0.0000 
