~Version Information
 VERS.                  2.0:   CWLS log ASCII Standard -VERSION 2.0
 WRAP.                   NO:   One line per depth step
~Well Information Block
#MNEM.UNIT       Data Type    Information
#---------     -----------    ---------------------------
 STRT.M              2880.6599:
 STOP.M              3414.2598:
 STEP.M                 0.1524:
 NULL.               -999.2500:
 UWI .            NO 15/9-F-14:  UWI
 API .            NO 15/9-F-14:  UWI
 WELL.               15/9-F-14:  COMMON WELL NAME
 COMP.                 STATOIL:  WELL OPERATOR
 FLD .                   VOLVE:  FIELD
 LIC .              NO PL046BS:  AUTHORIZATION NO
 LOC .                 UNKNOWN:  BASIN
 CTRY.                  Norway:  COUNTRY
 STAT.                 UNKNOWN:  STATE
 CNTY.                 UNKNOWN:  COUNTY
 PROV.                 UNKNOWN:  STATE
 SRVC.                 UNKNOWN:  COMPANY
 DATE.                 UNKNOWN:  LOG RUN DATE
 LONG.             1.887521912:  LONGITUDE
 LATI.            58.441602475:  LATITUDE
 XCOORD.           435052.4375:  X COORDINATE
 YCOORD.          6478562.5000:  Y COORDINATE
 ELEV.M                54.9000:  ELEVATION
 TD  .M              3750.0000:  TOTAL DEPTH
~Parameter Information Block
#MNEM.UNIT       Value        Description
#---------     -----------    ---------------------------
~Curve Information Block
#MNEM.UNIT                 API CODE     Curve Description
#---------               -----------    ---------------------------
 DEPTH.M                00 000 000 000:  Index Curve
 plt302S-QGAS.            00 000 000 000:  gas rate
 plt302S-QOIL.            00 000 000 000:  oil rate
 plt302S-QTOT.            00 000 000 000:  
 plt302S-QWAT.            00 000 000 000:  
 plt302S-WPRE.BAR         00 000 000 000:  
 plt302S-WTEP.DEGC        00 000 000 000:  
 plt302S-YG.NONE        00 000 000 000:  
 plt302S-YO.NONE        00 000 000 000:  
~A DEPTH     plt302S-QGAS plt302S-QOIL plt302S-QTOT plt302S-QWAT plt302S-WPRE plt302S-WTEP plt302S-YG plt302S-YO
# ...
 3368.2439     0.0000     0.0000     9.2036     9.2036   334.3197   105.1572     0.0000     0.0000 
 3368.3963     0.0000     0.0000     8.7178     8.7178   334.3268   105.1533     0.0000     0.0000 
 3368.5487     0.0000     0.0000     8.2319     8.2319   334.3314   105.1495     0.0000     0.0000 
 3368.7010     0.0000     0.0000     8.1609     8.1609   334.3346   105.1453     0.0000     0.0000 
 3368.8534     0.0000     0.0000     8.7969     8.7969   334.3394   105.1404     0.0000     0.0000 
 3369.0058     0.0000     0.0000     9.4328     9.4328   334.3466   105.1354     0.0000     0.0000 
 3369.1581     0.0000     0.0000    10.0687    10.0687   334.3536   105.1306     0.0000     0.0000 
 3369.3105     0.0000     0.0000    10.7047    10.7047   334.3579   105.1266     0.0000     0.0000 
 3369.4629     0.0000     0.0000    11.3406    11.3406   334.3602   105.1237     0.0000     0.0000 
 3369.6152     0.0000     0.0000    11.9766    11.9766   334.3629   105.1205     0.0000     0.0000 
 3369.7676     0.0000     0.0000    11.1662    11.1662   334.3663   105.1170     0.0000     0.0000 
 3369.9200     0.0000     0.0000    10.0101    10.0101   334.3707   105.1131     0.0000     0.0000 
 3370.0723     0.0000     0.0000     8.8539     8.8539   334.3750   105.1090     0.0000     0.0000 
 3370.2247     0.0000     0.0000     7.6978     7.6978   334.3781   105.1058     0.0000     0.0000 
 3370.3771     0.0000     0.0000     6.5416     6.5416   334.3817   105.1027     0.0000     0.0000 
 3370.5295     0.0000     0.0000     5.3855     5.3855   334.3880   105.0990     0.0000     0.0000 
 3370.6818     0.0000     0.0000     4.5815     4.5815   334.3959   105.0956     0.0000     0.0000 
 3370.8342     0.0000     0.0000     4.8668     4.8668   334.4043   105.0928     0.0000     0.0000 
 3370.9866     0.0000     0.0000     5.1521     5.1521   334.4112   105.0897     0.0000     0.0000 
 3371.1389     0.0000     0.0000     5.4375     5.4375   334.4165   105.0864     0.0000     0.0000 
 3371.2913     0.0000     0.0000     5.7228     5.7228   334.4214   105.0828     0.0000     0.0000 
 3371.4437     0.0000     0.0000     6.0082     6.0082   334.4276   105.0765     0.0000     0.0000 
 3371.5961     0.0000     0.0000     6.2935     6.2935   334.4347   105.0686     0.0000     0.0000 
 3371.7484     0.0000     0.0000     7.2626     7.2626   334.4395   105.0608     0.0000     0.0000 
 3371.9008     0.0000     0.0000     8.5512     8.5512   334.4439   105.0532     0.0000     0.0000 
 3372.0532     0.0000     0.0000     9.8399     9.8399   334.4475   105.0454     0.0000     0.0000 
 3372.2055     0.0000     0.0000    11.1285    11.1285   334.4513   105.0383     0.0000     0.0000 
 3372.3579     0.0000     0.0000    12.4171    12.4171   334.4566   105.0336     0.0000     0.0000 
 3372.5103     0.0000     0.0000    13.7058    13.7058   334.4630   105.0292     0.0000     0.0000 
 3372.6626     0.0000     0.0000    14.6120    14.6120   334.4690   105.0235     0.0000     0.0000 
 3372.8150     0.0000     0.0000    12.6799    12.6799   334.4735   105.0161     0.0000     0.0000 
 3372.9674     0.0000     0.0000    10.7477    10.7477   334.4759   105.0089     0.0000     0.0000 
 3373.1197     0.0000     0.0000     8.8156     8.8156   334.4773   105.0022     0.0000     0.0000 
 3373.2721     0.0000     0.0000     6.8834     6.8834   334.4796   104.9962     0.0000     0.0000 
 3373.4245     0.0000     0.0000     4.9512     4.9512   334.4843   104.9911     0.0000     0.0000 
 3373.5769     0.0000     0.0000     3.0191     3.0191   334.4902   104.9858     0.0000     0.0000 
 3373.7292     0.0000     0.0047     2.6505     2.6459   334.4963   104.9785     0.0000     0.0000 
 3373.8816     0.0000     0.0130     3.5308     3.5178   334.5019   104.9692     0.0000     0.0001 
 3374.0340     0.0000     0.0214     4.4111     4.3897   334.5073   104.9585     0.0000     0.0001 
 3374.1863     0.0000     0.0298     5.2914     5.2616   334.5131   104.9462     0.0000     0.0001 
 3374.3387     0.0000     0.0381     6.1717     6.1335   334.5196   104.9341     0.0000     0.0002 
 3374.4911     0.0000     0.0465     7.0520     7.0055   334.5272   104.9243     0.0000     0.0002 
 3374.6435     0.0000     0.0549     7.9323     7.8774   334.5328   104.9146     0.0000     0.0003 
 3374.7958     0.0000     0.0466     9.9663     9.9197   334.5357   104.9015     0.0000     0.0002 
 3374.9482     0.0000     0.0383    12.0083    11.9701   334.5377   104.8880     0.0000     0.0002 
 3375.1006     0.0000     0.0299    14.0503    14.0204   334.5392   104.8758     0.0000     0.0001 
 3375.2529     0.0000     0.0215    16.0923    16.0708   334.5406   104.8645     0.0000     0.0001 
 3375.4053     0.0000     0.0131    18.1343    18.1212   334.5436   104.8531     0.0000     0.0001 
 3375.5577     0.0000     0.0048    20.1763    20.1715   334.5472   104.8416     0.0000     0.0000 
 3375.7100     0.0000     0.0000    19.6791    19.6791   334.5500   104.8294     0.0000     0.0000 
 3375.8624     0.0000     0.0000    15.8218    15.8218   334.5534   104.8157     0.0000     0.0000 
 3376.0148     0.0000     0.0000    11.9645    11.9645   334.5588   104.8008     0.0000     0.0000 
 3376.1672     0.0000     0.0000     8.1073     8.1073   334.5650   104.7849     0.0000     0.0000 
 3376.3195     0.0000     0.0000     4.2500     4.2500   334.5712   104.7685     0.0000     0.0000 
 3376.4719     0.0000     0.0000     0.3927     0.3927   334.5764   104.7523     0.0000     0.0000 
 3376.6243     0.0000     0.0000    -3.4645    -3.4645   334.5802   104.7365     0.0000     0.0000 
 3376.7766     0.0000     0.0000    -2.7148    -2.7148   334.5834   104.7219     0.0000     0.0000 
 3376.9290     0.0000     0.0000    -1.2623    -1.2623   334.5868   104.7097     0.0000     0.0000 
 3377.0814     0.0000     0.0000     0.1902     0.1902   334.5906   104.6988     0.0000     0.0000 
 3377.2337     0.0000     0.0000     1.6427     1.6427   334.5934   104.6868     0.0000     0.0000 
 3377.3861     0.0000     0.0000     3.0952     3.0952   334.5970   104.6739     0.0000     0.0000 
 3377.5385     0.0000     0.0000     4.5476     4.5476   334.6032   104.6615     0.0000     0.0000 
 3377.6908     0.0000     0.0000     6.0769     6.0769   334.6087   104.6479     0.0000     0.0000 
 3377.8432     0.0000     0.0000     7.7811     7.7811   334.6129   104.6310     0.0000     0.0000 
 3377.9956     0.0000     0.0000     9.4854     9.4854   334.6176   104.6152     0.0000     0.0000 
 3378.1480     0.0000     0.0000    11.1896    11.1896   334.6224   104.6028     0.0000     0.0000 
 3378.3003     0.0000     0.0000    12.8938    12.8938   334.6258   104.5912     0.0000     0.0000 
 3378.4527     0.0000     0.0000    14.5981    14.5981   334.6279   104.5805     0.0000     0.0000 
 3378.6051     0.0000     0.0000    16.3023    16.3023   334.6303   104.5700     0.0000     0.0000 
 3378.7574     0.0000     0.0000    14.9381    14.9381   334.6331   104.5597     0.0000     0.0000 
 3378.9098     0.0000     0.0000    12.5076    12.5076   334.6365   104.5492     0.0000     0.0000 
 3379.0622     0.0000     0.0000    10.0772    10.0772   334.6407   104.5385     0.0000     0.0000 
 3379.2146     0.0000     0.0000     7.6467     7.6467   334.6445   104.5278     0.0000     0.0000 
 3379.3669     0.0000     0.0000     5.2163     5.2163   334.6476   104.5160     0.0000     0.0000 
 3379.5193     0.0000     0.0000     2.7858     2.7858   334.6509   104.5036     0.0000     0.0000 
 3379.6717     0.0000     0.0000     1.1309     1.1309   334.6550   104.4915     0.0000     0.0000 
 3379.8240     0.0000     0.0000     3.0243     3.0243   334.6590   104.4794     0.0000     0.0000 
 3379.9764     0.0000     0.0000     4.9177     4.9177   334.6623   104.4679     0.0000     0.0000 
 3380.1288     0.0000     0.0000     6.8110     6.8110   334.6655   104.4565     0.0000     0.0000 
 3380.2811     0.0000     0.0000     8.7044     8.7044   334.6704   104.4455     0.0000     0.0000 
