~Version Information
 VERS.                  2.0:   CWLS log ASCII Standard -VERSION 2.0
 WRAP.                   NO:   One line per depth step
~Well Information Block
#MNEM.UNIT       Data Type    Information
#---------     -----------    ---------------------------
 STRT.M              2880.6599:
 STOP.M              3414.2598:
 STEP.M                 0.1524:
 NULL.               -999.2500:
 UWI .            NO 15/9-F-14:  UWI
 API .            NO 15/9-F-14:  UWI
 WELL.               15/9-F-14:  COMMON WELL NAME
 COMP.                 STATOIL:  WELL OPERATOR
 FLD .                   VOLVE:  FIELD
 LIC .              NO PL046BS:  AUTHORIZATION NO
 LOC .                 UNKNOWN:  BASIN
 CTRY.                  Norway:  COUNTRY
 STAT.                 UNKNOWN:  STATE
 CNTY.                 UNKNOWN:  COUNTY
 PROV.                 UNKNOWN:  STATE
 SRVC.                 UNKNOWN:  COMPANY
 DATE.                 UNKNOWN:  LOG RUN DATE
 LONG.             1.887521912:  LONGITUDE
 LATI.            58.441602475:  LATITUDE
 XCOORD.           435052.4375:  X COORDINATE
 YCOORD.          6478562.5000:  Y COORDINATE
 ELEV.M                54.9000:  ELEVATION
 TD  .M              3750.0000:  TOTAL DEPTH
~Parameter Information Block
#MNEM.UNIT       Value        Description
#---------     -----------    ---------------------------
~Curve Information Block
#MNEM.UNIT                 API CODE     Curve Description
#---------               -----------    ---------------------------
 DEPTH.M                00 000 000 000:  Index Curve
 plt302S-QGAS.            00 000 000 000:  gas rate
 plt302S-QOIL.            00 000 000 000:  oil rate
 plt302S-QTOT.            00 000 000 000:  
 plt302S-QWAT.            00 000 000 000:  
 plt302S-WPRE.BAR         00 000 000 000:  
 plt302S-WTEP.DEGC        00 000 000 000:  
 plt302S-YG.NONE        00 000 000 000:  
 plt302S-YO.NONE        00 000 000 000:  
~A DEPTH     plt302S-QGAS plt302S-QOIL plt302S-QTOT plt302S-QWAT plt302S-WPRE plt302S-WTEP plt302S-YG plt302S-YO
# ...
 3331.6751     0.0000     0.0000    -0.1352    -0.1352   333.2355   105.7740     0.0000     0.0000 
 3331.8275     0.0000     0.0000     2.6455     2.6455   333.2392   105.7677     0.0000     0.0000 
 3331.9799     0.0000     0.0000     5.4261     5.4261   333.2437   105.7610     0.0000     0.0000 
 3332.1322     0.0000     0.0000     8.2067     8.2067   333.2483   105.7551     0.0000     0.0000 
 3332.2846     0.0000     0.0000    10.9873    10.9873   333.2531   105.7495     0.0000     0.0000 
 3332.4370     0.0000     0.0000    13.7679    13.7679   333.2563   105.7441     0.0000     0.0000 
 3332.5893     0.0000     0.0000    16.5485    16.5485   333.2583   105.7393     0.0000     0.0000 
 3332.7417     0.0000     0.0000    16.2525    16.2525   333.2588   105.7351     0.0000     0.0000 
 3332.8941     0.0000     0.0000    14.1449    14.1449   333.2604   105.7316     0.0000     0.0000 
 3333.0464     0.0000     0.0000    12.0374    12.0374   333.2636   105.7286     0.0000     0.0000 
 3333.1988     0.0000     0.0000     9.9298     9.9298   333.2670   105.7255     0.0000     0.0000 
 3333.3512     0.0000     0.0000     7.8223     7.8223   333.2697   105.7222     0.0000     0.0000 
 3333.5035     0.0000     0.0000     5.7147     5.7147   333.2726   105.7188     0.0000     0.0000 
 3333.6559     0.0000     0.0000     3.7927     3.7927   333.2784   105.7156     0.0000     0.0000 
 3333.8083     0.0000     0.0000     4.4692     4.4692   333.2858   105.7118     0.0000     0.0000 
 3333.9607     0.0000     0.0000     5.1458     5.1458   333.2920   105.7075     0.0000     0.0000 
 3334.1130     0.0000     0.0000     5.8223     5.8223   333.2967   105.7026     0.0000     0.0000 
 3334.2654     0.0000     0.0000     6.4988     6.4988   333.3011   105.6977     0.0000     0.0000 
 3334.4178     0.0000     0.0000     7.1754     7.1754   333.3053   105.6933     0.0000     0.0000 
 3334.5701     0.0000     0.0000     7.8519     7.8519   333.3098   105.6882     0.0000     0.0000 
 3334.7225     0.0000     0.0000     8.4363     8.4363   333.3152   105.6821     0.0000     0.0000 
 3334.8749     0.0000     0.0000     8.9300     8.9300   333.3206   105.6762     0.0000     0.0000 
 3335.0273     0.0000     0.0000     9.4237     9.4237   333.3241   105.6712     0.0000     0.0000 
 3335.1796     0.0000     0.0000     9.9173     9.9173   333.3265   105.6665     0.0000     0.0000 
 3335.3320     0.0000     0.0000    10.4110    10.4110   333.3305   105.6618     0.0000     0.0000 
 3335.4844     0.0000     0.0000    10.9047    10.9047   333.3350   105.6572     0.0000     0.0000 
 3335.6367     0.0000     0.0000    11.3983    11.3983   333.3380   105.6529     0.0000     0.0000 
 3335.7891     0.0000     0.0000     9.8987     9.8987   333.3402   105.6484     0.0000     0.0000 
 3335.9415     0.0000     0.0000     8.2744     8.2744   333.3441   105.6437     0.0000     0.0000 
 3336.0938     0.0000     0.0000     6.6500     6.6500   333.3493   105.6395     0.0000     0.0000 
 3336.2462     0.0000     0.0000     5.0257     5.0257   333.3533   105.6355     0.0000     0.0000 
 3336.3986     0.0000     0.0000     3.4013     3.4013   333.3562   105.6317     0.0000     0.0000 
 3336.5509     0.0000     0.0000     1.7770     1.7770   333.3590   105.6283     0.0000     0.0000 
 3336.7033     0.0000     0.0000     1.6344     1.6344   333.3607   105.6250     0.0000     0.0000 
 3336.8557     0.0000     0.0000     3.9265     3.9265   333.3629   105.6214     0.0000     0.0000 
 3337.0081     0.0000     0.0000     6.2186     6.2186   333.3678   105.6181     0.0000     0.0000 
 3337.1604     0.0000     0.0000     8.5108     8.5108   333.3726   105.6148     0.0000     0.0000 
 3337.3128     0.0000     0.0000    10.8029    10.8029   333.3769   105.6109     0.0000     0.0000 
 3337.4652     0.0000     0.0000    13.0951    13.0951   333.3824   105.6064     0.0000     0.0000 
 3337.6175     0.0000     0.0000    15.3872    15.3872   333.3889   105.6013     0.0000     0.0000 
 3337.7699     0.0000     0.0000    14.3652    14.3652   333.3958   105.5961     0.0000     0.0000 
 3337.9223     0.0000     0.0000    12.5938    12.5938   333.4009   105.5903     0.0000     0.0000 
 3338.0747     0.0000     0.0000    10.8224    10.8224   333.4056   105.5847     0.0000     0.0000 
 3338.2270     0.0000     0.0000     9.0510     9.0510   333.4096   105.5799     0.0000     0.0000 
 3338.3794     0.0000     0.0000     7.2796     7.2796   333.4132   105.5751     0.0000     0.0000 
 3338.5318     0.0000     0.0000     5.5082     5.5082   333.4161   105.5705     0.0000     0.0000 
 3338.6841     0.0000     0.0000     4.1951     4.1951   333.4183   105.5658     0.0000     0.0000 
 3338.8365     0.0000     0.0000     4.2367     4.2367   333.4196   105.5616     0.0000     0.0000 
 3338.9889     0.0000     0.0000     4.2783     4.2783   333.4222   105.5571     0.0000     0.0000 
 3339.1412     0.0000     0.0000     4.3199     4.3199   333.4255   105.5528     0.0000     0.0000 
 3339.2936     0.0000     0.0000     4.3614     4.3614   333.4304   105.5487     0.0000     0.0000 
 3339.4460     0.0000     0.0000     4.4030     4.4030   333.4365   105.5451     0.0000     0.0000 
 3339.5984     0.0000     0.0000     4.4446     4.4446   333.4429   105.5412     0.0000     0.0000 
 3339.7507     0.0000     0.0000     5.0513     5.0513   333.4481   105.5370     0.0000     0.0000 
 3339.9031     0.0000     0.0000     5.9117     5.9117   333.4494   105.5325     0.0000     0.0000 
 3340.0555     0.0000     0.0000     6.7722     6.7722   333.4497   105.5281     0.0000     0.0000 
 3340.2078     0.0000     0.0000     7.6326     7.6326   333.4539   105.5231     0.0000     0.0000 
 3340.3602     0.0000     0.0000     8.4931     8.4931   333.4592   105.5175     0.0000     0.0000 
 3340.5126     0.0000     0.0000     9.3535     9.3535   333.4650   105.5121     0.0000     0.0000 
 3340.6649     0.0000     0.0000     9.9308     9.9308   333.4706   105.5076     0.0000     0.0000 
 3340.8173     0.0000     0.0000     8.5664     8.5664   333.4755   105.5034     0.0000     0.0000 
 3340.9697     0.0000     0.0000     7.2020     7.2020   333.4798   105.4987     0.0000     0.0000 
 3341.1220     0.0000     0.0000     5.8376     5.8376   333.4838   105.4936     0.0000     0.0000 
 3341.2744     0.0000     0.0000     4.4732     4.4732   333.4886   105.4881     0.0000     0.0000 
 3341.4268     0.0000     0.0000     3.1088     3.1088   333.4948   105.4824     0.0000     0.0000 
 3341.5792     0.0000     0.0000     1.7444     1.7444   333.4984   105.4772     0.0000     0.0000 
 3341.7315     0.0000     0.0000     1.9495     1.9495   333.5026   105.4724     0.0000     0.0000 
 3341.8839     0.0000     0.0000     3.3655     3.3655   333.5056   105.4682     0.0000     0.0000 
 3342.0363     0.0000     0.0000     4.7815     4.7815   333.5084   105.4636     0.0000     0.0000 
 3342.1886     0.0000     0.0000     6.1975     6.1975   333.5117   105.4581     0.0000     0.0000 
 3342.3410     0.0000     0.0000     7.6135     7.6135   333.5165   105.4529     0.0000     0.0000 
 3342.4934     0.0000     0.0000     9.0295     9.0295   333.5212   105.4480     0.0000     0.0000 
 3342.6458     0.0000     0.0000    10.4423    10.4423   333.5251   105.4428     0.0000     0.0000 
 3342.7981     0.0000     0.0000    10.0368    10.0368   333.5294   105.4378     0.0000     0.0000 
 3342.9505     0.0000     0.0000     9.6313     9.6313   333.5345   105.4324     0.0000     0.0000 
 3343.1029     0.0000     0.0000     9.2257     9.2257   333.5393   105.4269     0.0000     0.0000 
 3343.2552     0.0000     0.0000     8.8202     8.8202   333.5435   105.4220     0.0000     0.0000 
 3343.4076     0.0000     0.0000     8.4147     8.4147   333.5476   105.4179     0.0000     0.0000 
 3343.5600     0.0000     0.0000     8.0092     8.0092   333.5522   105.4123     0.0000     0.0000 
 3343.7123     0.0000     0.0000     7.1765     7.1765   333.5564   105.4075     0.0000     0.0000 
