~Version Information
 VERS.                  2.0:   CWLS log ASCII Standard -VERSION 2.0
 WRAP.                   NO:   One line per depth step
~Well Information Block
#MNEM.UNIT       Data Type    Information
#---------     -----------    ---------------------------
 STRT.M              2954.2739:
 STOP.M              3647.5415:
 STEP.M                 0.1524:
 NULL.               -999.2500:
 UWI .            NO 15/9-F-14:  UWI
 API .            NO 15/9-F-14:  UWI
 WELL.               15/9-F-14:  COMMON WELL NAME
 COMP.                 STATOIL:  WELL OPERATOR
 FLD .                   VOLVE:  FIELD
 LIC .              NO PL046BS:  AUTHORIZATION NO
 LOC .                 UNKNOWN:  BASIN
 CTRY.                  Norway:  COUNTRY
 STAT.                 UNKNOWN:  STATE
 CNTY.                 UNKNOWN:  COUNTY
 PROV.                 UNKNOWN:  STATE
 SRVC.                 UNKNOWN:  COMPANY
 DATE.                 UNKNOWN:  LOG RUN DATE
 LONG.             1.887521912:  LONGITUDE
 LATI.            58.441602475:  LATITUDE
 XCOORD.           435052.4375:  X COORDINATE
 YCOORD.          6478562.5000:  Y COORDINATE
 ELEV.M                54.9000:  ELEVATION
 TD  .M              3750.0000:  TOTAL DEPTH
~Parameter Information Block
#MNEM.UNIT       Value        Description
#---------     -----------    ---------------------------
~Curve Information Block
#MNEM.UNIT                 API CODE     Curve Description
#---------               -----------    ---------------------------
 DEPTH.M                00 000 000 000:  Index Curve
 sat201IC-BHOF.NONE        00 000 000 000:  IC mode, Estimated Borehole Oil Fraction
 sat201IC-BVW.V/V         00 000 000 000:  IC mode, Estimated Bulk Volume of Water; 'sat201IC-SW'*'PHIF'
 sat201IC-CRRA.NONE        00 000 000 000:  IC mode, RST Near/Far Instantaneous Count Rate Ratio
 sat201IC-FBEF.UA          00 000 000 000:  IC mode, RST Far Effective Beam Current
 sat201IC-FCOR.NONE        00 000 000 000:  IC mode, RST Far Carbon/Oxygen Ratio
 sat201IC-GR.GAPI        00 000 000 000:  IC mode, Gamma Ray
 sat201IC-NCOR.NONE        00 000 000 000:  IC mode, RST Near Carbon/Oxygen Ratio
 sat201IC-SW.V/V         00 000 000 000:  IC mode, Estimated Water Saturation
~A DEPTH     sat201IC-BHOF sat201IC-BVW sat201IC-CRRA sat201IC-FBEF sat201IC-FCOR sat201IC-GR sat201IC-NCOR sat201IC-SW
# ...
 3576.0658     0.0200     0.0200     2.8200   122.5040     0.0440    26.4960     0.0380     0.1060 
 3576.2182     0.0190     0.0240     2.8080   122.2800     0.0500    25.7590     0.0320     0.1280 
 3576.3706     0.0190     0.0320     2.7970   120.8950     0.0370    24.7420     0.0320     0.1740 
 3576.5230     0.0190     0.0430     2.8180   120.8850     0.0230    24.1250     0.0310     0.2360 
 3576.6754     0.0190     0.0530     2.8200   121.9410     0.0260    23.2560     0.0360     0.2890 
 3576.8278     0.0190     0.0590     2.8610   122.5410     0.0070    22.7600     0.0390     0.3150 
 3576.9802     0.0210     0.0640     2.8640   118.3950    -0.0030    22.2180     0.0310     0.3440 
 3577.1326     0.0220     0.0710     2.7220   118.6260    -0.0150    22.2600     0.0320     0.3960 
 3577.2850     0.0240     0.0780     2.7400   118.6060    -0.0290    21.6270     0.0330     0.4360 
 3577.4374     0.0270     0.0820     2.7220   118.6590    -0.0220    21.1840     0.0300     0.4600 
 3577.5898     0.0310     0.0830     2.7600   117.8570     0.0040    20.7600     0.0300     0.4500 
 3577.7422     0.0350     0.0880     2.7430   116.7630     0.0060    20.1620     0.0310     0.4520 
 3577.8946     0.0380     0.0930     2.7020   116.4480     0.0260    19.0070     0.0410     0.4390 
 3578.0470     0.0410     0.0880     2.7000   116.8820     0.0370    18.4600     0.0470     0.3980 
 3578.1994     0.0430     0.0820     2.7160   116.6380     0.0470    17.6480     0.0460     0.3560 
 3578.3518     0.0450     0.0800     2.6930   117.2750     0.0450    16.6870     0.0400     0.3410 
 3578.5042     0.0470     0.0780     2.6940   119.2550     0.0490    15.6250     0.0370     0.3330 
 3578.6566     0.0490     0.0740     2.7250   120.6350     0.0410    15.0570     0.0440     0.3220 
 3578.8090     0.0500     0.0690     2.7640   121.6980     0.0370    14.4780     0.0450     0.2950 
 3578.9614     0.0520     0.0630     2.7690   120.8050     0.0410    14.4800     0.0420     0.2690 
 3579.1138     0.0530     0.0650     2.7570   121.2680     0.0450    14.3400     0.0420     0.2670 
 3579.2662     0.0530     0.0690     2.7510   122.4290     0.0310    14.9250     0.0410     0.2800 
 3579.4186     0.0530     0.0760     2.7830   121.5520     0.0500    15.2590     0.0460     0.2980 
 3579.5710     0.0540     0.0780     2.7730   122.9780     0.0460    15.5030     0.0470     0.3030 
 3579.7234     0.0540     0.0740     2.7890   123.0380     0.0360    15.2760     0.0380     0.2970 
 3579.8758     0.0550     0.0700     2.8100   124.3450     0.0390    15.3090     0.0350     0.2990 
 3580.0282     0.0550     0.0670     2.8140   124.9100     0.0410    14.5610     0.0310     0.2900 
 3580.1806     0.0570     0.0640     2.8190   124.5370     0.0490    13.9440     0.0350     0.2770 
 3580.3330     0.0600     0.0620     2.8230   121.8880     0.0700    13.6570     0.0400     0.2610 
 3580.4854     0.0620     0.0610     2.7810   120.3570     0.0540    13.6400     0.0420     0.2560 
 3580.6378     0.0630     0.0580     2.7430   120.5140     0.0400    13.1640     0.0430     0.2420 
 3580.7902     0.0620     0.0600     2.7530   120.3680     0.0400    13.0760     0.0560     0.2400 
 3580.9426     0.0630     0.0560     2.7450   119.7240     0.0520    13.2090     0.0610     0.2230 
 3581.0950     0.0630     0.0580     2.7440   120.5330     0.0550    12.7570     0.0650     0.2380 
 3581.2474     0.0620     0.0650     2.7300   120.5370     0.0430    12.3450     0.0630     0.2700 
 3581.3998     0.0620     0.0640     2.7450   120.9360     0.0270    12.4620     0.0630     0.2780 
 3581.5522     0.0630     0.0600     2.7440   121.4820     0.0220    12.3660     0.0630     0.2650 
 3581.7046     0.0630     0.0560     2.7530   120.6630     0.0460    12.2200     0.0630     0.2500 
 3581.8570     0.0640     0.0550     2.7730   120.2890     0.0590    12.0060     0.0620     0.2440 
 3582.0094     0.0630     0.0560     2.7630   119.5160     0.0530    12.2680     0.0630     0.2510 
 3582.1618     0.0630     0.0550     2.7490   118.9640     0.0430    12.3910     0.0650     0.2410 
 3582.3142     0.0630     0.0410     2.7330   118.7190     0.0530    12.6900     0.0670     0.1850 
 3582.4666     0.0630     0.0250     2.7190   118.9350     0.0600    13.0290     0.0750     0.1120 
 3582.6190     0.0630     0.0040     2.7310   118.9780     0.0670    13.6380     0.0750     0.0180 
 3582.7714     0.0630     0.0000     2.7310   118.6170     0.0610    13.8140     0.0750     0.0000 
 3582.9238     0.0630     0.0000     2.7770   120.7380     0.0630    13.6900     0.0690     0.0000 
 3583.0762     0.0630     0.0000     2.8550   124.6040     0.0660    13.4710     0.0640     0.0000 
 3583.2286     0.0640     0.0000     2.9110   123.2740     0.0840    13.4700     0.0590     0.0000 
 3583.3810     0.0630     0.0000     2.8660   120.8580     0.0800    13.5200     0.0630     0.0000 
 3583.5334     0.0630     0.0020     2.7760   118.1380     0.0700    13.5170     0.0580     0.0100 
 3583.6858     0.0620     0.0130     2.7210   118.1630     0.0720    13.8160     0.0570     0.0620 
 3583.8382     0.0620     0.0250     2.7180   118.6990     0.0650    14.3840     0.0560     0.1210 
 3583.9906     0.0620     0.0320     2.7300   119.3610     0.0460    14.7660     0.0630     0.1520 
 3584.1430     0.0620     0.0340     2.7390   119.2180     0.0380    14.8580     0.0700     0.1620 
 3584.2954     0.0620     0.0340     2.7380   118.2780     0.0190    15.0110     0.0610     0.1660 
 3584.4478     0.0620     0.0390     2.7060   119.1160     0.0210    15.1350     0.0500     0.1940 
 3584.6002     0.0620     0.0330     2.7350   118.2890     0.0430    15.3350     0.0520     0.1690 
 3584.7526     0.0620     0.0240     2.7250   119.0690     0.0330    15.3620     0.0550     0.1250 
 3584.9050     0.0610     0.0180     2.7390   118.6570     0.0360    15.2670     0.0540     0.0930 
 3585.0574     0.0610     0.0240     2.7460   119.1230     0.0330    15.3330     0.0500     0.1230 
 3585.2098     0.0610     0.0280     2.7430   118.3510     0.0320    15.5320     0.0470     0.1420 
 3585.3622     0.0600     0.0310     2.7260   118.8400     0.0390    15.6020     0.0570     0.1520 
 3585.5146     0.0590     0.0250     2.7460   118.9510     0.0480    15.4390     0.0580     0.1230 
 3585.6670     0.0580     0.0250     2.7370   117.8150     0.0380    15.6080     0.0540     0.1230 
 3585.8194     0.0560     0.0250     2.7080   118.4690     0.0550    15.7780     0.0460     0.1220 
 3585.9718     0.0530     0.0280     2.7310   119.1970     0.0570    15.5530     0.0470     0.1320 
 3586.1242     0.0490     0.0260     2.7470   118.8710     0.0530    15.4270     0.0460     0.1220 
 3586.2766     0.0450     0.0220     2.7310   119.5340     0.0600    15.5800     0.0420     0.1030 
 3586.4290     0.0400     0.0230     2.7550   119.7910     0.0510    15.9310     0.0450     0.1090 
 3586.5814     0.0370     0.0260     2.7370   120.3580     0.0370    16.0720     0.0460     0.1200 
 3586.7338     0.0340     0.0320     2.7550   120.8940     0.0350    16.4600     0.0420     0.1500 
 3586.8862     0.0320     0.0310     2.7660   119.7020     0.0280    16.5180     0.0460     0.1530 
 3587.0386     0.0310     0.0370     2.7280   120.6960     0.0300    17.1610     0.0450     0.1850 
 3587.1910     0.0320     0.0390     2.7620   120.5730     0.0470    17.1900     0.0390     0.1910 
 3587.3434     0.0340     0.0320     2.7610   120.8120     0.0450    17.0690     0.0380     0.1610 
 3587.4958     0.0350     0.0300     2.7650   119.4700     0.0510    16.8800     0.0340     0.1430 
 3587.6482     0.0370     0.0280     2.7450   120.2470     0.0360    16.9620     0.0340     0.1310 
 3587.8006     0.0380     0.0270     2.7610   119.4770     0.0400    16.4200     0.0370     0.1280 
 3587.9530     0.0370     0.0320     2.7590   119.2280     0.0430    16.5650     0.0350     0.1560 
 3588.1054     0.0360     0.0330     2.7350   120.2060     0.0390    16.6830     0.0310     0.1620 
