~Version Information
 VERS.                  2.0:   CWLS log ASCII Standard -VERSION 2.0
 WRAP.                   NO:   One line per depth step
~Well Information Block
#MNEM.UNIT       Data Type    Information
#---------     -----------    ---------------------------
 STRT.M              2880.6599:
 STOP.M              3414.2598:
 STEP.M                 0.1524:
 NULL.               -999.2500:
 UWI .            NO 15/9-F-14:  UWI
 API .            NO 15/9-F-14:  UWI
 WELL.               15/9-F-14:  COMMON WELL NAME
 COMP.                 STATOIL:  WELL OPERATOR
 FLD .                   VOLVE:  FIELD
 LIC .              NO PL046BS:  AUTHORIZATION NO
 LOC .                 UNKNOWN:  BASIN
 CTRY.                  Norway:  COUNTRY
 STAT.                 UNKNOWN:  STATE
 CNTY.                 UNKNOWN:  COUNTY
 PROV.                 UNKNOWN:  STATE
 SRVC.                 UNKNOWN:  COMPANY
 DATE.                 UNKNOWN:  LOG RUN DATE
 LONG.             1.887521912:  LONGITUDE
 LATI.            58.441602475:  LATITUDE
 XCOORD.           435052.4375:  X COORDINATE
 YCOORD.          6478562.5000:  Y COORDINATE
 ELEV.M                54.9000:  ELEVATION
 TD  .M              3750.0000:  TOTAL DEPTH
~Parameter Information Block
#MNEM.UNIT       Value        Description
#---------     -----------    ---------------------------
~Curve Information Block
#MNEM.UNIT                 API CODE     Curve Description
#---------               -----------    ---------------------------
 DEPTH.M                00 000 000 000:  Index Curve
 plt302S-QGAS.            00 000 000 000:  gas rate
 plt302S-QOIL.            00 000 000 000:  oil rate
 plt302S-QTOT.            00 000 000 000:  
 plt302S-QWAT.            00 000 000 000:  
 plt302S-WPRE.BAR         00 000 000 000:  
 plt302S-WTEP.DEGC        00 000 000 000:  
 plt302S-YG.NONE        00 000 000 000:  
 plt302S-YO.NONE        00 000 000 000:  
~A DEPTH     plt302S-QGAS plt302S-QOIL plt302S-QTOT plt302S-QWAT plt302S-WPRE plt302S-WTEP plt302S-YG plt302S-YO
# ...
 2917.2287     0.0000     0.0000   -16.4284   -16.4284   320.7720   105.3333     0.0000     0.0000 
 2917.3811     0.0000     0.0000   -17.5336   -17.5336   320.7799   105.3356     0.0000     0.0000 
 2917.5334     0.0000     0.0000   -18.6389   -18.6389   320.7858   105.3379     0.0000     0.0000 
 2917.6858     0.0000     0.3102   -18.6392   -18.9494   320.7878   105.3402     0.0000     0.0016 
 2917.8382     0.0000     2.0563   -13.5240   -15.5803   320.7907   105.3425     0.0000     0.0103 
 2917.9906     0.0000     3.8025    -8.4088   -12.2112   320.7992   105.3448     0.0000     0.0190 
 2918.1429     0.0000     5.5486    -3.2935    -8.8421   320.8122   105.3467     0.0000     0.0277 
 2918.2953     0.0000     7.2947     1.8217    -5.4731   320.8270   105.3478     0.0000     0.0364 
 2918.4477     0.0000     9.0409     6.9369    -2.1040   320.8406   105.3486     0.0000     0.0452 
 2918.6000     0.0000    10.7870    12.0521     1.2651   320.8507   105.3499     0.0000     0.0539 
 2918.7524     0.0000    10.3859    12.6536     2.2677   320.8584   105.3513     0.0000     0.0519 
 2918.9048     0.0000     8.6398    10.4277     1.7880   320.8658   105.3524     0.0000     0.0432 
 2919.0572     0.0000     6.8936     8.2018     1.3082   320.8710   105.3536     0.0000     0.0344 
 2919.2095     0.0000     5.1475     5.9759     0.8285   320.8725   105.3545     0.0000     0.0257 
 2919.3619     0.0000     3.4013     3.7501     0.3487   320.8750   105.3555     0.0000     0.0170 
 2919.5143     0.0000     1.6552     1.5242    -0.1310   320.8823   105.3568     0.0000     0.0083 
 2919.6666     0.0000     0.0000    -0.7380    -0.7380   320.8943   105.3577     0.0000     0.0000 
 2919.8190     0.0000     0.0000    -3.6607    -3.6607   320.9090   105.3580     0.0000     0.0000 
 2919.9714     0.0000     0.0000    -6.5833    -6.5833   320.9234   105.3584     0.0000     0.0000 
 2920.1237     0.0000     0.0000    -9.5060    -9.5060   320.9347   105.3595     0.0000     0.0000 
 2920.2761     0.0000     0.0000   -12.4287   -12.4287   320.9424   105.3617     0.0000     0.0000 
 2920.4285     0.0000     0.0000   -15.3514   -15.3514   320.9488   105.3651     0.0000     0.0000 
 2920.5808     0.0000     0.0000   -18.2740   -18.2740   320.9534   105.3684     0.0000     0.0000 
 2920.7332     0.0000     0.7268   -17.5659   -18.2927   320.9555   105.3710     0.0000     0.0036 
 2920.8856     0.0000     2.2122   -13.0686   -15.2808   320.9582   105.3724     0.0000     0.0111 
 2921.0380     0.0000     3.6975    -8.5714   -12.2689   320.9650   105.3738     0.0000     0.0185 
 2921.1903     0.0000     5.1828    -4.0741    -9.2569   320.9758   105.3755     0.0000     0.0260 
 2921.3427     0.0000     6.6682     0.4232    -6.2450   320.9907   105.3769     0.0000     0.0334 
 2921.4951     0.0000     8.1535     4.9204    -3.2331   321.0057   105.3766     0.0000     0.0409 
 2921.6474     0.0000     9.6389     9.4177    -0.2211   321.0176   105.3770     0.0000     0.0483 
 2921.7998     0.0000     8.3717     7.5158    -0.8559   321.0256   105.3786     0.0000     0.0420 
 2921.9522     0.0000     6.8863     5.1067    -1.7797   321.0327   105.3802     0.0000     0.0345 
 2922.1046     0.0000     5.4010     2.6976    -2.7034   321.0376   105.3824     0.0000     0.0271 
 2922.2569     0.0000     3.9157     0.2885    -3.6272   321.0406   105.3847     0.0000     0.0196 
 2922.4093     0.0000     2.4303    -2.1207    -4.5510   321.0442   105.3860     0.0000     0.0122 
 2922.5617     0.0000     0.9450    -4.5298    -5.4748   321.0508   105.3863     0.0000     0.0047 
 2922.7140     0.0000     0.0000    -7.5941    -7.5941   321.0615   105.3870     0.0000     0.0000 
 2922.8664     0.0000     0.0000   -11.8041   -11.8041   321.0732   105.3879     0.0000     0.0000 
 2923.0188     0.0000     0.0000   -16.0141   -16.0141   321.0856   105.3892     0.0000     0.0000 
 2923.1711     0.0000     0.0000   -20.2241   -20.2241   321.0954   105.3905     0.0000     0.0000 
 2923.3235     0.0000     0.0000   -24.4342   -24.4342   321.1023   105.3926     0.0000     0.0000 
 2923.4759     0.0000     0.0000   -28.6442   -28.6442   321.1102   105.3940     0.0000     0.0000 
 2923.6283     0.0000     0.0000   -32.8542   -32.8542   321.1177   105.3947     0.0000     0.0000 
 2923.7806     0.0000     0.2963   -29.2834   -29.5796   321.1221   105.3957     0.0000     0.0015 
 2923.9330     0.0000     0.6661   -23.7797   -24.4458   321.1254   105.3964     0.0000     0.0033 
 2924.0854     0.0000     1.0360   -18.2760   -19.3120   321.1324   105.3980     0.0000     0.0052 
 2924.2377     0.0000     1.4058   -12.7724   -14.1782   321.1418   105.3989     0.0000     0.0071 
 2924.3901     0.0000     1.7757    -7.2687    -9.0444   321.1524   105.3987     0.0000     0.0089 
 2924.5425     0.0000     2.1455    -1.7651    -3.9106   321.1653   105.3984     0.0000     0.0108 
 2924.6948     0.0000     2.3391     2.2086    -0.1305   321.1764   105.3997     0.0000     0.0117 
 2924.8472     0.0000     1.9693     1.2909    -0.6784   321.1845   105.4018     0.0000     0.0099 
 2924.9996     0.0000     1.5994     0.3731    -1.2263   321.1916   105.4033     0.0000     0.0080 
 2925.1519     0.0000     1.2296    -0.5446    -1.7742   321.1991   105.4047     0.0000     0.0062 
 2925.3043     0.0000     0.8597    -1.4623    -2.3221   321.2036   105.4061     0.0000     0.0043 
 2925.4567     0.0000     0.4899    -2.3801    -2.8699   321.2042   105.4076     0.0000     0.0025 
 2925.6091     0.0000     0.1200    -3.2978    -3.4178   321.2090   105.4094     0.0000     0.0006 
 2925.7614     0.0000     0.0000    -6.7103    -6.7103   321.2189   105.4113     0.0000     0.0000 
 2925.9138     0.0000     0.0000   -11.3213   -11.3213   321.2314   105.4125     0.0000     0.0000 
 2926.0662     0.0000     0.0000   -15.9323   -15.9323   321.2462   105.4129     0.0000     0.0000 
 2926.2185     0.0000     0.0000   -20.5433   -20.5433   321.2589   105.4129     0.0000     0.0000 
 2926.3709     0.0000     0.0000   -25.1543   -25.1543   321.2670   105.4144     0.0000     0.0000 
 2926.5233     0.0000     0.0000   -29.7653   -29.7653   321.2730   105.4166     0.0000     0.0000 
 2926.6757     0.0000     0.0287   -33.2463   -33.2750   321.2796   105.4186     0.0000     0.0001 
 2926.8280     0.0000     0.2833   -27.8328   -28.1161   321.2827   105.4205     0.0000     0.0014 
 2926.9804     0.0000     0.5379   -22.4193   -22.9572   321.2827   105.4222     0.0000     0.0027 
 2927.1328     0.0000     0.7925   -17.0058   -17.7983   321.2865   105.4232     0.0000     0.0040 
 2927.2851     0.0000     1.0471   -11.5923   -12.6395   321.2965   105.4237     0.0000     0.0052 
 2927.4375     0.0000     1.3017    -6.1788    -7.4806   321.3104   105.4245     0.0000     0.0065 
 2927.5899     0.0000     1.5563    -0.7653    -2.3217   321.3257   105.4253     0.0000     0.0078 
 2927.7422     0.0000     1.5309     1.0231    -0.5078   321.3395   105.4265     0.0000     0.0077 
 2927.8946     0.0000     1.2763    -0.1549    -1.4312   321.3500   105.4285     0.0000     0.0064 
 2928.0470     0.0000     1.0217    -1.3330    -2.3547   321.3569   105.4307     0.0000     0.0051 
 2928.1993     0.0000     0.7671    -2.5110    -3.2781   321.3621   105.4323     0.0000     0.0038 
 2928.3517     0.0000     0.5125    -3.6890    -4.2015   321.3652   105.4332     0.0000     0.0026 
 2928.5041     0.0000     0.2579    -4.8671    -5.1249   321.3668   105.4336     0.0000     0.0013 
 2928.6565     0.0000     0.0033    -6.0451    -6.0484   321.3703   105.4343     0.0000     0.0000 
 2928.8088     0.0000     0.0000   -10.4116   -10.4116   321.3782   105.4354     0.0000     0.0000 
 2928.9612     0.0000     0.0000   -14.8194   -14.8194   321.3907   105.4365     0.0000     0.0000 
 2929.1136     0.0000     0.0000   -19.2272   -19.2272   321.4056   105.4377     0.0000     0.0000 
 2929.2659     0.0000     0.0000   -23.6350   -23.6350   321.4190   105.4400     0.0000     0.0000 
