~Version Information
 VERS.                  2.0:   CWLS log ASCII Standard -VERSION 2.0
 WRAP.                   NO:   One line per depth step
~Well Information Block
#MNEM.UNIT       Data Type    Information
#---------     -----------    ---------------------------
 STRT.M              2954.2739:
 STOP.M              3647.5415:
 STEP.M                 0.1524:
 NULL.               -999.2500:
 UWI .            NO 15/9-F-14:  UWI
 API .            NO 15/9-F-14:  UWI
 WELL.               15/9-F-14:  COMMON WELL NAME
 COMP.                 STATOIL:  WELL OPERATOR
 FLD .                   VOLVE:  FIELD
 LIC .              NO PL046BS:  AUTHORIZATION NO
 LOC .                 UNKNOWN:  BASIN
 CTRY.                  Norway:  COUNTRY
 STAT.                 UNKNOWN:  STATE
 CNTY.                 UNKNOWN:  COUNTY
 PROV.                 UNKNOWN:  STATE
 SRVC.                 UNKNOWN:  COMPANY
 DATE.                 UNKNOWN:  LOG RUN DATE
 LONG.             1.887521912:  LONGITUDE
 LATI.            58.441602475:  LATITUDE
 XCOORD.           435052.4375:  X COORDINATE
 YCOORD.          6478562.5000:  Y COORDINATE
 ELEV.M                54.9000:  ELEVATION
 TD  .M              3750.0000:  TOTAL DEPTH
~Parameter Information Block
#MNEM.UNIT       Value        Description
#---------     -----------    ---------------------------
~Curve Information Block
#MNEM.UNIT                 API CODE     Curve Description
#---------               -----------    ---------------------------
 DEPTH.M                00 000 000 000:  Index Curve
 sat201IC-BHOF.NONE        00 000 000 000:  IC mode, Estimated Borehole Oil Fraction
 sat201IC-BVW.V/V         00 000 000 000:  IC mode, Estimated Bulk Volume of Water; 'sat201IC-SW'*'PHIF'
 sat201IC-CRRA.NONE        00 000 000 000:  IC mode, RST Near/Far Instantaneous Count Rate Ratio
 sat201IC-FBEF.UA          00 000 000 000:  IC mode, RST Far Effective Beam Current
 sat201IC-FCOR.NONE        00 000 000 000:  IC mode, RST Far Carbon/Oxygen Ratio
 sat201IC-GR.GAPI        00 000 000 000:  IC mode, Gamma Ray
 sat201IC-NCOR.NONE        00 000 000 000:  IC mode, RST Near Carbon/Oxygen Ratio
 sat201IC-SW.V/V         00 000 000 000:  IC mode, Estimated Water Saturation
~A DEPTH     sat201IC-BHOF sat201IC-BVW sat201IC-CRRA sat201IC-FBEF sat201IC-FCOR sat201IC-GR sat201IC-NCOR sat201IC-SW
# ...
 3222.4979     0.0360     0.1500     2.7510   121.8140    -0.0130    29.8670    -0.0030     0.8860 
 3222.6503     0.0340     0.1530     2.8170   119.9820    -0.0180    30.8240     0.0090     0.8470 
 3222.8027     0.0340     0.1610     2.7800   120.0050    -0.0040    31.6980     0.0150     0.8900 
 3222.9551     0.0340     0.1520     2.7970   118.7800    -0.0040    32.4740     0.0160     0.9540 
 3223.1075     0.0350     0.1590     2.7690   117.7560    -0.0100    32.7420     0.0200     1.0000 
 3223.2599     0.0330     0.1570     2.7540   119.7130    -0.0080    33.2370     0.0210     1.0000 
 3223.4123     0.0310     0.1630     2.7790   120.2150    -0.0190    33.1700     0.0200     0.9770 
 3223.5647     0.0290     0.1660     2.7860   119.6710    -0.0250    32.7760     0.0160     0.8610 
 3223.7171     0.0260     0.1560     2.7980   119.0980    -0.0240    32.1490     0.0100     0.7510 
 3223.8695     0.0230     0.1500     2.7950   117.5500    -0.0360    32.0510     0.0080     0.6720 
 3224.0219     0.0210     0.1500     2.7550   118.1230    -0.0450    31.5560     0.0160     0.6270 
 3224.1743     0.0180     0.1440     2.7540   119.1280    -0.0270    31.7370     0.0230     0.6090 
 3224.3267     0.0170     0.1560     2.7680   121.9110    -0.0030    32.4130     0.0270     0.6610 
 3224.4791     0.0180     0.1700     2.8090   123.0180     0.0020    33.5230     0.0290     0.7370 
 3224.6315     0.0200     0.1900     2.8220   124.1020     0.0000    34.1480     0.0310     0.8190 
 3224.7839     0.0220     0.2020     2.8370   124.5350    -0.0030    35.3940     0.0340     0.8760 
 3224.9363     0.0230     0.2010     2.8390   125.4100    -0.0020    37.6770     0.0390     0.8780 
 3225.0887     0.0230     0.1980     2.8780   125.7650     0.0100    38.6920     0.0380     0.8470 
 3225.2411     0.0230     0.1950     2.8850   127.2300    -0.0060    38.3930     0.0300     0.7840 
 3225.3935     0.0240     0.1810     2.9650   131.9790    -0.0240    37.7140     0.0200     0.7210 
 3225.5459     0.0250     0.1560     3.1310   132.0440    -0.0180    37.3000     0.0060     0.6630 
 3225.6983     0.0250     0.1380     3.0850   129.3340    -0.0060    35.7640     0.0040     0.6520 
 3225.8507     0.0250     0.1350     2.9610   126.3760    -0.0120    34.7210     0.0050     0.6970 
 3226.0031     0.0260     0.1340     2.8770   125.3630    -0.0140    33.8690    -0.0030     0.7650 
 3226.1555     0.0280     0.1510     2.8530   124.2620    -0.0240    34.4840    -0.0050     0.7980 
 3226.3079     0.0290     0.1560     2.8210   124.0430    -0.0170    33.7270    -0.0030     0.7900 
 3226.4603     0.0300     0.1590     2.8280   123.8730    -0.0180    33.1150     0.0080     0.7840 
 3226.6127     0.0300     0.1610     2.8520   123.9400    -0.0290    33.1120     0.0200     0.7680 
 3226.7651     0.0300     0.1530     2.8420   122.9700    -0.0300    33.8240     0.0220     0.7230 
 3226.9175     0.0310     0.1440     2.8310   122.1890    -0.0130    33.8350     0.0190     0.6750 
 3227.0699     0.0310     0.1240     2.7950   124.8660    -0.0060    34.0090     0.0140     0.6400 
 3227.2223     0.0320     0.1190     2.8620   124.5860     0.0150    34.5230     0.0080     0.6670 
 3227.3747     0.0330     0.1170     2.8500   124.7620     0.0110    34.5230     0.0090     0.7050 
 3227.5271     0.0330     0.1180     2.8730   123.2520     0.0080    34.7080     0.0010     0.7310 
 3227.6795     0.0340     0.1200     2.8310   123.3230     0.0070    34.9790    -0.0010     0.7630 
 3227.8319     0.0330     0.1240     2.8180   123.3680     0.0010    36.0300     0.0020     0.7900 
 3227.9843     0.0310     0.1300     2.8220   123.7240    -0.0140    36.2380     0.0060     0.8420 
 3228.1367     0.0290     0.1280     2.8400   121.7370    -0.0170    36.3270     0.0190     0.8290 
 3228.2891     0.0280     0.1240     2.8020   122.1150    -0.0360    36.3790     0.0300     0.7880 
 3228.4415     0.0270     0.1210     2.8250   120.9570    -0.0360    36.3880     0.0360     0.7130 
 3228.5939     0.0250     0.1180     2.7920   121.1760    -0.0350    36.3890     0.0420     0.6720 
 3228.7463     0.0240     0.1030     2.7900   122.2110    -0.0300    36.9380     0.0420     0.5990 
 3228.8987     0.0220     0.1010     2.7960   122.4600    -0.0150    37.3930     0.0390     0.5800 
 3229.0511     0.0200     0.0950     2.7990   123.5130    -0.0110    38.0640     0.0390     0.5560 
 3229.2035     0.0190     0.0950     2.8320   122.8040    -0.0170    38.3530     0.0360     0.6220 
 3229.3559     0.0170     0.0960     2.8130   122.8050    -0.0210    38.1860     0.0320     0.7270 
 3229.5083     0.0160     0.0960     2.8050   123.1320    -0.0190    37.9390     0.0260     0.9150 
 3229.6607     0.0170     0.0900     2.8170   123.3730    -0.0150    36.9240     0.0240     1.0000 
 3229.8131     0.0170     0.0880     2.8410   121.9010    -0.0100    34.5600     0.0220     1.0000 
 3229.9655     0.0190     0.0940     2.8250   120.7480    -0.0120    32.2860     0.0160     0.9630 
 3230.1179     0.0210     0.0860     2.8040   114.7890    -0.0050    29.5520     0.0160     0.7580 
 3230.2703     0.0240     0.0610     2.7330   113.4640    -0.0100    26.1600     0.0130     0.4810 
 3230.4227     0.0260     0.0480     2.7110   111.2170     0.0010    24.0130     0.0190     0.3380 
 3230.5751     0.0260     0.0440     2.6560   111.1920    -0.0020    23.0720     0.0230     0.2960 
 3230.7275     0.0260     0.0490     2.6610   111.1150    -0.0070    22.7140     0.0240     0.3220 
 3230.8799     0.0270     0.0480     2.6430   112.5980    -0.0120    23.0350     0.0230     0.3370 
 3231.0323     0.0270     0.0610     2.6690   116.5340    -0.0130    24.3490     0.0320     0.4040 
 3231.1847     0.0280     0.0720     2.7060   116.8400    -0.0290    25.9220     0.0260     0.4560 
 3231.3371     0.0280     0.0900     2.7290   118.8240    -0.0310    28.4270     0.0200     0.5290 
 3231.4895     0.0290     0.1020     2.7650   121.9410    -0.0360    30.9480     0.0130     0.5940 
 3231.6419     0.0300     0.1030     2.8630   123.4940    -0.0260    34.2440     0.0050     0.6490 
 3231.7943     0.0310     0.1120     2.8820   123.9660    -0.0240    37.0820     0.0000     0.7790 
 3231.9467     0.0310     0.1230     2.8750   124.0550    -0.0180    39.4560     0.0010     0.9540 
 3232.0991     0.0300     0.0880     2.8440   122.6690    -0.0250    40.8530     0.0010     0.9750 
 3232.2515     0.0280     0.0820     2.8140   124.0270    -0.0110    42.4060     0.0060     0.8270 
 3232.4039     0.0260     0.0820     2.8390   124.7170     0.0070    42.5840     0.0170     0.5770 
 3232.5563     0.0230     0.0560     2.8660   124.5880     0.0140    42.7490     0.0150     0.3860 
 3232.7087     0.0200     0.0430     2.8600   123.4550     0.0170    43.0460     0.0210     0.2980 
 3232.8611     0.0190     0.0240     2.8540   122.5160     0.0240    41.9940     0.0220     0.1770 
 3233.0135     0.0170     0.0090     2.8450   121.8430     0.0240    39.5810     0.0220     0.0650 
 3233.1659     0.0160     0.0000     2.8170   120.0540     0.0370    36.9520     0.0210     0.0030 
 3233.3183     0.0150     0.0050     2.7840   120.4240     0.0360    34.0660     0.0250     0.0380 
 3233.4707     0.0150     0.0210     2.7840   119.1020     0.0160    30.7300     0.0190     0.1520 
 3233.6231     0.0150     0.0400     2.7760   118.5520     0.0020    28.8730     0.0200     0.2850 
 3233.7755     0.0170     0.0630     2.7610   117.1510    -0.0130    27.9290     0.0250     0.4140 
 3233.9279     0.0180     0.0900     2.7200   117.9590    -0.0310    27.3760     0.0270     0.5480 
 3234.0803     0.0200     0.1160     2.7490   116.8740    -0.0410    26.9410     0.0300     0.6830 
 3234.2327     0.0210     0.1310     2.7170   118.6860    -0.0510    27.2390     0.0250     0.7700 
 3234.3851     0.0230     0.1360     2.7570   117.6550    -0.0460    26.9260     0.0190     0.8130 
 3234.5375     0.0240     0.1300     2.7460   118.2270    -0.0230    27.8880     0.0220     0.8190 
