~Version Information
 VERS.                  2.0:   CWLS log ASCII Standard -VERSION 2.0
 WRAP.                   NO:   One line per depth step
~Well Information Block
#MNEM.UNIT       Data Type    Information
#---------     -----------    ---------------------------
 STRT.M              2954.2739:
 STOP.M              3647.5415:
 STEP.M                 0.1524:
 NULL.               -999.2500:
 UWI .            NO 15/9-F-14:  UWI
 API .            NO 15/9-F-14:  UWI
 WELL.               15/9-F-14:  COMMON WELL NAME
 COMP.                 STATOIL:  WELL OPERATOR
 FLD .                   VOLVE:  FIELD
 LIC .              NO PL046BS:  AUTHORIZATION NO
 LOC .                 UNKNOWN:  BASIN
 CTRY.                  Norway:  COUNTRY
 STAT.                 UNKNOWN:  STATE
 CNTY.                 UNKNOWN:  COUNTY
 PROV.                 UNKNOWN:  STATE
 SRVC.                 UNKNOWN:  COMPANY
 DATE.                 UNKNOWN:  LOG RUN DATE
 LONG.             1.887521912:  LONGITUDE
 LATI.            58.441602475:  LATITUDE
 XCOORD.           435052.4375:  X COORDINATE
 YCOORD.          6478562.5000:  Y COORDINATE
 ELEV.M                54.9000:  ELEVATION
 TD  .M              3750.0000:  TOTAL DEPTH
~Parameter Information Block
#MNEM.UNIT       Value        Description
#---------     -----------    ---------------------------
~Curve Information Block
#MNEM.UNIT                 API CODE     Curve Description
#---------               -----------    ---------------------------
 DEPTH.M                00 000 000 000:  Index Curve
 sat201IC-BHOF.NONE        00 000 000 000:  IC mode, Estimated Borehole Oil Fraction
 sat201IC-BVW.V/V         00 000 000 000:  IC mode, Estimated Bulk Volume of Water; 'sat201IC-SW'*'PHIF'
 sat201IC-CRRA.NONE        00 000 000 000:  IC mode, RST Near/Far Instantaneous Count Rate Ratio
 sat201IC-FBEF.UA          00 000 000 000:  IC mode, RST Far Effective Beam Current
 sat201IC-FCOR.NONE        00 000 000 000:  IC mode, RST Far Carbon/Oxygen Ratio
 sat201IC-GR.GAPI        00 000 000 000:  IC mode, Gamma Ray
 sat201IC-NCOR.NONE        00 000 000 000:  IC mode, RST Near Carbon/Oxygen Ratio
 sat201IC-SW.V/V         00 000 000 000:  IC mode, Estimated Water Saturation
~A DEPTH     sat201IC-BHOF sat201IC-BVW sat201IC-CRRA sat201IC-FBEF sat201IC-FCOR sat201IC-GR sat201IC-NCOR sat201IC-SW
 2954.2739  -999.2500  -999.2500     2.8180   120.0730  -999.2500    34.1170  -999.2500  -999.2500 
 2954.4263  -999.2500  -999.2500     2.8180   120.0730  -999.2500    34.1170  -999.2500  -999.2500 
 2954.5787  -999.2500  -999.2500     2.8180   120.0730  -999.2500    34.1170  -999.2500  -999.2500 
 2954.7311  -999.2500  -999.2500     2.8180   120.0730  -999.2500    34.1170  -999.2500  -999.2500 
 2954.8835  -999.2500  -999.2500     2.8180   120.0730  -999.2500    34.1170  -999.2500  -999.2500 
 2955.0359  -999.2500  -999.2500     2.8180   120.0730  -999.2500    34.1170  -999.2500  -999.2500 
 2955.1883  -999.2500  -999.2500     2.8180   120.0730  -999.2500    34.1170  -999.2500  -999.2500 
 2955.3407  -999.2500  -999.2500     2.8180   120.0730  -999.2500    34.1170  -999.2500  -999.2500 
 2955.4931  -999.2500  -999.2500     2.8180   120.0730  -999.2500    34.1170  -999.2500  -999.2500 
 2955.6455  -999.2500  -999.2500     2.8180   120.0730  -999.2500    34.1170  -999.2500  -999.2500 
 2955.7979  -999.2500  -999.2500     2.8180   120.0730  -999.2500    34.1170  -999.2500  -999.2500 
 2955.9503  -999.2500  -999.2500     2.8180   120.0730  -999.2500    32.5590  -999.2500  -999.2500 
 2956.1027  -999.2500  -999.2500     2.8180   120.0730  -999.2500    31.0140  -999.2500  -999.2500 
 2956.2551  -999.2500  -999.2500     2.8180   120.0730  -999.2500    29.4320  -999.2500  -999.2500 
 2956.4075  -999.2500  -999.2500     2.8180   120.0730  -999.2500    28.5130  -999.2500  -999.2500 
 2956.5599  -999.2500  -999.2500     2.8180   120.0730  -999.2500    28.2600  -999.2500  -999.2500 
 2956.7123  -999.2500  -999.2500     2.8180   120.0730  -999.2500    28.4930  -999.2500  -999.2500 
 2956.8647  -999.2500  -999.2500     2.8180   120.0730  -999.2500    28.7780  -999.2500  -999.2500 
 2957.0171  -999.2500  -999.2500     2.8180   120.0730  -999.2500    29.3730  -999.2500  -999.2500 
 2957.1695  -999.2500  -999.2500     2.8180   120.0730  -999.2500    29.5480  -999.2500  -999.2500 
 2957.3219  -999.2500  -999.2500     2.8180   120.0730  -999.2500    29.5650  -999.2500  -999.2500 
 2957.4743  -999.2500  -999.2500     2.8180   120.0730  -999.2500    29.1670  -999.2500  -999.2500 
 2957.6267  -999.2500  -999.2500     2.8180   120.0730  -999.2500    28.7520  -999.2500  -999.2500 
 2957.7791  -999.2500  -999.2500     2.8180   120.0730  -999.2500    27.3590  -999.2500  -999.2500 
 2957.9315  -999.2500  -999.2500     2.8180   120.0730  -999.2500    26.9480  -999.2500  -999.2500 
 2958.0839  -999.2500  -999.2500     2.8180   120.0730  -999.2500    26.0910  -999.2500  -999.2500 
 2958.2363  -999.2500  -999.2500     2.8180   120.0730  -999.2500    25.3110  -999.2500  -999.2500 
 2958.3887  -999.2500  -999.2500     2.8180   120.0730  -999.2500    24.4060  -999.2500  -999.2500 
 2958.5411  -999.2500  -999.2500     2.8180   120.0730  -999.2500    24.0140  -999.2500  -999.2500 
 2958.6935  -999.2500  -999.2500     2.8180   120.0730  -999.2500    23.4680  -999.2500  -999.2500 
 2958.8459  -999.2500  -999.2500     2.8180   120.0730  -999.2500    23.5130  -999.2500  -999.2500 
 2958.9983  -999.2500  -999.2500     2.8180   120.0730  -999.2500    24.1890  -999.2500  -999.2500 
 2959.1507  -999.2500  -999.2500     2.8180   120.0730  -999.2500    25.0790  -999.2500  -999.2500 
 2959.3031  -999.2500    32.4180     2.8180   120.0730    -0.0040    26.2230     0.0410  1000.2500 
 2959.4555  -999.2500    38.0220     2.8180   120.0730     0.0270    27.3150     0.0630  1000.2500 
 2959.6079  -999.2500    37.7200     2.8180   121.0940     0.0410    28.8000     0.0790  1000.2500 
 2959.7603  -999.2500    39.0460     2.8340   121.6040     0.0340    29.5070     0.0730  1000.2500 
 2959.9127  -999.2500    39.2870     2.8450   120.9550     0.0410    30.6390     0.0700  1000.2500 
 2960.0651  -999.2500    39.7090     2.8230   121.9890     0.0390    31.2010     0.0680  1000.2500 
 2960.2175  -999.2500    36.6350     2.8610   122.0300     0.0340    31.5240     0.0720  1000.2500 
 2960.3699  -999.2500    37.9610     2.8350   122.4500     0.0470    30.8700     0.0770  1000.2500 
 2960.5223  -999.2500    38.6240     2.8520   121.6030     0.0470    31.7780     0.0770  1000.2500 
 2960.6747  -999.2500    40.8530     2.8450   121.8630     0.0630    30.6840     0.0690  1000.2500 
 2960.8271  -999.2500    40.6120     2.8550   121.1120     0.0880    30.8650     0.0720  1000.2500 
 2960.9795  -999.2500    37.4190     2.8450   122.4260     0.0860    31.5210     0.0690  1000.2500 
 2961.1319  -999.2500    40.7330     2.8550   122.1030     0.0880    32.0820     0.0600  1000.2500 
 2961.2843  -999.2500    37.6600     2.8470   123.1220     0.0810    31.5940     0.0480  1000.2500 
 2961.4367  -999.2500    38.9260     2.8760   122.3120     0.0880    32.7800     0.0560  1000.2500 
 2961.5891  -999.2500    36.8770     2.8530   123.1550     0.0840    33.1170     0.0470  1000.2500 
 2961.7415  -999.2500    38.7450     2.8550   122.6240     0.0520    33.0320     0.0430  1000.2500 
 2961.8939  -999.2500    41.6370     2.8700   121.7050     0.0420    33.1600     0.0500  1000.2500 
 2962.0463  -999.2500    38.5640     2.8590   119.4550     0.0540    32.7330     0.0580  1000.2500 
 2962.1987  -999.2500    33.0800     2.8280   119.2130     0.0600    32.5350     0.0720  1000.2500 
 2962.3511  -999.2500    31.0920     2.7900   120.2530     0.0810    31.7300     0.0870  1000.2500 
 2962.5035  -999.2500    29.3440     2.8240   120.4000     0.0770    31.6760     0.0800  1000.2500 
 2962.6559  -999.2500    27.0550     2.8200   120.7220     0.0570    31.7360     0.0810  1000.2500 
 2962.8083  -999.2500    18.4390     2.8260   122.0600     0.0460    32.6420     0.0800  1000.2500 
 2962.9607  -999.2500    16.5700     2.8450   121.5930     0.0330    32.9530     0.0650  1000.2500 
 2963.1131  -999.2500    19.1010     2.8440   122.9880     0.0180    34.3100     0.0610  1000.2500 
 2963.2655  -999.2500    24.8250     2.8640   124.0040     0.0070    34.5760     0.0490  1000.2500 
 2963.4179  -999.2500    24.4040     2.9230   123.0350    -0.0030    35.0370     0.0390  1000.2500 
 2963.5703  -999.2500    26.9350     2.9350   124.5740    -0.0230    35.5600     0.0340  1000.2500 
 2963.7227  -999.2500    22.1140     2.9540   123.9830    -0.0220    35.5070     0.0220  1000.2500 
 2963.8751  -999.2500    23.6200     2.9130   123.7770    -0.0140    35.6910     0.0170  1000.2500 
 2964.0275  -999.2500    24.9460     2.8890   122.5820    -0.0240    36.6470     0.0170  1000.2500 
 2964.1799  -999.2500    32.1160     2.8450   122.8990    -0.0410    37.1760     0.0080  1000.2500 
 2964.3323  -999.2500    37.5990     2.8700   122.4060    -0.0410    37.5040     0.0140  1000.2500 
 2964.4847  -999.2500    39.2270     2.8690   121.2870    -0.0450    38.1230     0.0170  1000.2500 
 2964.6371  -999.2500    38.1430     2.8370   122.2220    -0.0340    38.1830     0.0200  1000.2500 
 2964.7895  -999.2500    34.4670     2.8560   123.5470    -0.0360    38.0960     0.0170  1000.2500 
 2964.9419  -999.2500    34.4070     2.8620   125.6520    -0.0290    38.6500     0.0260  1000.2500 
 2965.0943  -999.2500    37.8400     2.9060   125.3630    -0.0210    38.4050     0.0370  1000.2500 
 2965.2467  -999.2500    46.2770     2.8920   126.4130    -0.0160    39.1610     0.0480  1000.2500 
 2965.3991  -999.2500    53.3870     2.9040   127.2900    -0.0200    39.7960     0.0450  1000.2500 
 2965.5515  -999.2500    58.6900     2.9440   127.3440    -0.0160    40.1460     0.0420  1000.2500 
 2965.7039  -999.2500    58.2080     2.9540   127.1510    -0.0070    39.7210     0.0490  1000.2500 
 2965.8563  -999.2500    53.8680     2.9460   127.9740     0.0040    39.9200     0.0700  1000.2500 
 2966.0087  -999.2500    52.9050     2.9550   126.8000     0.0160    39.7730     0.0750  1000.2500 
 2966.1611  -999.2500    56.2790     2.9060   127.4270     0.0170    39.7220     0.0660  1000.2500 
 2966.3135  -999.2500    63.5700     2.9270   128.9760     0.0150    40.1020     0.0650  1000.2500 
