~Version Information
 VERS.                  2.0:   CWLS log ASCII Standard -VERSION 2.0
 WRAP.                   NO:   One line per depth step
~Well Information Block
#MNEM.UNIT       Data Type    Information
#---------     -----------    ---------------------------
 STRT.M              2880.6599:
 STOP.M              3414.2598:
 STEP.M                 0.1524:
 NULL.               -999.2500:
 UWI .            NO 15/9-F-14:  UWI
 API .            NO 15/9-F-14:  UWI
 WELL.               15/9-F-14:  COMMON WELL NAME
 COMP.                 STATOIL:  WELL OPERATOR
 FLD .                   VOLVE:  FIELD
 LIC .              NO PL046BS:  AUTHORIZATION NO
 LOC .                 UNKNOWN:  BASIN
 CTRY.                  Norway:  COUNTRY
 STAT.                 UNKNOWN:  STATE
 CNTY.                 UNKNOWN:  COUNTY
 PROV.                 UNKNOWN:  STATE
 SRVC.                 UNKNOWN:  COMPANY
 DATE.                 UNKNOWN:  LOG RUN DATE
 LONG.             1.887521912:  LONGITUDE
 LATI.            58.441602475:  LATITUDE
 XCOORD.           435052.4375:  X COORDINATE
 YCOORD.          6478562.5000:  Y COORDINATE
 ELEV.M                54.9000:  ELEVATION
 TD  .M              3750.0000:  TOTAL DEPTH
~Parameter Information Block
#MNEM.UNIT       Value        Description
#---------     -----------    ---------------------------
~Curve Information Block
#MNEM.UNIT                 API CODE     Curve Description
#---------               -----------    ---------------------------
 DEPTH.M                00 000 000 000:  Index Curve
 plt302S-QGAS.            00 000 000 000:  gas rate
 plt302S-QOIL.            00 000 000 000:  oil rate
 plt302S-QTOT.            00 000 000 000:  
 plt302S-QWAT.            00 000 000 000:  
 plt302S-WPRE.BAR         00 000 000 000:  
 plt302S-WTEP.DEGC        00 000 000 000:  
 plt302S-YG.NONE        00 000 000 000:  
 plt302S-YO.NONE        00 000 000 000:  
~A DEPTH     plt302S-QGAS plt302S-QOIL plt302S-QTOT plt302S-QWAT plt302S-WPRE plt302S-WTEP plt302S-YG plt302S-YO
# ...
 3014.7455     0.0000     0.2100     3.7986     3.5886   325.2746   105.9924     0.0000     0.0008 
 3014.8979     0.0000     0.1749     2.7383     2.5634   325.2765   105.9927     0.0000     0.0007 
 3015.0502     0.0000     0.1397     1.6779     1.5382   325.2813   105.9929     0.0000     0.0005 
 3015.2026     0.0000     0.1045     0.6176     0.5130   325.2886   105.9935     0.0000     0.0004 
 3015.3550     0.0000     0.0694    -0.4427    -0.5121   325.2976   105.9945     0.0000     0.0003 
 3015.5074     0.0000     0.0342    -1.5031    -1.5373   325.3064   105.9947     0.0000     0.0001 
 3015.6597     0.0000     0.0089    -2.5078    -2.5167   325.3155   105.9944     0.0000     0.0000 
 3015.8121     0.0000     0.3442    -1.4675    -1.8116   325.3254   105.9948     0.0000     0.0013 
 3015.9645     0.0000     0.6795    -0.4271    -1.1066   325.3351   105.9954     0.0000     0.0025 
 3016.1168     0.0000     1.0148     0.6132    -0.4016   325.3430   105.9953     0.0000     0.0037 
 3016.2692     0.0000     1.3501     1.6535     0.3034   325.3486   105.9947     0.0000     0.0050 
 3016.4216     0.0000     1.6854     2.6939     1.0085   325.3531   105.9943     0.0000     0.0062 
 3016.5739     0.0000     2.0207     3.7342     1.7135   325.3577   105.9937     0.0000     0.0074 
 3016.7263     0.0000     2.0451     3.5135     1.4684   325.3615   105.9930     0.0000     0.0075 
 3016.8787     0.0000     1.7098     1.8344     0.1246   325.3640   105.9928     0.0000     0.0063 
 3017.0311     0.0000     1.3744     0.1553    -1.2192   325.3665   105.9936     0.0000     0.0051 
 3017.1834     0.0000     1.0391    -1.5238    -2.5630   325.3705   105.9946     0.0000     0.0038 
 3017.3358     0.0000     0.7038    -3.2029    -3.9068   325.3760   105.9948     0.0000     0.0026 
 3017.4882     0.0000     0.3685    -4.8820    -5.2505   325.3833   105.9943     0.0000     0.0014 
 3017.6405     0.0000     0.0332    -6.5611    -6.5943   325.3919   105.9940     0.0000     0.0001 
 3017.7929     0.0000     0.1075    -5.2360    -5.3435   325.4005   105.9943     0.0000     0.0004 
 3017.9453     0.0000     0.2268    -3.5806    -3.8074   325.4081   105.9947     0.0000     0.0008 
 3018.0977     0.0000     0.3461    -1.9253    -2.2713   325.4149   105.9949     0.0000     0.0013 
 3018.2500     0.0000     0.4654    -0.2699    -0.7352   325.4214   105.9951     0.0000     0.0017 
 3018.4024     0.0000     0.5846     1.3855     0.8009   325.4281   105.9952     0.0000     0.0021 
 3018.5548     0.0000     0.7039     3.0409     2.3370   325.4352   105.9952     0.0000     0.0026 
 3018.7071     0.0000     0.7425     3.7302     2.9876   325.4425   105.9949     0.0000     0.0027 
 3018.8595     0.0000     0.6233     2.5287     1.9054   325.4493   105.9940     0.0000     0.0023 
 3019.0119     0.0000     0.5040     1.3272     0.8232   325.4549   105.9931     0.0000     0.0018 
 3019.1642     0.0000     0.3847     0.1257    -0.2590   325.4580   105.9926     0.0000     0.0014 
 3019.3166     0.0000     0.2654    -1.0758    -1.3412   325.4588   105.9924     0.0000     0.0010 
 3019.4690     0.0000     0.1461    -2.2773    -2.4234   325.4611   105.9918     0.0000     0.0005 
 3019.6213     0.0000     0.0268    -3.4788    -3.5056   325.4657   105.9911     0.0000     0.0001 
 3019.7737     0.0000     0.0006    -3.2965    -3.2971   325.4726   105.9913     0.0000     0.0000 
 3019.9261     0.0000     0.0014    -2.7133    -2.7147   325.4818   105.9921     0.0000     0.0000 
 3020.0785     0.0000     0.0022    -2.1302    -2.1324   325.4921   105.9922     0.0000     0.0000 
 3020.2308     0.0000     0.0029    -1.5471    -1.5500   325.5021   105.9913     0.0000     0.0000 
 3020.3832     0.0000     0.0037    -0.9640    -0.9677   325.5100   105.9903     0.0000     0.0000 
 3020.5356     0.0000     0.0045    -0.3809    -0.3853   325.5160   105.9902     0.0000     0.0000 
 3020.6879     0.0000     0.0178     0.1315     0.1137   325.5210   105.9903     0.0000     0.0001 
 3020.8403     0.0000     0.0777     0.3819     0.3042   325.5255   105.9901     0.0000     0.0003 
 3020.9927     0.0000     0.1375     0.6322     0.4947   325.5303   105.9896     0.0000     0.0005 
 3021.1451     0.0000     0.1974     0.8826     0.6852   325.5355   105.9894     0.0000     0.0007 
 3021.2974     0.0000     0.2573     1.1330     0.8757   325.5403   105.9899     0.0000     0.0010 
 3021.4498     0.0000     0.3171     1.3833     1.0662   325.5445   105.9899     0.0000     0.0012 
 3021.6022     0.0000     0.3770     1.6337     1.2567   325.5482   105.9892     0.0000     0.0014 
 3021.7545     0.0000     0.3585     1.1637     0.8052   325.5514   105.9889     0.0000     0.0013 
 3021.9069     0.0000     0.2979     0.3057     0.0078   325.5569   105.9885     0.0000     0.0011 
 3022.0593     0.0000     0.2373    -0.5524    -0.7897   325.5636   105.9876     0.0000     0.0009 
 3022.2116     0.0000     0.1766    -1.4105    -1.5871   325.5718   105.9871     0.0000     0.0007 
 3022.3640     0.0000     0.1160    -2.2685    -2.3845   325.5811   105.9874     0.0000     0.0004 
 3022.5164     0.0000     0.0554    -3.1266    -3.1819   325.5914   105.9874     0.0000     0.0002 
 3022.6687     0.0000     0.0059    -3.8462    -3.8521   325.5998   105.9867     0.0000     0.0000 
 3022.8211     0.0000     0.0735    -3.1153    -3.1888   325.6081   105.9868     0.0000     0.0003 
 3022.9735     0.0000     0.1410    -2.3844    -2.5254   325.6152   105.9868     0.0000     0.0005 
 3023.1259     0.0000     0.2086    -1.6535    -1.8621   325.6213   105.9861     0.0000     0.0008 
 3023.2782     0.0000     0.2761    -0.9226    -1.1988   325.6265   105.9858     0.0000     0.0010 
 3023.4306     0.0000     0.3437    -0.1917    -0.5354   325.6310   105.9859     0.0000     0.0013 
 3023.5830     0.0000     0.4113     0.5392     0.1279   325.6342   105.9853     0.0000     0.0015 
 3023.7353     0.0000     0.4080     0.4263     0.0184   325.6365   105.9847     0.0000     0.0015 
 3023.8877     0.0000     0.3404    -0.4519    -0.7923   325.6391   105.9846     0.0000     0.0013 
 3024.0401     0.0000     0.2729    -1.3301    -1.6029   325.6416   105.9844     0.0000     0.0010 
 3024.1925     0.0000     0.2053    -2.2083    -2.4136   325.6458   105.9842     0.0000     0.0008 
 3024.3448     0.0000     0.1377    -3.0865    -3.2242   325.6529   105.9846     0.0000     0.0005 
 3024.4972     0.0000     0.0702    -3.9647    -4.0349   325.6613   105.9846     0.0000     0.0003 
 3024.6496     0.0000     0.0026    -4.8429    -4.8455   325.6695   105.9846     0.0000     0.0000 
 3024.8019     0.0000     0.0650    -4.0322    -4.0972   325.6782   105.9841     0.0000     0.0002 
 3024.9543     0.0000     0.1325    -3.1540    -3.2865   325.6866   105.9833     0.0000     0.0005 
 3025.1067     0.0000     0.2001    -2.2758    -2.4759   325.6943   105.9829     0.0000     0.0008 
 3025.2590     0.0000     0.2677    -1.3976    -1.6652   325.7009   105.9825     0.0000     0.0010 
 3025.4114     0.0000     0.3352    -0.5193    -0.8546   325.7071   105.9823     0.0000     0.0012 
 3025.5638     0.0000     0.4028     0.3589    -0.0439   325.7132   105.9815     0.0000     0.0015 
 3025.7162     0.0000     0.4165     0.6563     0.2398   325.7196   105.9813     0.0000     0.0016 
 3025.8685     0.0000     0.3489     0.0782    -0.2707   325.7255   105.9821     0.0000     0.0013 
 3026.0209     0.0000     0.2813    -0.4999    -0.7812   325.7279   105.9827     0.0000     0.0010 
 3026.1733     0.0000     0.2138    -1.0779    -1.2917   325.7294   105.9826     0.0000     0.0008 
 3026.3256     0.0000     0.1462    -1.6560    -1.8022   325.7321   105.9817     0.0000     0.0005 
 3026.4780     0.0000     0.0786    -2.2341    -2.3127   325.7361   105.9812     0.0000     0.0003 
 3026.6304     0.0000     0.0111    -2.8122    -2.8233   325.7406   105.9816     0.0000     0.0000 
 3026.7827     0.0000     0.0556    -2.4222    -2.4778   325.7472   105.9800     0.0000     0.0002 
