~Version Information
 VERS.                  2.0:   CWLS log ASCII Standard -VERSION 2.0
 WRAP.                   NO:   One line per depth step
~Well Information Block
#MNEM.UNIT       Data Type    Information
#---------     -----------    ---------------------------
 STRT.M              2954.2739:
 STOP.M              3647.5415:
 STEP.M                 0.1524:
 NULL.               -999.2500:
 UWI .            NO 15/9-F-14:  UWI
 API .            NO 15/9-F-14:  UWI
 WELL.               15/9-F-14:  COMMON WELL NAME
 COMP.                 STATOIL:  WELL OPERATOR
 FLD .                   VOLVE:  FIELD
 LIC .              NO PL046BS:  AUTHORIZATION NO
 LOC .                 UNKNOWN:  BASIN
 CTRY.                  Norway:  COUNTRY
 STAT.                 UNKNOWN:  STATE
 CNTY.                 UNKNOWN:  COUNTY
 PROV.                 UNKNOWN:  STATE
 SRVC.                 UNKNOWN:  COMPANY
 DATE.                 UNKNOWN:  LOG RUN DATE
 LONG.             1.887521912:  LONGITUDE
 LATI.            58.441602475:  LATITUDE
 XCOORD.           435052.4375:  X COORDINATE
 YCOORD.          6478562.5000:  Y COORDINATE
 ELEV.M                54.9000:  ELEVATION
 TD  .M              3750.0000:  TOTAL DEPTH
~Parameter Information Block
#MNEM.UNIT       Value        Description
#---------     -----------    ---------------------------
~Curve Information Block
#MNEM.UNIT                 API CODE     Curve Description
#---------               -----------    ---------------------------
 DEPTH.M                00 000 000 000:  Index Curve
 sat201IC-BHOF.NONE        00 000 000 000:  IC mode, Estimated Borehole Oil Fraction
 sat201IC-BVW.V/V         00 000 000 000:  IC mode, Estimated Bulk Volume of Water; 'sat201IC-SW'*'PHIF'
 sat201IC-CRRA.NONE        00 000 000 000:  IC mode, RST Near/Far Instantaneous Count Rate Ratio
 sat201IC-FBEF.UA          00 000 000 000:  IC mode, RST Far Effective Beam Current
 sat201IC-FCOR.NONE        00 000 000 000:  IC mode, RST Far Carbon/Oxygen Ratio
 sat201IC-GR.GAPI        00 000 000 000:  IC mode, Gamma Ray
 sat201IC-NCOR.NONE        00 000 000 000:  IC mode, RST Near Carbon/Oxygen Ratio
 sat201IC-SW.V/V         00 000 000 000:  IC mode, Estimated Water Saturation
~A DEPTH     sat201IC-BHOF sat201IC-BVW sat201IC-CRRA sat201IC-FBEF sat201IC-FCOR sat201IC-GR sat201IC-NCOR sat201IC-SW
# ...
 3137.1539     0.0370     0.1810     2.7600   122.1690    -0.0190    14.5450     0.0010     0.7570 
 3137.3063     0.0360     0.1830     2.7650   121.5380    -0.0170    14.7860    -0.0010     0.7610 
 3137.4587     0.0350     0.1870     2.7660   121.9170    -0.0200    15.1470     0.0020     0.7890 
 3137.6111     0.0340     0.2000     2.7700   120.5620    -0.0340    14.9240     0.0150     0.8480 
 3137.7635     0.0340     0.2110     2.7390   121.9740    -0.0180    15.0080     0.0110     0.8990 
 3137.9159     0.0340     0.2140     2.7780   120.7260    -0.0180    14.7600     0.0060     0.9110 
 3138.0683     0.0350     0.2200     2.7420   121.8660    -0.0220    14.7720     0.0200     0.9200 
 3138.2207     0.0370     0.2240     2.7630   120.8740    -0.0160    14.7060     0.0300     0.9380 
 3138.3731     0.0390     0.2360     2.7500   121.1900    -0.0210    14.7830     0.0330     0.9760 
 3138.5255     0.0410     0.2430     2.7610   121.9940    -0.0270    14.4600     0.0380     1.0000 
 3138.6779     0.0420     0.2410     2.7690   121.1790    -0.0300    14.5980     0.0300     1.0000 
 3138.8303     0.0440     0.2360     2.7600   121.5270    -0.0320    14.5540     0.0230     1.0000 
 3138.9827     0.0450     0.2370     2.7630   122.1150    -0.0300    14.4650     0.0140     1.0000 
 3139.1351     0.0470     0.2430     2.7720   122.0920    -0.0400    14.4290     0.0130     1.0000 
 3139.2875     0.0500     0.2430     2.7630   122.5050    -0.0440    14.3500     0.0140     1.0000 
 3139.4399     0.0520     0.2410     2.7770   121.6040    -0.0370    14.2800     0.0180     1.0000 
 3139.5923     0.0530     0.2430     2.7680   122.2860    -0.0330    14.3400     0.0080     1.0000 
 3139.7447     0.0540     0.2460     2.7790   122.9750    -0.0290    14.2010     0.0070     1.0000 
 3139.8971     0.0550     0.2450     2.8030   122.7730    -0.0430    14.4200     0.0170     1.0000 
 3140.0495     0.0570     0.2540     2.8070   123.1710    -0.0480    15.1850     0.0330     1.0000 
 3140.2019     0.0580     0.2530     2.7920   123.2440    -0.0410    16.3660     0.0330     1.0000 
 3140.3543     0.0580     0.2540     2.8040   123.8390    -0.0470    17.4370     0.0310     1.0000 
 3140.5067     0.0600     0.2440     2.8150   124.2280    -0.0560    18.8640     0.0250     1.0000 
 3140.6591     0.0600     0.2330     2.8080   123.8320    -0.0680    20.5270     0.0300     1.0000 
 3140.8115     0.0610     0.2150     2.8060   124.2370    -0.0570    21.7230     0.0270     1.0000 
 3140.9639     0.0620     0.1910     2.8050   123.8410    -0.0360    22.2600     0.0200     1.0000 
 3141.1163     0.0620     0.1690     2.8050   124.9120    -0.0310    22.9810     0.0150     1.0000 
 3141.2687     0.0610     0.1540     2.9320   126.8900    -0.0310    23.8800     0.0140     0.9880 
 3141.4211     0.0610     0.1350     3.0170   127.1150    -0.0220    25.2230     0.0210     0.9020 
 3141.5735     0.0590     0.1090     3.0040   121.4660    -0.0040    27.2930     0.0270     0.7170 
 3141.7259     0.0590     0.0890     2.8240   119.0980     0.0080    30.0440     0.0290     0.5650 
 3141.8783     0.0580     0.0770     2.7770   118.0340     0.0070    32.4440     0.0430     0.4880 
 3142.0307     0.0570     0.0760     2.7380   118.3990     0.0120    34.7320     0.0570     0.4730 
 3142.1831     0.0560     0.0840     2.7410   118.4540     0.0040    35.7630     0.0620     0.5200 
 3142.3355     0.0540     0.1060     2.7400   118.4330    -0.0080    36.4610     0.0630     0.6230 
 3142.4879     0.0510     0.1200     2.7210   119.4750    -0.0030    37.0370     0.0540     0.7080 
 3142.6403     0.0490     0.1270     2.7680   119.7520    -0.0140    37.6770     0.0540     0.7520 
 3142.7927     0.0460     0.1310     2.7550   118.8740    -0.0140    37.8060     0.0460     0.7660 
 3142.9451     0.0440     0.1420     2.7610   119.5880    -0.0300    37.7840     0.0400     0.8100 
 3143.0975     0.0430     0.1460     2.7680   119.8990    -0.0530    37.7020     0.0320     0.8170 
 3143.2499     0.0410     0.1500     2.7630   120.3090    -0.0410    37.4120     0.0270     0.7990 
 3143.4023     0.0390     0.1370     2.7620   121.6700    -0.0130    36.7550     0.0200     0.7110 
 3143.5547     0.0380     0.1260     2.7790   121.0080    -0.0070    36.4950     0.0180     0.6630 
 3143.7071     0.0370     0.1200     2.7700   120.6740    -0.0030    36.6790     0.0170     0.6240 
 3143.8595     0.0360     0.1170     2.7800   120.8040    -0.0020    37.4100     0.0210     0.6070 
 3144.0119     0.0340     0.1120     2.7780   122.1430     0.0190    37.8940     0.0210     0.5580 
 3144.1643     0.0310     0.1040     2.7940   121.9010     0.0280    39.0630     0.0230     0.5120 
 3144.3167     0.0290     0.0970     2.7950   121.6230     0.0200    40.2430     0.0170     0.4830 
 3144.4691     0.0260     0.1030     2.7870   122.0880     0.0080    41.3580     0.0210     0.4870 
 3144.6215     0.0230     0.0970     2.7860   121.9320     0.0120    42.3840     0.0200     0.4500 
 3144.7739     0.0200     0.0970     2.7740   121.3170     0.0160    42.4100     0.0150     0.4270 
 3144.9263     0.0190     0.0960     2.7720   123.2030     0.0230    42.5840     0.0190     0.4150 
 3145.0787     0.0180     0.1020     2.7890   122.4850     0.0170    42.5350     0.0110     0.4380 
 3145.2311     0.0180     0.1040     2.7900   123.1120     0.0180    42.1060     0.0080     0.4550 
 3145.3835     0.0180     0.1080     2.7910   123.8480     0.0230    40.9180     0.0160     0.4660 
 3145.5359     0.0190     0.0970     2.8030   123.6840     0.0350    40.2950     0.0190     0.4530 
 3145.6883     0.0190     0.1020     2.8020   122.6110     0.0170    40.0400     0.0200     0.4770 
 3145.8407     0.0180     0.1040     2.7930   123.0580     0.0150    39.8990     0.0210     0.5020 
 3145.9931     0.0160     0.1100     2.8090   122.6200     0.0050    40.1140     0.0150     0.5190 
 3146.1455     0.0130     0.1140     2.8020   122.4960     0.0060    40.6330     0.0170     0.5100 
 3146.2979     0.0100     0.1170     2.7990   122.5570     0.0100    41.2210     0.0090     0.4910 
 3146.4503     0.0070     0.1230     2.8050   123.0350     0.0080    40.7720     0.0040     0.4970 
 3146.6027     0.0050     0.1320     2.8000   123.6610    -0.0030    39.8160    -0.0020     0.5260 
 3146.7551     0.0050     0.1490     2.8210   126.6880     0.0070    38.0090    -0.0010     0.5800 
 3146.9075     0.0040     0.1580     2.8940   126.1550     0.0090    35.9440     0.0110     0.6160 
 3147.0599     0.0040     0.1700     2.8820   128.1260     0.0180    34.4870     0.0080     0.6630 
 3147.2123     0.0050     0.1840     2.9190   127.6410     0.0070    33.6590     0.0060     0.7120 
 3147.3647     0.0060     0.1920     2.8640   126.7720    -0.0050    33.5780     0.0030     0.7530 
 3147.5171     0.0060     0.2060     2.8450   127.2330    -0.0070    33.7450     0.0050     0.7840 
 3147.6695     0.0070     0.2140     2.8610   127.7330    -0.0130    34.4020     0.0110     0.8150 
 3147.8219     0.0080     0.2220     2.8670   128.0890    -0.0240    34.6070     0.0110     0.8470 
 3147.9743     0.0090     0.2260     2.8790   127.4370    -0.0280    34.3980    -0.0060     0.8680 
 3148.1267     0.0100     0.2270     2.8650   127.0940    -0.0400    33.5270    -0.0040     0.8700 
 3148.2791     0.0120     0.2320     2.8480   127.1860    -0.0300    33.7020    -0.0080     0.8720 
 3148.4315     0.0120     0.2340     2.8460   127.6490    -0.0280    33.2680     0.0000     0.8870 
 3148.5839     0.0130     0.2370     2.8630   127.7610    -0.0330    33.3730     0.0030     0.9120 
 3148.7363     0.0140     0.2450     2.8770   127.3420    -0.0310    33.4530    -0.0020     0.9340 
 3148.8887     0.0150     0.2500     2.8640   127.2590    -0.0250    33.5700     0.0050     0.9450 
 3149.0411     0.0160     0.2490     2.8510   126.8590    -0.0230    33.6930     0.0150     0.9380 
 3149.1935     0.0170     0.2410     2.8530   127.5810    -0.0230    33.6390     0.0160     0.9060 
