~Version Information
 VERS.                  2.0:   CWLS log ASCII Standard -VERSION 2.0
 WRAP.                   NO:   One line per depth step
~Well Information Block
#MNEM.UNIT       Data Type    Information
#---------     -----------    ---------------------------
 STRT.M              2880.6599:
 STOP.M              3414.2598:
 STEP.M                 0.1524:
 NULL.               -999.2500:
 UWI .            NO 15/9-F-14:  UWI
 API .            NO 15/9-F-14:  UWI
 WELL.               15/9-F-14:  COMMON WELL NAME
 COMP.                 STATOIL:  WELL OPERATOR
 FLD .                   VOLVE:  FIELD
 LIC .              NO PL046BS:  AUTHORIZATION NO
 LOC .                 UNKNOWN:  BASIN
 CTRY.                  Norway:  COUNTRY
 STAT.                 UNKNOWN:  STATE
 CNTY.                 UNKNOWN:  COUNTY
 PROV.                 UNKNOWN:  STATE
 SRVC.                 UNKNOWN:  COMPANY
 DATE.                 UNKNOWN:  LOG RUN DATE
 LONG.             1.887521912:  LONGITUDE
 LATI.            58.441602475:  LATITUDE
 XCOORD.           435052.4375:  X COORDINATE
 YCOORD.          6478562.5000:  Y COORDINATE
 ELEV.M                54.9000:  ELEVATION
 TD  .M              3750.0000:  TOTAL DEPTH
~Parameter Information Block
#MNEM.UNIT       Value        Description
#---------     -----------    ---------------------------
~Curve Information Block
#MNEM.UNIT                 API CODE     Curve Description
#---------               -----------    ---------------------------
 DEPTH.M                00 000 000 000:  Index Curve
 plt302S-QGAS.            00 000 000 000:  gas rate
 plt302S-QOIL.            00 000 000 000:  oil rate
 plt302S-QTOT.            00 000 000 000:  
 plt302S-QWAT.            00 000 000 000:  
 plt302S-WPRE.BAR         00 000 000 000:  
 plt302S-WTEP.DEGC        00 000 000 000:  
 plt302S-YG.NONE        00 000 000 000:  
 plt302S-YO.NONE        00 000 000 000:  
~A DEPTH     plt302S-QGAS plt302S-QOIL plt302S-QTOT plt302S-QWAT plt302S-WPRE plt302S-WTEP plt302S-YG plt302S-YO
# ...
 2953.7975     0.0000     2.4933     6.0822     3.5889   322.6551   105.6571     0.0000     0.0101 
 2953.9499     0.0000     2.0516     3.7147     1.6631   322.6646   105.6588     0.0000     0.0083 
 2954.1022     0.0000     1.6099     1.3471    -0.2628   322.6732   105.6603     0.0000     0.0065 
 2954.2546     0.0000     1.1682    -1.0204    -2.1886   322.6795   105.6610     0.0000     0.0047 
 2954.4070     0.0000     0.7265    -3.3880    -4.1144   322.6867   105.6618     0.0000     0.0030 
 2954.5594     0.0000     0.2848    -5.7555    -6.0403   322.6941   105.6622     0.0000     0.0012 
 2954.7117     0.0000     0.0609    -6.8268    -6.8878   322.7002   105.6638     0.0000     0.0003 
 2954.8641     0.0000     0.2325    -5.5457    -5.7782   322.7043   105.6656     0.0000     0.0010 
 2955.0165     0.0000     0.4040    -4.2646    -4.6686   322.7076   105.6668     0.0000     0.0017 
 2955.1688     0.0000     0.5755    -2.9835    -3.5590   322.7110   105.6674     0.0000     0.0024 
 2955.3212     0.0000     0.7470    -1.7024    -2.4494   322.7186   105.6678     0.0000     0.0031 
 2955.4736     0.0000     0.9186    -0.4212    -1.3398   322.7290   105.6685     0.0000     0.0038 
 2955.6260     0.0000     1.0901     0.8599    -0.2302   322.7397   105.6692     0.0000     0.0045 
 2955.7783     0.0000     1.0683     1.7880     0.7197   322.7492   105.6704     0.0000     0.0044 
 2955.9307     0.0000     0.9959     2.6238     1.6279   322.7561   105.6722     0.0000     0.0041 
 2956.0831     0.0000     0.9235     3.4595     2.5360   322.7609   105.6733     0.0000     0.0038 
 2956.2354     0.0000     0.8511     4.2953     3.4442   322.7659   105.6744     0.0000     0.0035 
 2956.3878     0.0000     0.7787     5.1310     4.3523   322.7724   105.6757     0.0000     0.0032 
 2956.5402     0.0000     0.7063     5.9668     5.2605   322.7816   105.6769     0.0000     0.0029 
 2956.6925     0.0000     0.6278     5.9975     5.3697   322.7905   105.6776     0.0000     0.0025 
 2956.8449     0.0000     0.5286     3.3288     2.8002   322.7976   105.6784     0.0000     0.0021 
 2956.9973     0.0000     0.4295     0.6602     0.2307   322.8055   105.6796     0.0000     0.0017 
 2957.1496     0.0000     0.3304    -2.0085    -2.3389   322.8149   105.6808     0.0000     0.0013 
 2957.3020     0.0000     0.2313    -4.6771    -4.9084   322.8420   105.6909     0.0000     0.0009 
 2957.4544     0.0000     0.1321    -7.3458    -7.4779   322.8591   105.6967     0.0000     0.0005 
 2957.6068     0.0000     0.0330   -10.0145   -10.0475   322.8649   105.6973     0.0000     0.0001 
 2957.7591     0.0000     0.0000    -9.8194    -9.8194   322.8689   105.6979     0.0000     0.0000 
 2957.9115     0.0000     0.0000    -8.1942    -8.1942   322.8718   105.6985     0.0000     0.0000 
 2958.0639     0.0000     0.0000    -6.5691    -6.5691   322.8746   105.6992     0.0000     0.0000 
 2958.2162     0.0000     0.0000    -4.9440    -4.9440   322.8782   105.7001     0.0000     0.0000 
 2958.3686     0.0000     0.0000    -3.3188    -3.3188   322.8838   105.7010     0.0000     0.0000 
 2958.5210     0.0000     0.0000    -1.6937    -1.6937   322.8909   105.7017     0.0000     0.0000 
 2958.6734     0.0000     0.0000    -0.2338    -0.2338   322.8982   105.7022     0.0000     0.0000 
 2958.8257     0.0000     0.0001    -0.1945    -0.1946   322.9043   105.7031     0.0000     0.0000 
 2958.9781     0.0000     0.0001    -0.1552    -0.1553   322.9099   105.7043     0.0000     0.0000 
 2959.1305     0.0000     0.0002    -0.1159    -0.1161   322.9159   105.7055     0.0000     0.0000 
 2959.2828     0.0000     0.0003    -0.0766    -0.0768   322.9222   105.7063     0.0000     0.0000 
 2959.4352     0.0000     0.0003    -0.0373    -0.0376   322.9281   105.7069     0.0000     0.0000 
 2959.5876     0.0000     0.0004     0.0020     0.0016   322.9333   105.7075     0.0000     0.0000 
 2959.7399     0.0000     0.0004    -0.8545    -0.8549   322.9389   105.7084     0.0000     0.0000 
 2959.8923     0.0000     0.0003    -2.4698    -2.4701   322.9456   105.7094     0.0000     0.0000 
 2960.0447     0.0000     0.0002    -4.0850    -4.0853   322.9526   105.7104     0.0000     0.0000 
 2960.1971     0.0000     0.0002    -5.7003    -5.7005   322.9594   105.7112     0.0000     0.0000 
 2960.3494     0.0000     0.0001    -7.3156    -7.3157   322.9665   105.7120     0.0000     0.0000 
 2960.5018     0.0000     0.0001    -8.9308    -8.9309   322.9735   105.7132     0.0000     0.0000 
 2960.6542     0.0000     0.0000   -10.5461   -10.5461   322.9804   105.7149     0.0000     0.0000 
 2960.8065     0.0000     0.0047    -8.9690    -8.9737   322.9870   105.7161     0.0000     0.0000 
 2960.9589     0.0000     0.0095    -7.3223    -7.3318   322.9931   105.7168     0.0000     0.0000 
 2961.1113     0.0000     0.0144    -5.6756    -5.6899   322.9993   105.7173     0.0000     0.0001 
 2961.2636     0.0000     0.0192    -4.0288    -4.0480   323.0057   105.7179     0.0000     0.0001 
 2961.4160     0.0000     0.0240    -2.3821    -2.4061   323.0117   105.7188     0.0000     0.0001 
 2961.5684     0.0000     0.0288    -0.7354    -0.7642   323.0178   105.7199     0.0000     0.0001 
 2961.7207     0.0000     0.0296     0.2067     0.1770   323.0249   105.7210     0.0000     0.0001 
 2961.8731     0.0000     0.0248     0.1590     0.1342   323.0334   105.7220     0.0000     0.0001 
 2962.0255     0.0000     0.0200     0.1114     0.0914   323.0435   105.7228     0.0000     0.0001 
 2962.1779     0.0000     0.0152     0.0637     0.0486   323.0534   105.7236     0.0000     0.0001 
 2962.3302     0.0000     0.0103     0.0161     0.0057   323.0609   105.7241     0.0000     0.0000 
 2962.4826     0.0000     0.0055    -0.0315    -0.0371   323.0652   105.7246     0.0000     0.0000 
 2962.6350     0.0000     0.0007    -0.0792    -0.0799   323.0688   105.7257     0.0000     0.0000 
 2962.7873     0.0000     0.0000    -0.6415    -0.6415   323.0733   105.7269     0.0000     0.0000 
 2962.9397     0.0000     0.0000    -1.2923    -1.2923   323.0798   105.7279     0.0000     0.0000 
 2963.0921     0.0000     0.0000    -1.9432    -1.9432   323.0885   105.7290     0.0000     0.0000 
 2963.2445     0.0000     0.0000    -2.5941    -2.5941   323.0977   105.7296     0.0000     0.0000 
 2963.3968     0.0000     0.0000    -3.2450    -3.2450   323.1072   105.7298     0.0000     0.0000 
 2963.5492     0.0000     0.0000    -3.8958    -3.8958   323.1162   105.7304     0.0000     0.0000 
 2963.7016     0.0000     0.0020    -3.9808    -3.9828   323.1229   105.7316     0.0000     0.0000 
 2963.8539     0.0000     0.0091    -2.6826    -2.6917   323.1297   105.7329     0.0000     0.0000 
 2964.0063     0.0000     0.0161    -1.3843    -1.4005   323.1358   105.7346     0.0000     0.0001 
 2964.1587     0.0000     0.0232    -0.0861    -0.1093   323.1407   105.7362     0.0000     0.0001 
 2964.3110     0.0000     0.0302     1.2121     1.1819   323.1450   105.7375     0.0000     0.0001 
 2964.4634     0.0000     0.0373     2.5103     2.4730   323.1494   105.7382     0.0000     0.0002 
 2964.6158     0.0000     0.0443     3.8085     3.7642   323.1552   105.7389     0.0000     0.0002 
 2964.7681     0.0000     0.0411     3.1095     3.0684   323.1628   105.7401     0.0000     0.0002 
 2964.9205     0.0000     0.0341     1.6628     1.6287   323.1717   105.7410     0.0000     0.0001 
 2965.0729     0.0000     0.0270     0.2160     0.1890   323.1791   105.7419     0.0000     0.0001 
 2965.2253     0.0000     0.0200    -1.2308    -1.2508   323.1861   105.7424     0.0000     0.0001 
 2965.3776     0.0000     0.0129    -2.6776    -2.6905   323.1944   105.7430     0.0000     0.0000 
 2965.5300     0.0000     0.0059    -4.1243    -4.1302   323.2029   105.7439     0.0000     0.0000 
 2965.6824     0.0000     0.0000    -5.3683    -5.3683   323.2107   105.7446     0.0000     0.0000 
 2965.8347     0.0000     0.0000    -5.5847    -5.5847   323.2188   105.7450     0.0000     0.0000 
