~Version Information
 VERS.                  2.0:   CWLS log ASCII Standard -VERSION 2.0
 WRAP.                   NO:   One line per depth step
~Well Information Block
#MNEM.UNIT       Data Type    Information
#---------     -----------    ---------------------------
 STRT.M              2880.6599:
 STOP.M              3414.2598:
 STEP.M                 0.1524:
 NULL.               -999.2500:
 UWI .            NO 15/9-F-14:  UWI
 API .            NO 15/9-F-14:  UWI
 WELL.               15/9-F-14:  COMMON WELL NAME
 COMP.                 STATOIL:  WELL OPERATOR
 FLD .                   VOLVE:  FIELD
 LIC .              NO PL046BS:  AUTHORIZATION NO
 LOC .                 UNKNOWN:  BASIN
 CTRY.                  Norway:  COUNTRY
 STAT.                 UNKNOWN:  STATE
 CNTY.                 UNKNOWN:  COUNTY
 PROV.                 UNKNOWN:  STATE
 SRVC.                 UNKNOWN:  COMPANY
 DATE.                 UNKNOWN:  LOG RUN DATE
 LONG.             1.887521912:  LONGITUDE
 LATI.            58.441602475:  LATITUDE
 XCOORD.           435052.4375:  X COORDINATE
 YCOORD.          6478562.5000:  Y COORDINATE
 ELEV.M                54.9000:  ELEVATION
 TD  .M              3750.0000:  TOTAL DEPTH
~Parameter Information Block
#MNEM.UNIT       Value        Description
#---------     -----------    ---------------------------
~Curve Information Block
#MNEM.UNIT                 API CODE     Curve Description
#---------               -----------    ---------------------------
 DEPTH.M                00 000 000 000:  Index Curve
 plt302S-QGAS.            00 000 000 000:  gas rate
 plt302S-QOIL.            00 000 000 000:  oil rate
 plt302S-QTOT.            00 000 000 000:  
 plt302S-QWAT.            00 000 000 000:  
 plt302S-WPRE.BAR         00 000 000 000:  
 plt302S-WTEP.DEGC        00 000 000 000:  
 plt302S-YG.NONE        00 000 000 000:  
 plt302S-YO.NONE        00 000 000 000:  
~A DEPTH     plt302S-QGAS plt302S-QOIL plt302S-QTOT plt302S-QWAT plt302S-WPRE plt302S-WTEP plt302S-YG plt302S-YO
# ...
 3270.7271     0.0000     0.0000    13.6684    13.6684   331.9799   106.8857     0.0000     0.0000 
 3270.8795     0.0000     0.0000    12.3249    12.3249   331.9819   106.8857     0.0000     0.0000 
 3271.0318     0.0000     0.0000    10.9813    10.9813   331.9832   106.8859     0.0000     0.0000 
 3271.1842     0.0000     0.0000     9.6377     9.6377   331.9832   106.8860     0.0000     0.0000 
 3271.3366     0.0000     0.0000     8.2941     8.2941   331.9840   106.8849     0.0000     0.0000 
 3271.4890     0.0000     0.0000     6.9505     6.9505   331.9870   106.8841     0.0000     0.0000 
 3271.6413     0.0000     0.0000     5.6070     5.6070   331.9914   106.8840     0.0000     0.0000 
 3271.7937     0.0000     0.0000     7.7227     7.7227   331.9955   106.8842     0.0000     0.0000 
 3271.9461     0.0000     0.0000     9.9894     9.9894   331.9998   106.8839     0.0000     0.0000 
 3272.0984     0.0000     0.0000    12.2561    12.2561   332.0041   106.8835     0.0000     0.0000 
 3272.2508     0.0000     0.0000    14.5228    14.5228   332.0064   106.8833     0.0000     0.0000 
 3272.4032     0.0000     0.0000    16.7895    16.7895   332.0087   106.8833     0.0000     0.0000 
 3272.5556     0.0000     0.0000    19.0562    19.0562   332.0116   106.8825     0.0000     0.0000 
 3272.7079     0.0000     0.0000    19.8302    19.8302   332.0128   106.8816     0.0000     0.0000 
 3272.8603     0.0000     0.0000    18.3220    18.3220   332.0121   106.8816     0.0000     0.0000 
 3273.0127     0.0000     0.0000    16.8139    16.8139   332.0127   106.8819     0.0000     0.0000 
 3273.1650     0.0000     0.0000    15.3057    15.3057   332.0164   106.8820     0.0000     0.0000 
 3273.3174     0.0000     0.0000    13.7975    13.7975   332.0206   106.8818     0.0000     0.0000 
 3273.4698     0.0000     0.0000    12.2893    12.2893   332.0236   106.8814     0.0000     0.0000 
 3273.6221     0.0000     0.0000    10.7811    10.7811   332.0260   106.8815     0.0000     0.0000 
 3273.7745     0.0000     0.0000    10.8365    10.8365   332.0299   106.8815     0.0000     0.0000 
 3273.9269     0.0000     0.0000    11.2061    11.2061   332.0306   106.8815     0.0000     0.0000 
 3274.0792     0.0000     0.0000    11.5758    11.5758   332.0327   106.8807     0.0000     0.0000 
 3274.2316     0.0000     0.0000    11.9454    11.9454   332.0343   106.8803     0.0000     0.0000 
 3274.3840     0.0000     0.0000    12.3151    12.3151   332.0345   106.8808     0.0000     0.0000 
 3274.5364     0.0000     0.0000    12.6847    12.6847   332.0337   106.8810     0.0000     0.0000 
 3274.6887     0.0000     0.0000    13.1629    13.1629   332.0354   106.8806     0.0000     0.0000 
 3274.8411     0.0000     0.0000    13.9349    13.9349   332.0387   106.8810     0.0000     0.0000 
 3274.9935     0.0000     0.0000    14.7068    14.7068   332.0423   106.8817     0.0000     0.0000 
 3275.1458     0.0000     0.0000    15.4787    15.4787   332.0462   106.8814     0.0000     0.0000 
 3275.2982     0.0000     0.0000    16.2507    16.2507   332.0502   106.8802     0.0000     0.0000 
 3275.4506     0.0000     0.0000    17.0226    17.0226   332.0544   106.8797     0.0000     0.0000 
 3275.6029     0.0000     0.0000    17.7946    17.7946   332.0593   106.8798     0.0000     0.0000 
 3275.7553     0.0000     0.0000    16.5378    16.5378   332.0635   106.8804     0.0000     0.0000 
 3275.9077     0.0000     0.0000    14.4408    14.4408   332.0650   106.8805     0.0000     0.0000 
 3276.0601     0.0000     0.0000    12.3438    12.3438   332.0647   106.8810     0.0000     0.0000 
 3276.2124     0.0000     0.0000    10.2467    10.2467   332.0652   106.8812     0.0000     0.0000 
 3276.3648     0.0000     0.0000     8.1497     8.1497   332.0675   106.8802     0.0000     0.0000 
 3276.5172     0.0000     0.0000     6.0527     6.0527   332.0703   106.8805     0.0000     0.0000 
 3276.6695     0.0000     0.0000     4.5546     4.5546   332.0717   106.8810     0.0000     0.0000 
 3276.8219     0.0000     0.0000     6.6072     6.6072   332.0720   106.8804     0.0000     0.0000 
 3276.9743     0.0000     0.0000     8.6598     8.6598   332.0728   106.8799     0.0000     0.0000 
 3277.1267     0.0000     0.0000    10.7124    10.7124   332.0753   106.8801     0.0000     0.0000 
 3277.2790     0.0000     0.0000    12.7650    12.7650   332.0798   106.8806     0.0000     0.0000 
 3277.4314     0.0000     0.0000    14.8176    14.8176   332.0835   106.8799     0.0000     0.0000 
 3277.5838     0.0000     0.0000    16.8702    16.8702   332.0858   106.8786     0.0000     0.0000 
 3277.7361     0.0000     0.0000    17.5656    17.5656   332.0881   106.8781     0.0000     0.0000 
 3277.8885     0.0000     0.0000    17.2845    17.2845   332.0899   106.8782     0.0000     0.0001 
 3278.0409     0.0000     0.0000    17.0035    17.0034   332.0907   106.8783     0.0000     0.0002 
 3278.1932     0.0000     0.0000    16.7224    16.7224   332.0916   106.8780     0.0000     0.0002 
 3278.3456     0.0000     0.0001    16.4414    16.4413   332.0939   106.8776     0.0000     0.0003 
 3278.4980     0.0000     0.0001    16.1603    16.1602   332.0976   106.8773     0.0000     0.0004 
 3278.6503     0.0000     0.0001    15.8573    15.8573   332.1024   106.8774     0.0000     0.0004 
 3278.8027     0.0000     0.0001    14.4120    14.4119   332.1074   106.8779     0.0000     0.0004 
 3278.9551     0.0000     0.0001    12.9666    12.9666   332.1118   106.8783     0.0000     0.0003 
 3279.1075     0.0000     0.0000    11.5213    11.5213   332.1141   106.8775     0.0000     0.0002 
 3279.2598     0.0000     0.0000    10.0759    10.0759   332.1151   106.8762     0.0000     0.0002 
 3279.4122     0.0000     0.0000     8.6306     8.6306   332.1160   106.8752     0.0000     0.0001 
 3279.5646     0.0000     0.0000     7.1852     7.1852   332.1176   106.8758     0.0000     0.0000 
 3279.7169     0.0000     0.0000     7.0719     7.0719   332.1196   106.8763     0.0000     0.0000 
 3279.8693     0.0000     0.0000     8.5473     8.5473   332.1205   106.8763     0.0000     0.0000 
 3280.0217     0.0000     0.0000    10.0227    10.0227   332.1202   106.8763     0.0000     0.0000 
 3280.1741     0.0000     0.0000    11.4981    11.4981   332.1207   106.8760     0.0000     0.0000 
 3280.3264     0.0000     0.0000    12.9735    12.9735   332.1242   106.8755     0.0000     0.0000 
 3280.4788     0.0000     0.0000    14.4489    14.4489   332.1295   106.8753     0.0000     0.0000 
 3280.6312     0.0000     0.0000    15.9243    15.9243   332.1353   106.8756     0.0000     0.0000 
 3280.7835     0.0000     0.1279    15.1126    14.9848   332.1404   106.8763     0.0000     0.0004 
 3280.9359     0.0000     0.2710    14.0277    13.7567   332.1432   106.8759     0.0000     0.0008 
 3281.0883     0.0000     0.4141    12.9427    12.5286   332.1455   106.8749     0.0000     0.0012 
 3281.2406     0.0000     0.5572    11.8578    11.3006   332.1468   106.8745     0.0000     0.0016 
 3281.3930     0.0000     0.7004    10.7729    10.0725   332.1470   106.8747     0.0000     0.0019 
 3281.5454     0.0000     0.8435     9.6879     8.8444   332.1475   106.8745     0.0000     0.0023 
 3281.6977     0.0000     0.8920     8.9771     8.0851   332.1504   106.8741     0.0000     0.0025 
 3281.8501     0.0000     0.7489     9.0240     8.2751   332.1540   106.8742     0.0000     0.0021 
 3282.0025     0.0000     0.6057     9.0709     8.4652   332.1565   106.8747     0.0000     0.0017 
 3282.1549     0.0000     0.4626     9.1179     8.6552   332.1576   106.8746     0.0000     0.0013 
 3282.3072     0.0000     0.3195     9.1648     8.8453   332.1591   106.8740     0.0000     0.0009 
 3282.4596     0.0000     0.1764     9.2117     9.0354   332.1613   106.8733     0.0000     0.0005 
 3282.6120     0.0000     0.0332     9.2586     9.2254   332.1646   106.8729     0.0000     0.0001 
 3282.7643     0.0000     0.0000    10.3698    10.3698   332.1689   106.8729     0.0000     0.0000 
