~Version Information
 VERS.                  2.0:   CWLS log ASCII Standard -VERSION 2.0
 WRAP.                   NO:   One line per depth step
~Well Information Block
#MNEM.UNIT       Data Type    Information
#---------     -----------    ---------------------------
 STRT.M              2880.6599:
 STOP.M              3414.2598:
 STEP.M                 0.1524:
 NULL.               -999.2500:
 UWI .            NO 15/9-F-14:  UWI
 API .            NO 15/9-F-14:  UWI
 WELL.               15/9-F-14:  COMMON WELL NAME
 COMP.                 STATOIL:  WELL OPERATOR
 FLD .                   VOLVE:  FIELD
 LIC .              NO PL046BS:  AUTHORIZATION NO
 LOC .                 UNKNOWN:  BASIN
 CTRY.                  Norway:  COUNTRY
 STAT.                 UNKNOWN:  STATE
 CNTY.                 UNKNOWN:  COUNTY
 PROV.                 UNKNOWN:  STATE
 SRVC.                 UNKNOWN:  COMPANY
 DATE.                 UNKNOWN:  LOG RUN DATE
 LONG.             1.887521912:  LONGITUDE
 LATI.            58.441602475:  LATITUDE
 XCOORD.           435052.4375:  X COORDINATE
 YCOORD.          6478562.5000:  Y COORDINATE
 ELEV.M                54.9000:  ELEVATION
 TD  .M              3750.0000:  TOTAL DEPTH
~Parameter Information Block
#MNEM.UNIT       Value        Description
#---------     -----------    ---------------------------
~Curve Information Block
#MNEM.UNIT                 API CODE     Curve Description
#---------               -----------    ---------------------------
 DEPTH.M                00 000 000 000:  Index Curve
 plt302S-QGAS.            00 000 000 000:  gas rate
 plt302S-QOIL.            00 000 000 000:  oil rate
 plt302S-QTOT.            00 000 000 000:  
 plt302S-QWAT.            00 000 000 000:  
 plt302S-WPRE.BAR         00 000 000 000:  
 plt302S-WTEP.DEGC        00 000 000 000:  
 plt302S-YG.NONE        00 000 000 000:  
 plt302S-YO.NONE        00 000 000 000:  
~A DEPTH     plt302S-QGAS plt302S-QOIL plt302S-QTOT plt302S-QWAT plt302S-WPRE plt302S-WTEP plt302S-YG plt302S-YO
# ...
 3087.8831     0.0000     4.6514     6.8658     2.2145   327.9042   105.7402     0.0000     0.0149 
 3088.0355     0.0000     3.9272     7.6109     3.6837   327.9054   105.7408     0.0000     0.0126 
 3088.1878     0.0000     3.2031     8.3560     5.1529   327.9066   105.7413     0.0000     0.0102 
 3088.3402     0.0000     2.4790     9.1010     6.6221   327.9102   105.7418     0.0000     0.0079 
 3088.4926     0.0000     1.7548     9.8461     8.0913   327.9151   105.7422     0.0000     0.0056 
 3088.6450     0.0000     1.0307    10.5912     9.5605   327.9202   105.7425     0.0000     0.0032 
 3088.7973     0.0000     0.8479    11.0728    10.2248   327.9259   105.7432     0.0000     0.0027 
 3088.9497     0.0000     0.6970    11.5389    10.8419   327.9327   105.7442     0.0000     0.0022 
 3089.1021     0.0000     0.5461    12.0051    11.4590   327.9414   105.7449     0.0000     0.0017 
 3089.2544     0.0000     0.3952    12.4712    12.0761   327.9503   105.7454     0.0000     0.0012 
 3089.4068     0.0000     0.2442    12.9374    12.6932   327.9576   105.7455     0.0000     0.0008 
 3089.5592     0.0000     0.0933    13.4035    13.3102   327.9629   105.7455     0.0000     0.0003 
 3089.7115     0.0000     0.0114    13.2708    13.2594   327.9671   105.7454     0.0000     0.0000 
 3089.8639     0.0000     0.0411    12.1679    12.1268   327.9709   105.7454     0.0000     0.0001 
 3090.0163     0.0000     0.0708    11.0651    10.9942   327.9748   105.7456     0.0000     0.0002 
 3090.1687     0.0000     0.1006     9.9622     9.8617   327.9786   105.7461     0.0000     0.0003 
 3090.3210     0.0000     0.1303     8.8594     8.7291   327.9814   105.7464     0.0000     0.0004 
 3090.4734     0.0000     0.1600     7.7565     7.5965   327.9829   105.7462     0.0000     0.0005 
 3090.6258     0.0000     0.1898     6.6537     6.4639   327.9855   105.7464     0.0000     0.0006 
 3090.7781     0.0000     0.1708     8.5066     8.3358   327.9896   105.7466     0.0000     0.0005 
 3090.9305     0.0000     0.1411    11.0128    10.8717   327.9939   105.7466     0.0000     0.0004 
 3091.0829     0.0000     0.1113    13.5190    13.4077   327.9981   105.7467     0.0000     0.0003 
 3091.2353     0.0000     0.0816    16.0253    15.9437   328.0034   105.7472     0.0000     0.0003 
 3091.3876     0.0000     0.0519    18.5315    18.4797   328.0107   105.7480     0.0000     0.0002 
 3091.5400     0.0000     0.0221    21.0377    21.0156   328.0190   105.7489     0.0000     0.0001 
 3091.6924     0.0000     0.0000    22.1157    22.1157   328.0280   105.7499     0.0000     0.0000 
 3091.8447     0.0000     0.0000    19.0471    19.0471   328.0368   105.7505     0.0000     0.0000 
 3091.9971     0.0000     0.0000    15.9785    15.9785   328.0439   105.7501     0.0000     0.0000 
 3092.1495     0.0000     0.0000    12.9099    12.9099   328.0489   105.7496     0.0000     0.0000 
 3092.3018     0.0000     0.0000     9.8413     9.8413   328.0526   105.7497     0.0000     0.0000 
 3092.4542     0.0000     0.0000     6.7727     6.7727   328.0546   105.7512     0.0000     0.0000 
 3092.6066     0.0000     0.0000     3.7041     3.7041   328.0558   105.7536     0.0000     0.0000 
 3092.7589     0.0000     0.0000     4.2307     4.2307   328.0571   105.7553     0.0000     0.0000 
 3092.9113     0.0000     0.0000     6.3468     6.3468   328.0588   105.7559     0.0000     0.0000 
 3093.0637     0.0000     0.0000     8.4629     8.4629   328.0618   105.7561     0.0000     0.0000 
 3093.2161     0.0000     0.0000    10.5790    10.5790   328.0664   105.7561     0.0000     0.0000 
 3093.3684     0.0000     0.0000    12.6951    12.6951   328.0716   105.7562     0.0000     0.0000 
 3093.5208     0.0000     0.0000    14.8112    14.8112   328.0771   105.7570     0.0000     0.0000 
 3093.6732     0.0000     0.0000    16.5817    16.5817   328.0831   105.7584     0.0000     0.0000 
 3093.8255     0.0000     0.0000    16.0525    16.0525   328.0907   105.7600     0.0000     0.0000 
 3093.9779     0.0000     0.0000    15.5233    15.5233   328.0982   105.7611     0.0000     0.0000 
 3094.1303     0.0000     0.0000    14.9940    14.9940   328.1044   105.7616     0.0000     0.0000 
 3094.2827     0.0000     0.0000    14.4648    14.4648   328.1105   105.7617     0.0000     0.0000 
 3094.4350     0.0000     0.0000    13.9356    13.9356   328.1164   105.7623     0.0000     0.0000 
 3094.5874     0.0000     0.0000    13.4064    13.4064   328.1221   105.7635     0.0000     0.0000 
 3094.7398     0.0000     0.2621    12.7566    12.4945   328.1274   105.7643     0.0000     0.0008 
 3094.8921     0.0000     0.7236    12.0152    11.2916   328.1315   105.7653     0.0000     0.0023 
 3095.0445     0.0000     1.1851    11.2738    10.0886   328.1331   105.7663     0.0000     0.0038 
 3095.1969     0.0000     1.6467    10.5324     8.8857   328.1342   105.7671     0.0000     0.0052 
 3095.3492     0.0000     2.1082     9.7909     7.6827   328.1360   105.7679     0.0000     0.0067 
 3095.5016     0.0000     2.5697     9.0495     6.4798   328.1395   105.7689     0.0000     0.0082 
 3095.6540     0.0000     3.0265     8.3209     5.2943   328.1430   105.7697     0.0000     0.0096 
 3095.8063     0.0000     2.5650    10.0705     7.5055   328.1472   105.7698     0.0000     0.0082 
 3095.9587     0.0000     2.1035    11.8201     9.7166   328.1524   105.7706     0.0000     0.0067 
 3096.1111     0.0000     1.6419    13.5697    11.9278   328.1606   105.7713     0.0000     0.0052 
 3096.2635     0.0000     1.1804    15.3193    14.1389   328.1696   105.7722     0.0000     0.0038 
 3096.4158     0.0000     0.7189    17.0689    16.3500   328.1776   105.7730     0.0000     0.0023 
 3096.5682     0.0000     0.2574    18.8185    18.5612   328.1831   105.7737     0.0000     0.0008 
 3096.7206     0.0000     0.0000    18.8005    18.8005   328.1883   105.7746     0.0000     0.0000 
 3096.8729     0.0000     0.0000    16.5544    16.5544   328.1931   105.7756     0.0000     0.0000 
 3097.0253     0.0000     0.0000    14.3083    14.3083   328.1973   105.7769     0.0000     0.0000 
 3097.1777     0.0000     0.0000    12.0621    12.0621   328.2014   105.7786     0.0000     0.0000 
 3097.3301     0.0000     0.0000     9.8160     9.8160   328.2052   105.7791     0.0000     0.0000 
 3097.4824     0.0000     0.0000     7.5698     7.5698   328.2069   105.7795     0.0000     0.0000 
 3097.6348     0.0000     0.0000     5.3237     5.3237   328.2078   105.7801     0.0000     0.0000 
 3097.7872     0.0000     0.0000     7.7192     7.7192   328.2114   105.7811     0.0000     0.0000 
 3097.9395     0.0000     0.0000    10.7500    10.7500   328.2166   105.7824     0.0000     0.0000 
 3098.0919     0.0000     0.0000    13.7809    13.7809   328.2214   105.7832     0.0000     0.0000 
 3098.2443     0.0000     0.0000    16.8117    16.8117   328.2260   105.7839     0.0000     0.0000 
 3098.3966     0.0000     0.0000    19.8425    19.8425   328.2313   105.7843     0.0000     0.0000 
 3098.5490     0.0000     0.0000    22.8734    22.8734   328.2383   105.7851     0.0000     0.0000 
 3098.7014     0.0000     0.0000    23.9310    23.9310   328.2469   105.7862     0.0000     0.0000 
 3098.8538     0.0000     0.0000    20.7341    20.7341   328.2557   105.7877     0.0000     0.0000 
 3099.0061     0.0000     0.0000    17.5372    17.5372   328.2628   105.7879     0.0000     0.0000 
 3099.1585     0.0000     0.0000    14.3403    14.3403   328.2675   105.7888     0.0000     0.0000 
 3099.3109     0.0000     0.0000    11.1433    11.1433   328.2713   105.7907     0.0000     0.0000 
 3099.4632     0.0000     0.0000     7.9464     7.9464   328.2746   105.7924     0.0000     0.0000 
 3099.6156     0.0000     0.0000     4.7495     4.7495   328.2776   105.7929     0.0000     0.0000 
 3099.7680     0.0000     0.0000     4.9214     4.9214   328.2794   105.7934     0.0000     0.0000 
 3099.9203     0.0000     0.0000     6.1920     6.1920   328.2805   105.7943     0.0000     0.0000 
