~Version Information
 VERS.                  2.0:   CWLS log ASCII Standard -VERSION 2.0
 WRAP.                   NO:   One line per depth step
~Well Information Block
#MNEM.UNIT       Data Type    Information
#---------     -----------    ---------------------------
 STRT.M              2954.2739:
 STOP.M              3647.5415:
 STEP.M                 0.1524:
 NULL.               -999.2500:
 UWI .            NO 15/9-F-14:  UWI
 API .            NO 15/9-F-14:  UWI
 WELL.               15/9-F-14:  COMMON WELL NAME
 COMP.                 STATOIL:  WELL OPERATOR
 FLD .                   VOLVE:  FIELD
 LIC .              NO PL046BS:  AUTHORIZATION NO
 LOC .                 UNKNOWN:  BASIN
 CTRY.                  Norway:  COUNTRY
 STAT.                 UNKNOWN:  STATE
 CNTY.                 UNKNOWN:  COUNTY
 PROV.                 UNKNOWN:  STATE
 SRVC.                 UNKNOWN:  COMPANY
 DATE.                 UNKNOWN:  LOG RUN DATE
 LONG.             1.887521912:  LONGITUDE
 LATI.            58.441602475:  LATITUDE
 XCOORD.           435052.4375:  X COORDINATE
 YCOORD.          6478562.5000:  Y COORDINATE
 ELEV.M                54.9000:  ELEVATION
 TD  .M              3750.0000:  TOTAL DEPTH
~Parameter Information Block
#MNEM.UNIT       Value        Description
#---------     -----------    ---------------------------
~Curve Information Block
#MNEM.UNIT                 API CODE     Curve Description
#---------               -----------    ---------------------------
 DEPTH.M                00 000 000 000:  Index Curve
 sat201IC-BHOF.NONE        00 000 000 000:  IC mode, Estimated Borehole Oil Fraction
 sat201IC-BVW.V/V         00 000 000 000:  IC mode, Estimated Bulk Volume of Water; 'sat201IC-SW'*'PHIF'
 sat201IC-CRRA.NONE        00 000 000 000:  IC mode, RST Near/Far Instantaneous Count Rate Ratio
 sat201IC-FBEF.UA          00 000 000 000:  IC mode, RST Far Effective Beam Current
 sat201IC-FCOR.NONE        00 000 000 000:  IC mode, RST Far Carbon/Oxygen Ratio
 sat201IC-GR.GAPI        00 000 000 000:  IC mode, Gamma Ray
 sat201IC-NCOR.NONE        00 000 000 000:  IC mode, RST Near Carbon/Oxygen Ratio
 sat201IC-SW.V/V         00 000 000 000:  IC mode, Estimated Water Saturation
~A DEPTH     sat201IC-BHOF sat201IC-BVW sat201IC-CRRA sat201IC-FBEF sat201IC-FCOR sat201IC-GR sat201IC-NCOR sat201IC-SW
# ...
 3003.0419     0.0280     0.1140     2.8570   120.9000    -0.0060    15.1570     0.0160     0.7130 
 3003.1943     0.0280     0.1030     2.8170   120.7300    -0.0090    15.7740     0.0270     0.6360 
 3003.3467     0.0280     0.0790     2.7910   120.0570    -0.0020    16.1650     0.0240     0.5040 
 3003.4991     0.0270     0.0530     2.7810   118.4480     0.0000    16.1240     0.0300     0.3370 
 3003.6515     0.0260     0.0260     2.7690   118.8370    -0.0140    15.7790     0.0380     0.1770 
 3003.8039     0.0260     0.0240     2.7740   118.2960    -0.0340    15.1910     0.0400     0.1750 
 3003.9563     0.0250     0.0350     2.7780   117.0670    -0.0290    14.5290     0.0420     0.2720 
 3004.1087     0.0230     0.0510     2.7050   119.9620    -0.0070    14.0700     0.0460     0.4140 
 3004.2611     0.0210     0.0560     2.7190   123.8890     0.0220    14.1970     0.0460     0.4260 
 3004.4135     0.0190     0.0800     2.7800   127.1420     0.0400    14.3440     0.0440     0.4690 
 3004.5659     0.0160     0.0930     2.8560   126.8630     0.0450    14.8650     0.0360     0.4460 
 3004.7183     0.0130     0.0950     2.8550   126.7710     0.0570    15.4200     0.0320     0.4280 
 3004.8707     0.0090     0.0850     2.8610   126.0810     0.0450    15.4770     0.0270     0.3720 
 3005.0231     0.0060     0.0750     2.8370   124.9380     0.0280    15.7600     0.0190     0.3130 
 3005.1755     0.0030     0.0540     2.8370   125.6010     0.0320    15.9240     0.0140     0.2240 
 3005.3279    -0.0010     0.0480     2.8510   125.0120     0.0310    16.0390     0.0090     0.2000 
 3005.4803    -0.0040     0.0470     2.8220   126.1830     0.0250    16.0670     0.0120     0.1920 
 3005.6327    -0.0080     0.0460     2.8630   126.2040     0.0290    16.6310     0.0230     0.1940 
 3005.7851    -0.0100     0.0530     2.8620   125.3940     0.0310    16.5520     0.0200     0.2130 
 3005.9375    -0.0110     0.0520     2.8430   125.5710     0.0370    16.6420     0.0220     0.2120 
 3006.0899    -0.0110     0.0530     2.8450   123.4220     0.0550    16.5730     0.0300     0.2180 
 3006.2423    -0.0110     0.0460     2.8100   122.6910     0.0530    16.3920     0.0360     0.2020 
 3006.3947    -0.0120     0.0540     2.7960   122.7940     0.0490    16.8020     0.0420     0.2320 
 3006.5471    -0.0130     0.0510     2.7950   123.4130     0.0480    17.3110     0.0340     0.2230 
 3006.6995    -0.0140     0.0460     2.8050   123.7670     0.0450    17.7230     0.0240     0.2040 
 3006.8519    -0.0160     0.0430     2.8310   123.7390     0.0450    17.7910     0.0240     0.1920 
 3007.0043    -0.0170     0.0430     2.8180   123.6510     0.0460    17.9670     0.0230     0.1970 
 3007.1567    -0.0200     0.0560     2.8210   123.6590     0.0180    17.5600     0.0230     0.2540 
 3007.3091    -0.0220     0.0710     2.8040   122.7150     0.0130    16.7970     0.0110     0.3020 
 3007.4615    -0.0250     0.0750     2.7830   122.4910     0.0120    16.3900     0.0050     0.3120 
 3007.6139    -0.0280     0.0890     2.7800   122.4840     0.0090    16.2110     0.0070     0.3490 
 3007.7663    -0.0320     0.0950     2.7870   123.5890     0.0190    15.9850     0.0020     0.3750 
 3007.9187    -0.0360     0.1010     2.8030   124.9960     0.0010    15.4370     0.0030     0.3950 
 3008.0711    -0.0380     0.0930     2.8380   124.9110     0.0070    15.5800     0.0010     0.3760 
 3008.2235    -0.0380     0.0880     2.8220   126.3970     0.0260    15.5240    -0.0040     0.3580 
 3008.3759    -0.0390     0.0860     2.8500   125.4330     0.0420    16.2170     0.0110     0.3510 
 3008.5283    -0.0400     0.0740     2.8310   124.9560     0.0460    16.6890     0.0100     0.3010 
 3008.6807    -0.0400     0.0520     2.8170   125.0090     0.0590    18.0210     0.0080     0.2140 
 3008.8331    -0.0410     0.0390     2.8020   125.7510     0.0640    19.1520     0.0170     0.1500 
 3008.9855    -0.0420     0.0270     2.8240   128.8540     0.0780    19.8050     0.0120     0.1040 
 3009.1379    -0.0440     0.0190     3.0010   131.1020     0.0640    19.8090     0.0080     0.0730 
 3009.2903    -0.0460     0.0040     3.0900   132.8680     0.0610    20.6780     0.0210     0.0170 
 3009.4427    -0.0470     0.0000     3.0460   131.7770     0.0530    21.8110     0.0160     0.0000 
 3009.5951    -0.0480     0.0000     2.9980   127.2420     0.0510    23.8050     0.0260     0.0000 
 3009.7475    -0.0480     0.0000     2.8820   128.1150     0.0510    26.7040     0.0320     0.0000 
 3009.8999    -0.0470     0.0000     2.9120   128.1850     0.0400    29.5520     0.0300     0.0000 
 3010.0523    -0.0480     0.0000     2.9050   129.2840     0.0450    32.2830     0.0360     0.0000 
 3010.2047    -0.0480     0.0000     2.9290   128.9780     0.0590    33.7600     0.0350     0.0000 
 3010.3571    -0.0490     0.0000     2.9260   129.0130     0.0450    35.4550     0.0300     0.0000 
 3010.5095    -0.0500     0.0000     2.9310   128.4950     0.0480    35.7720     0.0300     0.0000 
 3010.6619    -0.0490     0.0000     2.9200   126.5790     0.0610    35.7770     0.0300     0.0000 
 3010.8143    -0.0480     0.0000     2.8750   127.5720     0.0400    35.2580     0.0160     0.0000 
 3010.9667    -0.0470     0.0000     2.8850   128.0300     0.0320    34.7960     0.0060     0.0000 
 3011.1191    -0.0450     0.0000     2.8860   129.3410     0.0390    33.3330     0.0070     0.0000 
 3011.2715    -0.0440     0.0000     2.8890   128.5580     0.0420    32.1480     0.0110     0.0000 
 3011.4239    -0.0410     0.0040     2.8820   127.5260     0.0480    30.7320     0.0060     0.0170 
 3011.5763    -0.0400     0.0270     2.8530   127.5530     0.0320    28.8690    -0.0010     0.1210 
 3011.7287    -0.0380     0.0690     2.8500   127.4950     0.0130    26.9300     0.0000     0.2870 
 3011.8811    -0.0390     0.1050     2.8220   127.9150     0.0170    25.2090     0.0230     0.3940 
 3012.0335    -0.0390     0.1240     2.8410   128.8310     0.0190    24.1570     0.0320     0.4360 
 3012.1859    -0.0390     0.1320     2.8620   128.7360     0.0290    23.4730     0.0240     0.4530 
 3012.3383    -0.0390     0.1360     2.8610   127.5270     0.0270    23.6440     0.0140     0.4570 
 3012.4907    -0.0390     0.1300     2.8310   128.1210     0.0440    24.8550     0.0160     0.4390 
 3012.6431    -0.0380     0.1170     2.8740   127.7750     0.0430    26.4990     0.0150     0.4030 
 3012.7955    -0.0360     0.1110     2.8900   127.3030     0.0420    28.3940     0.0020     0.3880 
 3012.9479    -0.0340     0.0990     2.9060   127.3230     0.0460    30.5520    -0.0150     0.3700 
 3013.1003    -0.0320     0.0960     2.8930   128.9570     0.0300    32.7260    -0.0120     0.3820 
 3013.2527    -0.0300     0.0780     2.9190   127.9830    -0.0020    34.1430    -0.0120     0.3670 
 3013.4051    -0.0280     0.0710     2.9010   127.1950    -0.0090    35.1250    -0.0080     0.3940 
 3013.5575    -0.0260     0.0380     2.8940   126.4180    -0.0360    35.5830     0.0010     0.3120 
 3013.7099    -0.0250     0.0770     2.8850   124.2990    -0.0310    35.9910     0.0010     0.4840 
 3013.8623    -0.0240     0.0820     2.8480   123.4040    -0.0190    35.7850    -0.0020     0.4690 
 3014.0147    -0.0230     0.0910     2.8140   122.6880    -0.0110    35.3210     0.0100     0.4940 
 3014.1671    -0.0210     0.0910     2.7900   122.8030     0.0200    35.0880     0.0130     0.4840 
 3014.3195    -0.0190     0.0860     2.8090   123.2600     0.0250    35.4240     0.0180     0.4490 
 3014.4719    -0.0170     0.0800     2.8070   124.2110     0.0190    36.1010     0.0200     0.3900 
 3014.6243    -0.0140     0.0730     2.8540   127.2340     0.0050    37.0200     0.0200     0.3360 
 3014.7767    -0.0120     0.0590     2.9540   128.3320     0.0130    38.5530     0.0350     0.2660 
 3014.9291    -0.0090     0.0300     2.9770   129.4570     0.0020    39.0220     0.0430     0.1470 
 3015.0815    -0.0050     0.0020     3.0010   127.9500    -0.0050    39.1390     0.0310     0.0120 
