~Version Information
 VERS.                  2.0:   CWLS log ASCII Standard -VERSION 2.0
 WRAP.                   NO:   One line per depth step
~Well Information Block
#MNEM.UNIT       Data Type    Information
#---------     -----------    ---------------------------
 STRT.M              2880.6599:
 STOP.M              3414.2598:
 STEP.M                 0.1524:
 NULL.               -999.2500:
 UWI .            NO 15/9-F-14:  UWI
 API .            NO 15/9-F-14:  UWI
 WELL.               15/9-F-14:  COMMON WELL NAME
 COMP.                 STATOIL:  WELL OPERATOR
 FLD .                   VOLVE:  FIELD
 LIC .              NO PL046BS:  AUTHORIZATION NO
 LOC .                 UNKNOWN:  BASIN
 CTRY.                  Norway:  COUNTRY
 STAT.                 UNKNOWN:  STATE
 CNTY.                 UNKNOWN:  COUNTY
 PROV.                 UNKNOWN:  STATE
 SRVC.                 UNKNOWN:  COMPANY
 DATE.                 UNKNOWN:  LOG RUN DATE
 LONG.             1.887521912:  LONGITUDE
 LATI.            58.441602475:  LATITUDE
 XCOORD.           435052.4375:  X COORDINATE
 YCOORD.          6478562.5000:  Y COORDINATE
 ELEV.M                54.9000:  ELEVATION
 TD  .M              3750.0000:  TOTAL DEPTH
~Parameter Information Block
#MNEM.UNIT       Value        Description
#---------     -----------    ---------------------------
~Curve Information Block
#MNEM.UNIT                 API CODE     Curve Description
#---------               -----------    ---------------------------
 DEPTH.M                00 000 000 000:  Index Curve
 plt302S-QGAS.            00 000 000 000:  gas rate
 plt302S-QOIL.            00 000 000 000:  oil rate
 plt302S-QTOT.            00 000 000 000:  
 plt302S-QWAT.            00 000 000 000:  
 plt302S-WPRE.BAR         00 000 000 000:  
 plt302S-WTEP.DEGC        00 000 000 000:  
 plt302S-YG.NONE        00 000 000 000:  
 plt302S-YO.NONE        00 000 000 000:  
~A DEPTH     plt302S-QGAS plt302S-QOIL plt302S-QTOT plt302S-QWAT plt302S-WPRE plt302S-WTEP plt302S-YG plt302S-YO
# ...
 3295.1063     0.0000     0.2199    12.2942    12.0743   332.3979   106.8237     0.0000     0.0006 
 3295.2587     0.0000     0.2928    10.2555     9.9626   332.4012   106.8221     0.0000     0.0008 
 3295.4111     0.0000     0.3658     8.2167     7.8509   332.4038   106.8207     0.0000     0.0010 
 3295.5634     0.0000     0.4387     6.1779     5.7392   332.4066   106.8196     0.0000     0.0012 
 3295.7158     0.0000     0.4457     5.8565     5.4107   332.4089   106.8184     0.0000     0.0012 
 3295.8682     0.0000     0.3728     7.6189     7.2461   332.4096   106.8173     0.0000     0.0010 
 3296.0205     0.0000     0.2999     9.3814     9.0815   332.4110   106.8167     0.0000     0.0008 
 3296.1729     0.0000     0.2269    11.1438    10.9169   332.4135   106.8158     0.0000     0.0006 
 3296.3253     0.0000     0.1540    12.9062    12.7523   332.4174   106.8147     0.0000     0.0004 
 3296.4776     0.0000     0.0810    14.6687    14.5876   332.4229   106.8141     0.0000     0.0002 
 3296.6300     0.0000     0.0081    16.4311    16.4230   332.4295   106.8131     0.0000     0.0000 
 3296.7824     0.0000     0.0000    16.9595    16.9595   332.4360   106.8118     0.0000     0.0000 
 3296.9347     0.0000     0.0000    17.3338    17.3338   332.4410   106.8101     0.0000     0.0000 
 3297.0871     0.0000     0.0000    17.7080    17.7080   332.4449   106.8083     0.0000     0.0000 
 3297.2395     0.0000     0.0000    18.0823    18.0823   332.4475   106.8068     0.0000     0.0000 
 3297.3919     0.0000     0.0000    18.4566    18.4566   332.4493   106.8055     0.0000     0.0000 
 3297.5442     0.0000     0.0000    18.8309    18.8309   332.4510   106.8044     0.0000     0.0000 
 3297.6966     0.0000     0.0000    18.1108    18.1108   332.4530   106.8032     0.0000     0.0000 
 3297.8490     0.0000     0.0000    15.1307    15.1307   332.4547   106.8021     0.0000     0.0000 
 3298.0013     0.0000     0.0000    12.1505    12.1505   332.4556   106.8012     0.0000     0.0000 
 3298.1537     0.0000     0.0000     9.1704     9.1704   332.4562   106.8006     0.0000     0.0000 
 3298.3061     0.0000     0.0000     6.1902     6.1902   332.4578   106.8007     0.0000     0.0000 
 3298.4585     0.0000     0.0000     3.2101     3.2101   332.4608   106.8007     0.0000     0.0000 
 3298.6108     0.0000     0.0000     0.2299     0.2299   332.4644   106.8001     0.0000     0.0000 
 3298.7632     0.0000     0.0000     1.9125     1.9125   332.4687   106.7991     0.0000     0.0000 
 3298.9156     0.0000     0.0000     5.0396     5.0396   332.4735   106.7976     0.0000     0.0000 
 3299.0679     0.0000     0.0000     8.1667     8.1667   332.4774   106.7963     0.0000     0.0000 
 3299.2203     0.0000     0.0000    11.2938    11.2938   332.4809   106.7954     0.0000     0.0000 
 3299.3727     0.0000     0.0000    14.4209    14.4209   332.4852   106.7944     0.0000     0.0000 
 3299.5250     0.0000     0.0000    17.5480    17.5480   332.4898   106.7932     0.0000     0.0000 
 3299.6774     0.0000     0.0000    19.9169    19.9169   332.4943   106.7921     0.0000     0.0000 
 3299.8298     0.0000     0.0000    19.2663    19.2663   332.4983   106.7908     0.0000     0.0000 
 3299.9821     0.0000     0.0000    18.6157    18.6157   332.5019   106.7893     0.0000     0.0000 
 3300.1345     0.0000     0.0000    17.9652    17.9652   332.5049   106.7877     0.0000     0.0000 
 3300.2869     0.0000     0.0000    17.3146    17.3146   332.5087   106.7865     0.0000     0.0000 
 3300.4393     0.0000     0.0000    16.6641    16.6641   332.5124   106.7849     0.0000     0.0000 
 3300.5916     0.0000     0.0000    16.0135    16.0135   332.5156   106.7831     0.0000     0.0000 
 3300.7440     0.0000     0.0000    14.1949    14.1949   332.5171   106.7818     0.0000     0.0000 
 3300.8964     0.0000     0.0000    11.7133    11.7133   332.5186   106.7804     0.0000     0.0000 
 3301.0487     0.0000     0.0000     9.2318     9.2318   332.5201   106.7791     0.0000     0.0000 
 3301.2011     0.0000     0.0000     6.7503     6.7503   332.5219   106.7780     0.0000     0.0000 
 3301.3535     0.0000     0.0000     4.2687     4.2687   332.5233   106.7769     0.0000     0.0000 
 3301.5059     0.0000     0.0000     1.7872     1.7872   332.5245   106.7763     0.0000     0.0000 
 3301.6582     0.0000     0.0000    -0.1621    -0.1621   332.5256   106.7760     0.0000     0.0000 
 3301.8106     0.0000     0.0000     4.4370     4.4370   332.5277   106.7755     0.0000     0.0000 
 3301.9630     0.0000     0.0000     9.0360     9.0360   332.5313   106.7746     0.0000     0.0000 
 3302.1153     0.0000     0.0000    13.6350    13.6350   332.5366   106.7734     0.0000     0.0000 
 3302.2677     0.0000     0.0000    18.2341    18.2341   332.5426   106.7718     0.0000     0.0000 
 3302.4201     0.0000     0.0000    22.8331    22.8331   332.5485   106.7698     0.0000     0.0000 
 3302.5724     0.0000     0.0000    27.4321    27.4321   332.5533   106.7681     0.0000     0.0000 
 3302.7248     0.0000     0.0000    27.8976    27.8976   332.5565   106.7663     0.0000     0.0000 
 3302.8772     0.0000     0.0000    24.4296    24.4296   332.5595   106.7650     0.0000     0.0000 
 3303.0296     0.0000     0.0000    20.9616    20.9616   332.5630   106.7636     0.0000     0.0000 
 3303.1819     0.0000     0.0000    17.4936    17.4936   332.5677   106.7622     0.0000     0.0000 
 3303.3343     0.0000     0.0000    14.0256    14.0256   332.5717   106.7609     0.0000     0.0000 
 3303.4867     0.0000     0.0000    10.5576    10.5576   332.5746   106.7603     0.0000     0.0000 
 3303.6390     0.0000     0.0000     7.0896     7.0896   332.5762   106.7594     0.0000     0.0000 
 3303.7914     0.0000     0.0301     6.8615     6.8314   332.5772   106.7582     0.0000     0.0001 
 3303.9438     0.0000     0.0619     6.8053     6.7434   332.5793   106.7569     0.0000     0.0002 
 3304.0961     0.0000     0.0936     6.7491     6.6554   332.5837   106.7552     0.0000     0.0003 
 3304.2485     0.0000     0.1254     6.6929     6.5675   332.5879   106.7543     0.0000     0.0003 
 3304.4009     0.0000     0.1571     6.6367     6.4795   332.5902   106.7540     0.0000     0.0004 
 3304.5532     0.0000     0.1889     6.5804     6.3916   332.5915   106.7533     0.0000     0.0005 
 3304.7056     0.0000     0.7913     7.7539     6.9626   332.5938   106.7525     0.0000     0.0022 
 3304.8580     0.0000     2.2980    10.8760     8.5780   332.5951   106.7522     0.0000     0.0063 
 3305.0104     0.0000     3.8047    13.9982    10.1935   332.5971   106.7519     0.0000     0.0104 
 3305.1627     0.0000     5.3114    17.1204    11.8089   332.6010   106.7511     0.0000     0.0144 
 3305.3151     0.0000     6.8182    20.2425    13.4243   332.6047   106.7502     0.0000     0.0185 
 3305.4675     0.0000     8.3249    23.3647    15.0398   332.6075   106.7495     0.0000     0.0226 
 3305.6198     0.0000     9.8316    26.4868    16.6552   332.6107   106.7489     0.0000     0.0267 
 3305.7722     0.0000     8.8288    22.2332    13.4044   332.6155   106.7482     0.0000     0.0240 
 3305.9246     0.0000     7.2903    16.4053     9.1150   332.6207   106.7475     0.0000     0.0198 
 3306.0770     0.0000     5.7518    10.5774     4.8255   332.6254   106.7466     0.0000     0.0156 
 3306.2293     0.0000     4.2134     4.7494     0.5361   332.6301   106.7454     0.0000     0.0114 
 3306.3817     0.0000     2.6749    -1.0785    -3.7534   332.6341   106.7442     0.0000     0.0073 
 3306.5341     0.0000     1.1364    -6.9064    -8.0428   332.6372   106.7432     0.0000     0.0031 
 3306.6864     0.0000     0.4437   -10.2749   -10.7186   332.6400   106.7425     0.0000     0.0013 
 3306.8388     0.0000     2.1417    -6.6919    -8.8336   332.6414   106.7419     0.0000     0.0061 
 3306.9912     0.0000     3.8396    -3.1089    -6.9485   332.6422   106.7416     0.0000     0.0109 
 3307.1435     0.0000     5.5375     0.4741    -5.0634   332.6443   106.7410     0.0000     0.0157 
