~Version Information
 VERS.                  2.0:   CWLS log ASCII Standard -VERSION 2.0
 WRAP.                   NO:   One line per depth step
~Well Information Block
#MNEM.UNIT       Data Type    Information
#---------     -----------    ---------------------------
 STRT.M              2880.6599:
 STOP.M              3414.2598:
 STEP.M                 0.1524:
 NULL.               -999.2500:
 UWI .            NO 15/9-F-14:  UWI
 API .            NO 15/9-F-14:  UWI
 WELL.               15/9-F-14:  COMMON WELL NAME
 COMP.                 STATOIL:  WELL OPERATOR
 FLD .                   VOLVE:  FIELD
 LIC .              NO PL046BS:  AUTHORIZATION NO
 LOC .                 UNKNOWN:  BASIN
 CTRY.                  Norway:  COUNTRY
 STAT.                 UNKNOWN:  STATE
 CNTY.                 UNKNOWN:  COUNTY
 PROV.                 UNKNOWN:  STATE
 SRVC.                 UNKNOWN:  COMPANY
 DATE.                 UNKNOWN:  LOG RUN DATE
 LONG.             1.887521912:  LONGITUDE
 LATI.            58.441602475:  LATITUDE
 XCOORD.           435052.4375:  X COORDINATE
 YCOORD.          6478562.5000:  Y COORDINATE
 ELEV.M                54.9000:  ELEVATION
 TD  .M              3750.0000:  TOTAL DEPTH
~Parameter Information Block
#MNEM.UNIT       Value        Description
#---------     -----------    ---------------------------
~Curve Information Block
#MNEM.UNIT                 API CODE     Curve Description
#---------               -----------    ---------------------------
 DEPTH.M                00 000 000 000:  Index Curve
 plt302S-QGAS.            00 000 000 000:  gas rate
 plt302S-QOIL.            00 000 000 000:  oil rate
 plt302S-QTOT.            00 000 000 000:  
 plt302S-QWAT.            00 000 000 000:  
 plt302S-WPRE.BAR         00 000 000 000:  
 plt302S-WTEP.DEGC        00 000 000 000:  
 plt302S-YG.NONE        00 000 000 000:  
 plt302S-YO.NONE        00 000 000 000:  
~A DEPTH     plt302S-QGAS plt302S-QOIL plt302S-QTOT plt302S-QWAT plt302S-WPRE plt302S-WTEP plt302S-YG plt302S-YO
# ...
 2990.3663     0.0000     0.7110     1.4807     0.7697   324.2774   105.8893     0.0000     0.0028 
 2990.5187     0.0000     0.3377    -1.1874    -1.5251   324.2875   105.8900     0.0000     0.0013 
 2990.6710     0.0000     0.0000    -3.4918    -3.4918   324.2952   105.8910     0.0000     0.0000 
 2990.8234     0.0000     0.0000    -2.3576    -2.3576   324.3014   105.8923     0.0000     0.0000 
 2990.9758     0.0000     0.0000    -1.2234    -1.2234   324.3063   105.8934     0.0000     0.0000 
 2991.1282     0.0000     0.0000    -0.0892    -0.0892   324.3104   105.8941     0.0000     0.0000 
 2991.2805     0.0000     0.0000     1.0450     1.0450   324.3144   105.8941     0.0000     0.0000 
 2991.4329     0.0000     0.0000     2.1793     2.1793   324.3200   105.8943     0.0000     0.0000 
 2991.5853     0.0000     0.0000     3.3135     3.3135   324.3285   105.8950     0.0000     0.0000 
 2991.7376     0.0000     0.0029     3.7892     3.7863   324.3370   105.8955     0.0000     0.0000 
 2991.8900     0.0000     0.0083     3.6876     3.6792   324.3416   105.8960     0.0000     0.0000 
 2992.0424     0.0000     0.0138     3.5860     3.5722   324.3464   105.8965     0.0000     0.0000 
 2992.1948     0.0000     0.0192     3.4844     3.4651   324.3521   105.8967     0.0000     0.0001 
 2992.3471     0.0000     0.0247     3.3828     3.3581   324.3582   105.8969     0.0000     0.0001 
 2992.4995     0.0000     0.0301     3.2812     3.2511   324.3654   105.8976     0.0000     0.0001 
 2992.6519     0.0000     0.0356     3.1796     3.1440   324.3736   105.8987     0.0000     0.0001 
 2992.8042     0.0000     0.0305     1.5483     1.5178   324.3836   105.8998     0.0000     0.0001 
 2992.9566     0.0000     0.0250    -0.1302    -0.1552   324.3912   105.9007     0.0000     0.0001 
 2993.1090     0.0000     0.0196    -1.8087    -1.8282   324.3980   105.9013     0.0000     0.0001 
 2993.2613     0.0000     0.0141    -3.4871    -3.5013   324.4048   105.9016     0.0000     0.0000 
 2993.4137     0.0000     0.0087    -5.1656    -5.1743   324.4116   105.9016     0.0000     0.0000 
 2993.5661     0.0000     0.0032    -6.8441    -6.8473   324.4179   105.9021     0.0000     0.0000 
 2993.7184     0.0000     0.2103    -7.1420    -7.3523   324.4232   105.9029     0.0000     0.0008 
 2993.8708     0.0000     0.7265    -5.4313    -6.1578   324.4270   105.9039     0.0000     0.0027 
 2994.0232     0.0000     1.2428    -3.7206    -4.9634   324.4299   105.9047     0.0000     0.0046 
 2994.1756     0.0000     1.7590    -2.0099    -3.7689   324.4328   105.9048     0.0000     0.0065 
 2994.3279     0.0000     2.2753    -0.2992    -2.5745   324.4372   105.9050     0.0000     0.0084 
 2994.4803     0.0000     2.7915     1.4115    -1.3801   324.4430   105.9053     0.0000     0.0103 
 2994.6327     0.0000     3.3078     3.1222    -0.1856   324.4510   105.9053     0.0000     0.0122 
 2994.7850     0.0000     2.9520     3.9796     1.0276   324.4616   105.9057     0.0000     0.0109 
 2994.9374     0.0000     2.4358     4.6799     2.2442   324.4732   105.9064     0.0000     0.0090 
 2995.0898     0.0000     1.9195     5.3803     3.4608   324.4820   105.9072     0.0000     0.0071 
 2995.2422     0.0000     1.4033     6.0807     4.6774   324.4903   105.9078     0.0000     0.0052 
 2995.3945     0.0000     0.8870     6.7811     5.8941   324.4986   105.9081     0.0000     0.0033 
 2995.5469     0.0000     0.3708     7.4815     7.1107   324.5060   105.9084     0.0000     0.0014 
 2995.6993     0.0000     0.0000     7.5423     7.5423   324.5121   105.9092     0.0000     0.0000 
 2995.8516     0.0000     0.0000     5.9731     5.9731   324.5158   105.9100     0.0000     0.0000 
 2996.0040     0.0000     0.0000     4.4040     4.4040   324.5183   105.9106     0.0000     0.0000 
 2996.1564     0.0000     0.0000     2.8348     2.8348   324.5210   105.9112     0.0000     0.0000 
 2996.3087     0.0000     0.0000     1.2657     1.2657   324.5244   105.9118     0.0000     0.0000 
 2996.4611     0.0000     0.0000    -0.3035    -0.3035   324.5291   105.9123     0.0000     0.0000 
 2996.6135     0.0000     0.0000    -1.8726    -1.8726   324.5359   105.9128     0.0000     0.0000 
 2996.7658     0.0000     0.0000    -1.3590    -1.3590   324.5432   105.9129     0.0000     0.0000 
 2996.9182     0.0000     0.0000    -0.0317    -0.0317   324.5504   105.9138     0.0000     0.0000 
 2997.0706     0.0000     0.0000     1.2956     1.2956   324.5555   105.9144     0.0000     0.0000 
 2997.2230     0.0000     0.0000     2.6230     2.6230   324.5621   105.9147     0.0000     0.0000 
 2997.3753     0.0000     0.0000     3.9503     3.9503   324.5702   105.9152     0.0000     0.0000 
 2997.5277     0.0000     0.0000     5.2776     5.2776   324.5785   105.9157     0.0000     0.0000 
 2997.6801     0.0000     0.0000     6.4214     6.4214   324.5856   105.9168     0.0000     0.0000 
 2997.8324     0.0000     0.0000     6.5744     6.5744   324.5924   105.9182     0.0000     0.0000 
 2997.9848     0.0000     0.0000     6.7274     6.7274   324.5992   105.9189     0.0000     0.0000 
 2998.1372     0.0000     0.0000     6.8804     6.8804   324.6068   105.9197     0.0000     0.0000 
 2998.2895     0.0000     0.0000     7.0334     7.0334   324.6147   105.9202     0.0000     0.0000 
 2998.4419     0.0000     0.0000     7.1864     7.1864   324.6189   105.9206     0.0000     0.0000 
 2998.5943     0.0000     0.0000     7.3394     7.3394   324.6215   105.9214     0.0000     0.0000 
 2998.7467     0.0000     0.0000     6.1862     6.1862   324.6254   105.9226     0.0000     0.0000 
 2998.8990     0.0000     0.0000     4.1385     4.1385   324.6305   105.9237     0.0000     0.0000 
 2999.0514     0.0000     0.0000     2.0908     2.0908   324.6367   105.9245     0.0000     0.0000 
 2999.2038     0.0000     0.0000     0.0431     0.0431   324.6446   105.9250     0.0000     0.0000 
 2999.3561     0.0000     0.0000    -2.0046    -2.0046   324.6534   105.9249     0.0000     0.0000 
 2999.5085     0.0000     0.0000    -4.0524    -4.0524   324.6617   105.9250     0.0000     0.0000 
 2999.6609     0.0000     0.0155    -5.9397    -5.9551   324.6693   105.9256     0.0000     0.0001 
 2999.8133     0.0000     0.5185    -2.7706    -3.2891   324.6759   105.9268     0.0000     0.0019 
 2999.9656     0.0000     1.0216     0.3985    -0.6230   324.6816   105.9283     0.0000     0.0037 
 3000.1180     0.0000     1.5246     3.5677     2.0430   324.6871   105.9292     0.0000     0.0055 
 3000.2704     0.0000     2.0277     6.7368     4.7091   324.6928   105.9295     0.0000     0.0073 
 3000.4227     0.0000     2.5308     9.9059     7.3751   324.6986   105.9303     0.0000     0.0091 
 3000.5751     0.0000     3.0338    13.0750    10.0412   324.7040   105.9316     0.0000     0.0109 
 3000.7275     0.0000     3.0660    13.0404     9.9744   324.7075   105.9331     0.0000     0.0110 
 3000.8798     0.0000     2.5630     9.3638     6.8009   324.7106   105.9344     0.0000     0.0092 
 3001.0322     0.0000     2.0599     5.6873     3.6273   324.7159   105.9357     0.0000     0.0074 
 3001.1846     0.0000     1.5569     2.0107     0.4538   324.7238   105.9370     0.0000     0.0056 
 3001.3369     0.0000     1.0538    -1.6659    -2.7197   324.7331   105.9383     0.0000     0.0038 
 3001.4893     0.0000     0.5507    -5.3425    -5.8933   324.7433   105.9395     0.0000     0.0020 
 3001.6417     0.0000     0.0477    -9.0191    -9.0668   324.7537   105.9404     0.0000     0.0002 
 3001.7941     0.0000     0.0000    -7.5597    -7.5597   324.7620   105.9412     0.0000     0.0000 
 3001.9464     0.0000     0.0000    -5.5626    -5.5626   324.7675   105.9422     0.0000     0.0000 
 3002.0988     0.0000     0.0000    -3.5654    -3.5654   324.7722   105.9430     0.0000     0.0000 
 3002.2512     0.0000     0.0000    -1.5682    -1.5682   324.7770   105.9438     0.0000     0.0000 
 3002.4035     0.0000     0.0000     0.4289     0.4289   324.7816   105.9448     0.0000     0.0000 
