~Version Information
 VERS.                  2.0:   CWLS log ASCII Standard -VERSION 2.0
 WRAP.                   NO:   One line per depth step
~Well Information Block
#MNEM.UNIT       Data Type    Information
#---------     -----------    ---------------------------
 STRT.M              2954.2739:
 STOP.M              3647.5415:
 STEP.M                 0.1524:
 NULL.               -999.2500:
 UWI .            NO 15/9-F-14:  UWI
 API .            NO 15/9-F-14:  UWI
 WELL.               15/9-F-14:  COMMON WELL NAME
 COMP.                 STATOIL:  WELL OPERATOR
 FLD .                   VOLVE:  FIELD
 LIC .              NO PL046BS:  AUTHORIZATION NO
 LOC .                 UNKNOWN:  BASIN
 CTRY.                  Norway:  COUNTRY
 STAT.                 UNKNOWN:  STATE
 CNTY.                 UNKNOWN:  COUNTY
 PROV.                 UNKNOWN:  STATE
 SRVC.                 UNKNOWN:  COMPANY
 DATE.                 UNKNOWN:  LOG RUN DATE
 LONG.             1.887521912:  LONGITUDE
 LATI.            58.441602475:  LATITUDE
 XCOORD.           435052.4375:  X COORDINATE
 YCOORD.          6478562.5000:  Y COORDINATE
 ELEV.M                54.9000:  ELEVATION
 TD  .M              3750.0000:  TOTAL DEPTH
~Parameter Information Block
#MNEM.UNIT       Value        Description
#---------     -----------    ---------------------------
~Curve Information Block
#MNEM.UNIT                 API CODE     Curve Description
#---------               -----------    ---------------------------
 DEPTH.M                00 000 000 000:  Index Curve
 sat201IC-BHOF.NONE        00 000 000 000:  IC mode, Estimated Borehole Oil Fraction
 sat201IC-BVW.V/V         00 000 000 000:  IC mode, Estimated Bulk Volume of Water; 'sat201IC-SW'*'PHIF'
 sat201IC-CRRA.NONE        00 000 000 000:  IC mode, RST Near/Far Instantaneous Count Rate Ratio
 sat201IC-FBEF.UA          00 000 000 000:  IC mode, RST Far Effective Beam Current
 sat201IC-FCOR.NONE        00 000 000 000:  IC mode, RST Far Carbon/Oxygen Ratio
 sat201IC-GR.GAPI        00 000 000 000:  IC mode, Gamma Ray
 sat201IC-NCOR.NONE        00 000 000 000:  IC mode, RST Near Carbon/Oxygen Ratio
 sat201IC-SW.V/V         00 000 000 000:  IC mode, Estimated Water Saturation
~A DEPTH     sat201IC-BHOF sat201IC-BVW sat201IC-CRRA sat201IC-FBEF sat201IC-FCOR sat201IC-GR sat201IC-NCOR sat201IC-SW
# ...
 3173.7299     0.0530     0.2400     2.8810   126.8090    -0.0180    34.1160     0.0350     0.9040 
 3173.8823     0.0540     0.2310     2.8640   127.5150    -0.0130    34.6120     0.0290     0.8750 
 3174.0347     0.0550     0.2120     2.8670   125.1540    -0.0140    34.9670     0.0240     0.8310 
 3174.1871     0.0570     0.2070     2.8110   125.4650    -0.0100    35.0540     0.0160     0.7990 
 3174.3395     0.0580     0.1980     2.8310   125.7460     0.0090    34.5280     0.0140     0.7760 
 3174.4919     0.0600     0.2030     2.8410   125.8400     0.0160    34.4850     0.0150     0.7860 
 3174.6443     0.0610     0.1980     2.8150   126.0960     0.0200    34.0910     0.0160     0.7740 
 3174.7967     0.0610     0.1930     2.8410   125.2170     0.0100    33.7870     0.0130     0.7540 
 3174.9491     0.0620     0.1870     2.8350   125.9470    -0.0100    33.6990     0.0180     0.7350 
 3175.1015     0.0610     0.1900     2.8390   125.8200    -0.0100    33.4150     0.0240     0.7310 
 3175.2539     0.0610     0.1920     2.8250   126.0650    -0.0060    33.1180     0.0290     0.7320 
 3175.4063     0.0590     0.1920     2.8280   126.3500    -0.0110    33.7650     0.0270     0.7340 
 3175.5587     0.0570     0.1830     2.8250   127.0320    -0.0150    34.0190     0.0300     0.7160 
 3175.7111     0.0560     0.1790     2.8450   126.1940    -0.0120    33.5960     0.0330     0.6850 
 3175.8635     0.0550     0.1750     2.8290   126.0030     0.0060    33.6400     0.0340     0.6520 
 3176.0159     0.0530     0.1560     2.8290   125.6450     0.0190    33.4880     0.0250     0.5950 
 3176.1683     0.0520     0.1490     2.8240   124.3430     0.0320    33.4460     0.0180     0.5560 
 3176.3207     0.0510     0.1360     2.8130   125.6140     0.0400    33.6750     0.0150     0.5020 
 3176.4731     0.0500     0.1340     2.8260   125.3160     0.0410    34.0790     0.0220     0.4840 
 3176.6255     0.0490     0.1230     2.8040   125.4650     0.0430    34.5940     0.0190     0.4620 
 3176.7779     0.0480     0.1290     2.8230   125.7550     0.0450    34.8510     0.0190     0.4890 
 3176.9303     0.0470     0.1340     2.8150   124.9630     0.0350    35.2000     0.0170     0.5110 
 3177.0827     0.0450     0.1460     2.8080   125.5090     0.0280    35.1100     0.0240     0.5420 
 3177.2351     0.0440     0.1470     2.8220   125.2810     0.0140    35.4110     0.0300     0.5490 
 3177.3875     0.0440     0.1500     2.8150   128.1420     0.0070    34.7560     0.0330     0.5740 
 3177.5399     0.0440     0.1560     2.9650   129.3880     0.0010    34.3270     0.0330     0.5990 
 3177.6923     0.0440     0.1660     3.0120   131.4020     0.0050    32.7480     0.0430     0.6340 
 3177.8447     0.0450     0.1760     3.0140   127.3000     0.0000    32.9690     0.0430     0.6640 
 3177.9971     0.0460     0.1890     2.9040   125.1680    -0.0030    33.3210     0.0470     0.7080 
 3178.1495     0.0480     0.2070     2.8070   125.7150     0.0010    34.5640     0.0450     0.7790 
 3178.3019     0.0510     0.2220     2.8360   125.3010    -0.0060    35.8010     0.0410     0.8480 
 3178.4543     0.0530     0.2350     2.8280   125.3590    -0.0090    37.3510     0.0360     0.9010 
 3178.6067     0.0570     0.2430     2.8340   125.4890    -0.0130    37.5950     0.0290     0.9140 
 3178.7591     0.0600     0.2450     2.8430   124.0480    -0.0260    37.3510     0.0280     0.9150 
 3178.9115     0.0630     0.2310     2.8040   124.3570    -0.0320    36.9060     0.0280     0.8920 
 3179.0639     0.0640     0.2240     2.8180   124.8750    -0.0250    36.8800     0.0280     0.8560 
 3179.2163     0.0650     0.2080     2.8320   124.4960    -0.0180    36.3930     0.0320     0.7940 
 3179.3687     0.0660     0.2040     2.8190   124.7910     0.0030    36.2730     0.0350     0.7600 
 3179.5211     0.0670     0.1930     2.8240   124.7000     0.0010    36.7480     0.0370     0.7170 
 3179.6735     0.0670     0.1840     2.8080   123.9930     0.0060    36.5370     0.0450     0.6920 
 3179.8259     0.0670     0.1790     2.8160   124.6300     0.0100    36.6470     0.0380     0.6770 
 3179.9783     0.0680     0.1780     2.8180   124.9110     0.0150    36.9070     0.0320     0.6750 
 3180.1307     0.0700     0.1770     2.8280   125.0410     0.0110    36.6020     0.0310     0.6780 
 3180.2831     0.0730     0.1810     2.8270   125.4100     0.0140    36.0640     0.0270     0.6900 
 3180.4355     0.0740     0.1870     2.8450   125.0280     0.0110    35.8710     0.0220     0.7110 
 3180.5879     0.0750     0.1980     2.8250   125.4940     0.0140    35.1850     0.0230     0.7530 
 3180.7403     0.0760     0.2240     2.8380   125.0720     0.0020    34.9960     0.0170     0.8050 
 3180.8927     0.0760     0.2220     2.8280   125.1620    -0.0020    34.8250     0.0170     0.8320 
 3181.0451     0.0760     0.2310     2.8420   125.0350    -0.0110    35.2450     0.0290     0.8620 
 3181.1975     0.0760     0.2300     2.8320   124.7370    -0.0140    35.5210     0.0320     0.8670 
 3181.3499     0.0750     0.2370     2.8290   125.9710    -0.0170    35.2140     0.0300     0.8710 
 3181.5023     0.0750     0.2320     2.8430   125.3440    -0.0140    35.1180     0.0420     0.8690 
 3181.6547     0.0750     0.2340     2.8420   125.4710    -0.0140    35.4090     0.0420     0.8860 
 3181.8071     0.0750     0.2310     2.8410   125.3670    -0.0200    35.1520     0.0440     0.9200 
 3181.9595     0.0740     0.2280     2.8480   125.9080    -0.0170    35.2060     0.0480     0.9410 
 3182.1119     0.0740     0.2210     2.8340   125.4560    -0.0150    35.6480     0.0430     0.9460 
 3182.2643     0.0740     0.2170     2.8370   124.4780    -0.0150    35.1590     0.0440     0.9320 
 3182.4167     0.0730     0.2180     2.8520   122.9440    -0.0210    34.3110     0.0550     0.9270 
 3182.5691     0.0730     0.2140     2.8010   120.7310    -0.0270    33.7880     0.0550     0.9070 
 3182.7215     0.0730     0.2040     2.7640   120.3050    -0.0170    32.3680     0.0580     0.8580 
 3182.8739     0.0740     0.1790     2.7640   121.1500     0.0060    30.8240     0.0530     0.7720 
 3183.0263     0.0740     0.1680     2.7890   121.6370    -0.0010    29.7370     0.0450     0.7150 
 3183.1787     0.0750     0.1540     2.8180   123.0800    -0.0080    29.0180     0.0450     0.6710 
 3183.3311     0.0760     0.1470     2.8600   123.9610    -0.0070    28.1180     0.0470     0.6510 
 3183.4835     0.0780     0.1440     2.8480   123.2490     0.0010    27.9970     0.0390     0.6230 
 3183.6359     0.0800     0.1380     2.8230   121.8340     0.0140    28.6280     0.0420     0.6060 
 3183.7883     0.0810     0.1470     2.7880   121.1500     0.0130    28.9610     0.0400     0.6470 
 3183.9407     0.0820     0.1610     2.7700   122.1320     0.0040    29.6430     0.0440     0.7010 
 3184.0931     0.0830     0.1820     2.7940   122.6760     0.0110    29.7580     0.0470     0.7500 
 3184.2455     0.0840     0.1750     2.8140   122.2660     0.0140    30.6140     0.0370     0.7200 
 3184.3979     0.0850     0.1710     2.7890   121.4830     0.0210    31.1070     0.0230     0.6850 
 3184.5503     0.0850     0.1660     2.7770   122.1350     0.0180    33.0030     0.0190     0.6560 
 3184.7027     0.0860     0.1670     2.7930   123.0940     0.0050    34.7090     0.0150     0.6580 
 3184.8551     0.0860     0.1700     2.7990   124.4860    -0.0140    37.5670     0.0120     0.6670 
 3185.0075     0.0840     0.1680     2.8140   124.8440    -0.0050    39.5320     0.0130     0.6740 
 3185.1599     0.0830     0.1670     2.8320   124.3410    -0.0010    41.3160     0.0180     0.6800 
 3185.3123     0.0820     0.1630     2.8190   125.8850     0.0080    42.1160     0.0280     0.6930 
 3185.4647     0.0800     0.1660     2.8570   124.9710     0.0000    42.4780     0.0410     0.7150 
 3185.6171     0.0790     0.1730     2.8360   125.0220     0.0000    42.7730     0.0500     0.7280 
 3185.7695     0.0770     0.1670     2.8520   124.4620     0.0000    42.6860     0.0420     0.7050 
