~Version Information
 VERS.                  2.0:   CWLS log ASCII Standard -VERSION 2.0
 WRAP.                   NO:   One line per depth step
~Well Information Block
#MNEM.UNIT       Data Type    Information
#---------     -----------    ---------------------------
 STRT.M              2880.6599:
 STOP.M              3414.2598:
 STEP.M                 0.1524:
 NULL.               -999.2500:
 UWI .            NO 15/9-F-14:  UWI
 API .            NO 15/9-F-14:  UWI
 WELL.               15/9-F-14:  COMMON WELL NAME
 COMP.                 STATOIL:  WELL OPERATOR
 FLD .                   VOLVE:  FIELD
 LIC .              NO PL046BS:  AUTHORIZATION NO
 LOC .                 UNKNOWN:  BASIN
 CTRY.                  Norway:  COUNTRY
 STAT.                 UNKNOWN:  STATE
 CNTY.                 UNKNOWN:  COUNTY
 PROV.                 UNKNOWN:  STATE
 SRVC.                 UNKNOWN:  COMPANY
 DATE.                 UNKNOWN:  LOG RUN DATE
 LONG.             1.887521912:  LONGITUDE
 LATI.            58.441602475:  LATITUDE
 XCOORD.           435052.4375:  X COORDINATE
 YCOORD.          6478562.5000:  Y COORDINATE
 ELEV.M                54.9000:  ELEVATION
 TD  .M              3750.0000:  TOTAL DEPTH
~Parameter Information Block
#MNEM.UNIT       Value        Description
#---------     -----------    ---------------------------
~Curve Information Block
#MNEM.UNIT                 API CODE     Curve Description
#---------               -----------    ---------------------------
 DEPTH.M                00 000 000 000:  Index Curve
 plt302S-QGAS.            00 000 000 000:  gas rate
 plt302S-QOIL.            00 000 000 000:  oil rate
 plt302S-QTOT.            00 000 000 000:  
 plt302S-QWAT.            00 000 000 000:  
 plt302S-WPRE.BAR         00 000 000 000:  
 plt302S-WTEP.DEGC        00 000 000 000:  
 plt302S-YG.NONE        00 000 000 000:  
 plt302S-YO.NONE        00 000 000 000:  
~A DEPTH     plt302S-QGAS plt302S-QOIL plt302S-QTOT plt302S-QWAT plt302S-WPRE plt302S-WTEP plt302S-YG plt302S-YO
# ...
 3124.4519     0.0000     0.0306    18.3750    18.3444   329.0071   106.0203     0.0000     0.0001 
 3124.6043     0.0000     0.0073    20.0909    20.0835   329.0122   106.0219     0.0000     0.0000 
 3124.7566     0.0000     0.2238    19.0091    18.7853   329.0167   106.0237     0.0000     0.0007 
 3124.9090     0.0000     0.5505    16.6403    16.0898   329.0194   106.0253     0.0000     0.0017 
 3125.0614     0.0000     0.8772    14.2714    13.3942   329.0239   106.0258     0.0000     0.0027 
 3125.2138     0.0000     1.2040    11.9026    10.6986   329.0318   106.0266     0.0000     0.0037 
 3125.3661     0.0000     1.5307     9.5338     8.0031   329.0381   106.0277     0.0000     0.0047 
 3125.5185     0.0000     1.8574     7.1650     5.3075   329.0428   106.0289     0.0000     0.0057 
 3125.6709     0.0000     2.1044     5.3301     3.2258   329.0480   106.0308     0.0000     0.0065 
 3125.8232     0.0000     1.7776     7.3335     5.5558   329.0524   106.0323     0.0000     0.0055 
 3125.9756     0.0000     1.4509     9.3368     7.8859   329.0557   106.0329     0.0000     0.0045 
 3126.1280     0.0000     1.1242    11.3402    10.2160   329.0587   106.0342     0.0000     0.0035 
 3126.2803     0.0000     0.7974    13.3435    12.5461   329.0593   106.0351     0.0000     0.0025 
 3126.4327     0.0000     0.4707    15.3469    14.8762   329.0604   106.0348     0.0000     0.0014 
 3126.5851     0.0000     0.1440    17.3503    17.2063   329.0630   106.0343     0.0000     0.0004 
 3126.7375     0.0000     0.0234    17.9081    17.8847   329.0668   106.0355     0.0000     0.0001 
 3126.8898     0.0000     0.0651    17.3272    17.2621   329.0720   106.0378     0.0000     0.0002 
 3127.0422     0.0000     0.1069    16.7464    16.6395   329.0773   106.0388     0.0000     0.0003 
 3127.1946     0.0000     0.1487    16.1655    16.0168   329.0824   106.0384     0.0000     0.0004 
 3127.3469     0.0000     0.1905    15.5847    15.3942   329.0878   106.0389     0.0000     0.0006 
 3127.4993     0.0000     0.2323    15.0038    14.7715   329.0931   106.0403     0.0000     0.0007 
 3127.6517     0.0000     0.2740    14.4229    14.1489   329.0997   106.0424     0.0000     0.0008 
 3127.8041     0.0000     0.2326    13.2028    12.9703   329.1067   106.0440     0.0000     0.0007 
 3127.9564     0.0000     0.1908    11.9806    11.7898   329.1128   106.0446     0.0000     0.0006 
 3128.1088     0.0000     0.1490    10.7583    10.6093   329.1179   106.0451     0.0000     0.0004 
 3128.2612     0.0000     0.1072     9.5360     9.4288   329.1222   106.0457     0.0000     0.0003 
 3128.4135     0.0000     0.0654     8.3138     8.2483   329.1254   106.0462     0.0000     0.0002 
 3128.5659     0.0000     0.0237     7.0915     7.0678   329.1273   106.0473     0.0000     0.0001 
 3128.7183     0.0000     0.1688     7.6619     7.4932   329.1286   106.0480     0.0000     0.0005 
 3128.8706     0.0000     0.5577    10.5719    10.0141   329.1309   106.0488     0.0000     0.0016 
 3129.0230     0.0000     0.9467    13.4818    12.5351   329.1331   106.0494     0.0000     0.0027 
 3129.1754     0.0000     1.3357    16.3918    15.0561   329.1360   106.0500     0.0000     0.0039 
 3129.3277     0.0000     1.7247    19.3017    17.5770   329.1398   106.0500     0.0000     0.0050 
 3129.4801     0.0000     2.1136    22.2116    20.0980   329.1444   106.0502     0.0000     0.0061 
 3129.6325     0.0000     2.5026    25.1216    22.6190   329.1490   106.0508     0.0000     0.0073 
 3129.7849     0.0000     2.2140    22.7358    20.5218   329.1537   106.0519     0.0000     0.0064 
 3129.9372     0.0000     1.8250    19.5661    17.7411   329.1589   106.0531     0.0000     0.0053 
 3130.0896     0.0000     1.4360    16.3964    14.9604   329.1661   106.0536     0.0000     0.0042 
 3130.2420     0.0000     1.0470    13.2267    12.1796   329.1741   106.0548     0.0000     0.0030 
 3130.3943     0.0000     0.6580    10.0570     9.3989   329.1812   106.0561     0.0000     0.0019 
 3130.5467     0.0000     0.2691     6.8872     6.6182   329.1862   106.0569     0.0000     0.0008 
 3130.6991     0.0000     0.0000     5.4573     5.4573   329.1892   106.0573     0.0000     0.0000 
 3130.8515     0.0000     0.0000     7.9306     7.9306   329.1916   106.0574     0.0000     0.0000 
 3131.0038     0.0000     0.0000    10.4040    10.4040   329.1937   106.0580     0.0000     0.0000 
 3131.1562     0.0000     0.0000    12.8774    12.8774   329.1953   106.0591     0.0000     0.0000 
 3131.3086     0.0000     0.0000    15.3507    15.3507   329.1975   106.0596     0.0000     0.0000 
 3131.4609     0.0000     0.0000    17.8241    17.8241   329.2005   106.0595     0.0000     0.0000 
 3131.6133     0.0000     0.0000    20.2975    20.2975   329.2043   106.0596     0.0000     0.0000 
 3131.7657     0.0000     0.0212    20.1282    20.1070   329.2092   106.0601     0.0000     0.0001 
 3131.9180     0.0000     0.0496    19.0569    19.0073   329.2139   106.0610     0.0000     0.0002 
 3132.0704     0.0000     0.0780    17.9855    17.9076   329.2173   106.0621     0.0000     0.0002 
 3132.2228     0.0000     0.1064    16.9142    16.8079   329.2207   106.0629     0.0000     0.0003 
 3132.3751     0.0000     0.1348    15.8429    15.7081   329.2256   106.0641     0.0000     0.0004 
 3132.5275     0.0000     0.1632    14.7716    14.6084   329.2326   106.0659     0.0000     0.0005 
 3132.6799     0.0000     0.1812    13.6390    13.4578   329.2395   106.0679     0.0000     0.0005 
 3132.8323     0.0000     0.1528    12.2325    12.0797   329.2455   106.0694     0.0000     0.0005 
 3132.9846     0.0000     0.1244    10.8260    10.7016   329.2509   106.0704     0.0000     0.0004 
 3133.1370     0.0000     0.0960     9.4194     9.3235   329.2549   106.0721     0.0000     0.0003 
 3133.2894     0.0000     0.0676     8.0129     7.9453   329.2578   106.0748     0.0000     0.0002 
 3133.4417     0.0000     0.0392     6.6064     6.5672   329.2599   106.0771     0.0000     0.0001 
 3133.5941     0.0000     0.0108     5.1999     5.1891   329.2609   106.0786     0.0000     0.0000 
 3133.7465     0.0000     0.0000     6.4043     6.4043   329.2621   106.0799     0.0000     0.0000 
 3133.8989     0.0000     0.0000     9.2089     9.2089   329.2653   106.0816     0.0000     0.0000 
 3134.0512     0.0000     0.0000    12.0136    12.0136   329.2696   106.0830     0.0000     0.0000 
 3134.2036     0.0000     0.0000    14.8183    14.8183   329.2735   106.0840     0.0000     0.0000 
 3134.3560     0.0000     0.0000    17.6230    17.6230   329.2772   106.0852     0.0000     0.0000 
 3134.5083     0.0000     0.0000    20.4277    20.4277   329.2809   106.0869     0.0000     0.0000 
 3134.6607     0.0000     0.0117    22.8823    22.8706   329.2853   106.0886     0.0000     0.0000 
 3134.8131     0.0000     0.2153    19.5703    19.3551   329.2910   106.0902     0.0000     0.0007 
 3134.9654     0.0000     0.4189    16.2584    15.8395   329.2983   106.0924     0.0000     0.0013 
 3135.1178     0.0000     0.6225    12.9464    12.3240   329.3056   106.0946     0.0000     0.0019 
 3135.2702     0.0000     0.8261     9.6345     8.8084   329.3104   106.0967     0.0000     0.0026 
 3135.4225     0.0000     1.0297     6.3225     5.2928   329.3138   106.0989     0.0000     0.0032 
 3135.5749     0.0000     1.2333     3.0106     1.7773   329.3175   106.1009     0.0000     0.0038 
 3135.7273     0.0000     1.2534     2.2315     0.9781   329.3218   106.1030     0.0000     0.0039 
 3135.8797     0.0000     1.0857     4.0419     2.9562   329.3252   106.1056     0.0000     0.0033 
 3136.0320     0.0000     0.9181     5.8523     4.9342   329.3262   106.1084     0.0000     0.0028 
 3136.1844     0.0000     0.7504     7.6627     6.9123   329.3276   106.1110     0.0000     0.0023 
 3136.3368     0.0000     0.5827     9.4731     8.8903   329.3304   106.1137     0.0000     0.0018 
 3136.4891     0.0000     0.4151    11.2835    10.8684   329.3345   106.1169     0.0000     0.0013 
