~Version Information
 VERS.                  2.0:   CWLS log ASCII Standard -VERSION 2.0
 WRAP.                   NO:   One line per depth step
~Well Information Block
#MNEM.UNIT       Data Type    Information
#---------     -----------    ---------------------------
 STRT.M              2954.2739:
 STOP.M              3647.5415:
 STEP.M                 0.1524:
 NULL.               -999.2500:
 UWI .            NO 15/9-F-14:  UWI
 API .            NO 15/9-F-14:  UWI
 WELL.               15/9-F-14:  COMMON WELL NAME
 COMP.                 STATOIL:  WELL OPERATOR
 FLD .                   VOLVE:  FIELD
 LIC .              NO PL046BS:  AUTHORIZATION NO
 LOC .                 UNKNOWN:  BASIN
 CTRY.                  Norway:  COUNTRY
 STAT.                 UNKNOWN:  STATE
 CNTY.                 UNKNOWN:  COUNTY
 PROV.                 UNKNOWN:  STATE
 SRVC.                 UNKNOWN:  COMPANY
 DATE.                 UNKNOWN:  LOG RUN DATE
 LONG.             1.887521912:  LONGITUDE
 LATI.            58.441602475:  LATITUDE
 XCOORD.           435052.4375:  X COORDINATE
 YCOORD.          6478562.5000:  Y COORDINATE
 ELEV.M                54.9000:  ELEVATION
 TD  .M              3750.0000:  TOTAL DEPTH
~Parameter Information Block
#MNEM.UNIT       Value        Description
#---------     -----------    ---------------------------
~Curve Information Block
#MNEM.UNIT                 API CODE     Curve Description
#---------               -----------    ---------------------------
 DEPTH.M                00 000 000 000:  Index Curve
 sat201IC-BHOF.NONE        00 000 000 000:  IC mode, Estimated Borehole Oil Fraction
 sat201IC-BVW.V/V         00 000 000 000:  IC mode, Estimated Bulk Volume of Water; 'sat201IC-SW'*'PHIF'
 sat201IC-CRRA.NONE        00 000 000 000:  IC mode, RST Near/Far Instantaneous Count Rate Ratio
 sat201IC-FBEF.UA          00 000 000 000:  IC mode, RST Far Effective Beam Current
 sat201IC-FCOR.NONE        00 000 000 000:  IC mode, RST Far Carbon/Oxygen Ratio
 sat201IC-GR.GAPI        00 000 000 000:  IC mode, Gamma Ray
 sat201IC-NCOR.NONE        00 000 000 000:  IC mode, RST Near Carbon/Oxygen Ratio
 sat201IC-SW.V/V         00 000 000 000:  IC mode, Estimated Water Saturation
~A DEPTH     sat201IC-BHOF sat201IC-BVW sat201IC-CRRA sat201IC-FBEF sat201IC-FCOR sat201IC-GR sat201IC-NCOR sat201IC-SW
# ...
 3624.8338     0.0620     0.1680     2.8700   125.6830    -0.0120    39.8960     0.0320     0.7270 
 3624.9862     0.0320     0.1510     2.8530   126.4150    -0.0070    39.5620     0.0240     0.6550 
 3625.1386    -0.0100     0.1370     2.8670   127.0010     0.0040    39.4020     0.0090     0.5830 
 3625.2910    -0.0380     0.1240     2.8680   125.7240     0.0040    39.5250    -0.0050     0.5340 
 3625.4434    -0.0580     0.1230     2.8380   125.1930     0.0040    38.9330    -0.0060     0.5250 
 3625.5958    -0.0650     0.1150     2.8370   125.4730     0.0180    39.1290    -0.0030     0.4930 
 3625.7482    -0.0550     0.1000     2.8390   125.0500     0.0280    39.0180    -0.0090     0.4360 
 3625.9006    -0.0510     0.0910     2.8420   124.9350     0.0240    39.1700    -0.0090     0.4060 
 3626.0530    -0.0430     0.0970     2.8380   125.5620     0.0250    39.2130    -0.0110     0.4320 
 3626.2054    -0.0280     0.1030     2.8540   124.8310     0.0130    39.1880    -0.0070     0.4670 
 3626.3578    -0.0210     0.1100     2.8280   125.1370     0.0040    39.3030    -0.0020     0.5040 
 3626.5102    -0.0170     0.1140     2.8480   125.9990     0.0100    39.5330     0.0000     0.5270 
 3626.6626    -0.0120     0.1410     2.8420   125.7800     0.0080    39.2470     0.0000     0.6070 
 3626.8150    -0.0080     0.1530     2.8540   126.1120    -0.0100    39.1550    -0.0030     0.6650 
 3626.9674    -0.0050     0.1770     2.8680   126.7470    -0.0190    39.6180    -0.0020     0.7460 
 3627.1198    -0.0060     0.1870     2.8720   125.7230    -0.0240    39.2700     0.0050     0.8030 
 3627.2722    -0.0130     0.2010     2.8640   126.3260    -0.0180    38.8010     0.0100     0.8740 
 3627.4246    -0.0200     0.2030     2.8620   126.8560    -0.0050    38.6810     0.0150     0.8830 
 3627.5770    -0.0280     0.1810     2.8630   126.1070    -0.0080    38.6430     0.0190     0.7920 
 3627.7294    -0.0330     0.1370     2.8600   125.8180    -0.0120    37.8950     0.0220     0.5920 
 3627.8818    -0.0300     0.0820     2.8370   117.6970     0.0090    37.8490     0.0310     0.3680 
 3628.0342    -0.0270     0.0440     2.7360   107.5690     0.0230    37.8400     0.0380     0.1940 
 3628.1866    -0.0400     0.0100     2.6060   107.1240     0.0340    37.7760     0.0400     0.0430 
 3628.3390    -0.0400     0.0000     2.5810   108.1790     0.0470    37.6740     0.0460     0.0000 
 3628.4914    -0.0430     0.0000     2.6020   107.5180     0.0490    37.2710     0.0470     0.0000 
 3628.6438    -0.0480     0.0000     2.5960   107.2110     0.0520    36.8030     0.0510     0.0000 
 3628.7962    -0.0530     0.0000     2.5870   107.3570     0.0610    36.0180     0.0550     0.0000 
 3628.9486    -0.0550     0.0000     2.5940   107.7540     0.0570    35.7780     0.0580     0.0000 
 3629.1010    -0.0550     0.0000     2.6040   108.0790     0.0590    35.4750     0.0620     0.0000 
 3629.2534    -0.0540     0.0000     2.6160   107.9570     0.0550    35.9000     0.0620     0.0000 
 3629.4058    -0.0540     0.0000     2.6190   107.7210     0.0510    35.8140     0.0580     0.0000 
 3629.5582    -0.0540     0.0000     2.6050   107.7030     0.0590    36.0650     0.0580     0.0000 
 3629.7106    -0.0520     0.0000     2.6050   106.9930     0.0610    35.9550     0.0520     0.0000 
 3629.8630    -0.0500     0.0000     2.5750   107.0910     0.0640    36.2510     0.0470     0.0000 
 3630.0154    -0.0490     0.0000     2.5840   107.3920     0.0670    35.9740     0.0430     0.0000 
 3630.1678    -0.0500     0.0000     2.6000   106.9240     0.0780    36.1190     0.0360     0.0000 
 3630.3202    -0.0500     0.0000     2.5820   108.1990     0.0770    36.1550     0.0310     0.0000 
 3630.4726    -0.0500     0.0000     2.6130   107.1110     0.0710    36.1710     0.0290     0.2020 
 3630.6250    -0.0500     0.0010     2.5820   107.0040     0.0650    35.5140     0.0280     1.0000 
 3630.7774    -0.0510     0.0010     2.5900   107.1860     0.0410    35.0130     0.0310     0.7980 
 3630.9298    -0.0520     0.0000     2.5840   107.5350     0.0300    35.1220     0.0370     0.0000 
 3631.0822    -0.0540     0.0000     2.5960   107.3240     0.0360    34.5870     0.0420     0.0000 
 3631.2346    -0.0560     0.0000     2.5950   107.1530     0.0370    34.5460     0.0400     0.0000 
 3631.3870    -0.0580     0.0000     2.5820   106.6550     0.0400    34.2030     0.0390     0.0000 
 3631.5394    -0.0620     0.0000     2.5800   107.3010     0.0530    34.6830     0.0460     0.0000 
 3631.6918    -0.0670     0.0000     2.5950   107.9810     0.0750    34.3060     0.0520     0.0000 
 3631.8442    -0.0720     0.0000     2.6060   107.5520     0.0990    34.3630     0.0560     0.0000 
 3631.9966    -0.0780     0.0000     2.5970   107.2850     0.0920    34.2750     0.0470     0.0000 
 3632.1490    -0.0830     0.0000     2.5990   107.4750     0.0880    34.4500     0.0470     0.0000 
 3632.3014    -0.0910     0.0000     2.6010   107.5990     0.0840    37.5710     0.0530     0.0000 
 3632.4538    -0.0980     0.0000     2.5950   107.9560     0.0870    41.0040     0.0510     0.0000 
 3632.6062    -0.1070     0.0000     2.6110   107.4300     0.0760    44.7690     0.0490     0.0000 
 3632.7586    -0.1130     0.0000     2.5830   107.6880     0.0570    48.0290     0.0520     0.0000 
 3632.9110    -0.1150     0.0000     2.6020   107.8870     0.0460    51.6150     0.0500     0.0000 
 3633.0634    -0.1150     0.0000     2.6020   107.4230     0.0590    51.6150     0.0490     0.0000 
 3633.2158    -0.1170     0.0000     2.5970   107.5890     0.0620    51.6150     0.0420     0.0000 
 3633.3682    -0.1190     0.0000     2.5930   107.2140     0.0490    51.6150     0.0360     0.0000 
 3633.5206    -0.1180     0.0000     2.5910   107.1940     0.0370    51.6150     0.0430     0.0000 
 3633.6730    -0.1170     0.0000     2.6070   107.7000     0.0480    51.6150     0.0480     0.0000 
 3633.8254    -0.1160     0.0000     2.6010   107.5920     0.0560    51.6150     0.0420     0.0000 
 3633.9778    -0.1150     0.0000     2.6000   107.2580     0.0650    51.6150     0.0340     0.0000 
 3634.1302    -0.1120     0.0000     2.5830   107.0210     0.0620    51.6150     0.0380     0.0000 
 3634.2826    -0.1110     0.0000     2.5760   107.4770     0.0590    51.6150     0.0450     0.0000 
 3634.4350    -0.1100     0.0000     2.6070   107.0940     0.0610    51.6150     0.0500     0.0000 
 3634.5874    -0.1160     0.0000     2.5920   107.1240     0.0640    51.6150     0.0460     0.0000 
 3634.7398    -0.1340     0.0000     2.5860   106.7190     0.0610    51.6150     0.0380     0.0000 
 3634.8922    -0.1360     0.0000     2.5840   107.3660     0.0550    51.6150     0.0400     0.0000 
 3635.0446    -0.1380     0.0000     2.5900   107.1380     0.0670    51.6150     0.0370     0.0000 
 3635.1970    -0.1400     0.0000     2.5890   107.2060     0.0750    51.6150     0.0310     0.0000 
 3635.3494    -0.1430     0.0000     2.5910   107.0150     0.0850    51.6150     0.0240     0.0000 
 3635.5018    -0.1450     0.0000     2.5980   107.6620     0.0930    51.6150     0.0130     0.0000 
 3635.6542    -0.1470     0.0000     2.6160   107.4970     0.1030    51.6150     0.0050     0.0000 
 3635.8066    -0.1480     0.0000     2.6020   107.7250     0.1200    51.6150    -0.0030     0.0000 
 3635.9590    -0.1490     0.0000     2.6020   108.1740     0.1180    51.6150    -0.0110     0.0000 
 3636.1114    -0.1500     0.0000     2.6150   107.4050     0.1150    51.6150     0.0010     0.0000 
 3636.2638    -0.1500     0.0000     2.6010   107.3660     0.1070    51.6150     0.0110     0.0000 
 3636.4162    -0.1480     0.0000     2.5980   107.6970     0.0880    51.6150     0.0130     0.0000 
 3636.5686    -0.1480     0.0000     2.5660   105.6580     0.0690    51.6150     0.0120     0.0000 
 3636.7210    -0.1510     0.0000     2.5080   105.6580     0.0390    51.6150     0.0060     0.0000 
 3636.8734    -0.1540     0.0000     2.5080   105.6580     0.0390    51.6150     0.0150     0.0000 
