~Version Information
 VERS.                  2.0:   CWLS log ASCII Standard -VERSION 2.0
 WRAP.                   NO:   One line per depth step
~Well Information Block
#MNEM.UNIT       Data Type    Information
#---------     -----------    ---------------------------
 STRT.M              2880.6599:
 STOP.M              3414.2598:
 STEP.M                 0.1524:
 NULL.               -999.2500:
 UWI .            NO 15/9-F-14:  UWI
 API .            NO 15/9-F-14:  UWI
 WELL.               15/9-F-14:  COMMON WELL NAME
 COMP.                 STATOIL:  WELL OPERATOR
 FLD .                   VOLVE:  FIELD
 LIC .              NO PL046BS:  AUTHORIZATION NO
 LOC .                 UNKNOWN:  BASIN
 CTRY.                  Norway:  COUNTRY
 STAT.                 UNKNOWN:  STATE
 CNTY.                 UNKNOWN:  COUNTY
 PROV.                 UNKNOWN:  STATE
 SRVC.                 UNKNOWN:  COMPANY
 DATE.                 UNKNOWN:  LOG RUN DATE
 LONG.             1.887521912:  LONGITUDE
 LATI.            58.441602475:  LATITUDE
 XCOORD.           435052.4375:  X COORDINATE
 YCOORD.          6478562.5000:  Y COORDINATE
 ELEV.M                54.9000:  ELEVATION
 TD  .M              3750.0000:  TOTAL DEPTH
~Parameter Information Block
#MNEM.UNIT       Value        Description
#---------     -----------    ---------------------------
~Curve Information Block
#MNEM.UNIT                 API CODE     Curve Description
#---------               -----------    ---------------------------
 DEPTH.M                00 000 000 000:  Index Curve
 plt302S-QGAS.            00 000 000 000:  gas rate
 plt302S-QOIL.            00 000 000 000:  oil rate
 plt302S-QTOT.            00 000 000 000:  
 plt302S-QWAT.            00 000 000 000:  
 plt302S-WPRE.BAR         00 000 000 000:  
 plt302S-WTEP.DEGC        00 000 000 000:  
 plt302S-YG.NONE        00 000 000 000:  
 plt302S-YO.NONE        00 000 000 000:  
~A DEPTH     plt302S-QGAS plt302S-QOIL plt302S-QTOT plt302S-QWAT plt302S-WPRE plt302S-WTEP plt302S-YG plt302S-YO
# ...
 3161.0207     0.0000     0.5574     9.7833     9.2259   329.9634   106.4935     0.0000     0.0016 
 3161.1731     0.0000     0.7872    10.6865     9.8992   329.9675   106.4965     0.0000     0.0022 
 3161.3254     0.0000     1.0171    11.5897    10.5726   329.9711   106.4995     0.0000     0.0029 
 3161.4778     0.0000     1.2469    12.4929    11.2459   329.9744   106.5030     0.0000     0.0035 
 3161.6302     0.0000     1.4767    13.3960    11.9193   329.9779   106.5064     0.0000     0.0042 
 3161.7826     0.0000     1.3101    11.9060    10.5959   329.9822   106.5088     0.0000     0.0037 
 3161.9349     0.0000     1.0803    10.0345     8.9542   329.9876   106.5109     0.0000     0.0030 
 3162.0873     0.0000     0.8504     8.1630     7.3126   329.9938   106.5132     0.0000     0.0024 
 3162.2397     0.0000     0.6206     6.2915     5.6709   330.0002   106.5157     0.0000     0.0018 
 3162.3920     0.0000     0.3908     4.4200     4.0293   330.0063   106.5186     0.0000     0.0011 
 3162.5444     0.0000     0.1609     2.5486     2.3876   330.0110   106.5231     0.0000     0.0004 
 3162.6968     0.0000     0.0000     2.0998     2.0998   330.0140   106.5288     0.0000     0.0000 
 3162.8492     0.0000     0.0000     4.9747     4.9747   330.0158   106.5343     0.0000     0.0000 
 3163.0015     0.0000     0.0000     7.8496     7.8496   330.0172   106.5391     0.0000     0.0000 
 3163.1539     0.0000     0.0000    10.7245    10.7245   330.0187   106.5436     0.0000     0.0000 
 3163.3063     0.0000     0.0000    13.5994    13.5994   330.0196   106.5477     0.0000     0.0000 
 3163.4586     0.0000     0.0000    16.4743    16.4743   330.0201   106.5506     0.0000     0.0000 
 3163.6110     0.0000     0.0000    19.3492    19.3492   330.0226   106.5528     0.0000     0.0000 
 3163.7634     0.0000     0.0000    17.8983    17.8983   330.0266   106.5552     0.0000     0.0000 
 3163.9157     0.0000     0.0000    14.9036    14.9036   330.0309   106.5583     0.0000     0.0000 
 3164.0681     0.0000     0.0000    11.9089    11.9089   330.0360   106.5625     0.0000     0.0000 
 3164.2205     0.0000     0.0000     8.9143     8.9143   330.0421   106.5662     0.0000     0.0000 
 3164.3729     0.0000     0.0000     5.9196     5.9196   330.0479   106.5689     0.0000     0.0000 
 3164.5252     0.0000     0.0000     2.9249     2.9249   330.0538   106.5710     0.0000     0.0000 
 3164.6776     0.0000     0.0000     0.9044     0.9044   330.0601   106.5728     0.0000     0.0000 
 3164.8300     0.0000     0.0000     3.5009     3.5009   330.0647   106.5751     0.0000     0.0000 
 3164.9823     0.0000     0.0000     6.0974     6.0974   330.0685   106.5789     0.0000     0.0000 
 3165.1347     0.0000     0.0000     8.6939     8.6939   330.0714   106.5832     0.0000     0.0000 
 3165.2871     0.0000     0.0000    11.2904    11.2904   330.0731   106.5866     0.0000     0.0000 
 3165.4394     0.0000     0.0000    13.8869    13.8869   330.0744   106.5890     0.0000     0.0000 
 3165.5918     0.0000     0.0000    16.4834    16.4834   330.0757   106.5909     0.0000     0.0000 
 3165.7442     0.0000     0.0000    17.9364    17.9364   330.0779   106.5936     0.0000     0.0000 
 3165.8965     0.0000     0.0000    18.6628    18.6628   330.0816   106.5975     0.0000     0.0000 
 3166.0489     0.0000     0.0000    19.3891    19.3891   330.0858   106.6015     0.0000     0.0000 
 3166.2013     0.0000     0.0000    20.1155    20.1155   330.0902   106.6055     0.0000     0.0000 
 3166.3537     0.0000     0.0000    20.8418    20.8418   330.0940   106.6097     0.0000     0.0000 
 3166.5060     0.0000     0.0000    21.5682    21.5682   330.0974   106.6139     0.0000     0.0000 
 3166.6584     0.0000     0.0057    22.1423    22.1366   330.1003   106.6175     0.0000     0.0000 
 3166.8108     0.0000     0.1218    19.7423    19.6204   330.1048   106.6202     0.0000     0.0003 
 3166.9631     0.0000     0.2380    17.3423    17.1042   330.1107   106.6228     0.0000     0.0007 
 3167.1155     0.0000     0.3542    14.9422    14.5880   330.1161   106.6257     0.0000     0.0010 
 3167.2679     0.0000     0.4704    12.5422    12.0718   330.1212   106.6291     0.0000     0.0014 
 3167.4203     0.0000     0.5865    10.1422     9.5556   330.1260   106.6331     0.0000     0.0017 
 3167.5726     0.0000     0.7027     7.7421     7.0394   330.1302   106.6374     0.0000     0.0020 
 3167.7250     0.0000     0.7235     7.8092     7.0858   330.1330   106.6410     0.0000     0.0021 
 3167.8774     0.0000     0.6433    10.4863     9.8431   330.1347   106.6438     0.0000     0.0018 
 3168.0297     0.0000     0.5631    13.1634    12.6004   330.1355   106.6463     0.0000     0.0016 
 3168.1821     0.0000     0.4829    15.8405    15.3577   330.1369   106.6490     0.0000     0.0014 
 3168.3345     0.0000     0.4027    18.5176    18.1150   330.1393   106.6524     0.0000     0.0011 
 3168.4868     0.0000     0.3225    21.1947    20.8723   330.1422   106.6557     0.0000     0.0009 
 3168.6392     0.0000     0.2423    23.8718    23.6296   330.1447   106.6585     0.0000     0.0007 
 3168.7916     0.0000     0.2216    22.2561    22.0346   330.1483   106.6614     0.0000     0.0006 
 3168.9439     0.0000     0.2059    20.2832    20.0773   330.1532   106.6652     0.0000     0.0006 
 3169.0963     0.0000     0.1901    18.3102    18.1200   330.1589   106.6690     0.0000     0.0005 
 3169.2487     0.0000     0.1744    16.3372    16.1628   330.1649   106.6721     0.0000     0.0005 
 3169.4011     0.0000     0.1587    14.3642    14.2055   330.1703   106.6757     0.0000     0.0004 
 3169.5534     0.0000     0.1430    12.3912    12.2483   330.1749   106.6796     0.0000     0.0004 
 3169.7058     0.0000     0.1564    11.7261    11.5696   330.1797   106.6831     0.0000     0.0004 
 3169.8582     0.0000     0.2218    13.3820    13.1603   330.1838   106.6851     0.0000     0.0006 
 3170.0105     0.0000     0.2871    15.0380    14.7509   330.1866   106.6867     0.0000     0.0008 
 3170.1629     0.0000     0.3524    16.6940    16.3416   330.1887   106.6894     0.0000     0.0010 
 3170.3153     0.0000     0.4177    18.3499    17.9323   330.1912   106.6929     0.0000     0.0012 
 3170.4677     0.0000     0.4830    20.0059    19.5229   330.1933   106.6962     0.0000     0.0013 
 3170.6200     0.0000     0.5483    21.6619    21.1136   330.1950   106.6984     0.0000     0.0015 
 3170.7724     0.0000     0.4933    20.8695    20.3763   330.1977   106.7005     0.0000     0.0014 
 3170.9248     0.0000     0.4077    19.4560    19.0483   330.2019   106.7034     0.0000     0.0011 
 3171.0771     0.0000     0.3222    18.0425    17.7204   330.2051   106.7071     0.0000     0.0009 
 3171.2295     0.0000     0.2366    16.6290    16.3924   330.2085   106.7108     0.0000     0.0007 
 3171.3819     0.0000     0.1510    15.2155    15.0644   330.2113   106.7140     0.0000     0.0004 
 3171.5342     0.0000     0.0655    13.8020    13.7365   330.2133   106.7168     0.0000     0.0002 
 3171.6866     0.0000     0.0019    12.4310    12.4291   330.2173   106.7194     0.0000     0.0000 
 3171.8390     0.0000     0.0101    11.1986    11.1886   330.2232   106.7218     0.0000     0.0000 
 3171.9913     0.0000     0.0182     9.9663     9.9481   330.2296   106.7241     0.0000     0.0000 
 3172.1437     0.0000     0.0263     8.7339     8.7076   330.2350   106.7264     0.0000     0.0001 
 3172.2961     0.0000     0.0345     7.5015     7.4671   330.2403   106.7285     0.0000     0.0001 
 3172.4485     0.0000     0.0426     6.2692     6.2265   330.2442   106.7305     0.0000     0.0001 
 3172.6008     0.0000     0.0508     5.0368     4.9860   330.2473   106.7328     0.0000     0.0002 
 3172.7532     0.0000     0.1546     6.2107     6.0561   330.2494   106.7351     0.0000     0.0004 
 3172.9056     0.0000     0.3052     8.5587     8.2535   330.2514   106.7370     0.0000     0.0009 
 3173.0579     0.0000     0.4558    10.9066    10.4508   330.2524   106.7380     0.0000     0.0013 
