~Version Information
 VERS.                  2.0:   CWLS log ASCII Standard -VERSION 2.0
 WRAP.                   NO:   One line per depth step
~Well Information Block
#MNEM.UNIT       Data Type    Information
#---------     -----------    ---------------------------
 STRT.M              2954.2739:
 STOP.M              3647.5415:
 STEP.M                 0.1524:
 NULL.               -999.2500:
 UWI .            NO 15/9-F-14:  UWI
 API .            NO 15/9-F-14:  UWI
 WELL.               15/9-F-14:  COMMON WELL NAME
 COMP.                 STATOIL:  WELL OPERATOR
 FLD .                   VOLVE:  FIELD
 LIC .              NO PL046BS:  AUTHORIZATION NO
 LOC .                 UNKNOWN:  BASIN
 CTRY.                  Norway:  COUNTRY
 STAT.                 UNKNOWN:  STATE
 CNTY.                 UNKNOWN:  COUNTY
 PROV.                 UNKNOWN:  STATE
 SRVC.                 UNKNOWN:  COMPANY
 DATE.                 UNKNOWN:  LOG RUN DATE
 LONG.             1.887521912:  LONGITUDE
 LATI.            58.441602475:  LATITUDE
 XCOORD.           435052.4375:  X COORDINATE
 YCOORD.          6478562.5000:  Y COORDINATE
 ELEV.M                54.9000:  ELEVATION
 TD  .M              3750.0000:  TOTAL DEPTH
~Parameter Information Block
#MNEM.UNIT       Value        Description
#---------     -----------    ---------------------------
~Curve Information Block
#MNEM.UNIT                 API CODE     Curve Description
#---------               -----------    ---------------------------
 DEPTH.M                00 000 000 000:  Index Curve
 sat201IC-BHOF.NONE        00 000 000 000:  IC mode, Estimated Borehole Oil Fraction
 sat201IC-BVW.V/V         00 000 000 000:  IC mode, Estimated Bulk Volume of Water; 'sat201IC-SW'*'PHIF'
 sat201IC-CRRA.NONE        00 000 000 000:  IC mode, RST Near/Far Instantaneous Count Rate Ratio
 sat201IC-FBEF.UA          00 000 000 000:  IC mode, RST Far Effective Beam Current
 sat201IC-FCOR.NONE        00 000 000 000:  IC mode, RST Far Carbon/Oxygen Ratio
 sat201IC-GR.GAPI        00 000 000 000:  IC mode, Gamma Ray
 sat201IC-NCOR.NONE        00 000 000 000:  IC mode, RST Near Carbon/Oxygen Ratio
 sat201IC-SW.V/V         00 000 000 000:  IC mode, Estimated Water Saturation
~A DEPTH     sat201IC-BHOF sat201IC-BVW sat201IC-CRRA sat201IC-FBEF sat201IC-FCOR sat201IC-GR sat201IC-NCOR sat201IC-SW
# ...
 3441.9538     0.0300     0.1950     2.7790   120.4050    -0.0220    37.4270     0.0270     0.8960 
 3442.1062     0.0290     0.2090     2.7630   120.3340    -0.0340    37.2580     0.0280     0.9410 
 3442.2587     0.0300     0.2160     2.7770   120.2780    -0.0470    36.9460     0.0340     0.9700 
 3442.4111     0.0310     0.2160     2.7730   121.3150    -0.0380    36.8650     0.0200     1.0000 
 3442.5635     0.0320     0.2140     2.8020   121.7700    -0.0340    37.0020     0.0220     1.0000 
 3442.7159     0.0330     0.2100     2.8060   121.2430    -0.0440    37.2210     0.0270     1.0000 
 3442.8682     0.0330     0.2160     2.8040   121.9310    -0.0400    36.6320     0.0240     1.0000 
 3443.0206     0.0340     0.2180     2.8000   122.0480    -0.0390    37.0760     0.0200     1.0000 
 3443.1730     0.0350     0.2200     2.7960   121.2140    -0.0290    37.2630     0.0140     1.0000 
 3443.3254     0.0340     0.2260     2.7910   122.9150    -0.0380    37.6080     0.0050     1.0000 
 3443.4779     0.0330     0.2280     2.8120   122.8530    -0.0480    38.4650     0.0220     0.9930 
 3443.6303     0.0320     0.2210     2.8120   124.0630    -0.0530    39.3750     0.0260     0.9610 
 3443.7827     0.0320     0.2120     2.8330   123.9460    -0.0360    39.5700     0.0310     0.9230 
 3443.9351     0.0320     0.1970     2.8290   124.0180    -0.0240    40.1270     0.0320     0.8540 
 3444.0874     0.0320     0.1790     2.8280   122.8370     0.0010    40.7060     0.0370     0.7730 
 3444.2398     0.0320     0.1570     2.8240   123.2470     0.0110    40.8140     0.0400     0.6820 
 3444.3922     0.0320     0.1410     2.8260   123.4680     0.0160    41.2920     0.0400     0.6190 
 3444.5446     0.0320     0.1250     2.8210   124.2220     0.0320    41.6820     0.0280     0.5620 
 3444.6971     0.0320     0.1120     2.8470   123.8100     0.0360    41.7500     0.0340     0.5150 
 3444.8495     0.0320     0.0980     2.8480   124.0790     0.0330    43.1450     0.0280     0.4570 
 3445.0019     0.0320     0.0920     2.8460   123.8040     0.0360    44.3760     0.0230     0.4260 
 3445.1543     0.0330     0.0980     2.8420   124.6230     0.0200    45.0190     0.0190     0.4200 
 3445.3066     0.0320     0.1070     2.8630   128.3430     0.0020    46.0280     0.0200     0.4350 
 3445.4590     0.0320     0.1060     2.9440   128.6320     0.0080    47.4790     0.0190     0.4410 
 3445.6114     0.0310     0.1240     2.9600   129.9750     0.0090    47.8150     0.0200     0.5030 
 3445.7638     0.0290     0.1370     2.9870   129.5620     0.0040    48.1450     0.0160     0.5620 
 3445.9163     0.0270     0.1550     2.9430   128.7990     0.0120    49.1950     0.0170     0.6490 
 3446.0687     0.0250     0.1690     2.9210   127.8060    -0.0110    49.8790     0.0210     0.7270 
 3446.2211     0.0230     0.1890     2.8990   128.1500    -0.0150    49.6590     0.0150     0.8080 
 3446.3735     0.0230     0.1860     2.9080   128.3130    -0.0050    48.5470     0.0150     0.8230 
 3446.5258     0.0240     0.1760     2.9190   127.0370    -0.0050    47.1680     0.0150     0.7960 
 3446.6782     0.0240     0.1590     2.8930   126.2860    -0.0050    45.1610     0.0120     0.7260 
 3446.8306     0.0250     0.1420     2.8750   125.1310    -0.0130    43.2020     0.0080     0.6660 
 3446.9830     0.0250     0.1360     2.8590   123.5320    -0.0220    41.3810     0.0030     0.6240 
 3447.1355     0.0270     0.1310     2.8360   122.3170    -0.0050    39.6280    -0.0040     0.5920 
 3447.2879     0.0280     0.1270     2.8240   121.5180     0.0060    38.3140     0.0030     0.5690 
 3447.4403     0.0270     0.1280     2.8140   122.8520     0.0040    37.2490     0.0010     0.5750 
 3447.5927     0.0250     0.1320     2.8170   123.4460     0.0090    36.7710     0.0090     0.5980 
 3447.7450     0.0240     0.1370     2.8480   122.6920     0.0020    36.3490     0.0150     0.6280 
 3447.8974     0.0230     0.1400     2.8380   121.9360     0.0000    36.5000     0.0080     0.6420 
 3448.0498     0.0230     0.1440     2.8030   122.2400     0.0010    36.3620     0.0170     0.6460 
 3448.2022     0.0230     0.1470     2.7990   123.0310     0.0050    36.2650     0.0180     0.6480 
 3448.3547     0.0230     0.1480     2.8070   123.0340     0.0020    35.9580     0.0200     0.6570 
 3448.5071     0.0240     0.1560     2.8140   124.1210    -0.0070    36.0550     0.0250     0.6910 
 3448.6595     0.0260     0.1600     2.8270   122.7480    -0.0230    36.0310     0.0180     0.7120 
 3448.8119     0.0270     0.1660     2.8150   122.7260    -0.0300    36.2600     0.0180     0.7290 
 3448.9642     0.0290     0.1680     2.7980   122.8260    -0.0110    36.2220     0.0270     0.7470 
 3449.1166     0.0320     0.1710     2.7950   123.3620    -0.0060    36.3680     0.0200     0.7760 
 3449.2690     0.0330     0.1730     2.8130   122.4710    -0.0080    35.8520     0.0180     0.7920 
 3449.4214     0.0340     0.1710     2.8000   122.5710    -0.0010    37.1810     0.0080     0.7740 
 3449.5739     0.0340     0.1540     2.8040   122.5750     0.0070    38.7010     0.0050     0.7190 
 3449.7263     0.0340     0.1460     2.7910   121.7910     0.0110    41.0830     0.0110     0.6920 
 3449.8787     0.0350     0.1460     2.7950   122.4770     0.0130    42.6330     0.0130     0.6960 
 3450.0311     0.0350     0.1460     2.7960   123.3940     0.0060    44.9690     0.0250     0.7060 
 3450.1834     0.0350     0.1520     2.8090   124.4270    -0.0090    46.0030     0.0350     0.7170 
 3450.3358     0.0360     0.1640     2.8350   124.5780    -0.0180    47.0520     0.0400     0.7490 
 3450.4882     0.0370     0.1820     2.8420   124.9630    -0.0290    48.2040     0.0380     0.8140 
 3450.6406     0.0380     0.2140     2.8470   125.4200    -0.0370    50.5180     0.0370     0.9240 
 3450.7931     0.0400     0.2290     2.8470   126.0290    -0.0310    52.4310     0.0320     0.9980 
 3450.9455     0.0420     0.2330     2.8710   126.9750    -0.0380    54.3970     0.0330     1.0000 
 3451.0979     0.0440     0.2360     2.8770   128.8310    -0.0390    55.9820     0.0220     1.0000 
 3451.2503     0.0470     0.2370     2.9170   127.7360    -0.0340    57.1960     0.0100     1.0000 
 3451.4026     0.0500     0.2390     2.8950   129.0700    -0.0290    57.4450     0.0120     1.0000 
 3451.5550     0.0540     0.2370     2.9190   130.4020    -0.0400    56.8640     0.0130     1.0000 
 3451.7074     0.0570     0.2390     3.0110   133.8400    -0.0350    54.7540     0.0140     1.0000 
 3451.8598     0.0590     0.2390     3.1710   133.6110    -0.0310    52.6860     0.0170     1.0000 
 3452.0123     0.0600     0.2370     3.0950   131.5120    -0.0460    51.8840     0.0100     1.0000 
 3452.1647     0.0610     0.2380     2.9900   130.4460    -0.0510    51.7590     0.0090     1.0000 
 3452.3171     0.0630     0.2430     2.9480   129.0200    -0.0460    52.3930     0.0170     1.0000 
 3452.4695     0.0640     0.2420     2.9270   129.0870    -0.0540    53.4560     0.0150     1.0000 
 3452.6218     0.0640     0.2380     2.9170   128.1860    -0.0440    54.8650     0.0190     1.0000 
 3452.7742     0.0640     0.2360     2.9150   128.2430    -0.0560    54.6040     0.0160     1.0000 
 3452.9266     0.0650     0.2300     2.9010   128.9790    -0.0670    54.3350     0.0190     1.0000 
 3453.0790     0.0660     0.2340     2.9300   129.0070    -0.0550    54.3330     0.0140     1.0000 
 3453.2315     0.0670     0.2380     2.9260   129.0770    -0.0510    54.7640     0.0070     1.0000 
 3453.3839     0.0680     0.2360     2.9300   128.6300    -0.0560    55.1730     0.0010     1.0000 
 3453.5363     0.0690     0.2400     2.9190   128.4740    -0.0480    56.3680    -0.0020     1.0000 
 3453.6887     0.0710     0.2390     2.9310   127.5260    -0.0430    56.6680     0.0050     1.0000 
 3453.8410     0.0720     0.2370     2.9020   128.4740    -0.0360    56.0290     0.0140     1.0000 
 3453.9934     0.0720     0.2370     2.9190   127.6340    -0.0370    55.8710     0.0050     1.0000 
