~Version Information
 VERS.                  2.0:   CWLS log ASCII Standard -VERSION 2.0
 WRAP.                   NO:   One line per depth step
~Well Information Block
#MNEM.UNIT       Data Type    Information
#---------     -----------    ---------------------------
 STRT.M              2880.6599:
 STOP.M              3414.2598:
 STEP.M                 0.1524:
 NULL.               -999.2500:
 UWI .            NO 15/9-F-14:  UWI
 API .            NO 15/9-F-14:  UWI
 WELL.               15/9-F-14:  COMMON WELL NAME
 COMP.                 STATOIL:  WELL OPERATOR
 FLD .                   VOLVE:  FIELD
 LIC .              NO PL046BS:  AUTHORIZATION NO
 LOC .                 UNKNOWN:  BASIN
 CTRY.                  Norway:  COUNTRY
 STAT.                 UNKNOWN:  STATE
 CNTY.                 UNKNOWN:  COUNTY
 PROV.                 UNKNOWN:  STATE
 SRVC.                 UNKNOWN:  COMPANY
 DATE.                 UNKNOWN:  LOG RUN DATE
 LONG.             1.887521912:  LONGITUDE
 LATI.            58.441602475:  LATITUDE
 XCOORD.           435052.4375:  X COORDINATE
 YCOORD.          6478562.5000:  Y COORDINATE
 ELEV.M                54.9000:  ELEVATION
 TD  .M              3750.0000:  TOTAL DEPTH
~Parameter Information Block
#MNEM.UNIT       Value        Description
#---------     -----------    ---------------------------
~Curve Information Block
#MNEM.UNIT                 API CODE     Curve Description
#---------               -----------    ---------------------------
 DEPTH.M                00 000 000 000:  Index Curve
 plt302S-QGAS.            00 000 000 000:  gas rate
 plt302S-QOIL.            00 000 000 000:  oil rate
 plt302S-QTOT.            00 000 000 000:  
 plt302S-QWAT.            00 000 000 000:  
 plt302S-WPRE.BAR         00 000 000 000:  
 plt302S-WTEP.DEGC        00 000 000 000:  
 plt302S-YG.NONE        00 000 000 000:  
 plt302S-YO.NONE        00 000 000 000:  
~A DEPTH     plt302S-QGAS plt302S-QOIL plt302S-QTOT plt302S-QWAT plt302S-WPRE plt302S-WTEP plt302S-YG plt302S-YO
# ...
 3051.3143     0.0000     0.0000    10.0209    10.0209   326.6724   105.7817     0.0000     0.0000 
 3051.4667     0.0000     0.0000    10.2530    10.2530   326.6758   105.7788     0.0000     0.0000 
 3051.6190     0.0000     0.0000    10.4851    10.4851   326.6790   105.7766     0.0000     0.0000 
 3051.7714     0.0000     0.0000     8.8327     8.8327   326.6825   105.7744     0.0000     0.0000 
 3051.9238     0.0000     0.0000     6.6075     6.6075   326.6864   105.7723     0.0000     0.0000 
 3052.0762     0.0000     0.0000     4.3822     4.3822   326.6894   105.7707     0.0000     0.0000 
 3052.2285     0.0000     0.0000     2.1569     2.1569   326.6944   105.7693     0.0000     0.0000 
 3052.3809     0.0000     0.0000    -0.0684    -0.0684   326.7007   105.7674     0.0000     0.0000 
 3052.5333     0.0000     0.0000    -2.2937    -2.2937   326.7059   105.7650     0.0000     0.0000 
 3052.6856     0.0000     0.0000    -3.2232    -3.2232   326.7101   105.7635     0.0000     0.0000 
 3052.8380     0.0000     0.0000     0.9001     0.9001   326.7170   105.7630     0.0000     0.0000 
 3052.9904     0.0000     0.0000     5.0233     5.0233   326.7258   105.7618     0.0000     0.0000 
 3053.1427     0.0000     0.0000     9.1466     9.1466   326.7345   105.7604     0.0000     0.0000 
 3053.2951     0.0000     0.0000    13.2699    13.2699   326.7427   105.7599     0.0000     0.0000 
 3053.4475     0.0000     0.0000    17.3931    17.3931   326.7503   105.7600     0.0000     0.0000 
 3053.5999     0.0000     0.0000    21.5164    21.5164   326.7576   105.7594     0.0000     0.0000 
 3053.7522     0.0000     0.0000    20.7859    20.7859   326.7641   105.7594     0.0000     0.0000 
 3053.9046     0.0000     0.0000    17.3410    17.3410   326.7695   105.7601     0.0000     0.0000 
 3054.0570     0.0000     0.0000    13.8960    13.8960   326.7736   105.7605     0.0000     0.0000 
 3054.2093     0.0000     0.0000    10.4511    10.4511   326.7752   105.7594     0.0000     0.0000 
 3054.3617     0.0000     0.0000     7.0062     7.0062   326.7758   105.7585     0.0000     0.0000 
 3054.5141     0.0000     0.0000     3.5613     3.5613   326.7768   105.7590     0.0000     0.0000 
 3054.6665     0.0000     0.0000     0.4805     0.4805   326.7794   105.7599     0.0000     0.0000 
 3054.8188     0.0000     0.0000     1.6702     1.6702   326.7839   105.7605     0.0000     0.0000 
 3054.9712     0.0000     0.0000     2.8598     2.8598   326.7899   105.7601     0.0000     0.0000 
 3055.1236     0.0000     0.0000     4.0495     4.0495   326.7976   105.7594     0.0000     0.0000 
 3055.2759     0.0000     0.0000     5.2391     5.2391   326.8067   105.7594     0.0000     0.0000 
 3055.4283     0.0000     0.0000     6.4288     6.4288   326.8159   105.7592     0.0000     0.0000 
 3055.5807     0.0000     0.0000     7.6184     7.6184   326.8232   105.7590     0.0000     0.0000 
 3055.7330     0.0000     0.0000     9.2076     9.2076   326.8299   105.7589     0.0000     0.0000 
 3055.8854     0.0000     0.0000    11.1718    11.1718   326.8361   105.7590     0.0000     0.0000 
 3056.0378     0.0000     0.0000    13.1361    13.1361   326.8419   105.7585     0.0000     0.0000 
 3056.1901     0.0000     0.0000    15.1003    15.1003   326.8474   105.7577     0.0000     0.0000 
 3056.3425     0.0000     0.0000    17.0645    17.0645   326.8524   105.7574     0.0000     0.0000 
 3056.4949     0.0000     0.0000    19.0288    19.0288   326.8570   105.7571     0.0000     0.0000 
 3056.6473     0.0000     0.0000    20.9930    20.9930   326.8595   105.7555     0.0000     0.0000 
 3056.7996     0.0000     0.0355    19.0623    19.0268   326.8618   105.7551     0.0000     0.0001 
 3056.9520     0.0000     0.0728    16.9396    16.8668   326.8648   105.7551     0.0000     0.0003 
 3057.1044     0.0000     0.1100    14.8170    14.7069   326.8695   105.7551     0.0000     0.0004 
 3057.2567     0.0000     0.1473    12.6943    12.5470   326.8744   105.7552     0.0000     0.0005 
 3057.4091     0.0000     0.1846    10.5717    10.3871   326.8793   105.7545     0.0000     0.0006 
 3057.5615     0.0000     0.2218     8.4490     8.2272   326.8859   105.7540     0.0000     0.0008 
 3057.7139     0.0000     0.2464     7.7652     7.5188   326.8936   105.7539     0.0000     0.0008 
 3057.8662     0.0000     0.2512     9.3293     9.0781   326.9017   105.7538     0.0000     0.0009 
 3058.0186     0.0000     0.2560    10.8935    10.6375   326.9085   105.7542     0.0000     0.0009 
 3058.1710     0.0000     0.2608    12.4576    12.1968   326.9147   105.7547     0.0000     0.0009 
 3058.3233     0.0000     0.2656    14.0218    13.7562   326.9207   105.7542     0.0000     0.0009 
 3058.4757     0.0000     0.2704    15.5859    15.3155   326.9262   105.7532     0.0000     0.0009 
 3058.6281     0.0000     0.2752    17.1501    16.8749   326.9313   105.7526     0.0000     0.0009 
 3058.7804     0.0000     0.2788    16.5188    16.2401   326.9359   105.7525     0.0000     0.0009 
 3058.9328     0.0000     0.2821    15.4300    15.1479   326.9402   105.7526     0.0000     0.0009 
 3059.0852     0.0000     0.2855    14.3411    14.0556   326.9437   105.7526     0.0000     0.0010 
 3059.2375     0.0000     0.2889    13.2523    12.9634   326.9461   105.7521     0.0000     0.0010 
 3059.3899     0.0000     0.2922    12.1634    11.8712   326.9486   105.7516     0.0000     0.0010 
 3059.5423     0.0000     0.2956    11.0746    10.7790   326.9525   105.7515     0.0000     0.0010 
 3059.6947     0.0000     0.2860    10.6550    10.3690   326.9576   105.7511     0.0000     0.0010 
 3059.8470     0.0000     0.2406    12.0940    11.8534   326.9634   105.7504     0.0000     0.0008 
 3059.9994     0.0000     0.1952    13.5330    13.3378   326.9702   105.7501     0.0000     0.0007 
 3060.1518     0.0000     0.1498    14.9720    14.8222   326.9780   105.7506     0.0000     0.0005 
 3060.3041     0.0000     0.1044    16.4110    16.3066   326.9861   105.7514     0.0000     0.0003 
 3060.4565     0.0000     0.0589    17.8499    17.7910   326.9936   105.7516     0.0000     0.0002 
 3060.6089     0.0000     0.0135    19.2889    19.2754   326.9997   105.7507     0.0000     0.0000 
 3060.7613     0.0000     0.0000    17.8996    17.8996   327.0047   105.7498     0.0000     0.0000 
 3060.9136     0.0000     0.0000    15.3096    15.3096   327.0095   105.7498     0.0000     0.0000 
 3061.0660     0.0000     0.0000    12.7195    12.7195   327.0141   105.7499     0.0000     0.0000 
 3061.2184     0.0000     0.0000    10.1295    10.1295   327.0183   105.7493     0.0000     0.0000 
 3061.3707     0.0000     0.0000     7.5394     7.5394   327.0225   105.7488     0.0000     0.0000 
 3061.5231     0.0000     0.0000     4.9493     4.9493   327.0262   105.7488     0.0000     0.0000 
 3061.6755     0.0000     0.0651     2.9235     2.8584   327.0295   105.7488     0.0000     0.0002 
 3061.8278     0.0000     0.5325     4.3866     3.8541   327.0330   105.7485     0.0000     0.0018 
 3061.9802     0.0000     0.9999     5.8498     4.8499   327.0370   105.7482     0.0000     0.0034 
 3062.1326     0.0000     1.4673     7.3129     5.8456   327.0415   105.7475     0.0000     0.0050 
 3062.2850     0.0000     1.9347     8.7760     6.8413   327.0473   105.7471     0.0000     0.0065 
 3062.4373     0.0000     2.4022    10.2392     7.8370   327.0544   105.7478     0.0000     0.0081 
 3062.5897     0.0000     2.8696    11.7023     8.8327   327.0622   105.7487     0.0000     0.0097 
 3062.7421     0.0000     2.9024    11.8672     8.9648   327.0706   105.7485     0.0000     0.0098 
 3062.8944     0.0000     2.6159    11.0782     8.4624   327.0788   105.7480     0.0000     0.0088 
 3063.0468     0.0000     2.3293    10.2892     7.9599   327.0862   105.7479     0.0000     0.0079 
 3063.1992     0.0000     2.0428     9.5002     7.4575   327.0928   105.7479     0.0000     0.0069 
 3063.3515     0.0000     1.7562     8.7113     6.9550   327.0988   105.7475     0.0000     0.0060 
