~Version Information
 VERS.                  2.0:   CWLS log ASCII Standard -VERSION 2.0
 WRAP.                   NO:   One line per depth step
~Well Information Block
#MNEM.UNIT       Data Type    Information
#---------     -----------    ---------------------------
 STRT.M              2954.2739:
 STOP.M              3647.5415:
 STEP.M                 0.1524:
 NULL.               -999.2500:
 UWI .            NO 15/9-F-14:  UWI
 API .            NO 15/9-F-14:  UWI
 WELL.               15/9-F-14:  COMMON WELL NAME
 COMP.                 STATOIL:  WELL OPERATOR
 FLD .                   VOLVE:  FIELD
 LIC .              NO PL046BS:  AUTHORIZATION NO
 LOC .                 UNKNOWN:  BASIN
 CTRY.                  Norway:  COUNTRY
 STAT.                 UNKNOWN:  STATE
 CNTY.                 UNKNOWN:  COUNTY
 PROV.                 UNKNOWN:  STATE
 SRVC.                 UNKNOWN:  COMPANY
 DATE.                 UNKNOWN:  LOG RUN DATE
 LONG.             1.887521912:  LONGITUDE
 LATI.            58.441602475:  LATITUDE
 XCOORD.           435052.4375:  X COORDINATE
 YCOORD.          6478562.5000:  Y COORDINATE
 ELEV.M                54.9000:  ELEVATION
 TD  .M              3750.0000:  TOTAL DEPTH
~Parameter Information Block
#MNEM.UNIT       Value        Description
#---------     -----------    ---------------------------
~Curve Information Block
#MNEM.UNIT                 API CODE     Curve Description
#---------               -----------    ---------------------------
 DEPTH.M                00 000 000 000:  Index Curve
 sat201IC-BHOF.NONE        00 000 000 000:  IC mode, Estimated Borehole Oil Fraction
 sat201IC-BVW.V/V         00 000 000 000:  IC mode, Estimated Bulk Volume of Water; 'sat201IC-SW'*'PHIF'
 sat201IC-CRRA.NONE        00 000 000 000:  IC mode, RST Near/Far Instantaneous Count Rate Ratio
 sat201IC-FBEF.UA          00 000 000 000:  IC mode, RST Far Effective Beam Current
 sat201IC-FCOR.NONE        00 000 000 000:  IC mode, RST Far Carbon/Oxygen Ratio
 sat201IC-GR.GAPI        00 000 000 000:  IC mode, Gamma Ray
 sat201IC-NCOR.NONE        00 000 000 000:  IC mode, RST Near Carbon/Oxygen Ratio
 sat201IC-SW.V/V         00 000 000 000:  IC mode, Estimated Water Saturation
~A DEPTH     sat201IC-BHOF sat201IC-BVW sat201IC-CRRA sat201IC-FBEF sat201IC-FCOR sat201IC-GR sat201IC-NCOR sat201IC-SW
# ...
 3271.2659     0.0760     0.0000     2.6950   115.0430     0.0210    29.6560     0.0470     0.0000 
 3271.4183     0.0730     0.0000     2.6980   115.9530     0.0300    30.6080     0.0480     0.0000 
 3271.5707     0.0700     0.0000     2.7170   116.2700     0.0290    31.2870     0.0510     0.0000 
 3271.7231     0.0680     0.0000     2.7170   117.5320     0.0220    31.9490     0.0450     0.0040 
 3271.8755     0.0650     0.0030     2.7480   116.6370     0.0280    32.9490     0.0380     0.0230 
 3272.0279     0.0630     0.0040     2.7320   115.9200     0.0350    34.0410     0.0350     0.0310 
 3272.1803     0.0620     0.0000     2.7000   115.2860     0.0180    34.3830     0.0240     0.0000 
 3272.3327     0.0600     0.0000     2.7050   115.4330     0.0270    34.9850     0.0160     0.0000 
 3272.4851     0.0580     0.0000     2.7020   116.8050     0.0230    34.1240     0.0150     0.0000 
 3272.6375     0.0560     0.0000     2.7700   117.4600     0.0430    32.1880     0.0170     0.0000 
 3272.7899     0.0540     0.0000     2.8220   121.4640     0.0510    30.1840     0.0200     0.0000 
 3272.9423     0.0540     0.0000     2.9110   121.2420     0.0430    29.4210     0.0200     0.0000 
 3273.0947     0.0520     0.0020     2.8640   117.9560     0.0230    28.2930     0.0310     0.0170 
 3273.2471     0.0510     0.0210     2.7570   116.8460     0.0170    28.4590     0.0360     0.1540 
 3273.3995     0.0500     0.0680     2.7260   116.1580     0.0010    29.3690     0.0400     0.5200 
 3273.5519     0.0500     0.1140     2.7130   116.6490    -0.0210    30.1500     0.0410     0.8830 
 3273.7043     0.0490     0.1270     2.7160   116.2050    -0.0530    29.9720     0.0370     1.0000 
 3273.8567     0.0480     0.1250     2.7130   115.9080    -0.0630    30.0880     0.0330     1.0000 
 3274.0091     0.0470     0.1270     2.7090   117.3550    -0.0600    30.5100     0.0340     1.0000 
 3274.1615     0.0460     0.1280     2.7320   117.3610    -0.0470    30.8800     0.0260     1.0000 
 3274.3139     0.0450     0.1280     2.7200   117.4750    -0.0480    31.2950     0.0230     1.0000 
 3274.4663     0.0460     0.1270     2.7410   117.4300    -0.0540    31.1020     0.0130     1.0000 
 3274.6187     0.0460     0.1040     2.7350   116.7620    -0.0480    31.4420     0.0050     1.0000 
 3274.7711     0.0470     0.1160     2.7200   117.2710    -0.0260    31.7130    -0.0010     1.0000 
 3274.9235     0.0480     0.1600     2.7330   117.3770    -0.0240    31.3890     0.0050     0.9930 
 3275.0759     0.0480     0.1570     2.7410   118.9900    -0.0230    31.7520     0.0050     0.9590 
 3275.2283     0.0480     0.1580     2.7770   119.6120    -0.0310    32.6880     0.0050     0.9350 
 3275.3807     0.0470     0.1600     2.7650   119.1560    -0.0280    33.2150     0.0060     0.9150 
 3275.5331     0.0460     0.1680     2.7330   119.5510    -0.0260    33.4630     0.0090     0.9080 
 3275.6855     0.0460     0.1730     2.7470   121.0160    -0.0130    34.4560     0.0170     0.9300 
 3275.8379     0.0460     0.1690     2.7680   121.7130    -0.0260    34.3320     0.0220     0.9390 
 3275.9903     0.0470     0.1730     2.7830   122.2530    -0.0180    34.8400     0.0210     0.9280 
 3276.1427     0.0490     0.1700     2.8010   122.5530    -0.0150    35.0520     0.0210     0.9140 
 3276.2951     0.0520     0.1650     2.7910   122.0910    -0.0170    35.3910     0.0150     0.9010 
 3276.4475     0.0560     0.1660     2.7790   121.4100    -0.0190    35.5930     0.0130     0.9150 
 3276.5999     0.0600     0.1660     2.7720   122.6710    -0.0150    35.8140     0.0240     0.9110 
 3276.7523     0.0640     0.1680     2.8020   122.8730    -0.0220    35.5290     0.0250     0.9180 
 3276.9047     0.0670     0.1660     2.8120   123.0840    -0.0150    35.5490     0.0260     0.9200 
 3277.0571     0.0690     0.1620     2.7970   122.6700    -0.0240    35.5380     0.0240     0.9400 
 3277.2095     0.0710     0.1770     2.8100   123.0250    -0.0410    35.7140     0.0250     0.9700 
 3277.3619     0.0710     0.1740     2.8140   123.1330    -0.0330    35.8590     0.0310     0.9980 
 3277.5143     0.0700     0.1730     2.7970   122.9690    -0.0290    36.1230     0.0380     0.9870 
 3277.6667     0.0690     0.1770     2.7920   123.4060    -0.0240    36.6400     0.0270     0.9710 
 3277.8191     0.0680     0.1670     2.8130   123.4500    -0.0210    37.1370     0.0280     0.9350 
 3277.9715     0.0670     0.1680     2.8280   123.8010    -0.0190    37.0310     0.0320     0.9700 
 3278.1239     0.0670     0.1620     2.8250   124.6180    -0.0150    37.5520     0.0370     0.9770 
 3278.2763     0.0670     0.1180     2.8700   124.9690     0.0000    37.3220     0.0440     0.8540 
 3278.4287     0.0680     0.1310     2.8880   125.5910     0.0050    36.7800     0.0450     0.6910 
 3278.5811     0.0700     0.1090     2.8910   124.3440     0.0100    37.0230     0.0500     0.5230 
 3278.7335     0.0730     0.1060     2.8380   124.1740     0.0210    36.9240     0.0480     0.4600 
 3278.8859     0.0750     0.1020     2.8300   123.8980     0.0190    36.6210     0.0450     0.4340 
 3279.0383     0.0760     0.1020     2.8380   123.2920     0.0240    36.2940     0.0390     0.4230 
 3279.1907     0.0780     0.1150     2.8090   122.8320     0.0320    35.5800     0.0300     0.4590 
 3279.3431     0.0790     0.1190     2.8030   123.0970     0.0260    33.5510     0.0290     0.4880 
 3279.4955     0.0790     0.1350     2.7940   123.6950     0.0250    32.4870     0.0330     0.5530 
 3279.6479     0.0790     0.1510     2.8000   124.1830     0.0230    31.5990     0.0330     0.6160 
 3279.8003     0.0780     0.1690     2.8070   123.5240     0.0040    31.1100     0.0400     0.6890 
 3279.9527     0.0770     0.1880     2.7820   124.7970    -0.0030    31.2870     0.0370     0.7670 
 3280.1051     0.0770     0.1960     2.8250   124.9220    -0.0100    31.4250     0.0480     0.8300 
 3280.2575     0.0760     0.2100     2.8220   123.7790    -0.0130    31.3540     0.0520     0.8690 
 3280.4099     0.0760     0.2130     2.8000   125.0220    -0.0210    31.1760     0.0500     0.8730 
 3280.5623     0.0760     0.2190     2.8250   125.0380    -0.0270    31.2320     0.0450     0.8790 
 3280.7147     0.0760     0.2100     2.8300   125.3830    -0.0290    31.0320     0.0450     0.8820 
 3280.8671     0.0750     0.2080     2.8390   125.5000    -0.0240    31.1390     0.0410     0.8900 
 3281.0195     0.0750     0.2040     2.8420   124.7330    -0.0110    31.6600     0.0450     0.8910 
 3281.1719     0.0750     0.1970     2.8190   124.8110    -0.0080    32.1440     0.0360     0.8850 
 3281.3243     0.0740     0.1880     2.8160   124.2180    -0.0130    32.4850     0.0350     0.8710 
 3281.4767     0.0730     0.1800     2.8200   125.1250    -0.0020    32.7570     0.0450     0.8610 
 3281.6291     0.0720     0.1750     2.8530   123.7050    -0.0010    33.5730     0.0470     0.8410 
 3281.7815     0.0710     0.1770     2.8100   123.4430    -0.0090    33.8600     0.0400     0.8240 
 3281.9339     0.0710     0.1700     2.8100   123.3760    -0.0080    34.7440     0.0410     0.7860 
 3282.0863     0.0700     0.1590     2.8030   123.3440    -0.0060    35.4520     0.0440     0.7410 
 3282.2387     0.0690     0.1550     2.8120   124.1340    -0.0100    35.9350     0.0510     0.7210 
 3282.3911     0.0670     0.1470     2.8220   123.1770    -0.0140    36.0860     0.0490     0.7200 
 3282.5435     0.0660     0.1350     2.8090   123.9170    -0.0190    36.5770     0.0410     0.6860 
 3282.6959     0.0660     0.1230     2.8150   123.4030    -0.0120    36.3560     0.0370     0.6250 
 3282.8483     0.0660     0.0940     2.8180   124.6390    -0.0010    36.4190     0.0390     0.5090 
 3283.0007     0.0660     0.0750     2.8290   124.8700     0.0030    36.5560     0.0430     0.4250 
 3283.1531     0.0660     0.0570     2.8380   124.7480     0.0000    37.2110     0.0390     0.3400 
 3283.3055     0.0660     0.0510     2.8420   124.8440     0.0100    37.7100     0.0330     0.3210 
