~Version Information
 VERS.                  2.0:   CWLS log ASCII Standard -VERSION 2.0
 WRAP.                   NO:   One line per depth step
~Well Information Block
#MNEM.UNIT       Data Type    Information
#---------     -----------    ---------------------------
 STRT.M              2880.6599:
 STOP.M              3414.2598:
 STEP.M                 0.1524:
 NULL.               -999.2500:
 UWI .            NO 15/9-F-14:  UWI
 API .            NO 15/9-F-14:  UWI
 WELL.               15/9-F-14:  COMMON WELL NAME
 COMP.                 STATOIL:  WELL OPERATOR
 FLD .                   VOLVE:  FIELD
 LIC .              NO PL046BS:  AUTHORIZATION NO
 LOC .                 UNKNOWN:  BASIN
 CTRY.                  Norway:  COUNTRY
 STAT.                 UNKNOWN:  STATE
 CNTY.                 UNKNOWN:  COUNTY
 PROV.                 UNKNOWN:  STATE
 SRVC.                 UNKNOWN:  COMPANY
 DATE.                 UNKNOWN:  LOG RUN DATE
 LONG.             1.887521912:  LONGITUDE
 LATI.            58.441602475:  LATITUDE
 XCOORD.           435052.4375:  X COORDINATE
 YCOORD.          6478562.5000:  Y COORDINATE
 ELEV.M                54.9000:  ELEVATION
 TD  .M              3750.0000:  TOTAL DEPTH
~Parameter Information Block
#MNEM.UNIT       Value        Description
#---------     -----------    ---------------------------
~Curve Information Block
#MNEM.UNIT                 API CODE     Curve Description
#---------               -----------    ---------------------------
 DEPTH.M                00 000 000 000:  Index Curve
 plt302S-QGAS.            00 000 000 000:  gas rate
 plt302S-QOIL.            00 000 000 000:  oil rate
 plt302S-QTOT.            00 000 000 000:  
 plt302S-QWAT.            00 000 000 000:  
 plt302S-WPRE.BAR         00 000 000 000:  
 plt302S-WTEP.DEGC        00 000 000 000:  
 plt302S-YG.NONE        00 000 000 000:  
 plt302S-YO.NONE        00 000 000 000:  
~A DEPTH     plt302S-QGAS plt302S-QOIL plt302S-QTOT plt302S-QWAT plt302S-WPRE plt302S-WTEP plt302S-YG plt302S-YO
 2880.6599     0.0000     0.0000   -81.3935   -81.3935   318.7626   105.0238     0.0000     0.0000 
 2880.8123     0.0000     0.0000   -81.3935   -81.3935   318.7626   105.0238     0.0000     0.0000 
 2880.9646     0.0000     0.0000   -81.3935   -81.3935   318.7626   105.0238     0.0000     0.0000 
 2881.1170     0.0000     0.0000   -81.3935   -81.3935   318.7626   105.0238     0.0000     0.0000 
 2881.2694     0.0000     0.0000   -81.3935   -81.3935   318.7626   105.0238     0.0000     0.0000 
 2881.4218     0.0000     0.0000   -81.3935   -81.3935   318.7626   105.0238     0.0000     0.0000 
 2881.5741     0.0000     0.0000   -81.3935   -81.3935   318.7626   105.0238     0.0000     0.0000 
 2881.7265     0.0000     0.0000   -81.3935   -81.3935   318.7626   105.0238     0.0000     0.0000 
 2881.8789     0.0000     0.0000   -81.3935   -81.3935   318.7626   105.0238     0.0000     0.0000 
 2882.0312     0.0000     0.0000   -81.3935   -81.3935   318.7626   105.0238     0.0000     0.0000 
 2882.1836     0.0000     0.0000   -81.3935   -81.3935   318.7626   105.0238     0.0000     0.0000 
 2882.3360     0.0000     0.0000   -81.3935   -81.3935   318.7626   105.0238     0.0000     0.0000 
 2882.4884     0.0000     0.0000   -81.3935   -81.3935   318.7626   105.0238     0.0000     0.0000 
 2882.6407     0.0000     0.0000   -81.3935   -81.3935   318.7626   105.0238     0.0000     0.0000 
 2882.7931     0.0000     0.0000   -81.3935   -81.3935   318.7642   105.0239     0.0000     0.0000 
 2882.9455     0.0000     0.0000   -81.3935   -81.3935   318.7746   105.0246     0.0000     0.0000 
 2883.0978     0.0000     0.0000   -81.3935   -81.3935   318.7870   105.0269     0.0000     0.0000 
 2883.2502     0.0000     0.0000   -81.3935   -81.3935   318.7986   105.0302     0.0000     0.0000 
 2883.4026     0.0000     0.0000   -81.3935   -81.3935   318.8058   105.0329     0.0000     0.0000 
 2883.5549     0.0000     0.0000   -81.3935   -81.3935   318.8091   105.0348     0.0000     0.0000 
 2883.7073     0.0000     0.0000   -81.3935   -81.3935   318.8122   105.0366     0.0000     0.0000 
 2883.8597     0.0000     0.0000   -81.3935   -81.3935   318.8187   105.0378     0.0000     0.0000 
 2884.0120     0.0000     0.0000   -81.3935   -81.3935   318.8296   105.0383     0.0000     0.0000 
 2884.1644     0.0000     0.0000   -81.3935   -81.3935   318.8425   105.0390     0.0000     0.0000 
 2884.3168     0.0000     0.0000   -81.3935   -81.3935   318.8554   105.0398     0.0000     0.0000 
 2884.4692     0.0000     0.0000   -81.3935   -81.3935   318.8683   105.0416     0.0000     0.0000 
 2884.6215     0.0000     0.0000   -81.3935   -81.3935   318.8811   105.0439     0.0000     0.0000 
 2884.7739     0.0000     0.0000   -81.3935   -81.3935   318.8911   105.0454     0.0000     0.0000 
 2884.9263     0.0000     0.0000   -81.3935   -81.3935   318.8964   105.0465     0.0000     0.0000 
 2885.0786     0.0000     0.0000   -81.3935   -81.3935   318.8989   105.0477     0.0000     0.0000 
 2885.2310     0.0000     0.0000   -81.3935   -81.3935   318.9033   105.0488     0.0000     0.0000 
 2885.3834     0.0000     0.0000   -81.3935   -81.3935   318.9115   105.0496     0.0000     0.0000 
 2885.5358     0.0000     0.0000   -81.3935   -81.3935   318.9230   105.0505     0.0000     0.0000 
 2885.6881     0.0000     0.0000   -81.3935   -81.3935   318.9362   105.0512     0.0000     0.0000 
 2885.8405     0.0000     0.0000   -81.3935   -81.3935   318.9502   105.0516     0.0000     0.0000 
 2885.9929     0.0000     0.0000   -81.3935   -81.3935   318.9639   105.0524     0.0000     0.0000 
 2886.1452     0.0000     0.0000   -81.3935   -81.3935   318.9759   105.0540     0.0000     0.0000 
 2886.2976     0.0000     0.0000   -81.3935   -81.3935   318.9847   105.0565     0.0000     0.0000 
 2886.4500     0.0000     0.0000   -81.3935   -81.3935   318.9892   105.0590     0.0000     0.0000 
 2886.6023     0.0000     0.0000   -81.3935   -81.3935   318.9918   105.0611     0.0000     0.0000 
 2886.7547     0.0000     0.0000   -81.3935   -81.3935   318.9966   105.0629     0.0000     0.0000 
 2886.9071     0.0000     0.0000   -81.3935   -81.3935   319.0053   105.0642     0.0000     0.0000 
 2887.0595     0.0000     0.0000   -81.3935   -81.3935   319.0161   105.0649     0.0000     0.0000 
 2887.2118     0.0000     0.0000   -81.3935   -81.3935   319.0276   105.0656     0.0000     0.0000 
 2887.3642     0.0000     0.0000   -81.3935   -81.3935   319.0401   105.0667     0.0000     0.0000 
 2887.5166     0.0000     0.0000   -81.3935   -81.3935   319.0529   105.0684     0.0000     0.0000 
 2887.6689     0.0000     0.0000   -81.3935   -81.3935   319.0640   105.0698     0.0000     0.0000 
 2887.8213     0.0000     0.0000   -81.3935   -81.3935   319.0724   105.0708     0.0000     0.0000 
 2887.9737     0.0000     0.0000   -81.3935   -81.3935   319.0777   105.0721     0.0000     0.0000 
 2888.1260     0.0000     0.0000   -81.3935   -81.3935   319.0812   105.0740     0.0000     0.0000 
 2888.2784     0.0000     0.0000   -81.3935   -81.3935   319.0871   105.0753     0.0000     0.0000 
 2888.4308     0.0000     0.0000   -81.3936   -81.3936   319.0969   105.0757     0.0000     0.0000 
 2888.5831     0.0000     0.0000   -81.3936   -81.3936   319.1085   105.0761     0.0000     0.0000 
 2888.7355     0.0000     0.0000   -81.3936   -81.3936   319.1203   105.0770     0.0000     0.0000 
 2888.8879     0.0000     0.0000   -81.3936   -81.3936   319.1325   105.0781     0.0000     0.0000 
 2889.0403     0.0000     0.0000   -81.3936   -81.3936   319.1445   105.0789     0.0000     0.0000 
 2889.1926     0.0000     0.0000   -81.3936   -81.3936   319.1549   105.0793     0.0000     0.0000 
 2889.3450     0.0000     0.0000   -81.3936   -81.3936   319.1628   105.0802     0.0000     0.0000 
 2889.4974     0.0000     0.0000   -81.3936   -81.3936   319.1669   105.0820     0.0000     0.0000 
 2889.6497     0.0000     0.0000   -81.3936   -81.3936   319.1688   105.0839     0.0000     0.0000 
 2889.8021     0.0000     0.0000   -81.3936   -81.3936   319.1744   105.0851     0.0000     0.0000 
 2889.9545     0.0000     0.0000   -81.3936   -81.3936   319.1853   105.0859     0.0000     0.0000 
 2890.1069     0.0000     0.0000   -81.3936   -81.3936   319.1978   105.0867     0.0000     0.0000 
 2890.2592     0.0000     0.0000   -81.3936   -81.3936   319.2110   105.0877     0.0000     0.0000 
 2890.4116     0.0000     0.0000   -81.3936   -81.3936   319.2246   105.0882     0.0000     0.0000 
 2890.5640     0.0000     0.0000   -81.3936   -81.3936   319.2368   105.0890     0.0000     0.0000 
 2890.7163     0.0000     0.0000   -81.3936   -81.3936   319.2465   105.0911     0.0000     0.0000 
 2890.8687     0.0000     0.0000   -81.3936   -81.3936   319.2531   105.0929     0.0000     0.0000 
 2891.0211     0.0000     0.0000   -81.3936   -81.3936   319.2555   105.0941     0.0000     0.0000 
 2891.1734     0.0000     0.0000   -81.3936   -81.3936   319.2580   105.0958     0.0000     0.0000 
 2891.3258     0.0000     0.0000   -81.3936   -81.3936   319.2661   105.0974     0.0000     0.0000 
 2891.4782     0.0000     0.0000   -81.3936   -81.3936   319.2784   105.0976     0.0000     0.0000 
 2891.6305     0.0000     0.0000   -81.3936   -81.3936   319.2910   105.0969     0.0000     0.0000 
 2891.7829     0.0000     0.0000   -81.3936   -81.3936   319.3040   105.0976     0.0000     0.0000 
 2891.9353     0.0000     0.0000   -81.3936   -81.3936   319.3173   105.0999     0.0000     0.0000 
 2892.0877     0.0000     0.0000   -81.3936   -81.3936   319.3291   105.1012     0.0000     0.0000 
 2892.2400     0.0000     0.0000   -81.3936   -81.3936   319.3375   105.1029     0.0000     0.0000 
 2892.3924     0.0000     0.0000   -81.3936   -81.3936   319.3414   105.1059     0.0000     0.0000 
 2892.5448     0.0000     0.0000   -81.3936   -81.3936   319.3431   105.1089     0.0000     0.0000 
 2892.6971     0.0000     0.0000   -81.3936   -81.3936   319.3477   105.1103     0.0000     0.0000 
