~Version Information
 VERS.                  2.0:   CWLS log ASCII Standard -VERSION 2.0
 WRAP.                   NO:   One line per depth step
~Well Information Block
#MNEM.UNIT       Data Type    Information
#---------     -----------    ---------------------------
 STRT.M              2880.6599:
 STOP.M              3414.2598:
 STEP.M                 0.1524:
 NULL.               -999.2500:
 UWI .            NO 15/9-F-14:  UWI
 API .            NO 15/9-F-14:  UWI
 WELL.               15/9-F-14:  COMMON WELL NAME
 COMP.                 STATOIL:  WELL OPERATOR
 FLD .                   VOLVE:  FIELD
 LIC .              NO PL046BS:  AUTHORIZATION NO
 LOC .                 UNKNOWN:  BASIN
 CTRY.                  Norway:  COUNTRY
 STAT.                 UNKNOWN:  STATE
 CNTY.                 UNKNOWN:  COUNTY
 PROV.                 UNKNOWN:  STATE
 SRVC.                 UNKNOWN:  COMPANY
 DATE.                 UNKNOWN:  LOG RUN DATE
 LONG.             1.887521912:  LONGITUDE
 LATI.            58.441602475:  LATITUDE
 XCOORD.           435052.4375:  X COORDINATE
 YCOORD.          6478562.5000:  Y COORDINATE
 ELEV.M                54.9000:  ELEVATION
 TD  .M              3750.0000:  TOTAL DEPTH
~Parameter Information Block
#MNEM.UNIT       Value        Description
#---------     -----------    ---------------------------
~Curve Information Block
#MNEM.UNIT                 API CODE     Curve Description
#---------               -----------    ---------------------------
 DEPTH.M                00 000 000 000:  Index Curve
 plt302S-QGAS.            00 000 000 000:  gas rate
 plt302S-QOIL.            00 000 000 000:  oil rate
 plt302S-QTOT.            00 000 000 000:  
 plt302S-QWAT.            00 000 000 000:  
 plt302S-WPRE.BAR         00 000 000 000:  
 plt302S-WTEP.DEGC        00 000 000 000:  
 plt302S-YG.NONE        00 000 000 000:  
 plt302S-YO.NONE        00 000 000 000:  
~A DEPTH     plt302S-QGAS plt302S-QOIL plt302S-QTOT plt302S-QWAT plt302S-WPRE plt302S-WTEP plt302S-YG plt302S-YO
# ...
 3197.5895     0.0000     3.4350    13.1651     9.7301   330.7817   106.8513     0.0000     0.0096 
 3197.7419     0.0000     3.3203    13.4101    10.0898   330.7806   106.8517     0.0000     0.0093 
 3197.8942     0.0000     2.7632    14.1262    11.3629   330.7806   106.8528     0.0000     0.0077 
 3198.0466     0.0000     2.2061    14.8422    12.6361   330.7827   106.8542     0.0000     0.0061 
 3198.1990     0.0000     1.6490    15.5582    13.9092   330.7862   106.8553     0.0000     0.0046 
 3198.3514     0.0000     1.0919    16.2742    15.1823   330.7889   106.8553     0.0000     0.0030 
 3198.5037     0.0000     0.5347    16.9902    16.4554   330.7920   106.8551     0.0000     0.0015 
 3198.6561     0.0000     0.0000    17.6604    17.6604   330.7945   106.8548     0.0000     0.0000 
 3198.8085     0.0000     0.0000    17.2362    17.2362   330.7976   106.8552     0.0000     0.0000 
 3198.9608     0.0000     0.0000    16.8120    16.8120   330.8052   106.8566     0.0000     0.0000 
 3199.1132     0.0000     0.0000    16.3877    16.3877   330.8128   106.8572     0.0000     0.0000 
 3199.2656     0.0000     0.0000    15.9635    15.9635   330.8187   106.8579     0.0000     0.0000 
 3199.4180     0.0000     0.0000    15.5393    15.5393   330.8231   106.8586     0.0000     0.0000 
 3199.5703     0.0000     0.0000    15.1150    15.1150   330.8272   106.8597     0.0000     0.0000 
 3199.7227     0.0000     0.0000    15.2600    15.2600   330.8300   106.8603     0.0000     0.0000 
 3199.8751     0.0000     0.0000    16.0282    16.0282   330.8315   106.8604     0.0000     0.0000 
 3200.0274     0.0000     0.0000    16.7964    16.7964   330.8311   106.8601     0.0000     0.0000 
 3200.1798     0.0000     0.0000    17.5646    17.5646   330.8288   106.8600     0.0000     0.0000 
 3200.3322     0.0000     0.0000    18.3328    18.3328   330.8282   106.8602     0.0000     0.0000 
 3200.4845     0.0000     0.0000    19.1009    19.1009   330.8294   106.8608     0.0000     0.0000 
 3200.6369     0.0000     0.0000    19.8691    19.8691   330.8326   106.8624     0.0000     0.0000 
 3200.7893     0.0000     0.0000    18.5750    18.5750   330.8370   106.8642     0.0000     0.0000 
 3200.9417     0.0000     0.0000    17.0885    17.0885   330.8414   106.8657     0.0000     0.0000 
 3201.0940     0.0000     0.0000    15.6019    15.6019   330.8451   106.8671     0.0000     0.0000 
 3201.2464     0.0000     0.0000    14.1153    14.1153   330.8484   106.8687     0.0000     0.0000 
 3201.3988     0.0000     0.0000    12.6287    12.6287   330.8510   106.8698     0.0000     0.0000 
 3201.5511     0.0000     0.0000    11.1421    11.1421   330.8560   106.8707     0.0000     0.0000 
 3201.7035     0.0000     0.0562    10.5244    10.4682   330.8617   106.8710     0.0000     0.0002 
 3201.8559     0.0000     0.2158    11.5072    11.2914   330.8679   106.8710     0.0000     0.0006 
 3202.0082     0.0000     0.3755    12.4901    12.1146   330.8752   106.8706     0.0000     0.0010 
 3202.1606     0.0000     0.5351    13.4729    12.9378   330.8806   106.8710     0.0000     0.0015 
 3202.3130     0.0000     0.6948    14.4557    13.7609   330.8822   106.8720     0.0000     0.0019 
 3202.4653     0.0000     0.8545    15.4386    14.5841   330.8805   106.8726     0.0000     0.0023 
 3202.6177     0.0000     1.0141    16.4214    15.4073   330.8788   106.8735     0.0000     0.0028 
 3202.7701     0.0000     0.9218    16.4963    15.5745   330.8802   106.8742     0.0000     0.0025 
 3202.9225     0.0000     0.7621    16.3285    15.5663   330.8806   106.8749     0.0000     0.0021 
 3203.0748     0.0000     0.6025    16.1607    15.5582   330.8804   106.8760     0.0000     0.0016 
 3203.2272     0.0000     0.4428    15.9929    15.5500   330.8826   106.8768     0.0000     0.0012 
 3203.3796     0.0000     0.2832    15.8251    15.5419   330.8852   106.8778     0.0000     0.0008 
 3203.5319     0.0000     0.1235    15.6573    15.5337   330.8877   106.8793     0.0000     0.0003 
 3203.6843     0.0000     0.0000    15.3070    15.3070   330.8918   106.8809     0.0000     0.0000 
 3203.8367     0.0000     0.0000    14.3333    14.3333   330.8971   106.8823     0.0000     0.0000 
 3203.9891     0.0000     0.0000    13.3595    13.3595   330.9033   106.8825     0.0000     0.0000 
 3204.1414     0.0000     0.0000    12.3857    12.3857   330.9089   106.8820     0.0000     0.0000 
 3204.2938     0.0000     0.0000    11.4119    11.4119   330.9136   106.8817     0.0000     0.0000 
 3204.4462     0.0000     0.0000    10.4381    10.4381   330.9188   106.8818     0.0000     0.0000 
 3204.5985     0.0000     0.0000     9.4643     9.4643   330.9240   106.8824     0.0000     0.0000 
 3204.7509     0.0000     0.0000    10.3792    10.3792   330.9276   106.8834     0.0000     0.0000 
 3204.9033     0.0000     0.0000    12.2517    12.2517   330.9279   106.8842     0.0000     0.0000 
 3205.0556     0.0000     0.0000    14.1241    14.1241   330.9264   106.8848     0.0000     0.0000 
 3205.2080     0.0000     0.0000    15.9966    15.9966   330.9252   106.8856     0.0000     0.0000 
 3205.3604     0.0000     0.0000    17.8691    17.8691   330.9256   106.8868     0.0000     0.0000 
 3205.5127     0.0000     0.0000    19.7416    19.7416   330.9277   106.8885     0.0000     0.0000 
 3205.6651     0.0000     0.0000    21.2594    21.2594   330.9310   106.8899     0.0000     0.0000 
 3205.8175     0.0000     0.0000    19.6129    19.6129   330.9345   106.8902     0.0000     0.0000 
 3205.9699     0.0000     0.0000    17.9664    17.9664   330.9375   106.8899     0.0000     0.0000 
 3206.1222     0.0000     0.0000    16.3198    16.3198   330.9405   106.8896     0.0000     0.0000 
 3206.2746     0.0000     0.0000    14.6733    14.6733   330.9435   106.8903     0.0000     0.0000 
 3206.4270     0.0000     0.0000    13.0268    13.0268   330.9467   106.8918     0.0000     0.0000 
 3206.5793     0.0000     0.0000    11.3802    11.3802   330.9519   106.8933     0.0000     0.0000 
 3206.7317     0.0000     0.0000    11.4332    11.4332   330.9578   106.8949     0.0000     0.0000 
 3206.8841     0.0000     0.0000    12.9455    12.9455   330.9617   106.8967     0.0000     0.0000 
 3207.0365     0.0000     0.0000    14.4577    14.4577   330.9651   106.8984     0.0000     0.0000 
 3207.1888     0.0000     0.0000    15.9700    15.9700   330.9682   106.8995     0.0000     0.0000 
 3207.3412     0.0000     0.0000    17.4822    17.4822   330.9707   106.9007     0.0000     0.0000 
 3207.4936     0.0000     0.0000    18.9945    18.9945   330.9721   106.9015     0.0000     0.0000 
 3207.6459     0.0000     0.0000    20.5068    20.5068   330.9723   106.9017     0.0000     0.0000 
 3207.7983     0.0000     1.2982    19.1920    17.8937   330.9720   106.9024     0.0000     0.0037 
 3207.9507     0.0000     2.6294    17.8055    15.1761   330.9724   106.9035     0.0000     0.0075 
 3208.1030     0.0000     3.9606    16.4190    12.4584   330.9735   106.9045     0.0000     0.0112 
 3208.2554     0.0000     5.2917    15.0324     9.7407   330.9778   106.9053     0.0000     0.0150 
 3208.4078     0.0000     6.6229    13.6459     7.0230   330.9821   106.9058     0.0000     0.0188 
 3208.5601     0.0000     7.9541    12.2594     4.3053   330.9847   106.9061     0.0000     0.0226 
 3208.7125     0.0000     8.1871    10.9867     2.7996   330.9887   106.9067     0.0000     0.0232 
 3208.8649     0.0000     6.8559     9.8761     3.0202   330.9942   106.9075     0.0000     0.0194 
 3209.0173     0.0000     5.5247     8.7655     3.2407   330.9981   106.9086     0.0000     0.0157 
 3209.1696     0.0000     4.1936     7.6549     3.4613   331.0042   106.9099     0.0000     0.0119 
 3209.3220     0.0000     2.8624     6.5442     3.6819   331.0103   106.9112     0.0000     0.0081 
 3209.4744     0.0000     1.5312     5.4336     3.9024   331.0121   106.9119     0.0000     0.0043 
 3209.6267     0.0000     0.2001     4.3230     4.1230   331.0143   106.9125     0.0000     0.0006 
