~Version Information
 VERS.                  2.0:   CWLS log ASCII Standard -VERSION 2.0
 WRAP.                   NO:   One line per depth step
~Well Information Block
#MNEM.UNIT       Data Type    Information
#---------     -----------    ---------------------------
 STRT.M              2954.2739:
 STOP.M              3647.5415:
 STEP.M                 0.1524:
 NULL.               -999.2500:
 UWI .            NO 15/9-F-14:  UWI
 API .            NO 15/9-F-14:  UWI
 WELL.               15/9-F-14:  COMMON WELL NAME
 COMP.                 STATOIL:  WELL OPERATOR
 FLD .                   VOLVE:  FIELD
 LIC .              NO PL046BS:  AUTHORIZATION NO
 LOC .                 UNKNOWN:  BASIN
 CTRY.                  Norway:  COUNTRY
 STAT.                 UNKNOWN:  STATE
 CNTY.                 UNKNOWN:  COUNTY
 PROV.                 UNKNOWN:  STATE
 SRVC.                 UNKNOWN:  COMPANY
 DATE.                 UNKNOWN:  LOG RUN DATE
 LONG.             1.887521912:  LONGITUDE
 LATI.            58.441602475:  LATITUDE
 XCOORD.           435052.4375:  X COORDINATE
 YCOORD.          6478562.5000:  Y COORDINATE
 ELEV.M                54.9000:  ELEVATION
 TD  .M              3750.0000:  TOTAL DEPTH
~Parameter Information Block
#MNEM.UNIT       Value        Description
#---------     -----------    ---------------------------
~Curve Information Block
#MNEM.UNIT                 API CODE     Curve Description
#---------               -----------    ---------------------------
 DEPTH.M                00 000 000 000:  Index Curve
 sat201IC-BHOF.NONE        00 000 000 000:  IC mode, Estimated Borehole Oil Fraction
 sat201IC-BVW.V/V         00 000 000 000:  IC mode, Estimated Bulk Volume of Water; 'sat201IC-SW'*'PHIF'
 sat201IC-CRRA.NONE        00 000 000 000:  IC mode, RST Near/Far Instantaneous Count Rate Ratio
 sat201IC-FBEF.UA          00 000 000 000:  IC mode, RST Far Effective Beam Current
 sat201IC-FCOR.NONE        00 000 000 000:  IC mode, RST Far Carbon/Oxygen Ratio
 sat201IC-GR.GAPI        00 000 000 000:  IC mode, Gamma Ray
 sat201IC-NCOR.NONE        00 000 000 000:  IC mode, RST Near Carbon/Oxygen Ratio
 sat201IC-SW.V/V         00 000 000 000:  IC mode, Estimated Water Saturation
~A DEPTH     sat201IC-BHOF sat201IC-BVW sat201IC-CRRA sat201IC-FBEF sat201IC-FCOR sat201IC-GR sat201IC-NCOR sat201IC-SW
# ...
 3307.8419     0.0490     0.1210     2.7630   120.7840     0.0360    39.2060     0.0310     0.5600 
 3307.9943     0.0500     0.1310     2.7760   120.6420     0.0160    38.6980     0.0300     0.6030 
 3308.1467     0.0510     0.1350     2.7690   120.1630    -0.0020    39.1380     0.0240     0.6180 
 3308.2991     0.0520     0.1330     2.7500   121.4300    -0.0060    39.1630     0.0150     0.6010 
 3308.4515     0.0530     0.1220     2.8200   123.9000     0.0000    37.6360     0.0190     0.5550 
 3308.6039     0.0530     0.1210     2.9370   126.0500     0.0020    36.4030     0.0170     0.5440 
 3308.7563     0.0520     0.1190     2.9830   125.9390    -0.0040    36.5620     0.0220     0.5420 
 3308.9087     0.0510     0.1170     2.9150   122.4760    -0.0160    36.1110     0.0270     0.5290 
 3309.0611     0.0500     0.1140     2.8070   119.8150    -0.0010    35.7710     0.0340     0.5160 
 3309.2135     0.0490     0.1100     2.7470   119.8320     0.0080    36.7790     0.0440     0.5020 
 3309.3659     0.0460     0.1150     2.7560   121.0930     0.0110    37.2500     0.0560     0.5360 
 3309.5183     0.0450     0.1180     2.7720   120.2480     0.0250    36.6610     0.0570     0.5620 
 3309.6707     0.0440     0.1150     2.7500   119.5530     0.0290    36.0770     0.0530     0.5420 
 3309.8231     0.0440     0.1020     2.7450   119.9110     0.0290    35.2310     0.0470     0.4750 
 3309.9755     0.0460     0.0870     2.7430   120.2370     0.0320    34.5520     0.0400     0.4100 
 3310.1279     0.0470     0.0830     2.7390   120.0870     0.0160    34.1210     0.0440     0.3820 
 3310.2803     0.0500     0.0820     2.7390   120.0280     0.0120    34.1060     0.0400     0.3690 
 3310.4327     0.0520     0.0760     2.7420   121.0480     0.0180    34.0960     0.0350     0.3410 
 3310.5851     0.0540     0.0620     2.7730   121.4830     0.0120    34.1350     0.0330     0.3110 
 3310.7375     0.0550     0.0670     2.7800   121.9780     0.0150    34.6300     0.0250     0.3510 
 3310.8899     0.0560     0.0790     2.7840   121.3940     0.0230    34.5300     0.0220     0.4090 
 3311.0423     0.0560     0.0840     2.7780   121.4260     0.0170    34.5610     0.0280     0.4290 
 3311.1947     0.0560     0.0870     2.7800   121.5330     0.0350    34.2630     0.0300     0.4250 
 3311.3471     0.0550     0.0940     2.7560   121.2230     0.0370    34.4610     0.0300     0.4440 
 3311.4995     0.0560     0.1060     2.7680   121.9260     0.0300    34.1410     0.0270     0.4770 
 3311.6519     0.0560     0.1130     2.7700   122.1280     0.0270    33.8870     0.0310     0.4940 
 3311.8043     0.0570     0.1110     2.7830   121.3870     0.0220    32.4440     0.0340     0.4850 
 3311.9567     0.0580     0.1140     2.7710   120.8450     0.0130    31.4250     0.0390     0.4920 
 3312.1091     0.0580     0.1160     2.7420   119.9280     0.0010    29.8850     0.0400     0.5020 
 3312.2615     0.0590     0.1210     2.7180   120.4370    -0.0030    28.3110     0.0270     0.5270 
 3312.4139     0.0590     0.1210     2.7240   120.8680     0.0000    26.3920     0.0190     0.5370 
 3312.5663     0.0600     0.1370     2.7340   119.9750    -0.0080    25.4080     0.0190     0.5890 
 3312.7187     0.0600     0.1480     2.7210   121.1780    -0.0100    24.1880     0.0170     0.6500 
 3312.8711     0.0600     0.1630     2.7500   120.3650    -0.0070    22.8840     0.0260     0.7580 
 3313.0235     0.0600     0.1900     2.7570   120.9790     0.0050    22.1570     0.0300     0.8720 
 3313.1759     0.0610     0.2000     2.7330   121.5460     0.0210    21.8480     0.0270     0.9480 
 3313.3283     0.0610     0.2000     2.7650   121.2130     0.0110    21.4610     0.0320     0.9530 
 3313.4807     0.0600     0.1980     2.7490   120.2910    -0.0080    21.2430     0.0360     0.9070 
 3313.6331     0.0600     0.1790     2.7350   120.6310    -0.0060    21.5340     0.0410     0.8210 
 3313.7855     0.0600     0.1590     2.7460   121.0990    -0.0090    21.1960     0.0480     0.7370 
 3313.9379     0.0610     0.1430     2.7470   122.3180    -0.0130    21.0970     0.0510     0.6500 
 3314.0903     0.0600     0.1300     2.8000   122.5410    -0.0270    20.7390     0.0490     0.5760 
 3314.2427     0.0590     0.1150     2.8280   124.3200    -0.0260    20.2530     0.0490     0.5130 
 3314.3951     0.0570     0.1070     2.8530   122.2720    -0.0090    19.7480     0.0560     0.4850 
 3314.5475     0.0560     0.1140     2.8030   120.9130     0.0180    19.7930     0.0640     0.5030 
 3314.6999     0.0540     0.1130     2.7370   120.3180     0.0260    20.0720     0.0570     0.5080 
 3314.8523     0.0550     0.1140     2.7340   120.2080     0.0300    19.6930     0.0500     0.5120 
 3315.0047     0.0540     0.1120     2.7420   121.0590     0.0410    19.5650     0.0480     0.4960 
 3315.1571     0.0550     0.1110     2.7550   121.7400     0.0390    19.2020     0.0500     0.4840 
 3315.3095     0.0550     0.1140     2.7540   122.0360     0.0310    18.5510     0.0530     0.4840 
 3315.4619     0.0550     0.1060     2.7700   121.6900     0.0200    18.1350     0.0480     0.4640 
 3315.6143     0.0550     0.1040     2.7550   121.9840     0.0140    18.5850     0.0380     0.4620 
 3315.7667     0.0540     0.1060     2.7610   121.0260     0.0250    18.3970     0.0400     0.4750 
 3315.9191     0.0520     0.1170     2.7380   121.4900     0.0160    18.5430     0.0320     0.5250 
 3316.0715     0.0490     0.1220     2.7530   120.6070     0.0070    18.8690     0.0340     0.5560 
 3316.2239     0.0470     0.1280     2.7230   120.6470     0.0060    19.0690     0.0320     0.5770 
 3316.3763     0.0460     0.1310     2.7330   120.4380     0.0070    18.8550     0.0330     0.5880 
 3316.5287     0.0460     0.1350     2.7240   120.8680     0.0060    18.9560     0.0300     0.6170 
 3316.6811     0.0460     0.1510     2.7430   121.0050    -0.0070    18.8580     0.0250     0.6790 
 3316.8335     0.0460     0.1590     2.7480   119.3430    -0.0200    18.7110     0.0340     0.7190 
 3316.9859     0.0470     0.1600     2.7180   119.7390    -0.0060    18.0510     0.0430     0.7290 
 3317.1383     0.0470     0.1550     2.7180   119.0270    -0.0130    17.9590     0.0410     0.7070 
 3317.2907     0.0470     0.1570     2.7240   119.7000    -0.0140    18.1110     0.0380     0.7010 
 3317.4431     0.0470     0.1610     2.7370   118.8960    -0.0110    17.9290     0.0330     0.7130 
 3317.5955     0.0450     0.1620     2.7070   118.9130    -0.0060    17.5480     0.0330     0.7140 
 3317.7479     0.0430     0.1560     2.7140   119.5000     0.0140    17.7740     0.0390     0.6910 
 3317.9003     0.0410     0.1500     2.7200   119.1320     0.0130    17.6140     0.0240     0.6650 
 3318.0527     0.0380     0.1500     2.7310   119.3490     0.0030    17.6050     0.0170     0.6580 
 3318.2051     0.0360     0.1500     2.7160   119.5020     0.0040    17.8200     0.0110     0.6560 
 3318.3575     0.0340     0.1450     2.7210   118.8440     0.0170    17.9780     0.0050     0.6300 
 3318.5099     0.0330     0.1370     2.7070   119.7460     0.0180    18.0220     0.0080     0.5930 
 3318.6623     0.0330     0.1310     2.7310   118.9740     0.0080    17.9480     0.0160     0.5710 
 3318.8147     0.0330     0.1270     2.7090   118.8020    -0.0090    17.5770     0.0150     0.5500 
 3318.9671     0.0330     0.1180     2.7010   119.6140     0.0020    17.5150     0.0200     0.5160 
 3319.1195     0.0330     0.1080     2.7230   119.9250     0.0180    17.5030     0.0250     0.4720 
 3319.2719     0.0320     0.1060     2.7380   119.3660     0.0160    17.5280     0.0220     0.4600 
 3319.4243     0.0310     0.1020     2.7230   119.6260     0.0170    17.9240     0.0220     0.4470 
 3319.5767     0.0300     0.1040     2.7290   119.4000     0.0250    18.2690     0.0170     0.4550 
 3319.7291     0.0300     0.1030     2.7280   119.2220     0.0280    18.2650     0.0120     0.4510 
 3319.8815     0.0290     0.1060     2.7130   119.3500     0.0460    18.5060     0.0190     0.4730 
