~Version Information
 VERS.                  2.0:   CWLS log ASCII Standard -VERSION 2.0
 WRAP.                   NO:   One line per depth step
~Well Information Block
#MNEM.UNIT       Data Type    Information
#---------     -----------    ---------------------------
 STRT.M              2880.6599:
 STOP.M              3414.2598:
 STEP.M                 0.1524:
 NULL.               -999.2500:
 UWI .            NO 15/9-F-14:  UWI
 API .            NO 15/9-F-14:  UWI
 WELL.               15/9-F-14:  COMMON WELL NAME
 COMP.                 STATOIL:  WELL OPERATOR
 FLD .                   VOLVE:  FIELD
 LIC .              NO PL046BS:  AUTHORIZATION NO
 LOC .                 UNKNOWN:  BASIN
 CTRY.                  Norway:  COUNTRY
 STAT.                 UNKNOWN:  STATE
 CNTY.                 UNKNOWN:  COUNTY
 PROV.                 UNKNOWN:  STATE
 SRVC.                 UNKNOWN:  COMPANY
 DATE.                 UNKNOWN:  LOG RUN DATE
 LONG.             1.887521912:  LONGITUDE
 LATI.            58.441602475:  LATITUDE
 XCOORD.           435052.4375:  X COORDINATE
 YCOORD.          6478562.5000:  Y COORDINATE
 ELEV.M                54.9000:  ELEVATION
 TD  .M              3750.0000:  TOTAL DEPTH
~Parameter Information Block
#MNEM.UNIT       Value        Description
#---------     -----------    ---------------------------
~Curve Information Block
#MNEM.UNIT                 API CODE     Curve Description
#---------               -----------    ---------------------------
 DEPTH.M                00 000 000 000:  Index Curve
 plt302S-QGAS.            00 000 000 000:  gas rate
 plt302S-QOIL.            00 000 000 000:  oil rate
 plt302S-QTOT.            00 000 000 000:  
 plt302S-QWAT.            00 000 000 000:  
 plt302S-WPRE.BAR         00 000 000 000:  
 plt302S-WTEP.DEGC        00 000 000 000:  
 plt302S-YG.NONE        00 000 000 000:  
 plt302S-YO.NONE        00 000 000 000:  
~A DEPTH     plt302S-QGAS plt302S-QOIL plt302S-QTOT plt302S-QWAT plt302S-WPRE plt302S-WTEP plt302S-YG plt302S-YO
# ...
 3404.8127     0.0000     0.0000    70.0262    70.0262   334.5698   104.6576     0.0000     0.0000 
 3404.9651     0.0000     0.0000    70.5605    70.5605   334.5698   104.6576     0.0000     0.0000 
 3405.1175     0.0000     0.0000    71.0948    71.0948   334.5698   104.6576     0.0000     0.0000 
 3405.2698     0.0000     0.0000    71.6290    71.6290   334.5698   104.6576     0.0000     0.0000 
 3405.4222     0.0000     0.0000    72.1633    72.1633   334.5698   104.6576     0.0000     0.0000 
 3405.5746     0.0000     0.0000    72.6975    72.6975   334.5698   104.6576     0.0000     0.0000 
 3405.7269     0.0000     0.0000    72.1578    72.1578   334.5698   104.6576     0.0000     0.0000 
 3405.8793     0.0000     0.0000    70.7301    70.7301   334.5698   104.6576     0.0000     0.0000 
 3406.0317     0.0000     0.0000    69.3025    69.3025   334.5698   104.6576     0.0000     0.0000 
 3406.1840     0.0000     0.0000    67.8748    67.8748   334.5698   104.6576     0.0000     0.0000 
 3406.3364     0.0000     0.0000    66.4472    66.4472   334.5698   104.6576     0.0000     0.0000 
 3406.4888     0.0000     0.0000    65.0195    65.0195   334.5698   104.6576     0.0000     0.0000 
 3406.6411     0.0000     0.0000    63.5918    63.5918   334.5698   104.6576     0.0000     0.0000 
 3406.7935     0.0000     0.0000    61.0032    61.0032   334.5698   104.6576     0.0000     0.0000 
 3406.9459     0.0000     0.0000    58.3965    58.3965   334.5698   104.6576     0.0000     0.0000 
 3407.0983     0.0000     0.0000    55.7898    55.7898   334.5698   104.6576     0.0000     0.0000 
 3407.2506     0.0000     0.0000    53.1831    53.1831   334.5698   104.6576     0.0000     0.0000 
 3407.4030     0.0000     0.0000    50.5764    50.5764   334.5698   104.6576     0.0000     0.0000 
 3407.5554     0.0000     0.0000    47.9697    47.9697   334.5698   104.6576     0.0000     0.0000 
 3407.7077     0.0000     0.0000    45.3392    45.3392   334.5698   104.6576     0.0000     0.0000 
 3407.8601     0.0000     0.0000    42.6762    42.6762   334.5698   104.6576     0.0000     0.0000 
 3408.0125     0.0000     0.0000    40.0131    40.0131   334.5698   104.6576     0.0000     0.0000 
 3408.1649     0.0000     0.0000    37.3500    37.3500   319.3250   104.7338     0.0000     0.0000 
 3408.3172     0.0000     0.0000    34.6870    34.6870   296.7932   104.8464     0.0000     0.0000 
 3408.4696     0.0000     0.0000    32.0239    32.0239   296.7932   104.8464     0.0000     0.0000 
 3408.6220     0.0000     0.0000    29.3608    29.3608   296.7932   104.8464     0.0000     0.0000 
 3408.7743     0.0000     0.0000    26.0174    26.0174   296.7932   104.8464     0.0000     0.0000 
 3408.9267     0.0000     0.0000    22.5623    22.5623   296.7932   104.8464     0.0000     0.0000 
 3409.0791     0.0000     0.0000    19.1073    19.1073   296.7932   104.8464     0.0000     0.0000 
 3409.2314     0.0000     0.0000    15.6522    15.6522   296.7932   104.8464     0.0000     0.0000 
 3409.3838     0.0000     0.0000    12.1972    12.1972   296.7932   104.8464     0.0000     0.0000 
 3409.5362     0.0000     0.0000     8.7421     8.7421   296.7932   104.8464     0.0000     0.0000 
 3409.6885     0.0000     0.0000     8.4006     8.4006   258.9745   104.9504     0.0000     0.0000 
 3409.8409     0.0000     0.0000    15.4517    15.4517   258.9745   104.9504     0.0000     0.0000 
 3409.9933     0.0000     0.0000    22.5027    22.5027   258.9745   104.9504     0.0000     0.0000 
 3410.1457     0.0000     0.0000    29.5538    29.5538   258.9745   104.9504     0.0000     0.0000 
 3410.2980     0.0000     0.0000    36.6049    36.6049   183.4215   104.9120     0.0000     0.0000 
 3410.4504     0.0000     0.0000    43.6559    43.6559   183.4215   104.9120     0.0000     0.0000 
 3410.6028     0.0000     0.0000    50.7070    50.7070   183.4215   104.9120     0.0000     0.0000 
 3410.7551     0.0000     0.0000    59.1915    59.1915   183.4215   104.9120     0.0000     0.0000 
 3410.9075     0.0000     0.0000    68.1966    68.1966   183.4215   104.9120     0.0000     0.0000 
 3411.0599     0.0000     0.0000    77.2018    77.2018   183.4215   104.9120     0.0000     0.0000 
 3411.2123     0.0000     0.0000    86.2069    86.2069   183.4215   104.9120     0.0000     0.0000 
 3411.3646     0.0000     0.0000    95.2120    95.2120   183.4215   104.9120     0.0000     0.0000 
 3411.5170     0.0000     0.0000   104.2171   104.2171   183.4215   104.9120     0.0000     0.0000 
 3411.6694     0.0000     0.0000   111.6069   111.6069   183.4215   104.9120     0.0000     0.0000 
 3411.8217     0.0000     0.0000   111.1559   111.1559   183.4215   104.9120     0.0000     0.0000 
 3411.9741     0.0000     0.0000   110.7049   110.7049   183.4215   104.9120     0.0000     0.0000 
 3412.1265     0.0000     0.0000   110.2539   110.2539   183.4215   104.9120     0.0000     0.0000 
 3412.2788     0.0000     0.0000   109.8029   109.8029   183.4215   104.9120     0.0000     0.0000 
 3412.4312     0.0000     0.0000   109.3519   109.3519   183.4215   104.9120     0.0000     0.0000 
 3412.5836     0.0000     0.0000   108.9009   108.9009   183.4215   104.9120     0.0000     0.0000 
 3412.7359   -18.5262   -72.9237 -9045.2178 -8953.7676   183.4215   104.9120     0.0002     0.0007 
 3412.8883   -48.9941  -192.8530 -24099.6484 -23857.8008   183.4215   104.9120     0.0005     0.0020 
 3413.0407   -79.4620  -312.7823 -39154.0781 -38761.8320   183.4215   104.9120     0.0008     0.0032 
 3413.1931  -109.9298  -432.7115 -54208.5117 -53665.8672   183.4215   104.9120     0.0011     0.0044 
 3413.3454  -140.3977  -552.6408 -69262.9453 -68569.8984   183.4215   104.9120     0.0014     0.0056 
 3413.4978  -170.8656  -672.5701 -84317.3750 -83473.9375   183.4215   104.9120     0.0017     0.0068 
 3413.6502  -999.2500  -999.2500  -999.2500  -999.2500   183.4215   104.9120  -999.2500  -999.2500 
 3413.8025  -999.2500  -999.2500  -999.2500  -999.2500   183.4215   104.9120  -999.2500  -999.2500 
 3413.9549  -999.2500  -999.2500  -999.2500  -999.2500   183.4215   104.9120  -999.2500  -999.2500 
 3414.1073  -999.2500  -999.2500  -999.2500  -999.2500   183.4215   104.9120  -999.2500  -999.2500 
 3414.2596  -999.2500  -999.2500  -999.2500  -999.2500   183.4215   104.9120  -999.2500  -999.2500 
