~VERSION INFORMATION
VERS                    .            2.0                                    :CWLS LOG ASCII STANDARD
WRAP                    .            NO                                     :ONE LINE PER TIME STEP


~WELL INFORMATION
#MNEM                   .UNIT        DATA                                    DESCRIPTION
#________________________________________________________________________________________
STRTTIME                .HH/MM/SS    15:44:09                               :START TIME
STOPTIME                .HH/MM/SS    15:46:59                               :STOP TIME
STRT                    .s           2.10                                   :START DATA
STOP                    .s           168.10                                 :STOP DATA
STEP                    .s           0.10                                   :MEASUREMENT TIME INTERVAL
NULL                    .            -999.25                                :NULL VALUE
COMP                    .            Statoil ASA                            :COMPANY
FLD                     .            Volve                                  :FIELD
WELL                    .            15/9-F-1 B                             :WELL
RUN                     .            7                                      :RUN
LOC                     .            Maersk Inspirer                        :LOCATION
PROV                    .            na                                     :PROVINCE
SRVC                    .            Baker Hughes INTEQ                     :SERVICE COMPANY
DATE                    .YY/MM/DD    13/09/06                               :LOG DATE
UWI                     .                                                   :UNIQUE WELL ID
DEPTHMD                 .m           3266.5                                 :MEASURED DEPTH
DEPTHTVD                .m           3062.4                                 :TRUE VERTICAL DEPTH


~CURVE INFORMATION
#MNEM                   .UNIT        API CODES                               DESCRIPTION
#________________________________________________________________________________________
TIME                    .s                                                  :01 TIME
DD_PRESS                .bar                                                :02 DRAW DOWN PRESSURE
DD_VOLUME               .cm3                                                :03 INCREMENTAL DRAW DOWN VOLUME
TEMP                    .degC                                               :04 TRANSDUCER TEMPERATURE
DD_PRESS_MOD_1000       .bar                                                :05 DRAW DOWN PRESSURE MOD 1000
DD_PRESS_MOD_100        .bar                                                :06 DRAW DOWN PRESSURE MOD 100
DD_PRESS_MOD_10         .bar                                                :07 DRAW DOWN PRESSURE MOD 10
DD_PRESS_MOD_1          .bar                                                :08 DRAW DOWN PRESSURE MOD 1
DD_PRESS_MOD_01         .bar                                                :09 DRAW DOWN PRESSURE MOD 01
DD_PRESS_MOD_001        .bar                                                :10 DRAW DOWN PRESSURE MOD 001
DD_PRESS_MOD_0001       .bar                                                :11 DRAW DOWN PRESSURE MOD 0001


~PARAMETER INFORMATION
#MNEM                   .UNIT        VALUE                                   DESCRIPTION
#________________________________________________________________________________________
TOOLFACE                .deg         na                                     :01 TOOLFACE
PUMP_CAPACITY           .bar         400                                    :02 NOMINAL DRAW DOWN PUMP CAPACITY
PUMP_LIMIT              .bar         400                                    :03 DOWNLINK PUMP LIMIT
TIME_LIMIT              .min         10                                     :04 DOWNLINK MAX TIME
TEST_TYPE               .            LOW MOBILITY                           :05 DOWNLINK
DD_PIST_A               .cm2         3.1416                                 :06 DRAW DOWN PISTON AREA
V_SYS                   .cm3         131.0000                               :07 SYSTEM VOLUME
PROBE_ID                .cm          1.2700                                 :08 TTK PROBE ID
G0                      .            4.6700                                 :09 GEOMETRY FACTOR


~A                  TIME     DD_PRESS                              DD_VOLUME               TEMP                                   DD_PRESS_MOD_1000       DD_PRESS_MOD_100        DD_PRESS_MOD_10         DD_PRESS_MOD_1        DD_PRESS_MOD_01       DD_PRESS_MOD_001      DD_PRESS_MOD_0001
# ...
                  142.10    346.52642                               29.23190             82.508                                        3.46526e+002           4.65264e+001           6.52642e+000           5.26415e-001           2.64152e-002           6.41520e-003           4.15195e-004
                  142.20    346.52346                               29.23190             82.508                                        3.46523e+002           4.65235e+001           6.52346e+000           5.23457e-001           2.34574e-002           3.45736e-003           4.57365e-004
                  142.30    346.52315                               29.23190             82.508                                        3.46523e+002           4.65231e+001           6.52315e+000           5.23147e-001           2.31465e-002           3.14653e-003           1.46532e-004
                  142.40    346.52382                               29.23190             82.508                                        3.46524e+002           4.65238e+001           6.52382e+000           5.23816e-001           2.38158e-002           3.81577e-003           8.15775e-004
                  142.50    346.52671                               29.23190             82.508                                        3.46527e+002           4.65267e+001           6.52671e+000           5.26707e-001           2.67073e-002           6.70726e-003           7.07265e-004
                  142.60    346.52672                               29.23190             82.508                                        3.46527e+002           4.65267e+001           6.52672e+000           5.26721e-001           2.67208e-002           6.72085e-003           7.20846e-004
                  142.70    346.52479                               29.23190             82.508                                        3.46525e+002           4.65248e+001           6.52479e+000           5.24793e-001           2.47929e-002           4.79292e-003           7.92916e-004
                  142.80    346.52637                                0.00000             82.508                                        3.46526e+002           4.65264e+001           6.52637e+000           5.26369e-001           2.63686e-002           6.36856e-003           3.68564e-004
                  142.90    346.55069                                0.00000             82.508                                        3.46551e+002           4.65507e+001           6.55069e+000           5.50692e-001           5.06924e-002           6.92381e-004           6.92381e-004
                  143.00    346.58719                                0.00000             82.508                                        3.46587e+002           4.65872e+001           6.58719e+000           5.87190e-001           8.71896e-002           7.18965e-003           1.89647e-004
                  143.10    346.61483                                0.00000             82.508                                        3.46615e+002           4.66148e+001           6.61483e+000           6.14833e-001           1.48326e-002           4.83258e-003           8.32577e-004
                  143.20    346.62461                                0.00000             82.508                                        3.46625e+002           4.66246e+001           6.62461e+000           6.24613e-001           2.46135e-002           4.61347e-003           6.13468e-004
                  143.30    346.63686                                0.00000             82.508                                        3.46637e+002           4.66369e+001           6.63686e+000           6.36857e-001           3.68569e-002           6.85688e-003           8.56877e-004
                  143.40    346.64305                                0.00000             82.508                                        3.46643e+002           4.66430e+001           6.64305e+000           6.43045e-001           4.30451e-002           3.04508e-003           4.50831e-005
                  143.50    346.64712                                0.00000             82.508                                        3.46647e+002           4.66471e+001           6.64712e+000           6.47121e-001           4.71209e-002           7.12090e-003           1.20903e-004
                  143.60    346.65366                                0.00000             82.508                                        3.46654e+002           4.66537e+001           6.65366e+000           6.53659e-001           5.36595e-002           3.65949e-003           6.59490e-004
                  143.70    346.65724                                0.00000             82.508                                        3.46657e+002           4.66572e+001           6.65724e+000           6.57237e-001           5.72370e-002           7.23698e-003           2.36981e-004
                  143.80    346.65767                                0.00000             82.508                                        3.46658e+002           4.66577e+001           6.65767e+000           6.57673e-001           5.76732e-002           7.67323e-003           6.73230e-004
                  143.90    346.66463                                0.00000             82.508                                        3.46665e+002           4.66646e+001           6.66463e+000           6.64633e-001           6.46327e-002           4.63274e-003           6.32742e-004
                  144.00    346.66911                                0.00000             82.508                                        3.46669e+002           4.66691e+001           6.66911e+000           6.69108e-001           6.91076e-002           9.10765e-003           1.07648e-004
                  144.10    346.66802                                0.00000             82.508                                        3.46668e+002           4.66680e+001           6.66802e+000           6.68019e-001           6.80194e-002           8.01940e-003           1.94020e-005
                  144.20    346.67084                                0.00000             82.508                                        3.46671e+002           4.66708e+001           6.67084e+000           6.70836e-001           7.08362e-002           8.36206e-004           8.36206e-004
                  144.30    346.67871                                0.00000             82.508                                        3.46679e+002           4.66787e+001           6.67871e+000           6.78708e-001           7.87075e-002           8.70752e-003           7.07522e-004
                  144.40    346.68235                                0.00000             82.508                                        3.46682e+002           4.66824e+001           6.68235e+000           6.82352e-001           8.23521e-002           2.35214e-003           3.52136e-004
                  144.50    346.68308                                0.00000             82.508                                        3.46683e+002           4.66831e+001           6.68308e+000           6.83081e-001           8.30809e-002           3.08086e-003           8.08603e-005
                  144.60    346.68652                                0.00000             82.508                                        3.46687e+002           4.66865e+001           6.68652e+000           6.86518e-001           8.65177e-002           6.51770e-003           5.17701e-004
                  144.70    346.69037                                0.00000             82.508                                        3.46690e+002           4.66904e+001           6.69037e+000           6.90372e-001           9.03720e-002           3.72008e-004           3.72008e-004
                  144.80    346.69196                                0.00000             82.508                                        3.46692e+002           4.66920e+001           6.69196e+000           6.91964e-001           9.19643e-002           1.96430e-003           9.64304e-004
