~VERSION INFORMATION
VERS                    .            2.0                                    :CWLS LOG ASCII STANDARD
WRAP                    .            NO                                     :ONE LINE PER TIME STEP


~WELL INFORMATION
#MNEM                   .UNIT        DATA                                    DESCRIPTION
#________________________________________________________________________________________
STRTTIME                .HH/MM/SS    09:43:23                               :START TIME
STOPTIME                .HH/MM/SS    09:46:50                               :STOP TIME
STRT                    .s           2.10                                   :START DATA
STOP                    .s           205.20                                 :STOP DATA
STEP                    .s           0.10                                   :MEASUREMENT TIME INTERVAL
NULL                    .            -999.25                                :NULL VALUE
COMP                    .            Statoil ASA                            :COMPANY
FLD                     .            Volve                                  :FIELD
WELL                    .            15/9-F-11 A                            :WELL
RUN                     .            8                                      :RUN
LOC                     .            Maersk Inspirer                        :LOCATION
PROV                    .            na                                     :PROVINCE
SRVC                    .            Baker Hughes INTEQ                     :SERVICE COMPANY
DATE                    .YY/MM/DD    13/05/21                               :LOG DATE
UWI                     .                                                   :UNIQUE WELL ID
DEPTHMD                 .m           3665.9                                 :MEASURED DEPTH
DEPTHTVD                .m           3052.8                                 :TRUE VERTICAL DEPTH


~CURVE INFORMATION
#MNEM                   .UNIT        API CODES                               DESCRIPTION
#________________________________________________________________________________________
TIME                    .s                                                  :01 TIME
DD_PRESS                .bar                                                :02 DRAW DOWN PRESSURE
DD_VOLUME               .cm3                                                :03 INCREMENTAL DRAW DOWN VOLUME
TEMP                    .degC                                               :04 TRANSDUCER TEMPERATURE
DD_PRESS_MOD_1000       .bar                                                :05 DRAW DOWN PRESSURE MOD 1000
DD_PRESS_MOD_100        .bar                                                :06 DRAW DOWN PRESSURE MOD 100
DD_PRESS_MOD_10         .bar                                                :07 DRAW DOWN PRESSURE MOD 10
DD_PRESS_MOD_1          .bar                                                :08 DRAW DOWN PRESSURE MOD 1
DD_PRESS_MOD_01         .bar                                                :09 DRAW DOWN PRESSURE MOD 01
DD_PRESS_MOD_001        .bar                                                :10 DRAW DOWN PRESSURE MOD 001
DD_PRESS_MOD_0001       .bar                                                :11 DRAW DOWN PRESSURE MOD 0001


~PARAMETER INFORMATION
#MNEM                   .UNIT        VALUE                                   DESCRIPTION
#________________________________________________________________________________________
TOOLFACE                .deg         60.0                                   :01 TOOLFACE
PUMP_CAPACITY           .bar         400                                    :02 NOMINAL DRAW DOWN PUMP CAPACITY
PUMP_LIMIT              .bar         240                                    :03 DOWNLINK PUMP LIMIT
TIME_LIMIT              .min         10                                     :04 DOWNLINK MAX TIME
TEST_TYPE               .            REPEAT                                 :05 DOWNLINK
TEST_TYPE               .            HIGH MOBILITY                          :06 DOWNLINK
DD_PIST_A               .cm2         3.1416                                 :07 DRAW DOWN PISTON AREA
V_SYS                   .cm3         131.0000                               :08 SYSTEM VOLUME
PROBE_ID                .cm          1.2700                                 :09 TTK PROBE ID
G0                      .            4.6700                                 :10 GEOMETRY FACTOR


~A                  TIME     DD_PRESS                              DD_VOLUME               TEMP                                   DD_PRESS_MOD_1000       DD_PRESS_MOD_100        DD_PRESS_MOD_10         DD_PRESS_MOD_1        DD_PRESS_MOD_01       DD_PRESS_MOD_001      DD_PRESS_MOD_0001
# ...
                   41.30    341.75469                               10.66748             83.156                                        3.41755e+002           4.17547e+001           1.75469e+000           7.54691e-001           5.46905e-002           4.69052e-003           6.90516e-004
                   41.40    342.09892                               10.66748             83.156                                        3.42099e+002           4.20989e+001           2.09892e+000           9.89201e-002           9.89201e-002           8.92010e-003           9.20098e-004
                   41.50    342.38855                               10.66748             83.156                                        3.42389e+002           4.23886e+001           2.38855e+000           3.88555e-001           8.85546e-002           8.55456e-003           5.54564e-004
                   41.60    342.63742                               10.66748             83.156                                        3.42637e+002           4.26374e+001           2.63742e+000           6.37415e-001           3.74155e-002           7.41548e-003           4.15485e-004
                   41.70    342.86860                               10.66748             83.156                                        3.42869e+002           4.28686e+001           2.86860e+000           8.68604e-001           6.86040e-002           8.60400e-003           6.03998e-004
                   41.80    343.07838                               10.66748             83.156                                        3.43078e+002           4.30784e+001           3.07838e+000           7.83794e-002           7.83794e-002           8.37936e-003           3.79360e-004
                   41.90    343.25369                               10.66748             83.156                                        3.43254e+002           4.32537e+001           3.25369e+000           2.53686e-001           5.36860e-002           3.68602e-003           6.86021e-004
                   42.00    343.39450                               10.66748             83.156                                        3.43395e+002           4.33945e+001           3.39450e+000           3.94500e-001           9.45001e-002           4.50014e-003           5.00139e-004
                   42.10    343.52597                               10.66748             83.156                                        3.43526e+002           4.35260e+001           3.52597e+000           5.25965e-001           2.59651e-002           5.96512e-003           9.65124e-004
                   42.20    343.65459                               10.66748             83.156                                        3.43655e+002           4.36546e+001           3.65459e+000           6.54593e-001           5.45934e-002           4.59345e-003           5.93446e-004
                   42.30    343.76915                               10.66748             83.156                                        3.43769e+002           4.37692e+001           3.76915e+000           7.69152e-001           6.91518e-002           9.15183e-003           1.51832e-004
                   42.40    343.86675                               10.66748             83.156                                        3.43867e+002           4.38668e+001           3.86675e+000           8.66754e-001           6.67543e-002           6.75427e-003           7.54273e-004
                   42.50    343.94847                               10.66748             83.156                                        3.43948e+002           4.39485e+001           3.94847e+000           9.48468e-001           4.84680e-002           8.46798e-003           4.67979e-004
                   42.60    344.02573                               10.66748             83.156                                        3.44026e+002           4.40257e+001           4.02573e+000           2.57285e-002           2.57285e-002           5.72849e-003           7.28489e-004
                   42.70    344.08975                               10.66748             83.159                                        3.44090e+002           4.40898e+001           4.08975e+000           8.97519e-002           8.97519e-002           9.75193e-003           7.51927e-004
                   42.80    344.14397                               10.66748             83.162                                        3.44144e+002           4.41440e+001           4.14397e+000           1.43966e-001           4.39662e-002           3.96620e-003           9.66198e-004
                   42.90    344.20587                               10.66748             83.162                                        3.44206e+002           4.42059e+001           4.20587e+000           2.05866e-001           5.86643e-003           5.86643e-003           8.66427e-004
                   43.00    344.25960                               10.66748             83.158                                        3.44260e+002           4.42596e+001           4.25960e+000           2.59599e-001           5.95993e-002           9.59926e-003           5.99262e-004
                   43.10    344.29349                               10.66748             83.159                                        3.44293e+002           4.42935e+001           4.29349e+000           2.93488e-001           9.34879e-002           3.48786e-003           4.87860e-004
                   43.20    344.32353                               10.66748             83.162                                        3.44324e+002           4.43235e+001           4.32353e+000           3.23532e-001           2.35325e-002           3.53246e-003           5.32463e-004
                   43.30    344.36075                               10.66748             83.164                                        3.44361e+002           4.43608e+001           4.36075e+000           3.60753e-001           6.07530e-002           7.53039e-004           7.53039e-004
                   43.40    344.40638                               10.66748             83.164                                        3.44406e+002           4.44064e+001           4.40638e+000           4.06382e-001           6.38151e-003           6.38151e-003           3.81512e-004
                   43.50    344.43840                               10.66748             83.164                                        3.44438e+002           4.44384e+001           4.43840e+000           4.38401e-001           3.84010e-002           8.40100e-003           4.00996e-004
                   43.60    344.45858                               10.66748             83.164                                        3.44459e+002           4.44586e+001           4.45858e+000           4.58580e-001           5.85796e-002           8.57964e-003           5.79637e-004
                   43.70    344.47745                               10.66748             83.164                                        3.44477e+002           4.44774e+001           4.47745e+000           4.77449e-001           7.74490e-002           7.44900e-003           4.48998e-004
                   43.80    344.49712                               10.66748             83.164                                        3.44497e+002           4.44971e+001           4.49712e+000           4.97123e-001           9.71229e-002           7.12291e-003           1.22906e-004
                   43.90    344.51037                               10.66748             83.164                                        3.44510e+002           4.45104e+001           4.51037e+000           5.10367e-001           1.03669e-002           3.66923e-004           3.66923e-004
                   44.00    344.51483                               10.66748             83.164                                        3.44515e+002           4.45148e+001           4.51483e+000           5.14828e-001           1.48279e-002           4.82794e-003           8.27936e-004
