~VERSION INFORMATION
VERS                    .            2.0                                    :CWLS LOG ASCII STANDARD
WRAP                    .            NO                                     :ONE LINE PER TIME STEP


~WELL INFORMATION
#MNEM                   .UNIT        DATA                                    DESCRIPTION
#________________________________________________________________________________________
STRTTIME                .HH/MM/SS    04:27:44                               :START TIME
STOPTIME                .HH/MM/SS    04:30:31                               :STOP TIME
STRT                    .s           2.10                                   :START DATA
STOP                    .s           165.30                                 :STOP DATA
STEP                    .s           0.10                                   :MEASUREMENT TIME INTERVAL
NULL                    .            -999.25                                :NULL VALUE
COMP                    .            Statoil ASA                            :COMPANY
FLD                     .            Volve                                  :FIELD
WELL                    .            15/9-F-1 C                             :WELL
RUN                     .            4                                      :RUN
LOC                     .                                                   :LOCATION
PROV                    .            na                                     :PROVINCE
SRVC                    .            Baker Hughes INTEQ                     :SERVICE COMPANY
DATE                    .YY/MM/DD    14/03/15                               :LOG DATE
UWI                     .                                                   :UNIQUE WELL ID
DEPTHMD                 .m           3273.1                                 :MEASURED DEPTH
DEPTHTVD                .m           2948.3                                 :TRUE VERTICAL DEPTH


~CURVE INFORMATION
#MNEM                   .UNIT        API CODES                               DESCRIPTION
#________________________________________________________________________________________
TIME                    .s                                                  :01 TIME
DD_PRESS                .bar                                                :02 DRAW DOWN PRESSURE
DD_VOLUME               .cm3                                                :03 INCREMENTAL DRAW DOWN VOLUME
TEMP                    .degC                                               :04 TRANSDUCER TEMPERATURE
DD_PRESS_MOD_1000       .bar                                                :05 DRAW DOWN PRESSURE MOD 1000
DD_PRESS_MOD_100        .bar                                                :06 DRAW DOWN PRESSURE MOD 100
DD_PRESS_MOD_10         .bar                                                :07 DRAW DOWN PRESSURE MOD 10
DD_PRESS_MOD_1          .bar                                                :08 DRAW DOWN PRESSURE MOD 1
DD_PRESS_MOD_01         .bar                                                :09 DRAW DOWN PRESSURE MOD 01
DD_PRESS_MOD_001        .bar                                                :10 DRAW DOWN PRESSURE MOD 001
DD_PRESS_MOD_0001       .bar                                                :11 DRAW DOWN PRESSURE MOD 0001


~PARAMETER INFORMATION
#MNEM                   .UNIT        VALUE                                   DESCRIPTION
#________________________________________________________________________________________
TOOLFACE                .deg         76.8                                   :01 TOOLFACE
PUMP_CAPACITY           .bar         400                                    :02 NOMINAL DRAW DOWN PUMP CAPACITY
PUMP_LIMIT              .bar         240                                    :03 DOWNLINK PUMP LIMIT
TIME_LIMIT              .min         10                                     :04 DOWNLINK MAX TIME
TEST_TYPE               .            REPEAT                                 :05 DOWNLINK
TEST_TYPE               .            HIGH MOBILITY                          :06 DOWNLINK
DD_PIST_A               .cm2         3.1416                                 :07 DRAW DOWN PISTON AREA
V_SYS                   .cm3         131.0000                               :08 SYSTEM VOLUME
PROBE_ID                .cm          1.2700                                 :09 TTK PROBE ID
G0                      .            4.6700                                 :10 GEOMETRY FACTOR


~A                  TIME     DD_PRESS                              DD_VOLUME               TEMP                                   DD_PRESS_MOD_1000       DD_PRESS_MOD_100        DD_PRESS_MOD_10         DD_PRESS_MOD_1        DD_PRESS_MOD_01       DD_PRESS_MOD_001      DD_PRESS_MOD_0001
# ...
                  139.30    338.16678                               29.44302             84.891                                        3.38167e+002           3.81668e+001           8.16678e+000           1.66778e-001           6.67775e-002           6.77753e-003           7.77525e-004
                  139.40    338.16782                               29.44302             84.891                                        3.38168e+002           3.81678e+001           8.16782e+000           1.67822e-001           6.78222e-002           7.82215e-003           8.22155e-004
                  139.50    338.16988                               29.44302             84.891                                        3.38170e+002           3.81699e+001           8.16988e+000           1.69877e-001           6.98773e-002           9.87732e-003           8.77323e-004
                  139.60    338.17195                               29.44302             84.891                                        3.38172e+002           3.81720e+001           8.17195e+000           1.71952e-001           7.19523e-002           1.95227e-003           9.52271e-004
                  139.70    338.17258                               29.44302             84.891                                        3.38173e+002           3.81726e+001           8.17258e+000           1.72580e-001           7.25800e-002           2.57997e-003           5.79971e-004
                  139.80    338.16806                                0.00000             84.891                                        3.38168e+002           3.81681e+001           8.16806e+000           1.68058e-001           6.80577e-002           8.05771e-003           5.77063e-005
                  139.90    338.20684                                0.00000             84.891                                        3.38207e+002           3.82068e+001           8.20684e+000           2.06839e-001           6.83874e-003           6.83874e-003           8.38737e-004
                  140.00    338.28964                                0.00000             84.891                                        3.38290e+002           3.82896e+001           8.28964e+000           2.89645e-001           8.96447e-002           9.64474e-003           6.44737e-004
                  140.10    338.35396                                0.00000             84.891                                        3.38354e+002           3.83540e+001           8.35396e+000           3.53955e-001           5.39551e-002           3.95509e-003           9.55091e-004
                  140.20    338.36791                                0.00000             84.891                                        3.38368e+002           3.83679e+001           8.36791e+000           3.67908e-001           6.79077e-002           7.90767e-003           9.07674e-004
                  140.30    338.38354                                0.00000             84.888                                        3.38384e+002           3.83835e+001           8.38354e+000           3.83544e-001           8.35437e-002           3.54373e-003           5.43730e-004
                  140.40    338.39562                                0.00000             84.887                                        3.38396e+002           3.83956e+001           8.39562e+000           3.95621e-001           9.56206e-002           5.62063e-003           6.20629e-004
                  140.50    338.40555                                0.00000             84.886                                        3.38406e+002           3.84055e+001           8.40555e+000           4.05547e-001           5.54713e-003           5.54713e-003           5.47132e-004
                  140.60    338.41094                                0.00000             84.885                                        3.38411e+002           3.84109e+001           8.41094e+000           4.10939e-001           1.09394e-002           9.39351e-004           9.39351e-004
                  140.70    338.40909                                0.00000             84.883                                        3.38409e+002           3.84091e+001           8.40909e+000           4.09092e-001           9.09182e-003           9.09182e-003           9.18171e-005
                  140.80    338.40806                                0.00000             84.883                                        3.38408e+002           3.84081e+001           8.40806e+000           4.08061e-001           8.06052e-003           8.06052e-003           6.05230e-005
                  140.90    338.41227                                0.00000             84.883                                        3.38412e+002           3.84123e+001           8.41227e+000           4.12273e-001           1.22728e-002           2.27279e-003           2.72791e-004
                  141.00    338.42183                                0.00000             84.883                                        3.38422e+002           3.84218e+001           8.42183e+000           4.21833e-001           2.18326e-002           1.83264e-003           8.32639e-004
                  141.10    338.42257                                0.00000             84.883                                        3.38423e+002           3.84226e+001           8.42257e+000           4.22571e-001           2.25705e-002           2.57053e-003           5.70534e-004
                  141.20    338.41544                                0.00000             84.883                                        3.38415e+002           3.84154e+001           8.41544e+000           4.15445e-001           1.54447e-002           5.44466e-003           4.44657e-004
                  141.30    338.41156                                0.00000             84.883                                        3.38412e+002           3.84116e+001           8.41156e+000           4.11560e-001           1.15596e-002           1.55956e-003           5.59558e-004
                  141.40    348.84688                                0.00000             84.883                                        3.48847e+002           4.88469e+001           8.84688e+000           8.46875e-001           4.68751e-002           6.87507e-003           8.75069e-004
                  141.50    381.33827                                0.00000             84.883                                        3.81338e+002           8.13383e+001           1.33827e+000           3.38269e-001           3.82692e-002           8.26922e-003           2.69219e-004
                  141.60    410.51075                                0.00000             84.883                                        4.10511e+002           1.05108e+001           5.10751e-001           5.10751e-001           1.07512e-002           7.51158e-004           7.51158e-004
                  141.70    415.55465                                0.00000             84.883                                        4.15555e+002           1.55547e+001           5.55465e+000           5.54651e-001           5.46508e-002           4.65084e-003           6.50844e-004
                  141.80    415.51530                                0.00000             84.883                                        4.15515e+002           1.55153e+001           5.51530e+000           5.15298e-001           1.52982e-002           5.29825e-003           2.98248e-004
                  141.90    415.50015                                0.00000             84.883                                        4.15500e+002           1.55002e+001           5.50015e+000           5.00154e-001           1.54257e-004           1.54257e-004           1.54257e-004
                  142.00    415.50544                                0.00000             84.883                                        4.15505e+002           1.55054e+001           5.50544e+000           5.05438e-001           5.43815e-003           5.43815e-003           4.38146e-004
