~VERSION INFORMATION
VERS                    .            2.0                                    :CWLS LOG ASCII STANDARD
WRAP                    .            NO                                     :ONE LINE PER TIME STEP


~WELL INFORMATION
#MNEM                   .UNIT        DATA                                    DESCRIPTION
#________________________________________________________________________________________
STRTTIME                .HH/MM/SS    10:48:38                               :START TIME
STOPTIME                .HH/MM/SS    10:51:35                               :STOP TIME
STRT                    .s           2.10                                   :START DATA
STOP                    .s           175.10                                 :STOP DATA
STEP                    .s           0.10                                   :MEASUREMENT TIME INTERVAL
NULL                    .            -999.25                                :NULL VALUE
COMP                    .            Statoil ASA                            :COMPANY
FLD                     .            Volve                                  :FIELD
WELL                    .            15/9-F-11 A                            :WELL
RUN                     .            8                                      :RUN
LOC                     .            Maersk Inspirer                        :LOCATION
PROV                    .            na                                     :PROVINCE
SRVC                    .            Baker Hughes INTEQ                     :SERVICE COMPANY
DATE                    .YY/MM/DD    13/05/21                               :LOG DATE
UWI                     .                                                   :UNIQUE WELL ID
DEPTHMD                 .m           3635.2                                 :MEASURED DEPTH
DEPTHTVD                .m           3029.3                                 :TRUE VERTICAL DEPTH


~CURVE INFORMATION
#MNEM                   .UNIT        API CODES                               DESCRIPTION
#________________________________________________________________________________________
TIME                    .s                                                  :01 TIME
DD_PRESS                .bar                                                :02 DRAW DOWN PRESSURE
DD_VOLUME               .cm3                                                :03 INCREMENTAL DRAW DOWN VOLUME
TEMP                    .degC                                               :04 TRANSDUCER TEMPERATURE
DD_PRESS_MOD_1000       .bar                                                :05 DRAW DOWN PRESSURE MOD 1000
DD_PRESS_MOD_100        .bar                                                :06 DRAW DOWN PRESSURE MOD 100
DD_PRESS_MOD_10         .bar                                                :07 DRAW DOWN PRESSURE MOD 10
DD_PRESS_MOD_1          .bar                                                :08 DRAW DOWN PRESSURE MOD 1
DD_PRESS_MOD_01         .bar                                                :09 DRAW DOWN PRESSURE MOD 01
DD_PRESS_MOD_001        .bar                                                :10 DRAW DOWN PRESSURE MOD 001
DD_PRESS_MOD_0001       .bar                                                :11 DRAW DOWN PRESSURE MOD 0001


~PARAMETER INFORMATION
#MNEM                   .UNIT        VALUE                                   DESCRIPTION
#________________________________________________________________________________________
TOOLFACE                .deg         69.1                                   :01 TOOLFACE
PUMP_CAPACITY           .bar         400                                    :02 NOMINAL DRAW DOWN PUMP CAPACITY
PUMP_LIMIT              .bar         240                                    :03 DOWNLINK PUMP LIMIT
TIME_LIMIT              .min         10                                     :04 DOWNLINK MAX TIME
TEST_TYPE               .            REPEAT                                 :05 DOWNLINK
TEST_TYPE               .            HIGH MOBILITY                          :06 DOWNLINK
DD_PIST_A               .cm2         3.1416                                 :07 DRAW DOWN PISTON AREA
V_SYS                   .cm3         131.0000                               :08 SYSTEM VOLUME
PROBE_ID                .cm          1.2700                                 :09 TTK PROBE ID
G0                      .            4.6700                                 :10 GEOMETRY FACTOR


~A                  TIME     DD_PRESS                              DD_VOLUME               TEMP                                   DD_PRESS_MOD_1000       DD_PRESS_MOD_100        DD_PRESS_MOD_10         DD_PRESS_MOD_1        DD_PRESS_MOD_01       DD_PRESS_MOD_001      DD_PRESS_MOD_0001
# ...
                   46.90    342.89066                               10.64562             80.633                                        3.42891e+002           4.28907e+001           2.89066e+000           8.90657e-001           9.06574e-002           6.57375e-004           6.57375e-004
                   47.00    342.88054                               10.64562             80.633                                        3.42881e+002           4.28805e+001           2.88054e+000           8.80542e-001           8.05419e-002           5.41943e-004           5.41943e-004
                   47.10    342.87641                               10.64562             80.633                                        3.42876e+002           4.28764e+001           2.87641e+000           8.76408e-001           7.64076e-002           6.40763e-003           4.07631e-004
                   47.20    342.88450                               10.64562             80.633                                        3.42884e+002           4.28845e+001           2.88450e+000           8.84497e-001           8.44969e-002           4.49687e-003           4.96872e-004
                   47.30    342.88593                               10.64562             80.633                                        3.42886e+002           4.28859e+001           2.88593e+000           8.85927e-001           8.59273e-002           5.92732e-003           9.27322e-004
                   47.40    342.87216                               10.64562             80.633                                        3.42872e+002           4.28722e+001           2.87216e+000           8.72158e-001           7.21579e-002           2.15794e-003           1.57936e-004
                   47.50    342.85543                               10.64562             80.633                                        3.42855e+002           4.28554e+001           2.85543e+000           8.55432e-001           5.54315e-002           5.43150e-003           4.31501e-004
                   47.60    342.87860                               10.64562             80.633                                        3.42879e+002           4.28786e+001           2.87860e+000           8.78598e-001           7.85981e-002           8.59814e-003           5.98145e-004
                   47.70    342.90738                               10.64562             80.633                                        3.42907e+002           4.29074e+001           2.90738e+000           9.07377e-001           7.37684e-003           7.37684e-003           3.76844e-004
                   47.80    342.89227                               10.64562             80.633                                        3.42892e+002           4.28923e+001           2.89227e+000           8.92268e-001           9.22677e-002           2.26771e-003           2.67708e-004
                   47.90    342.86141                               10.64562             80.633                                        3.42861e+002           4.28614e+001           2.86141e+000           8.61408e-001           6.14075e-002           1.40752e-003           4.07521e-004
                   48.00    342.86691                               10.64562             80.633                                        3.42867e+002           4.28669e+001           2.86691e+000           8.66911e-001           6.69112e-002           6.91119e-003           9.11188e-004
                   48.10    342.89434                               10.64562             80.633                                        3.42894e+002           4.28943e+001           2.89434e+000           8.94335e-001           9.43354e-002           4.33536e-003           3.35362e-004
                   48.20    342.89978                               10.64562             80.633                                        3.42900e+002           4.28998e+001           2.89978e+000           8.99777e-001           9.97767e-002           9.77665e-003           7.76654e-004
                   48.30    342.87887                               10.64562             80.633                                        3.42879e+002           4.28789e+001           2.87887e+000           8.78874e-001           7.88740e-002           8.87401e-003           8.74009e-004
                   48.40    342.86999                               10.64562             80.633                                        3.42870e+002           4.28700e+001           2.86999e+000           8.69993e-001           6.99929e-002           9.99292e-003           9.92922e-004
                   48.50    342.87143                               10.64562             80.633                                        3.42871e+002           4.28714e+001           2.87143e+000           8.71433e-001           7.14330e-002           1.43298e-003           4.32982e-004
                   48.60    342.87096                               10.64562             80.633                                        3.42871e+002           4.28710e+001           2.87096e+000           8.70965e-001           7.09646e-002           9.64568e-004           9.64568e-004
                   48.70    342.87935                               10.64562             80.633                                        3.42879e+002           4.28794e+001           2.87935e+000           8.79351e-001           7.93506e-002           9.35059e-003           3.50590e-004
                   48.80    342.88444                               10.64562             80.633                                        3.42884e+002           4.28844e+001           2.88444e+000           8.84441e-001           8.44413e-002           4.44126e-003           4.41262e-004
                   48.90    342.87325                               10.64562             80.633                                        3.42873e+002           4.28733e+001           2.87325e+000           8.73252e-001           7.32516e-002           3.25161e-003           2.51606e-004
                   49.00    342.86936                               10.64562             80.633                                        3.42869e+002           4.28694e+001           2.86936e+000           8.69365e-001           6.93648e-002           9.36477e-003           3.64774e-004
                   49.10    342.89423                               10.64562             80.633                                        3.42894e+002           4.28942e+001           2.89423e+000           8.94234e-001           9.42337e-002           4.23372e-003           2.33719e-004
                   49.20    342.91383                               10.64562             80.633                                        3.42914e+002           4.29138e+001           2.91383e+000           9.13827e-001           1.38269e-002           3.82689e-003           8.26892e-004
                   49.30    342.88845                               10.64562             80.633                                        3.42888e+002           4.28885e+001           2.88845e+000           8.88454e-001           8.84545e-002           8.45447e-003           4.54474e-004
                   49.40    342.86465                               10.64562             80.633                                        3.42865e+002           4.28647e+001           2.86465e+000           8.64651e-001           6.46512e-002           4.65123e-003           6.51229e-004
                   49.50    342.87052                               10.64562             80.633                                        3.42871e+002           4.28705e+001           2.87052e+000           8.70516e-001           7.05157e-002           5.15674e-004           5.15674e-004
                   49.60    342.88968                               10.64562             80.633                                        3.42890e+002           4.28897e+001           2.88968e+000           8.89684e-001           8.96836e-002           9.68356e-003           6.83563e-004
