~VERSION INFORMATION
VERS                    .            2.0                                    :CWLS LOG ASCII STANDARD
WRAP                    .            NO                                     :ONE LINE PER TIME STEP


~WELL INFORMATION
#MNEM                   .UNIT        DATA                                    DESCRIPTION
#________________________________________________________________________________________
STRTTIME                .HH/MM/SS    16:02:11                               :START TIME
STOPTIME                .HH/MM/SS    16:05:47                               :STOP TIME
STRT                    .s           2.10                                   :START DATA
STOP                    .s           214.40                                 :STOP DATA
STEP                    .s           0.10                                   :MEASUREMENT TIME INTERVAL
NULL                    .            -999.25                                :NULL VALUE
COMP                    .            Statoil ASA                            :COMPANY
FLD                     .            Volve                                  :FIELD
WELL                    .            15/9-F-1 B                             :WELL
RUN                     .            7                                      :RUN
LOC                     .            Maersk Inspirer                        :LOCATION
PROV                    .            na                                     :PROVINCE
SRVC                    .            Baker Hughes INTEQ                     :SERVICE COMPANY
DATE                    .YY/MM/DD    13/09/06                               :LOG DATE
UWI                     .                                                   :UNIQUE WELL ID
DEPTHMD                 .m           3261.0                                 :MEASURED DEPTH
DEPTHTVD                .m           3057.0                                 :TRUE VERTICAL DEPTH


~CURVE INFORMATION
#MNEM                   .UNIT        API CODES                               DESCRIPTION
#________________________________________________________________________________________
TIME                    .s                                                  :01 TIME
DD_PRESS                .bar                                                :02 DRAW DOWN PRESSURE
DD_VOLUME               .cm3                                                :03 INCREMENTAL DRAW DOWN VOLUME
TEMP                    .degC                                               :04 TRANSDUCER TEMPERATURE
DD_PRESS_MOD_1000       .bar                                                :05 DRAW DOWN PRESSURE MOD 1000
DD_PRESS_MOD_100        .bar                                                :06 DRAW DOWN PRESSURE MOD 100
DD_PRESS_MOD_10         .bar                                                :07 DRAW DOWN PRESSURE MOD 10
DD_PRESS_MOD_1          .bar                                                :08 DRAW DOWN PRESSURE MOD 1
DD_PRESS_MOD_01         .bar                                                :09 DRAW DOWN PRESSURE MOD 01
DD_PRESS_MOD_001        .bar                                                :10 DRAW DOWN PRESSURE MOD 001
DD_PRESS_MOD_0001       .bar                                                :11 DRAW DOWN PRESSURE MOD 0001


~PARAMETER INFORMATION
#MNEM                   .UNIT        VALUE                                   DESCRIPTION
#________________________________________________________________________________________
TOOLFACE                .deg         na                                     :01 TOOLFACE
PUMP_CAPACITY           .bar         400                                    :02 NOMINAL DRAW DOWN PUMP CAPACITY
PUMP_LIMIT              .bar         400                                    :03 DOWNLINK PUMP LIMIT
TIME_LIMIT              .min         10                                     :04 DOWNLINK MAX TIME
TEST_TYPE               .            LOW MOBILITY                           :05 DOWNLINK
DD_PIST_A               .cm2         3.1416                                 :06 DRAW DOWN PISTON AREA
V_SYS                   .cm3         131.0000                               :07 SYSTEM VOLUME
PROBE_ID                .cm          1.2700                                 :08 TTK PROBE ID
G0                      .            4.6700                                 :09 GEOMETRY FACTOR


~A                  TIME     DD_PRESS                              DD_VOLUME               TEMP                                   DD_PRESS_MOD_1000       DD_PRESS_MOD_100        DD_PRESS_MOD_10         DD_PRESS_MOD_1        DD_PRESS_MOD_01       DD_PRESS_MOD_001      DD_PRESS_MOD_0001
# ...
                  100.10    334.30518                               19.19207             82.078                                        3.34305e+002           3.43052e+001           4.30518e+000           3.05177e-001           5.17741e-003           5.17741e-003           1.77415e-004
                  100.20    335.28550                               19.32516             82.078                                        3.35285e+002           3.52855e+001           5.28550e+000           2.85496e-001           8.54964e-002           5.49638e-003           4.96381e-004
                  100.30    336.24528                               19.44503             82.078                                        3.36245e+002           3.62453e+001           6.24528e+000           2.45284e-001           4.52836e-002           5.28357e-003           2.83566e-004
                  100.40    337.21974                               19.55168             82.078                                        3.37220e+002           3.72197e+001           7.21974e+000           2.19745e-001           1.97448e-002           9.74476e-003           7.44757e-004
                  100.50    338.19271                               19.64502             82.078                                        3.38193e+002           3.81927e+001           8.19271e+000           1.92706e-001           9.27060e-002           2.70604e-003           7.06038e-004
                  100.60    339.15824                               19.72522             82.078                                        3.39158e+002           3.91582e+001           9.15824e+000           1.58244e-001           5.82441e-002           8.24413e-003           2.44133e-004
                  100.70    340.11929                               19.79213             82.078                                        3.40119e+002           4.01193e+001           1.19289e-001           1.19289e-001           1.92894e-002           9.28944e-003           2.89442e-004
                  100.80    341.09218                               19.84574             82.078                                        3.41092e+002           4.10922e+001           1.09218e+000           9.21806e-002           9.21806e-002           2.18064e-003           1.80643e-004
                  100.90    342.08541                               19.88599             82.078                                        3.42085e+002           4.20854e+001           2.08541e+000           8.54072e-002           8.54072e-002           5.40721e-003           4.07214e-004
                  101.00    343.16955                               19.91126             82.078                                        3.43170e+002           4.31696e+001           3.16955e+000           1.69554e-001           6.95543e-002           9.55435e-003           5.54350e-004
                  101.10    344.23713                               19.92148             82.078                                        3.44237e+002           4.42371e+001           4.23713e+000           2.37133e-001           3.71328e-002           7.13285e-003           1.32850e-004
                  101.20    344.99102                               19.92291             82.078                                        3.44991e+002           4.49910e+001           4.99102e+000           9.91020e-001           9.10196e-002           1.01961e-003           1.96106e-005
                  101.30    345.31950                               19.92291             82.076                                        3.45319e+002           4.53195e+001           5.31950e+000           3.19497e-001           1.94971e-002           9.49711e-003           4.97108e-004
                  101.40    345.43951                               19.92291             82.072                                        3.45440e+002           4.54395e+001           5.43951e+000           4.39510e-001           3.95096e-002           9.50959e-003           5.09590e-004
                  101.50    345.47660                               19.92291             82.070                                        3.45477e+002           4.54766e+001           5.47660e+000           4.76598e-001           7.65980e-002           6.59805e-003           5.98047e-004
                  101.60    345.50537                               19.92291             82.070                                        3.45505e+002           4.55054e+001           5.50537e+000           5.05367e-001           5.36708e-003           5.36708e-003           3.67079e-004
                  101.70    345.52566                               19.92291             82.070                                        3.45526e+002           4.55257e+001           5.52566e+000           5.25662e-001           2.56624e-002           5.66236e-003           6.62363e-004
                  101.80    345.52553                               19.92291             82.070                                        3.45526e+002           4.55255e+001           5.52553e+000           5.25527e-001           2.55271e-002           5.52710e-003           5.27099e-004
                  101.90    345.51942                               19.92291             82.070                                        3.45519e+002           4.55194e+001           5.51942e+000           5.19424e-001           1.94236e-002           9.42360e-003           4.23596e-004
                  102.00    345.53326                               19.92291             82.073                                        3.45533e+002           4.55333e+001           5.53326e+000           5.33263e-001           3.32634e-002           3.26341e-003           2.63413e-004
                  102.10    345.55398                               19.92291             82.076                                        3.45554e+002           4.55540e+001           5.55398e+000           5.53982e-001           5.39822e-002           3.98220e-003           9.82197e-004
                  102.20    345.55098                               19.92291             82.078                                        3.45551e+002           4.55510e+001           5.55098e+000           5.50976e-001           5.09755e-002           9.75525e-004           9.75525e-004
                  102.30    345.53626                               19.92291             82.076                                        3.45536e+002           4.55363e+001           5.53626e+000           5.36261e-001           3.62613e-002           6.26129e-003           2.61286e-004
                  102.40    345.54401                               19.92291             82.072                                        3.45544e+002           4.55440e+001           5.54401e+000           5.44010e-001           4.40095e-002           4.00952e-003           9.51917e-006
                  102.50    345.55967                               19.92291             82.070                                        3.45560e+002           4.55597e+001           5.55967e+000           5.59669e-001           5.96685e-002           9.66851e-003           6.68509e-004
                  102.60    345.56385                               19.92291             82.070                                        3.45564e+002           4.55638e+001           5.56385e+000           5.63849e-001           6.38485e-002           3.84854e-003           8.48544e-004
                  102.70    345.55459                               19.92291             82.070                                        3.45555e+002           4.55546e+001           5.55459e+000           5.54586e-001           5.45858e-002           4.58575e-003           5.85753e-004
                  102.80    345.55631                               19.92291             82.070                                        3.45556e+002           4.55563e+001           5.55631e+000           5.56307e-001           5.63069e-002           6.30686e-003           3.06861e-004
