~VERSION INFORMATION
VERS                    .            2.0                                    :CWLS LOG ASCII STANDARD
WRAP                    .            NO                                     :ONE LINE PER TIME STEP


~WELL INFORMATION
#MNEM                   .UNIT        DATA                                    DESCRIPTION
#________________________________________________________________________________________
STRTTIME                .HH/MM/SS    19:20:48                               :START TIME
STOPTIME                .HH/MM/SS    19:23:33                               :STOP TIME
STRT                    .s           2.10                                   :START DATA
STOP                    .s           164.00                                 :STOP DATA
STEP                    .s           0.10                                   :MEASUREMENT TIME INTERVAL
NULL                    .            -999.25                                :NULL VALUE
COMP                    .            Statoil ASA                            :COMPANY
FLD                     .            Volve                                  :FIELD
WELL                    .            15/9-F-11 A                            :WELL
RUN                     .            8                                      :RUN
LOC                     .            Maersk Inspirer                        :LOCATION
PROV                    .            na                                     :PROVINCE
SRVC                    .            Baker Hughes INTEQ                     :SERVICE COMPANY
DATE                    .YY/MM/DD    13/05/23                               :LOG DATE
UWI                     .                                                   :UNIQUE WELL ID
DEPTHMD                 .m           3617.0                                 :MEASURED DEPTH
DEPTHTVD                .m           3015.4                                 :TRUE VERTICAL DEPTH


~CURVE INFORMATION
#MNEM                   .UNIT        API CODES                               DESCRIPTION
#________________________________________________________________________________________
TIME                    .s                                                  :01 TIME
DD_PRESS                .bar                                                :02 DRAW DOWN PRESSURE
DD_VOLUME               .cm3                                                :03 INCREMENTAL DRAW DOWN VOLUME
TEMP                    .degC                                               :04 TRANSDUCER TEMPERATURE
DD_PRESS_MOD_1000       .bar                                                :05 DRAW DOWN PRESSURE MOD 1000
DD_PRESS_MOD_100        .bar                                                :06 DRAW DOWN PRESSURE MOD 100
DD_PRESS_MOD_10         .bar                                                :07 DRAW DOWN PRESSURE MOD 10
DD_PRESS_MOD_1          .bar                                                :08 DRAW DOWN PRESSURE MOD 1
DD_PRESS_MOD_01         .bar                                                :09 DRAW DOWN PRESSURE MOD 01
DD_PRESS_MOD_001        .bar                                                :10 DRAW DOWN PRESSURE MOD 001
DD_PRESS_MOD_0001       .bar                                                :11 DRAW DOWN PRESSURE MOD 0001


~PARAMETER INFORMATION
#MNEM                   .UNIT        VALUE                                   DESCRIPTION
#________________________________________________________________________________________
TOOLFACE                .deg         -39.9                                  :01 TOOLFACE
PUMP_CAPACITY           .bar         400                                    :02 NOMINAL DRAW DOWN PUMP CAPACITY
PUMP_LIMIT              .bar         240                                    :03 DOWNLINK PUMP LIMIT
TIME_LIMIT              .min         10                                     :04 DOWNLINK MAX TIME
TEST_TYPE               .            REPEAT                                 :05 DOWNLINK
TEST_TYPE               .            HIGH MOBILITY                          :06 DOWNLINK
DD_PIST_A               .cm2         3.1416                                 :07 DRAW DOWN PISTON AREA
V_SYS                   .cm3         131.0000                               :08 SYSTEM VOLUME
PROBE_ID                .cm          1.2700                                 :09 TTK PROBE ID
G0                      .            4.6700                                 :10 GEOMETRY FACTOR


~A                  TIME     DD_PRESS                              DD_VOLUME               TEMP                                   DD_PRESS_MOD_1000       DD_PRESS_MOD_100        DD_PRESS_MOD_10         DD_PRESS_MOD_1        DD_PRESS_MOD_01       DD_PRESS_MOD_001      DD_PRESS_MOD_0001
# ...
                   32.90    337.68498                                5.62094             72.156                                        3.37685e+002           3.76850e+001           7.68498e+000           6.84978e-001           8.49776e-002           4.97761e-003           9.77609e-004
                   33.00    337.72068                                5.72037             72.156                                        3.37721e+002           3.77207e+001           7.72068e+000           7.20683e-001           2.06825e-002           6.82524e-004           6.82524e-004
                   33.10    337.71368                                5.81989             72.156                                        3.37714e+002           3.77137e+001           7.71368e+000           7.13679e-001           1.36785e-002           3.67850e-003           6.78504e-004
                   33.20    337.69571                                5.91954             72.154                                        3.37696e+002           3.76957e+001           7.69571e+000           6.95706e-001           9.57060e-002           5.70600e-003           7.05995e-004
                   33.30    337.71794                                6.01920             72.150                                        3.37718e+002           3.77179e+001           7.71794e+000           7.17938e-001           1.79375e-002           7.93754e-003           9.37543e-004
                   33.40    337.74508                                6.11880             72.148                                        3.37745e+002           3.77451e+001           7.74508e+000           7.45080e-001           4.50805e-002           5.08047e-003           8.04703e-005
                   33.50    337.72487                                6.21836             72.148                                        3.37725e+002           3.77249e+001           7.72487e+000           7.24869e-001           2.48695e-002           4.86949e-003           8.69488e-004
                   33.60    337.70522                                6.31785             72.148                                        3.37705e+002           3.77052e+001           7.70522e+000           7.05225e-001           5.22496e-003           5.22496e-003           2.24963e-004
                   33.70    337.72761                                6.41717             72.148                                        3.37728e+002           3.77276e+001           7.72761e+000           7.27612e-001           2.76116e-002           7.61161e-003           6.11614e-004
                   33.80    337.75369                                6.51633             72.148                                        3.37754e+002           3.77537e+001           7.75369e+000           7.53691e-001           5.36911e-002           3.69112e-003           6.91124e-004
                   33.90    337.75690                                6.61539             72.148                                        3.37757e+002           3.77569e+001           7.75690e+000           7.56897e-001           5.68972e-002           6.89722e-003           8.97222e-004
                   34.00    337.77305                                6.71422             72.148                                        3.37773e+002           3.77730e+001           7.77305e+000           7.73048e-001           7.30477e-002           3.04770e-003           4.76969e-005
                   34.10    337.83958                                6.81277             72.148                                        3.37840e+002           3.78396e+001           7.83958e+000           8.39576e-001           3.95762e-002           9.57619e-003           5.76191e-004
                   34.20    337.89149                                6.91091             72.148                                        3.37891e+002           3.78915e+001           7.89149e+000           8.91490e-001           9.14899e-002           1.48989e-003           4.89891e-004
                   34.30    337.87519                                7.00879             72.148                                        3.37875e+002           3.78752e+001           7.87519e+000           8.75186e-001           7.51859e-002           5.18588e-003           1.85882e-004
                   34.40    337.86670                                7.10635             72.148                                        3.37867e+002           3.78667e+001           7.86670e+000           8.66705e-001           6.67046e-002           6.70457e-003           7.04567e-004
                   34.50    337.90028                                7.20316             72.148                                        3.37900e+002           3.79003e+001           7.90028e+000           9.00284e-001           2.83693e-004           2.83693e-004           2.83693e-004
                   34.60    337.90933                                7.29953             72.148                                        3.37909e+002           3.79093e+001           7.90933e+000           9.09331e-001           9.33135e-003           9.33135e-003           3.31354e-004
                   34.70    337.89411                                7.39539             72.146                                        3.37894e+002           3.78941e+001           7.89411e+000           8.94109e-001           9.41088e-002           4.10878e-003           1.08783e-004
                   34.80    337.95418                                7.49082             72.143                                        3.37954e+002           3.79542e+001           7.95418e+000           9.54181e-001           5.41814e-002           4.18141e-003           1.81413e-004
                   34.90    338.04059                                7.58563             72.141                                        3.38041e+002           3.80406e+001           8.04059e+000           4.05858e-002           4.05858e-002           5.85822e-004           5.85822e-004
                   35.00    338.06987                                7.67981             72.141                                        3.38070e+002           3.80699e+001           8.06987e+000           6.98706e-002           6.98706e-002           9.87064e-003           8.70642e-004
                   35.10    338.06661                                7.77333             72.141                                        3.38067e+002           3.80666e+001           8.06661e+000           6.66102e-002           6.66102e-002           6.61023e-003           6.10228e-004
                   35.20    338.10093                                7.86614             72.141                                        3.38101e+002           3.81009e+001           8.10093e+000           1.00934e-001           9.33564e-004           9.33564e-004           9.33564e-004
                   35.30    338.15790                                7.95812             72.141                                        3.38158e+002           3.81579e+001           8.15790e+000           1.57901e-001           5.79008e-002           7.90076e-003           9.00759e-004
                   35.40    338.19913                                8.04938             72.141                                        3.38199e+002           3.81991e+001           8.19913e+000           1.99129e-001           9.91288e-002           9.12877e-003           1.28771e-004
                   35.50    338.21129                                8.13991             72.141                                        3.38211e+002           3.82113e+001           8.21129e+000           2.11287e-001           1.12867e-002           1.28669e-003           2.86690e-004
                   35.60    338.24087                                8.22956             72.141                                        3.38241e+002           3.82409e+001           8.24087e+000           2.40869e-001           4.08691e-002           8.69109e-004           8.69109e-004
