~VERSION INFORMATION
VERS                    .            2.0                                    :CWLS LOG ASCII STANDARD
WRAP                    .            NO                                     :ONE LINE PER TIME STEP


~WELL INFORMATION
#MNEM                   .UNIT        DATA                                    DESCRIPTION
#________________________________________________________________________________________
STRTTIME                .HH/MM/SS    09:43:23                               :START TIME
STOPTIME                .HH/MM/SS    09:46:50                               :STOP TIME
STRT                    .s           2.10                                   :START DATA
STOP                    .s           205.20                                 :STOP DATA
STEP                    .s           0.10                                   :MEASUREMENT TIME INTERVAL
NULL                    .            -999.25                                :NULL VALUE
COMP                    .            Statoil ASA                            :COMPANY
FLD                     .            Volve                                  :FIELD
WELL                    .            15/9-F-11 A                            :WELL
RUN                     .            8                                      :RUN
LOC                     .            Maersk Inspirer                        :LOCATION
PROV                    .            na                                     :PROVINCE
SRVC                    .            Baker Hughes INTEQ                     :SERVICE COMPANY
DATE                    .YY/MM/DD    13/05/21                               :LOG DATE
UWI                     .                                                   :UNIQUE WELL ID
DEPTHMD                 .m           3665.9                                 :MEASURED DEPTH
DEPTHTVD                .m           3052.8                                 :TRUE VERTICAL DEPTH


~CURVE INFORMATION
#MNEM                   .UNIT        API CODES                               DESCRIPTION
#________________________________________________________________________________________
TIME                    .s                                                  :01 TIME
DD_PRESS                .bar                                                :02 DRAW DOWN PRESSURE
DD_VOLUME               .cm3                                                :03 INCREMENTAL DRAW DOWN VOLUME
TEMP                    .degC                                               :04 TRANSDUCER TEMPERATURE
DD_PRESS_MOD_1000       .bar                                                :05 DRAW DOWN PRESSURE MOD 1000
DD_PRESS_MOD_100        .bar                                                :06 DRAW DOWN PRESSURE MOD 100
DD_PRESS_MOD_10         .bar                                                :07 DRAW DOWN PRESSURE MOD 10
DD_PRESS_MOD_1          .bar                                                :08 DRAW DOWN PRESSURE MOD 1
DD_PRESS_MOD_01         .bar                                                :09 DRAW DOWN PRESSURE MOD 01
DD_PRESS_MOD_001        .bar                                                :10 DRAW DOWN PRESSURE MOD 001
DD_PRESS_MOD_0001       .bar                                                :11 DRAW DOWN PRESSURE MOD 0001


~PARAMETER INFORMATION
#MNEM                   .UNIT        VALUE                                   DESCRIPTION
#________________________________________________________________________________________
TOOLFACE                .deg         60.0                                   :01 TOOLFACE
PUMP_CAPACITY           .bar         400                                    :02 NOMINAL DRAW DOWN PUMP CAPACITY
PUMP_LIMIT              .bar         240                                    :03 DOWNLINK PUMP LIMIT
TIME_LIMIT              .min         10                                     :04 DOWNLINK MAX TIME
TEST_TYPE               .            REPEAT                                 :05 DOWNLINK
TEST_TYPE               .            HIGH MOBILITY                          :06 DOWNLINK
DD_PIST_A               .cm2         3.1416                                 :07 DRAW DOWN PISTON AREA
V_SYS                   .cm3         131.0000                               :08 SYSTEM VOLUME
PROBE_ID                .cm          1.2700                                 :09 TTK PROBE ID
G0                      .            4.6700                                 :10 GEOMETRY FACTOR


~A                  TIME     DD_PRESS                              DD_VOLUME               TEMP                                   DD_PRESS_MOD_1000       DD_PRESS_MOD_100        DD_PRESS_MOD_10         DD_PRESS_MOD_1        DD_PRESS_MOD_01       DD_PRESS_MOD_001      DD_PRESS_MOD_0001
# ...
                   30.10    292.80108                                3.06033             83.219                                        2.92801e+002           9.28011e+001           2.80108e+000           8.01075e-001           1.07543e-003           1.07543e-003           7.54310e-005
                   30.20    290.68430                                3.14212             83.219                                        2.90684e+002           9.06843e+001           6.84304e-001           6.84304e-001           8.43042e-002           4.30424e-003           3.04242e-004
                   30.30    288.71734                                3.22498             83.216                                        2.88717e+002           8.87173e+001           8.71734e+000           7.17342e-001           1.73423e-002           7.34226e-003           3.42261e-004
                   30.40    286.86426                                3.30887             83.213                                        2.86864e+002           8.68643e+001           6.86426e+000           8.64261e-001           6.42606e-002           4.26056e-003           2.60563e-004
                   30.50    285.11852                                3.39382             83.211                                        2.85119e+002           8.51185e+001           5.11852e+000           1.18520e-001           1.85202e-002           8.52018e-003           5.20184e-004
                   30.60    283.50788                                3.47990             83.211                                        2.83508e+002           8.35079e+001           3.50788e+000           5.07883e-001           7.88264e-003           7.88264e-003           8.82639e-004
                   30.70    282.05940                                3.56700             83.211                                        2.82059e+002           8.20594e+001           2.05940e+000           5.94013e-002           5.94013e-002           9.40131e-003           4.01307e-004
                   30.80    280.73759                                3.65497             83.211                                        2.80738e+002           8.07376e+001           7.37590e-001           7.37590e-001           3.75896e-002           7.58960e-003           5.89602e-004
                   30.90    279.49454                                3.74388             83.211                                        2.79495e+002           7.94945e+001           9.49454e+000           4.94540e-001           9.45397e-002           4.53974e-003           5.39737e-004
                   31.00    278.31989                                3.83377             83.211                                        2.78320e+002           7.83199e+001           8.31989e+000           3.19887e-001           1.98869e-002           9.88690e-003           8.86898e-004
                   31.10    277.24266                                3.92451             83.211                                        2.77243e+002           7.72427e+001           7.24266e+000           2.42658e-001           4.26576e-002           2.65763e-003           6.57631e-004
                   31.20    276.28739                                4.01594             83.211                                        2.76287e+002           7.62874e+001           6.28739e+000           2.87395e-001           8.73950e-002           7.39497e-003           3.94971e-004
                   31.30    275.46096                                4.10815             83.209                                        2.75461e+002           7.54610e+001           5.46096e+000           4.60962e-001           6.09622e-002           9.62163e-004           9.62163e-004
                   31.40    274.74165                                4.20108             83.205                                        2.74742e+002           7.47416e+001           4.74165e+000           7.41647e-001           4.16466e-002           1.64657e-003           6.46571e-004
                   31.50    274.10733                                4.29468             83.203                                        2.74107e+002           7.41073e+001           4.10733e+000           1.07328e-001           7.32809e-003           7.32809e-003           3.28087e-004
                   31.60    273.52909                                4.38895             83.203                                        2.73529e+002           7.35291e+001           3.52909e+000           5.29094e-001           2.90938e-002           9.09384e-003           9.38409e-005
                   31.70    272.98342                                4.48384             83.203                                        2.72983e+002           7.29834e+001           2.98342e+000           9.83421e-001           8.34208e-002           3.42084e-003           4.20841e-004
                   31.80    272.46269                                4.57941             83.203                                        2.72463e+002           7.24627e+001           2.46269e+000           4.62688e-001           6.26875e-002           2.68752e-003           6.87519e-004
                   31.90    271.95731                                4.67545             83.203                                        2.71957e+002           7.19573e+001           1.95731e+000           9.57314e-001           5.73140e-002           7.31396e-003           3.13962e-004
                   32.00    271.45749                                4.77190             83.203                                        2.71457e+002           7.14575e+001           1.45749e+000           4.57493e-001           5.74926e-002           7.49265e-003           4.92646e-004
                   32.10    270.98722                                4.86890             83.201                                        2.70987e+002           7.09872e+001           9.87225e-001           9.87225e-001           8.72246e-002           7.22458e-003           2.24577e-004
                   32.20    270.57271                                4.96656             83.197                                        2.70573e+002           7.05727e+001           5.72714e-001           5.72714e-001           7.27138e-002           2.71382e-003           7.13824e-004
                   32.30    270.25283                                5.06451             83.195                                        2.70253e+002           7.02528e+001           2.52827e-001           2.52827e-001           5.28271e-002           2.82715e-003           8.27149e-004
                   32.40    270.16930                                5.16272             83.195                                        2.70169e+002           7.01693e+001           1.69302e-001           1.69302e-001           6.93021e-002           9.30205e-003           3.02054e-004
                   32.50    270.38495                                5.26137             83.195                                        2.70385e+002           7.03850e+001           3.84951e-001           3.84951e-001           8.49508e-002           4.95076e-003           9.50757e-004
                   32.60    270.76795                                5.36022             83.195                                        2.70768e+002           7.07679e+001           7.67945e-001           7.67945e-001           6.79453e-002           7.94530e-003           9.45297e-004
                   32.70    271.14337                                5.45928             83.195                                        2.71143e+002           7.11434e+001           1.14337e+000           1.43370e-001           4.33704e-002           3.37037e-003           3.70367e-004
                   32.80    271.44652                                5.55853             83.195                                        2.71447e+002           7.14465e+001           1.44652e+000           4.46518e-001           4.65177e-002           6.51770e-003           5.17702e-004
