~VERSION INFORMATION
VERS                    .            2.0                                    :CWLS LOG ASCII STANDARD
WRAP                    .            NO                                     :ONE LINE PER TIME STEP


~WELL INFORMATION
#MNEM                   .UNIT        DATA                                    DESCRIPTION
#________________________________________________________________________________________
STRTTIME                .HH/MM/SS    10:48:38                               :START TIME
STOPTIME                .HH/MM/SS    10:51:35                               :STOP TIME
STRT                    .s           2.10                                   :START DATA
STOP                    .s           175.10                                 :STOP DATA
STEP                    .s           0.10                                   :MEASUREMENT TIME INTERVAL
NULL                    .            -999.25                                :NULL VALUE
COMP                    .            Statoil ASA                            :COMPANY
FLD                     .            Volve                                  :FIELD
WELL                    .            15/9-F-11 A                            :WELL
RUN                     .            8                                      :RUN
LOC                     .            Maersk Inspirer                        :LOCATION
PROV                    .            na                                     :PROVINCE
SRVC                    .            Baker Hughes INTEQ                     :SERVICE COMPANY
DATE                    .YY/MM/DD    13/05/21                               :LOG DATE
UWI                     .                                                   :UNIQUE WELL ID
DEPTHMD                 .m           3635.2                                 :MEASURED DEPTH
DEPTHTVD                .m           3029.3                                 :TRUE VERTICAL DEPTH


~CURVE INFORMATION
#MNEM                   .UNIT        API CODES                               DESCRIPTION
#________________________________________________________________________________________
TIME                    .s                                                  :01 TIME
DD_PRESS                .bar                                                :02 DRAW DOWN PRESSURE
DD_VOLUME               .cm3                                                :03 INCREMENTAL DRAW DOWN VOLUME
TEMP                    .degC                                               :04 TRANSDUCER TEMPERATURE
DD_PRESS_MOD_1000       .bar                                                :05 DRAW DOWN PRESSURE MOD 1000
DD_PRESS_MOD_100        .bar                                                :06 DRAW DOWN PRESSURE MOD 100
DD_PRESS_MOD_10         .bar                                                :07 DRAW DOWN PRESSURE MOD 10
DD_PRESS_MOD_1          .bar                                                :08 DRAW DOWN PRESSURE MOD 1
DD_PRESS_MOD_01         .bar                                                :09 DRAW DOWN PRESSURE MOD 01
DD_PRESS_MOD_001        .bar                                                :10 DRAW DOWN PRESSURE MOD 001
DD_PRESS_MOD_0001       .bar                                                :11 DRAW DOWN PRESSURE MOD 0001


~PARAMETER INFORMATION
#MNEM                   .UNIT        VALUE                                   DESCRIPTION
#________________________________________________________________________________________
TOOLFACE                .deg         69.1                                   :01 TOOLFACE
PUMP_CAPACITY           .bar         400                                    :02 NOMINAL DRAW DOWN PUMP CAPACITY
PUMP_LIMIT              .bar         240                                    :03 DOWNLINK PUMP LIMIT
TIME_LIMIT              .min         10                                     :04 DOWNLINK MAX TIME
TEST_TYPE               .            REPEAT                                 :05 DOWNLINK
TEST_TYPE               .            HIGH MOBILITY                          :06 DOWNLINK
DD_PIST_A               .cm2         3.1416                                 :07 DRAW DOWN PISTON AREA
V_SYS                   .cm3         131.0000                               :08 SYSTEM VOLUME
PROBE_ID                .cm          1.2700                                 :09 TTK PROBE ID
G0                      .            4.6700                                 :10 GEOMETRY FACTOR


~A                  TIME     DD_PRESS                              DD_VOLUME               TEMP                                   DD_PRESS_MOD_1000       DD_PRESS_MOD_100        DD_PRESS_MOD_10         DD_PRESS_MOD_1        DD_PRESS_MOD_01       DD_PRESS_MOD_001      DD_PRESS_MOD_0001
# ...
                   24.50    416.18528                                0.00000             80.672                                        4.16185e+002           1.61853e+001           6.18528e+000           1.85275e-001           8.52753e-002           5.27534e-003           2.75342e-004
                   24.60    416.17710                                0.00000             80.672                                        4.16177e+002           1.61771e+001           6.17710e+000           1.77098e-001           7.70977e-002           7.09770e-003           9.77047e-005
                   24.70    416.19372                                0.00000             80.672                                        4.16194e+002           1.61937e+001           6.19372e+000           1.93723e-001           9.37231e-002           3.72313e-003           7.23134e-004
                   24.80    416.19912                                0.93780             80.672                                        4.16199e+002           1.61991e+001           6.19912e+000           1.99120e-001           9.91198e-002           9.11982e-003           1.19823e-004
                   24.90    416.21788                                0.93814             80.672                                        4.16218e+002           1.62179e+001           6.21788e+000           2.17878e-001           1.78781e-002           7.87805e-003           8.78050e-004
                   25.00    416.22179                                0.93905             80.670                                        4.16222e+002           1.62218e+001           6.22179e+000           2.21791e-001           2.17911e-002           1.79107e-003           7.91074e-004
                   25.10    416.13652                                0.94229             80.666                                        4.16137e+002           1.61365e+001           6.13652e+000           1.36517e-001           3.65168e-002           6.51682e-003           5.16820e-004
                   25.20    415.93551                                0.94748             80.664                                        4.15936e+002           1.59355e+001           5.93551e+000           9.35511e-001           3.55105e-002           5.51053e-003           5.10529e-004
                   25.30    415.55109                                0.95464             80.664                                        4.15551e+002           1.55511e+001           5.55109e+000           5.51092e-001           5.10917e-002           1.09171e-003           9.17115e-005
                   25.40    414.96360                                0.96392             80.664                                        4.14964e+002           1.49636e+001           4.96360e+000           9.63603e-001           6.36031e-002           3.60314e-003           6.03144e-004
                   25.50    414.30998                                0.97516             80.664                                        4.14310e+002           1.43100e+001           4.30998e+000           3.09980e-001           9.97982e-003           9.97982e-003           9.79816e-004
                   25.60    413.67083                                0.98817             80.664                                        4.13671e+002           1.36708e+001           3.67083e+000           6.70834e-001           7.08340e-002           8.33959e-004           8.33959e-004
                   25.70    412.93050                                1.00308             80.664                                        4.12931e+002           1.29305e+001           2.93050e+000           9.30502e-001           3.05018e-002           5.01845e-004           5.01845e-004
                   25.80    411.95630                                1.02008             80.664                                        4.11956e+002           1.19563e+001           1.95630e+000           9.56300e-001           5.62998e-002           6.29976e-003           2.99760e-004
                   25.90    410.78849                                1.03906             80.664                                        4.10788e+002           1.07885e+001           7.88493e-001           7.88493e-001           8.84926e-002           8.49260e-003           4.92596e-004
                   26.00    409.44456                                1.06001             80.664                                        4.09445e+002           9.44456e+000           9.44456e+000           4.44562e-001           4.45623e-002           4.56227e-003           5.62266e-004
                   26.10    408.03722                                1.08290             80.664                                        4.08037e+002           8.03722e+000           8.03722e+000           3.72197e-002           3.72197e-002           7.21974e-003           2.19735e-004
                   26.20    406.57099                                1.10770             80.664                                        4.06571e+002           6.57099e+000           6.57099e+000           5.70985e-001           7.09853e-002           9.85287e-004           9.85287e-004
                   26.30    404.90623                                1.13446             80.664                                        4.04906e+002           4.90623e+000           4.90623e+000           9.06233e-001           6.23329e-003           6.23329e-003           2.33288e-004
                   26.40    402.97883                                1.16311             80.664                                        4.02979e+002           2.97883e+000           2.97883e+000           9.78833e-001           7.88329e-002           8.83289e-003           8.32886e-004
                   26.50    400.88775                                1.19359             80.664                                        4.00888e+002           8.87753e-001           8.87753e-001           8.87753e-001           8.77534e-002           7.75336e-003           7.53355e-004
                   26.60    398.68753                                1.22599             80.664                                        3.98688e+002           9.86875e+001           8.68753e+000           6.87528e-001           8.75277e-002           7.52772e-003           5.27715e-004
                   26.70    396.39536                                1.26019             80.664                                        3.96395e+002           9.63954e+001           6.39536e+000           3.95358e-001           9.53578e-002           5.35781e-003           3.57809e-004
                   26.80    393.89284                                1.29638             80.664                                        3.93893e+002           9.38928e+001           3.89284e+000           8.92837e-001           9.28371e-002           2.83714e-003           8.37140e-004
                   26.90    391.23067                                1.33446             80.664                                        3.91231e+002           9.12307e+001           1.23067e+000           2.30668e-001           3.06679e-002           6.67937e-004           6.67937e-004
                   27.00    388.45293                                1.37425             80.664                                        3.88453e+002           8.84529e+001           8.45293e+000           4.52927e-001           5.29265e-002           2.92652e-003           9.26520e-004
                   27.10    385.51269                                1.41583             80.664                                        3.85513e+002           8.55127e+001           5.51269e+000           5.12692e-001           1.26924e-002           2.69244e-003           6.92440e-004
                   27.20    382.41321                                1.45924             80.664                                        3.82413e+002           8.24132e+001           2.41321e+000           4.13209e-001           1.32090e-002           3.20896e-003           2.08958e-004
