~VERSION INFORMATION
VERS                    .            2.0                                    :CWLS LOG ASCII STANDARD
WRAP                    .            NO                                     :ONE LINE PER TIME STEP


~WELL INFORMATION
#MNEM                   .UNIT        DATA                                    DESCRIPTION
#________________________________________________________________________________________
STRTTIME                .HH/MM/SS    22:39:37                               :START TIME
STOPTIME                .HH/MM/SS    22:43:03                               :STOP TIME
STRT                    .s           2.10                                   :START DATA
STOP                    .s           204.10                                 :STOP DATA
STEP                    .s           0.10                                   :MEASUREMENT TIME INTERVAL
NULL                    .            -999.25                                :NULL VALUE
COMP                    .            Statoil ASA                            :COMPANY
FLD                     .            Volve                                  :FIELD
WELL                    .            15/9-F-1 C                             :WELL
RUN                     .            4                                      :RUN
LOC                     .                                                   :LOCATION
PROV                    .            na                                     :PROVINCE
SRVC                    .            Baker Hughes INTEQ                     :SERVICE COMPANY
DATE                    .YY/MM/DD    14/03/14                               :LOG DATE
UWI                     .                                                   :UNIQUE WELL ID
DEPTHMD                 .m           3925.1                                 :MEASURED DEPTH
DEPTHTVD                .m           3120.2                                 :TRUE VERTICAL DEPTH


~CURVE INFORMATION
#MNEM                   .UNIT        API CODES                               DESCRIPTION
#________________________________________________________________________________________
TIME                    .s                                                  :01 TIME
DD_PRESS                .bar                                                :02 DRAW DOWN PRESSURE
DD_VOLUME               .cm3                                                :03 INCREMENTAL DRAW DOWN VOLUME
TEMP                    .degC                                               :04 TRANSDUCER TEMPERATURE
DD_PRESS_MOD_1000       .bar                                                :05 DRAW DOWN PRESSURE MOD 1000
DD_PRESS_MOD_100        .bar                                                :06 DRAW DOWN PRESSURE MOD 100
DD_PRESS_MOD_10         .bar                                                :07 DRAW DOWN PRESSURE MOD 10
DD_PRESS_MOD_1          .bar                                                :08 DRAW DOWN PRESSURE MOD 1
DD_PRESS_MOD_01         .bar                                                :09 DRAW DOWN PRESSURE MOD 01
DD_PRESS_MOD_001        .bar                                                :10 DRAW DOWN PRESSURE MOD 001
DD_PRESS_MOD_0001       .bar                                                :11 DRAW DOWN PRESSURE MOD 0001


~PARAMETER INFORMATION
#MNEM                   .UNIT        VALUE                                   DESCRIPTION
#________________________________________________________________________________________
TOOLFACE                .deg         -7.4                                   :01 TOOLFACE
PUMP_CAPACITY           .bar         400                                    :02 NOMINAL DRAW DOWN PUMP CAPACITY
PUMP_LIMIT              .bar         240                                    :03 DOWNLINK PUMP LIMIT
TIME_LIMIT              .min         10                                     :04 DOWNLINK MAX TIME
TEST_TYPE               .            HIGH MOBILITY                          :05 DOWNLINK
DD_PIST_A               .cm2         3.1416                                 :06 DRAW DOWN PISTON AREA
V_SYS                   .cm3         131.0000                               :07 SYSTEM VOLUME
PROBE_ID                .cm          1.2700                                 :08 TTK PROBE ID
G0                      .            4.6700                                 :09 GEOMETRY FACTOR


~A                  TIME     DD_PRESS                              DD_VOLUME               TEMP                                   DD_PRESS_MOD_1000       DD_PRESS_MOD_100        DD_PRESS_MOD_10         DD_PRESS_MOD_1        DD_PRESS_MOD_01       DD_PRESS_MOD_001      DD_PRESS_MOD_0001
# ...
                   94.50    353.11858                               19.86705             91.352                                        3.53119e+002           5.31186e+001           3.11858e+000           1.18582e-001           1.85819e-002           8.58186e-003           5.81856e-004
                   94.60    353.12251                               19.86705             91.352                                        3.53123e+002           5.31225e+001           3.12251e+000           1.22514e-001           2.25139e-002           2.51393e-003           5.13934e-004
                   94.70    353.12655                               19.86705             91.352                                        3.53127e+002           5.31265e+001           3.12655e+000           1.26546e-001           2.65458e-002           6.54578e-003           5.45783e-004
                   94.80    353.13023                               19.86705             91.352                                        3.53130e+002           5.31302e+001           3.13023e+000           1.30228e-001           3.02282e-002           2.28163e-004           2.28163e-004
                   94.90    353.13140                               19.86705             91.352                                        3.53131e+002           5.31314e+001           3.13140e+000           1.31400e-001           3.14002e-002           1.40023e-003           4.00228e-004
                   95.00    353.12961                               19.86705             91.352                                        3.53130e+002           5.31296e+001           3.12961e+000           1.29608e-001           2.96078e-002           9.60777e-003           6.07769e-004
                   95.10    353.13028                               19.86705             91.352                                        3.53130e+002           5.31303e+001           3.13028e+000           1.30280e-001           3.02801e-002           2.80124e-004           2.80124e-004
                   95.20    353.13335                               19.86705             91.352                                        3.53133e+002           5.31333e+001           3.13335e+000           1.33346e-001           3.33459e-002           3.34586e-003           3.45859e-004
                   95.30    353.13887                               19.86705             91.352                                        3.53139e+002           5.31389e+001           3.13887e+000           1.38875e-001           3.88749e-002           8.87495e-003           8.74945e-004
                   95.40    353.13998                               19.86705             91.352                                        3.53140e+002           5.31400e+001           3.13998e+000           1.39976e-001           3.99755e-002           9.97551e-003           9.75510e-004
                   95.50    353.14266                               19.86705             91.352                                        3.53143e+002           5.31427e+001           3.14266e+000           1.42658e-001           4.26579e-002           2.65786e-003           6.57863e-004
                   95.60    353.14294                               19.86705             91.352                                        3.53143e+002           5.31429e+001           3.14294e+000           1.42936e-001           4.29358e-002           2.93583e-003           9.35835e-004
                   95.70    353.14380                               19.86705             91.352                                        3.53144e+002           5.31438e+001           3.14380e+000           1.43800e-001           4.38002e-002           3.80025e-003           8.00250e-004
                   95.80    353.14955                               19.86705             91.352                                        3.53150e+002           5.31496e+001           3.14955e+000           1.49554e-001           4.95544e-002           9.55439e-003           5.54389e-004
                   95.90    353.15112                               19.86705             91.352                                        3.53151e+002           5.31511e+001           3.15112e+000           1.51121e-001           5.11206e-002           1.12062e-003           1.20625e-004
                   96.00    353.14668                               19.86705             91.352                                        3.53147e+002           5.31467e+001           3.14668e+000           1.46684e-001           4.66845e-002           6.68447e-003           6.84467e-004
                   96.10    353.14536                               19.86705             91.352                                        3.53145e+002           5.31454e+001           3.14536e+000           1.45361e-001           4.53611e-002           5.36105e-003           3.61053e-004
                   96.20    353.14980                               19.86705             91.352                                        3.53150e+002           5.31498e+001           3.14980e+000           1.49801e-001           4.98009e-002           9.80089e-003           8.00895e-004
                   96.30    353.15438                               19.86705             91.352                                        3.53154e+002           5.31544e+001           3.15438e+000           1.54376e-001           5.43759e-002           4.37586e-003           3.75857e-004
                   96.40    353.15375                               19.86705             91.352                                        3.53154e+002           5.31538e+001           3.15375e+000           1.53753e-001           5.37526e-002           3.75263e-003           7.52633e-004
                   96.50    353.15139                               19.86705             91.352                                        3.53151e+002           5.31514e+001           3.15139e+000           1.51390e-001           5.13897e-002           1.38974e-003           3.89736e-004
                   96.60    353.15101                               19.86705             91.352                                        3.53151e+002           5.31510e+001           3.15101e+000           1.51008e-001           5.10084e-002           1.00841e-003           8.41076e-006
                   96.70    353.15356                               19.86705             91.352                                        3.53154e+002           5.31536e+001           3.15356e+000           1.53558e-001           5.35578e-002           3.55776e-003           5.57761e-004
                   96.80    353.15462                               19.86705             91.352                                        3.53155e+002           5.31546e+001           3.15462e+000           1.54616e-001           5.46162e-002           4.61619e-003           6.16192e-004
                   96.90    353.15462                               19.86705             91.352                                        3.53155e+002           5.31546e+001           3.15462e+000           1.54620e-001           5.46201e-002           4.62006e-003           6.20059e-004
                   97.00    353.15462                               19.86705             91.352                                        3.53155e+002           5.31546e+001           3.15462e+000           1.54619e-001           5.46186e-002           4.61857e-003           6.18571e-004
                   97.10    353.15461                               19.86705             91.352                                        3.53155e+002           5.31546e+001           3.15461e+000           1.54613e-001           5.46129e-002           4.61285e-003           6.12855e-004
                   97.20    353.15461                               19.86705             91.352                                        3.53155e+002           5.31546e+001           3.15461e+000           1.54613e-001           5.46129e-002           4.61285e-003           6.12855e-004
