~VERSION INFORMATION
VERS                    .            2.0                                    :CWLS LOG ASCII STANDARD
WRAP                    .            NO                                     :ONE LINE PER TIME STEP


~WELL INFORMATION
#MNEM                   .UNIT        DATA                                    DESCRIPTION
#________________________________________________________________________________________
STRTTIME                .HH/MM/SS    14:04:48                               :START TIME
STOPTIME                .HH/MM/SS    14:07:57                               :STOP TIME
STRT                    .s           2.10                                   :START DATA
STOP                    .s           187.50                                 :STOP DATA
STEP                    .s           0.10                                   :MEASUREMENT TIME INTERVAL
NULL                    .            -999.25                                :NULL VALUE
COMP                    .            Statoil ASA                            :COMPANY
FLD                     .            Volve                                  :FIELD
WELL                    .            15/9-F-1 B                             :WELL
RUN                     .            7                                      :RUN
LOC                     .            Maersk Inspirer                        :LOCATION
PROV                    .            na                                     :PROVINCE
SRVC                    .            Baker Hughes INTEQ                     :SERVICE COMPANY
DATE                    .YY/MM/DD    13/09/06                               :LOG DATE
UWI                     .                                                   :UNIQUE WELL ID
DEPTHMD                 .m           3296.0                                 :MEASURED DEPTH
DEPTHTVD                .m           3091.5                                 :TRUE VERTICAL DEPTH


~CURVE INFORMATION
#MNEM                   .UNIT        API CODES                               DESCRIPTION
#________________________________________________________________________________________
TIME                    .s                                                  :01 TIME
DD_PRESS                .bar                                                :02 DRAW DOWN PRESSURE
DD_VOLUME               .cm3                                                :03 INCREMENTAL DRAW DOWN VOLUME
TEMP                    .degC                                               :04 TRANSDUCER TEMPERATURE
DD_PRESS_MOD_1000       .bar                                                :05 DRAW DOWN PRESSURE MOD 1000
DD_PRESS_MOD_100        .bar                                                :06 DRAW DOWN PRESSURE MOD 100
DD_PRESS_MOD_10         .bar                                                :07 DRAW DOWN PRESSURE MOD 10
DD_PRESS_MOD_1          .bar                                                :08 DRAW DOWN PRESSURE MOD 1
DD_PRESS_MOD_01         .bar                                                :09 DRAW DOWN PRESSURE MOD 01
DD_PRESS_MOD_001        .bar                                                :10 DRAW DOWN PRESSURE MOD 001
DD_PRESS_MOD_0001       .bar                                                :11 DRAW DOWN PRESSURE MOD 0001


~PARAMETER INFORMATION
#MNEM                   .UNIT        VALUE                                   DESCRIPTION
#________________________________________________________________________________________
TOOLFACE                .deg         na                                     :01 TOOLFACE
PUMP_CAPACITY           .bar         400                                    :02 NOMINAL DRAW DOWN PUMP CAPACITY
PUMP_LIMIT              .bar         400                                    :03 DOWNLINK PUMP LIMIT
TIME_LIMIT              .min         10                                     :04 DOWNLINK MAX TIME
TEST_TYPE               .            LOW MOBILITY                           :05 DOWNLINK
DD_PIST_A               .cm2         3.1416                                 :06 DRAW DOWN PISTON AREA
V_SYS                   .cm3         131.0000                               :07 SYSTEM VOLUME
PROBE_ID                .cm          1.2700                                 :08 TTK PROBE ID
G0                      .            4.6700                                 :09 GEOMETRY FACTOR


~A                  TIME     DD_PRESS                              DD_VOLUME               TEMP                                   DD_PRESS_MOD_1000       DD_PRESS_MOD_100        DD_PRESS_MOD_10         DD_PRESS_MOD_1        DD_PRESS_MOD_01       DD_PRESS_MOD_001      DD_PRESS_MOD_0001
                    2.10    440.00431                                0.00000             83.383                                        4.40004e+002           4.00043e+001           4.30764e-003           4.30764e-003           4.30764e-003           4.30764e-003           3.07639e-004
                    2.20    440.01590                                0.00000             83.383                                        4.40016e+002           4.00159e+001           1.59000e-002           1.59000e-002           1.59000e-002           5.89997e-003           8.99965e-004
                    2.30    439.98390                                0.00000             83.383                                        4.39984e+002           3.99839e+001           9.98390e+000           9.83904e-001           8.39037e-002           3.90370e-003           9.03695e-004
                    2.40    439.89813                                0.00000             83.383                                        4.39898e+002           3.98981e+001           9.89813e+000           8.98130e-001           9.81300e-002           8.12997e-003           1.29972e-004
                    2.50    439.82119                                0.00000             83.383                                        4.39821e+002           3.98212e+001           9.82119e+000           8.21194e-001           2.11941e-002           1.19411e-003           1.94114e-004
                    2.60    439.83878                                0.00000             83.383                                        4.39839e+002           3.98388e+001           9.83878e+000           8.38782e-001           3.87822e-002           8.78215e-003           7.82151e-004
                    2.70    439.89786                                0.00000             83.383                                        4.39898e+002           3.98979e+001           9.89786e+000           8.97864e-001           9.78636e-002           7.86364e-003           8.63640e-004
                    2.80    439.90647                                0.00000             83.383                                        4.39906e+002           3.99065e+001           9.90647e+000           9.06466e-001           6.46624e-003           6.46624e-003           4.66245e-004
                    2.90    439.90026                                0.00000             83.383                                        4.39900e+002           3.99003e+001           9.90026e+000           9.00263e-001           2.62752e-004           2.62752e-004           2.62752e-004
                    3.00    439.98777                                0.00000             83.383                                        4.39988e+002           3.99878e+001           9.98777e+000           9.87768e-001           8.77677e-002           7.76772e-003           7.67725e-004
                    3.10    440.08582                                0.00000             83.383                                        4.40086e+002           4.00858e+001           8.58239e-002           8.58239e-002           8.58239e-002           5.82386e-003           8.23858e-004
                    3.20    440.11929                                0.00000             83.383                                        4.40119e+002           4.01193e+001           1.19294e-001           1.19294e-001           1.92944e-002           9.29437e-003           2.94367e-004
                    3.30    440.16224                                0.00000             83.380                                        4.40162e+002           4.01622e+001           1.62243e-001           1.62243e-001           6.22430e-002           2.24295e-003           2.42952e-004
                    3.40    440.27637                                0.00000             83.377                                        4.40276e+002           4.02764e+001           2.76374e-001           2.76374e-001           7.63743e-002           6.37431e-003           3.74307e-004
                    3.50    440.36566                                0.00000             83.375                                        4.40366e+002           4.03657e+001           3.65660e-001           3.65660e-001           6.56601e-002           5.66013e-003           6.60127e-004
                    3.60    440.35285                                0.00000             83.375                                        4.40353e+002           4.03528e+001           3.52847e-001           3.52847e-001           5.28467e-002           2.84666e-003           8.46664e-004
                    3.70    440.29359                                0.00000             83.375                                        4.40294e+002           4.02936e+001           2.93588e-001           2.93588e-001           9.35884e-002           3.58840e-003           5.88399e-004
                    3.80    440.29733                                0.00000             83.375                                        4.40297e+002           4.02973e+001           2.97329e-001           2.97329e-001           9.73294e-002           7.32936e-003           3.29364e-004
                    3.90    440.28974                                0.00000             83.375                                        4.40290e+002           4.02897e+001           2.89741e-001           2.89741e-001           8.97411e-002           9.74114e-003           7.41144e-004
                    4.00    440.21000                                0.00000             83.375                                        4.40210e+002           4.02100e+001           2.10005e-001           2.10005e-001           1.00047e-002           4.74513e-006           4.74513e-006
                    4.10    440.14918                                0.00000             83.375                                        4.40149e+002           4.01492e+001           1.49177e-001           1.49177e-001           4.91766e-002           9.17662e-003           1.76621e-004
                    4.20    440.17614                                0.00000             83.375                                        4.40176e+002           4.01761e+001           1.76144e-001           1.76144e-001           7.61439e-002           6.14395e-003           1.43947e-004
                    4.30    440.16677                                0.00000             83.375                                        4.40167e+002           4.01668e+001           1.66774e-001           1.66774e-001           6.67742e-002           6.77423e-003           7.74230e-004
                    4.40    440.13010                                0.00000             83.375                                        4.40130e+002           4.01301e+001           1.30096e-001           1.30096e-001           3.00963e-002           9.63051e-005           9.63051e-005
                    4.50    440.16361                                0.00000             83.375                                        4.40164e+002           4.01636e+001           1.63605e-001           1.63605e-001           6.36051e-002           3.60508e-003           6.05080e-004
                    4.60    440.23086                                0.00000             83.375                                        4.40231e+002           4.02309e+001           2.30858e-001           2.30858e-001           3.08576e-002           8.57570e-004           8.57570e-004
                    4.70    440.23532                                0.00000             83.375                                        4.40235e+002           4.02353e+001           2.35322e-001           2.35322e-001           3.53215e-002           5.32151e-003           3.21513e-004
                    4.80    440.21639                                0.00000             83.375                                        4.40216e+002           4.02164e+001           2.16389e-001           2.16389e-001           1.63893e-002           6.38929e-003           3.89290e-004
