~VERSION INFORMATION
VERS                    .            2.0                                    :CWLS LOG ASCII STANDARD
WRAP                    .            NO                                     :ONE LINE PER TIME STEP


~WELL INFORMATION
#MNEM                   .UNIT        DATA                                    DESCRIPTION
#________________________________________________________________________________________
STRTTIME                .HH/MM/SS    19:37:02                               :START TIME
STOPTIME                .HH/MM/SS    19:40:38                               :STOP TIME
STRT                    .s           2.10                                   :START DATA
STOP                    .s           214.10                                 :STOP DATA
STEP                    .s           0.10                                   :MEASUREMENT TIME INTERVAL
NULL                    .            -999.25                                :NULL VALUE
COMP                    .            Statoil ASA                            :COMPANY
FLD                     .            Volve                                  :FIELD
WELL                    .            15/9-F-11 A                            :WELL
RUN                     .            8                                      :RUN
LOC                     .            Maersk Inspirer                        :LOCATION
PROV                    .            na                                     :PROVINCE
SRVC                    .            Baker Hughes INTEQ                     :SERVICE COMPANY
DATE                    .YY/MM/DD    13/05/23                               :LOG DATE
UWI                     .                                                   :UNIQUE WELL ID
DEPTHMD                 .m           3607.9                                 :MEASURED DEPTH
DEPTHTVD                .m           3008.4                                 :TRUE VERTICAL DEPTH


~CURVE INFORMATION
#MNEM                   .UNIT        API CODES                               DESCRIPTION
#________________________________________________________________________________________
TIME                    .s                                                  :01 TIME
DD_PRESS                .bar                                                :02 DRAW DOWN PRESSURE
DD_VOLUME               .cm3                                                :03 INCREMENTAL DRAW DOWN VOLUME
TEMP                    .degC                                               :04 TRANSDUCER TEMPERATURE
DD_PRESS_MOD_1000       .bar                                                :05 DRAW DOWN PRESSURE MOD 1000
DD_PRESS_MOD_100        .bar                                                :06 DRAW DOWN PRESSURE MOD 100
DD_PRESS_MOD_10         .bar                                                :07 DRAW DOWN PRESSURE MOD 10
DD_PRESS_MOD_1          .bar                                                :08 DRAW DOWN PRESSURE MOD 1
DD_PRESS_MOD_01         .bar                                                :09 DRAW DOWN PRESSURE MOD 01
DD_PRESS_MOD_001        .bar                                                :10 DRAW DOWN PRESSURE MOD 001
DD_PRESS_MOD_0001       .bar                                                :11 DRAW DOWN PRESSURE MOD 0001


~PARAMETER INFORMATION
#MNEM                   .UNIT        VALUE                                   DESCRIPTION
#________________________________________________________________________________________
TOOLFACE                .deg         -38.9                                  :01 TOOLFACE
PUMP_CAPACITY           .bar         400                                    :02 NOMINAL DRAW DOWN PUMP CAPACITY
PUMP_LIMIT              .bar         240                                    :03 DOWNLINK PUMP LIMIT
TIME_LIMIT              .min         10                                     :04 DOWNLINK MAX TIME
TEST_TYPE               .            REPEAT                                 :05 DOWNLINK
TEST_TYPE               .            HIGH MOBILITY                          :06 DOWNLINK
DD_PIST_A               .cm2         3.1416                                 :07 DRAW DOWN PISTON AREA
V_SYS                   .cm3         131.0000                               :08 SYSTEM VOLUME
PROBE_ID                .cm          1.2700                                 :09 TTK PROBE ID
G0                      .            4.6700                                 :10 GEOMETRY FACTOR


~A                  TIME     DD_PRESS                              DD_VOLUME               TEMP                                   DD_PRESS_MOD_1000       DD_PRESS_MOD_100        DD_PRESS_MOD_10         DD_PRESS_MOD_1        DD_PRESS_MOD_01       DD_PRESS_MOD_001      DD_PRESS_MOD_0001
# ...
                  142.10    340.24748                               28.01154             71.180                                        3.40247e+002           4.02475e+001           2.47482e-001           2.47482e-001           4.74818e-002           7.48183e-003           4.81825e-004
                  142.20    340.26109                               28.01154             71.180                                        3.40261e+002           4.02611e+001           2.61087e-001           2.61087e-001           6.10868e-002           1.08682e-003           8.68189e-005
                  142.30    340.26790                               28.01154             71.180                                        3.40268e+002           4.02679e+001           2.67902e-001           2.67902e-001           6.79024e-002           7.90241e-003           9.02408e-004
                  142.40    340.25725                               28.01154             71.180                                        3.40257e+002           4.02573e+001           2.57253e-001           2.57253e-001           5.72528e-002           7.25277e-003           2.52771e-004
                  142.50    340.25857                               28.01154             71.180                                        3.40259e+002           4.02586e+001           2.58574e-001           2.58574e-001           5.85745e-002           8.57445e-003           5.74450e-004
                  142.60    340.27393                               28.01154             71.180                                        3.40274e+002           4.02739e+001           2.73925e-001           2.73925e-001           7.39251e-002           3.92505e-003           9.25054e-004
                  142.70    340.27727                               28.01154             71.180                                        3.40277e+002           4.02773e+001           2.77265e-001           2.77265e-001           7.72650e-002           7.26505e-003           2.65046e-004
                  142.80    340.26974                               28.01154             71.180                                        3.40270e+002           4.02697e+001           2.69736e-001           2.69736e-001           6.97360e-002           9.73598e-003           7.35980e-004
                  142.90    340.26850                               28.01154             71.180                                        3.40268e+002           4.02685e+001           2.68496e-001           2.68496e-001           6.84964e-002           8.49644e-003           4.96443e-004
                  143.00    340.27411                               28.01154             71.180                                        3.40274e+002           4.02741e+001           2.74114e-001           2.74114e-001           7.41136e-002           4.11358e-003           1.13581e-004
                  143.10    340.27479                               28.01154             71.180                                        3.40275e+002           4.02748e+001           2.74791e-001           2.74791e-001           7.47906e-002           4.79057e-003           7.90567e-004
                  143.20    340.27794                               28.01154             71.180                                        3.40278e+002           4.02779e+001           2.77940e-001           2.77940e-001           7.79397e-002           7.93970e-003           9.39696e-004
                  143.30    340.28317                               28.01154             71.180                                        3.40283e+002           4.02832e+001           2.83165e-001           2.83165e-001           8.31652e-002           3.16518e-003           1.65179e-004
                  143.40    340.28531                               28.01154             71.180                                        3.40285e+002           4.02853e+001           2.85309e-001           2.85309e-001           8.53093e-002           5.30926e-003           3.09257e-004
                  143.50    340.28823                               28.01154             71.180                                        3.40288e+002           4.02882e+001           2.88230e-001           2.88230e-001           8.82303e-002           8.23031e-003           2.30309e-004
                  143.60    340.28909                               28.01154             71.180                                        3.40289e+002           4.02891e+001           2.89090e-001           2.89090e-001           8.90897e-002           9.08971e-003           8.97127e-005
                  143.70    340.28861                               28.01154             71.180                                        3.40289e+002           4.02886e+001           2.88611e-001           2.88611e-001           8.86115e-002           8.61146e-003           6.11458e-004
                  143.80    340.28385                               28.01154             71.180                                        3.40284e+002           4.02839e+001           2.83851e-001           2.83851e-001           8.38512e-002           3.85119e-003           8.51194e-004
                  143.90    340.27943                               28.01154             71.180                                        3.40279e+002           4.02794e+001           2.79428e-001           2.79428e-001           7.94282e-002           9.42818e-003           4.28181e-004
                  144.00    340.27974                               28.01154             71.180                                        3.40280e+002           4.02797e+001           2.79740e-001           2.79740e-001           7.97399e-002           9.73989e-003           7.39889e-004
                  144.10    340.28287                               28.01154             71.180                                        3.40283e+002           4.02829e+001           2.82869e-001           2.82869e-001           8.28691e-002           2.86914e-003           8.69141e-004
                  144.20    340.28728                               28.01154             71.180                                        3.40287e+002           4.02873e+001           2.87279e-001           2.87279e-001           8.72791e-002           7.27911e-003           2.79105e-004
                  144.30    340.29356                               28.01154             71.180                                        3.40294e+002           4.02936e+001           2.93563e-001           2.93563e-001           9.35630e-002           3.56298e-003           5.62985e-004
                  144.40    340.29736                               28.01154             71.180                                        3.40297e+002           4.02974e+001           2.97359e-001           2.97359e-001           9.73585e-002           7.35851e-003           3.58512e-004
                  144.50    340.29653                               28.01154             71.180                                        3.40297e+002           4.02965e+001           2.96533e-001           2.96533e-001           9.65325e-002           6.53254e-003           5.32537e-004
                  144.60    340.28951                               28.01154             71.180                                        3.40290e+002           4.02895e+001           2.89514e-001           2.89514e-001           8.95139e-002           9.51386e-003           5.13862e-004
                  144.70    340.29003                               28.01154             71.180                                        3.40290e+002           4.02900e+001           2.90029e-001           2.90029e-001           9.00294e-002           2.94341e-005           2.94341e-005
                  144.80    340.30002                               28.01154             71.180                                        3.40300e+002           4.03000e+001           3.00025e-001           3.00025e-001           2.46927e-005           2.46927e-005           2.46927e-005
