~VERSION INFORMATION
VERS                    .            2.0                                    :CWLS LOG ASCII STANDARD
WRAP                    .            NO                                     :ONE LINE PER TIME STEP


~WELL INFORMATION
#MNEM                   .UNIT        DATA                                    DESCRIPTION
#________________________________________________________________________________________
STRTTIME                .HH/MM/SS    19:37:02                               :START TIME
STOPTIME                .HH/MM/SS    19:40:38                               :STOP TIME
STRT                    .s           2.10                                   :START DATA
STOP                    .s           214.10                                 :STOP DATA
STEP                    .s           0.10                                   :MEASUREMENT TIME INTERVAL
NULL                    .            -999.25                                :NULL VALUE
COMP                    .            Statoil ASA                            :COMPANY
FLD                     .            Volve                                  :FIELD
WELL                    .            15/9-F-11 A                            :WELL
RUN                     .            8                                      :RUN
LOC                     .            Maersk Inspirer                        :LOCATION
PROV                    .            na                                     :PROVINCE
SRVC                    .            Baker Hughes INTEQ                     :SERVICE COMPANY
DATE                    .YY/MM/DD    13/05/23                               :LOG DATE
UWI                     .                                                   :UNIQUE WELL ID
DEPTHMD                 .m           3607.9                                 :MEASURED DEPTH
DEPTHTVD                .m           3008.4                                 :TRUE VERTICAL DEPTH


~CURVE INFORMATION
#MNEM                   .UNIT        API CODES                               DESCRIPTION
#________________________________________________________________________________________
TIME                    .s                                                  :01 TIME
DD_PRESS                .bar                                                :02 DRAW DOWN PRESSURE
DD_VOLUME               .cm3                                                :03 INCREMENTAL DRAW DOWN VOLUME
TEMP                    .degC                                               :04 TRANSDUCER TEMPERATURE
DD_PRESS_MOD_1000       .bar                                                :05 DRAW DOWN PRESSURE MOD 1000
DD_PRESS_MOD_100        .bar                                                :06 DRAW DOWN PRESSURE MOD 100
DD_PRESS_MOD_10         .bar                                                :07 DRAW DOWN PRESSURE MOD 10
DD_PRESS_MOD_1          .bar                                                :08 DRAW DOWN PRESSURE MOD 1
DD_PRESS_MOD_01         .bar                                                :09 DRAW DOWN PRESSURE MOD 01
DD_PRESS_MOD_001        .bar                                                :10 DRAW DOWN PRESSURE MOD 001
DD_PRESS_MOD_0001       .bar                                                :11 DRAW DOWN PRESSURE MOD 0001


~PARAMETER INFORMATION
#MNEM                   .UNIT        VALUE                                   DESCRIPTION
#________________________________________________________________________________________
TOOLFACE                .deg         -38.9                                  :01 TOOLFACE
PUMP_CAPACITY           .bar         400                                    :02 NOMINAL DRAW DOWN PUMP CAPACITY
PUMP_LIMIT              .bar         240                                    :03 DOWNLINK PUMP LIMIT
TIME_LIMIT              .min         10                                     :04 DOWNLINK MAX TIME
TEST_TYPE               .            REPEAT                                 :05 DOWNLINK
TEST_TYPE               .            HIGH MOBILITY                          :06 DOWNLINK
DD_PIST_A               .cm2         3.1416                                 :07 DRAW DOWN PISTON AREA
V_SYS                   .cm3         131.0000                               :08 SYSTEM VOLUME
PROBE_ID                .cm          1.2700                                 :09 TTK PROBE ID
G0                      .            4.6700                                 :10 GEOMETRY FACTOR


~A                  TIME     DD_PRESS                              DD_VOLUME               TEMP                                   DD_PRESS_MOD_1000       DD_PRESS_MOD_100        DD_PRESS_MOD_10         DD_PRESS_MOD_1        DD_PRESS_MOD_01       DD_PRESS_MOD_001      DD_PRESS_MOD_0001
# ...
                  198.10    418.70974                                0.00000             71.203                                        4.18710e+002           1.87097e+001           8.70974e+000           7.09739e-001           9.73922e-003           9.73922e-003           7.39222e-004
                  198.20    418.70407                                0.00000             71.203                                        4.18704e+002           1.87041e+001           8.70407e+000           7.04069e-001           4.06906e-003           4.06906e-003           6.90571e-005
                  198.30    418.70218                                0.00000             71.203                                        4.18702e+002           1.87022e+001           8.70218e+000           7.02177e-001           2.17706e-003           2.17706e-003           1.77057e-004
                  198.40    418.69813                                0.00000             71.203                                        4.18698e+002           1.86981e+001           8.69813e+000           6.98125e-001           9.81255e-002           8.12546e-003           1.25464e-004
                  198.50    418.69463                                0.00000             71.203                                        4.18695e+002           1.86946e+001           8.69463e+000           6.94634e-001           9.46341e-002           4.63411e-003           6.34114e-004
                  198.60    418.68722                                0.00000             71.203                                        4.18687e+002           1.86872e+001           8.68722e+000           6.87216e-001           8.72156e-002           7.21564e-003           2.15641e-004
                  198.70    418.68900                                0.00000             71.203                                        4.18689e+002           1.86890e+001           8.68900e+000           6.89002e-001           8.90022e-002           9.00218e-003           2.17828e-006
                  198.80    418.69210                                0.00000             71.203                                        4.18692e+002           1.86921e+001           8.69210e+000           6.92101e-001           9.21008e-002           2.10078e-003           1.00776e-004
                  198.90    418.69115                                0.00000             71.203                                        4.18691e+002           1.86912e+001           8.69115e+000           6.91151e-001           9.11506e-002           1.15062e-003           1.50616e-004
                  199.00    418.68642                                0.00000             71.203                                        4.18686e+002           1.86864e+001           8.68642e+000           6.86420e-001           8.64202e-002           6.42020e-003           4.20198e-004
                  199.10    418.69062                                0.00000             71.203                                        4.18691e+002           1.86906e+001           8.69062e+000           6.90618e-001           9.06177e-002           6.17663e-004           6.17663e-004
                  199.20    418.68057                                0.00000             71.203                                        4.18681e+002           1.86806e+001           8.68057e+000           6.80573e-001           8.05734e-002           5.73438e-004           5.73438e-004
                  199.30    418.68418                                0.00000             71.203                                        4.18684e+002           1.86842e+001           8.68418e+000           6.84179e-001           8.41792e-002           4.17917e-003           1.79170e-004
                  199.40    418.69913                                0.00000             71.203                                        4.18699e+002           1.86991e+001           8.69913e+000           6.99132e-001           9.91318e-002           9.13183e-003           1.31828e-004
                  199.50    418.70019                                0.00000             71.203                                        4.18700e+002           1.87002e+001           8.70019e+000           7.00188e-001           1.87839e-004           1.87839e-004           1.87839e-004
                  199.60    418.67329                                0.00000             71.203                                        4.18673e+002           1.86733e+001           8.67329e+000           6.73286e-001           7.32858e-002           3.28585e-003           2.85847e-004
                  199.70    418.67054                                0.00000             71.203                                        4.18671e+002           1.86705e+001           8.67054e+000           6.70540e-001           7.05401e-002           5.40122e-004           5.40122e-004
                  199.80    418.69236                                0.00000             71.203                                        4.18692e+002           1.86924e+001           8.69236e+000           6.92364e-001           9.23642e-002           2.36421e-003           3.64214e-004
                  199.90    418.70318                                0.00000             71.203                                        4.18703e+002           1.87032e+001           8.70318e+000           7.03179e-001           3.17943e-003           3.17943e-003           1.79430e-004
                  200.00    418.67419                                0.00000             71.205                                        4.18674e+002           1.86742e+001           8.67419e+000           6.74188e-001           7.41877e-002           4.18768e-003           1.87678e-004
                  200.10    418.66018                                0.00000             71.209                                        4.18660e+002           1.86602e+001           8.66018e+000           6.60182e-001           6.01818e-002           1.81784e-004           1.81784e-004
                  200.20    418.69308                                0.00000             71.211                                        4.18693e+002           1.86931e+001           8.69308e+000           6.93079e-001           9.30792e-002           3.07924e-003           7.92446e-005
                  200.30    418.69901                                0.00000             71.211                                        4.18699e+002           1.86990e+001           8.69901e+000           6.99012e-001           9.90118e-002           9.01184e-003           1.18446e-005
                  200.40    418.65973                                0.00000             71.211                                        4.18660e+002           1.86597e+001           8.65973e+000           6.59731e-001           5.97311e-002           9.73113e-003           7.31127e-004
                  200.50    418.65030                                0.00000             71.211                                        4.18650e+002           1.86503e+001           8.65030e+000           6.50301e-001           5.03007e-002           3.00721e-004           3.00721e-004
                  200.60    418.69458                                0.00000             71.211                                        4.18695e+002           1.86946e+001           8.69458e+000           6.94577e-001           9.45770e-002           4.57697e-003           5.76966e-004
                  200.70    418.71389                                0.00000             71.211                                        4.18714e+002           1.87139e+001           8.71389e+000           7.13888e-001           1.38876e-002           3.88760e-003           8.87604e-004
                  200.80    418.68785                                0.00000             71.211                                        4.18688e+002           1.86879e+001           8.68785e+000           6.87855e-001           8.78547e-002           7.85473e-003           8.54732e-004
