~VERSION INFORMATION
VERS                    .            2.0                                    :CWLS LOG ASCII STANDARD
WRAP                    .            NO                                     :ONE LINE PER TIME STEP


~WELL INFORMATION
#MNEM                   .UNIT        DATA                                    DESCRIPTION
#________________________________________________________________________________________
STRTTIME                .HH/MM/SS    15:31:36                               :START TIME
STOPTIME                .HH/MM/SS    15:34:21                               :STOP TIME
STRT                    .s           2.10                                   :START DATA
STOP                    .s           163.50                                 :STOP DATA
STEP                    .s           0.10                                   :MEASUREMENT TIME INTERVAL
NULL                    .            -999.25                                :NULL VALUE
COMP                    .            Statoil ASA                            :COMPANY
FLD                     .            Volve                                  :FIELD
WELL                    .            15/9-F-11 A                            :WELL
RUN                     .            8                                      :RUN
LOC                     .            Maersk Inspirer                        :LOCATION
PROV                    .            na                                     :PROVINCE
SRVC                    .            Baker Hughes INTEQ                     :SERVICE COMPANY
DATE                    .YY/MM/DD    13/05/21                               :LOG DATE
UWI                     .                                                   :UNIQUE WELL ID
DEPTHMD                 .m           3617.2                                 :MEASURED DEPTH
DEPTHTVD                .m           3015.5                                 :TRUE VERTICAL DEPTH


~CURVE INFORMATION
#MNEM                   .UNIT        API CODES                               DESCRIPTION
#________________________________________________________________________________________
TIME                    .s                                                  :01 TIME
DD_PRESS                .bar                                                :02 DRAW DOWN PRESSURE
DD_VOLUME               .cm3                                                :03 INCREMENTAL DRAW DOWN VOLUME
TEMP                    .degC                                               :04 TRANSDUCER TEMPERATURE
DD_PRESS_MOD_1000       .bar                                                :05 DRAW DOWN PRESSURE MOD 1000
DD_PRESS_MOD_100        .bar                                                :06 DRAW DOWN PRESSURE MOD 100
DD_PRESS_MOD_10         .bar                                                :07 DRAW DOWN PRESSURE MOD 10
DD_PRESS_MOD_1          .bar                                                :08 DRAW DOWN PRESSURE MOD 1
DD_PRESS_MOD_01         .bar                                                :09 DRAW DOWN PRESSURE MOD 01
DD_PRESS_MOD_001        .bar                                                :10 DRAW DOWN PRESSURE MOD 001
DD_PRESS_MOD_0001       .bar                                                :11 DRAW DOWN PRESSURE MOD 0001


~PARAMETER INFORMATION
#MNEM                   .UNIT        VALUE                                   DESCRIPTION
#________________________________________________________________________________________
TOOLFACE                .deg         63.0                                   :01 TOOLFACE
PUMP_CAPACITY           .bar         400                                    :02 NOMINAL DRAW DOWN PUMP CAPACITY
PUMP_LIMIT              .bar         240                                    :03 DOWNLINK PUMP LIMIT
TIME_LIMIT              .min         10                                     :04 DOWNLINK MAX TIME
TEST_TYPE               .            HIGH MOBILITY                          :05 DOWNLINK
DD_PIST_A               .cm2         3.1416                                 :06 DRAW DOWN PISTON AREA
V_SYS                   .cm3         131.0000                               :07 SYSTEM VOLUME
PROBE_ID                .cm          1.2700                                 :08 TTK PROBE ID
G0                      .            4.6700                                 :09 GEOMETRY FACTOR


~A                  TIME     DD_PRESS                              DD_VOLUME               TEMP                                   DD_PRESS_MOD_1000       DD_PRESS_MOD_100        DD_PRESS_MOD_10         DD_PRESS_MOD_1        DD_PRESS_MOD_01       DD_PRESS_MOD_001      DD_PRESS_MOD_0001
# ...
                   32.90    339.97917                                6.83734             80.055                                        3.39979e+002           3.99792e+001           9.97917e+000           9.79167e-001           7.91668e-002           9.16676e-003           1.66758e-004
                   33.00    339.98666                                6.93612             80.055                                        3.39987e+002           3.99867e+001           9.98666e+000           9.86664e-001           8.66640e-002           6.66399e-003           6.63992e-004
                   33.10    339.99367                                7.03457             80.055                                        3.39994e+002           3.99937e+001           9.99367e+000           9.93672e-001           9.36722e-002           3.67219e-003           6.72190e-004
                   33.20    339.99730                                7.13263             80.055                                        3.39997e+002           3.99973e+001           9.99730e+000           9.97304e-001           9.73041e-002           7.30415e-003           3.04145e-004
                   33.30    340.00921                                7.23019             80.055                                        3.40009e+002           4.00092e+001           9.21394e-003           9.21394e-003           9.21394e-003           9.21394e-003           2.13943e-004
                   33.40    340.04039                                7.32737             80.055                                        3.40040e+002           4.00404e+001           4.03941e-002           4.03941e-002           4.03941e-002           3.94092e-004           3.94092e-004
                   33.50    340.06943                                7.42443             80.055                                        3.40069e+002           4.00694e+001           6.94329e-002           6.94329e-002           6.94329e-002           9.43291e-003           4.32908e-004
                   33.60    340.08081                                7.52100             80.055                                        3.40081e+002           4.00808e+001           8.08126e-002           8.08126e-002           8.08126e-002           8.12604e-004           8.12604e-004
                   33.70    340.09238                                7.61684             80.055                                        3.40092e+002           4.00924e+001           9.23831e-002           9.23831e-002           9.23831e-002           2.38308e-003           3.83083e-004
                   33.80    340.11270                                7.71207             80.052                                        3.40113e+002           4.01127e+001           1.12704e-001           1.12704e-001           1.27038e-002           2.70380e-003           7.03799e-004
                   33.90    340.12529                                7.80677             80.049                                        3.40125e+002           4.01253e+001           1.25295e-001           1.25295e-001           2.52949e-002           5.29485e-003           2.94851e-004
                   34.00    340.13460                                7.90084             80.047                                        3.40135e+002           4.01346e+001           1.34596e-001           1.34596e-001           3.45956e-002           4.59558e-003           5.95576e-004
                   34.10    340.14869                                7.99419             80.047                                        3.40149e+002           4.01487e+001           1.48691e-001           1.48691e-001           4.86905e-002           8.69054e-003           6.90538e-004
                   34.20    340.16919                                8.08686             80.047                                        3.40169e+002           4.01692e+001           1.69187e-001           1.69187e-001           6.91868e-002           9.18681e-003           1.86810e-004
                   34.30    340.18842                                8.17873             80.047                                        3.40188e+002           4.01884e+001           1.88422e-001           1.88422e-001           8.84220e-002           8.42205e-003           4.22046e-004
                   34.40    340.20070                                8.26983             80.047                                        3.40201e+002           4.02007e+001           2.00698e-001           2.00698e-001           6.97613e-004           6.97613e-004           6.97613e-004
                   34.50    340.21730                                8.36015             80.047                                        3.40217e+002           4.02173e+001           2.17296e-001           2.17296e-001           1.72961e-002           7.29610e-003           2.96095e-004
                   34.60    340.23891                                8.44957             80.047                                        3.40239e+002           4.02389e+001           2.38909e-001           2.38909e-001           3.89089e-002           8.90888e-003           9.08882e-004
                   34.70    340.25689                                8.53812             80.047                                        3.40257e+002           4.02569e+001           2.56891e-001           2.56891e-001           5.68912e-002           6.89125e-003           8.91246e-004
                   34.80    340.27079                                8.62572             80.047                                        3.40271e+002           4.02708e+001           2.70794e-001           2.70794e-001           7.07938e-002           7.93836e-004           7.93836e-004
                   34.90    340.28990                                8.71225             80.047                                        3.40290e+002           4.02899e+001           2.89897e-001           2.89897e-001           8.98968e-002           9.89682e-003           8.96817e-004
                   35.00    340.31222                                8.79779             80.047                                        3.40312e+002           4.03122e+001           3.12221e-001           3.12221e-001           1.22213e-002           2.22129e-003           2.21289e-004
                   35.10    340.33816                                8.88241             80.047                                        3.40338e+002           4.03382e+001           3.38158e-001           3.38158e-001           3.81581e-002           8.15814e-003           1.58138e-004
                   35.20    340.36048                                8.96611             80.047                                        3.40360e+002           4.03605e+001           3.60483e-001           3.60483e-001           6.04826e-002           4.82619e-004           4.82619e-004
                   35.30    340.37822                                9.04863             80.047                                        3.40378e+002           4.03782e+001           3.78221e-001           3.78221e-001           7.82211e-002           8.22110e-003           2.21103e-004
                   35.40    340.40040                                9.12993             80.047                                        3.40400e+002           4.04004e+001           4.00404e-001           4.00404e-001           4.03524e-004           4.03524e-004           4.03524e-004
                   35.50    340.41958                                9.20996             80.047                                        3.40420e+002           4.04196e+001           4.19581e-001           4.19581e-001           1.95807e-002           9.58068e-003           5.80683e-004
                   35.60    340.43965                                9.28891             80.047                                        3.40440e+002           4.04396e+001           4.39648e-001           4.39648e-001           3.96480e-002           9.64796e-003           6.47955e-004
