~VERSION INFORMATION
VERS                    .            2.0                                    :CWLS LOG ASCII STANDARD
WRAP                    .            NO                                     :ONE LINE PER TIME STEP


~WELL INFORMATION
#MNEM                   .UNIT        DATA                                    DESCRIPTION
#________________________________________________________________________________________
STRTTIME                .HH/MM/SS    19:37:02                               :START TIME
STOPTIME                .HH/MM/SS    19:40:38                               :STOP TIME
STRT                    .s           2.10                                   :START DATA
STOP                    .s           214.10                                 :STOP DATA
STEP                    .s           0.10                                   :MEASUREMENT TIME INTERVAL
NULL                    .            -999.25                                :NULL VALUE
COMP                    .            Statoil ASA                            :COMPANY
FLD                     .            Volve                                  :FIELD
WELL                    .            15/9-F-11 A                            :WELL
RUN                     .            8                                      :RUN
LOC                     .            Maersk Inspirer                        :LOCATION
PROV                    .            na                                     :PROVINCE
SRVC                    .            Baker Hughes INTEQ                     :SERVICE COMPANY
DATE                    .YY/MM/DD    13/05/23                               :LOG DATE
UWI                     .                                                   :UNIQUE WELL ID
DEPTHMD                 .m           3607.9                                 :MEASURED DEPTH
DEPTHTVD                .m           3008.4                                 :TRUE VERTICAL DEPTH


~CURVE INFORMATION
#MNEM                   .UNIT        API CODES                               DESCRIPTION
#________________________________________________________________________________________
TIME                    .s                                                  :01 TIME
DD_PRESS                .bar                                                :02 DRAW DOWN PRESSURE
DD_VOLUME               .cm3                                                :03 INCREMENTAL DRAW DOWN VOLUME
TEMP                    .degC                                               :04 TRANSDUCER TEMPERATURE
DD_PRESS_MOD_1000       .bar                                                :05 DRAW DOWN PRESSURE MOD 1000
DD_PRESS_MOD_100        .bar                                                :06 DRAW DOWN PRESSURE MOD 100
DD_PRESS_MOD_10         .bar                                                :07 DRAW DOWN PRESSURE MOD 10
DD_PRESS_MOD_1          .bar                                                :08 DRAW DOWN PRESSURE MOD 1
DD_PRESS_MOD_01         .bar                                                :09 DRAW DOWN PRESSURE MOD 01
DD_PRESS_MOD_001        .bar                                                :10 DRAW DOWN PRESSURE MOD 001
DD_PRESS_MOD_0001       .bar                                                :11 DRAW DOWN PRESSURE MOD 0001


~PARAMETER INFORMATION
#MNEM                   .UNIT        VALUE                                   DESCRIPTION
#________________________________________________________________________________________
TOOLFACE                .deg         -38.9                                  :01 TOOLFACE
PUMP_CAPACITY           .bar         400                                    :02 NOMINAL DRAW DOWN PUMP CAPACITY
PUMP_LIMIT              .bar         240                                    :03 DOWNLINK PUMP LIMIT
TIME_LIMIT              .min         10                                     :04 DOWNLINK MAX TIME
TEST_TYPE               .            REPEAT                                 :05 DOWNLINK
TEST_TYPE               .            HIGH MOBILITY                          :06 DOWNLINK
DD_PIST_A               .cm2         3.1416                                 :07 DRAW DOWN PISTON AREA
V_SYS                   .cm3         131.0000                               :08 SYSTEM VOLUME
PROBE_ID                .cm          1.2700                                 :09 TTK PROBE ID
G0                      .            4.6700                                 :10 GEOMETRY FACTOR


~A                  TIME     DD_PRESS                              DD_VOLUME               TEMP                                   DD_PRESS_MOD_1000       DD_PRESS_MOD_100        DD_PRESS_MOD_10         DD_PRESS_MOD_1        DD_PRESS_MOD_01       DD_PRESS_MOD_001      DD_PRESS_MOD_0001
# ...
                  212.10    418.66015                                0.00000             71.203                                        4.18660e+002           1.86602e+001           8.66015e+000           6.60152e-001           6.01523e-002           1.52281e-004           1.52281e-004
                  212.20    418.67715                                0.00000             71.203                                        4.18677e+002           1.86771e+001           8.67715e+000           6.77148e-001           7.71476e-002           7.14761e-003           1.47615e-004
                  212.30    418.68265                                0.00000             71.203                                        4.18683e+002           1.86827e+001           8.68265e+000           6.82651e-001           8.26505e-002           2.65052e-003           6.50522e-004
                  212.40    418.66803                                0.00000             71.203                                        4.18668e+002           1.86680e+001           8.66803e+000           6.68031e-001           6.80308e-002           8.03080e-003           3.07970e-005
                  212.50    418.67200                                0.00000             71.203                                        4.18672e+002           1.86720e+001           8.67200e+000           6.72001e-001           7.20008e-002           2.00078e-003           7.77561e-007
                  212.60    418.69603                                0.00000             71.203                                        4.18696e+002           1.86960e+001           8.69603e+000           6.96032e-001           9.60315e-002           6.03153e-003           3.15327e-005
                  212.70    418.69052                                0.00000             71.203                                        4.18691e+002           1.86905e+001           8.69052e+000           6.90518e-001           9.05176e-002           5.17593e-004           5.17593e-004
                  212.80    418.66110                                0.00000             71.203                                        4.18661e+002           1.86611e+001           8.66110e+000           6.61096e-001           6.10964e-002           1.09644e-003           9.64447e-005
                  212.90    418.66915                                0.00000             71.203                                        4.18669e+002           1.86692e+001           8.66915e+000           6.69151e-001           6.91512e-002           9.15119e-003           1.51190e-004
                  213.00    418.70081                                0.00000             71.203                                        4.18701e+002           1.87008e+001           8.70081e+000           7.00808e-001           8.07608e-004           8.07608e-004           8.07608e-004
                  213.10    418.69732                                0.00000             71.203                                        4.18697e+002           1.86973e+001           8.69732e+000           6.97324e-001           9.73239e-002           7.32391e-003           3.23906e-004
                  213.20    418.66615                                0.00000             71.203                                        4.18666e+002           1.86661e+001           8.66615e+000           6.66149e-001           6.61490e-002           6.14899e-003           1.48994e-004
                  213.30    418.68723                                0.00000             71.203                                        4.18687e+002           1.86872e+001           8.68723e+000           6.87227e-001           8.72267e-002           7.22673e-003           2.26731e-004
                  213.40    418.71751                                0.00000             71.203                                        4.18718e+002           1.87175e+001           8.71751e+000           7.17512e-001           1.75116e-002           7.51163e-003           5.11629e-004
                  213.50    418.69447                                0.00000             71.203                                        4.18694e+002           1.86945e+001           8.69447e+000           6.94474e-001           9.44740e-002           4.47396e-003           4.73958e-004
                  213.60    418.65534                                0.00000             71.203                                        4.18655e+002           1.86553e+001           8.65534e+000           6.55341e-001           5.53408e-002           5.34078e-003           3.40781e-004
                  213.70    418.68458                                0.00000             71.203                                        4.18685e+002           1.86846e+001           8.68458e+000           6.84576e-001           8.45758e-002           4.57579e-003           5.75795e-004
                  213.80    418.71035                                0.00000             71.203                                        4.18710e+002           1.87103e+001           8.71035e+000           7.10345e-001           1.03452e-002           3.45238e-004           3.45238e-004
                  213.90    418.68987                                0.00000             71.203                                        4.18690e+002           1.86899e+001           8.68987e+000           6.89868e-001           8.98680e-002           9.86800e-003           8.67996e-004
                  214.00    418.67069                                0.00000             71.203                                        4.18671e+002           1.86707e+001           8.67069e+000           6.70694e-001           7.06942e-002           6.94162e-004           6.94162e-004
                  214.10    418.71294                                0.00000             71.203                                        4.18713e+002           1.87129e+001           8.71294e+000           7.12944e-001           1.29441e-002           2.94411e-003           9.44107e-004
