~VERSION INFORMATION
VERS                    .            2.0                                    :CWLS LOG ASCII STANDARD
WRAP                    .            NO                                     :ONE LINE PER TIME STEP


~WELL INFORMATION
#MNEM                   .UNIT        DATA                                    DESCRIPTION
#________________________________________________________________________________________
STRTTIME                .HH/MM/SS    08:48:41                               :START TIME
STOPTIME                .HH/MM/SS    08:51:35                               :STOP TIME
STRT                    .s           2.10                                   :START DATA
STOP                    .s           172.50                                 :STOP DATA
STEP                    .s           0.10                                   :MEASUREMENT TIME INTERVAL
NULL                    .            -999.25                                :NULL VALUE
COMP                    .            Statoil ASA                            :COMPANY
FLD                     .            Volve                                  :FIELD
WELL                    .            15/9-F-11 A                            :WELL
RUN                     .            8                                      :RUN
LOC                     .            Maersk Inspirer                        :LOCATION
PROV                    .            na                                     :PROVINCE
SRVC                    .            Baker Hughes INTEQ                     :SERVICE COMPANY
DATE                    .YY/MM/DD    13/05/21                               :LOG DATE
UWI                     .                                                   :UNIQUE WELL ID
DEPTHMD                 .m           3681.0                                 :MEASURED DEPTH
DEPTHTVD                .m           3064.4                                 :TRUE VERTICAL DEPTH


~CURVE INFORMATION
#MNEM                   .UNIT        API CODES                               DESCRIPTION
#________________________________________________________________________________________
TIME                    .s                                                  :01 TIME
DD_PRESS                .bar                                                :02 DRAW DOWN PRESSURE
DD_VOLUME               .cm3                                                :03 INCREMENTAL DRAW DOWN VOLUME
TEMP                    .degC                                               :04 TRANSDUCER TEMPERATURE
DD_PRESS_MOD_1000       .bar                                                :05 DRAW DOWN PRESSURE MOD 1000
DD_PRESS_MOD_100        .bar                                                :06 DRAW DOWN PRESSURE MOD 100
DD_PRESS_MOD_10         .bar                                                :07 DRAW DOWN PRESSURE MOD 10
DD_PRESS_MOD_1          .bar                                                :08 DRAW DOWN PRESSURE MOD 1
DD_PRESS_MOD_01         .bar                                                :09 DRAW DOWN PRESSURE MOD 01
DD_PRESS_MOD_001        .bar                                                :10 DRAW DOWN PRESSURE MOD 001
DD_PRESS_MOD_0001       .bar                                                :11 DRAW DOWN PRESSURE MOD 0001


~PARAMETER INFORMATION
#MNEM                   .UNIT        VALUE                                   DESCRIPTION
#________________________________________________________________________________________
TOOLFACE                .deg         -59.5                                  :01 TOOLFACE
PUMP_CAPACITY           .bar         400                                    :02 NOMINAL DRAW DOWN PUMP CAPACITY
PUMP_LIMIT              .bar         240                                    :03 DOWNLINK PUMP LIMIT
TIME_LIMIT              .min         10                                     :04 DOWNLINK MAX TIME
TEST_TYPE               .            REPEAT                                 :05 DOWNLINK
TEST_TYPE               .            HIGH MOBILITY                          :06 DOWNLINK
DD_PIST_A               .cm2         3.1416                                 :07 DRAW DOWN PISTON AREA
V_SYS                   .cm3         131.0000                               :08 SYSTEM VOLUME
PROBE_ID                .cm          1.2700                                 :09 TTK PROBE ID
G0                      .            4.6700                                 :10 GEOMETRY FACTOR


~A                  TIME     DD_PRESS                              DD_VOLUME               TEMP                                   DD_PRESS_MOD_1000       DD_PRESS_MOD_100        DD_PRESS_MOD_10         DD_PRESS_MOD_1        DD_PRESS_MOD_01       DD_PRESS_MOD_001      DD_PRESS_MOD_0001
# ...
                  114.10    345.54475                               19.86705             82.578                                        3.45545e+002           4.55447e+001           5.54475e+000           5.44745e-001           4.47454e-002           4.74542e-003           7.45422e-004
                  114.20    345.54311                               19.86705             82.578                                        3.45543e+002           4.55431e+001           5.54311e+000           5.43112e-001           4.31120e-002           3.11202e-003           1.12023e-004
                  114.30    345.53951                               19.86705             82.578                                        3.45540e+002           4.55395e+001           5.53951e+000           5.39507e-001           3.95069e-002           9.50695e-003           5.06947e-004
                  114.40    345.53739                               19.86705             82.578                                        3.45537e+002           4.55374e+001           5.53739e+000           5.37389e-001           3.73889e-002           7.38888e-003           3.88875e-004
                  114.50    345.53904                               19.86705             82.578                                        3.45539e+002           4.55390e+001           5.53904e+000           5.39040e-001           3.90397e-002           9.03974e-003           3.97364e-005
                  114.60    345.54254                               19.86705             82.578                                        3.45543e+002           4.55425e+001           5.54254e+000           5.42543e-001           4.25428e-002           2.54279e-003           5.42786e-004
                  114.70    345.53897                               19.86705             82.578                                        3.45539e+002           4.55390e+001           5.53897e+000           5.38971e-001           3.89709e-002           8.97090e-003           9.70901e-004
                  114.80    345.53823                               19.86705             82.578                                        3.45538e+002           4.55382e+001           5.53823e+000           5.38233e-001           3.82334e-002           8.23341e-003           2.33415e-004
                  114.90    345.55057                               19.86705             82.578                                        3.45551e+002           4.55506e+001           5.55057e+000           5.50565e-001           5.05653e-002           5.65344e-004           5.65344e-004
                  115.00    345.55303                               19.86705             82.578                                        3.45553e+002           4.55530e+001           5.55303e+000           5.53028e-001           5.30279e-002           3.02793e-003           2.79277e-005
                  115.10    345.54331                               19.86705             82.578                                        3.45543e+002           4.55433e+001           5.54331e+000           5.43307e-001           4.33074e-002           3.30739e-003           3.07391e-004
                  115.20    345.53772                               19.86705             82.578                                        3.45538e+002           4.55377e+001           5.53772e+000           5.37722e-001           3.77216e-002           7.72156e-003           7.21558e-004
                  115.30    345.53507                               19.86705             82.578                                        3.45535e+002           4.55351e+001           5.53507e+000           5.35066e-001           3.50664e-002           5.06641e-003           6.64097e-005
                  115.40    345.54221                               19.86705             82.578                                        3.45542e+002           4.55422e+001           5.54221e+000           5.42206e-001           4.22064e-002           2.20644e-003           2.06442e-004
                  115.50    345.54555                               19.86705             82.578                                        3.45546e+002           4.55455e+001           5.54555e+000           5.45548e-001           4.55484e-002           5.54839e-003           5.48393e-004
                  115.60    345.54123                               19.86705             82.578                                        3.45541e+002           4.55412e+001           5.54123e+000           5.41230e-001           4.12302e-002           1.23021e-003           2.30212e-004
                  115.70    345.54362                               19.86705             82.578                                        3.45544e+002           4.55436e+001           5.54362e+000           5.43617e-001           4.36166e-002           3.61656e-003           6.16560e-004
                  115.80    345.54567                               19.86705             82.578                                        3.45546e+002           4.55457e+001           5.54567e+000           5.45672e-001           4.56717e-002           5.67171e-003           6.71709e-004
                  115.90    345.54989                               19.86705             82.578                                        3.45550e+002           4.55499e+001           5.54989e+000           5.49893e-001           4.98935e-002           9.89346e-003           8.93460e-004
                  116.00    345.55300                               19.86705             82.578                                        3.45553e+002           4.55530e+001           5.55300e+000           5.52995e-001           5.29951e-002           2.99507e-003           9.95067e-004
                  116.10    345.54630                               19.86705             82.578                                        3.45546e+002           4.55463e+001           5.54630e+000           5.46299e-001           4.62989e-002           6.29889e-003           2.98892e-004
                  116.20    345.53764                               19.86705             82.578                                        3.45538e+002           4.55376e+001           5.53764e+000           5.37635e-001           3.76351e-002           7.63507e-003           6.35073e-004
                  116.30    345.53237                               19.86705             82.578                                        3.45532e+002           4.55324e+001           5.53237e+000           5.32366e-001           3.23656e-002           2.36555e-003           3.65554e-004
                  116.40    345.53161                               19.86705             82.578                                        3.45532e+002           4.55316e+001           5.53161e+000           5.31611e-001           3.16113e-002           1.61127e-003           6.11266e-004
                  116.50    345.53830                               19.86705             82.578                                        3.45538e+002           4.55383e+001           5.53830e+000           5.38299e-001           3.82989e-002           8.29894e-003           2.98940e-004
                  116.60    345.54355                               19.86705             82.578                                        3.45544e+002           4.55435e+001           5.54355e+000           5.43548e-001           4.35478e-002           3.54785e-003           5.47847e-004
                  116.70    345.54390                               19.86705             82.578                                        3.45544e+002           4.55439e+001           5.54390e+000           5.43900e-001           4.39003e-002           3.90034e-003           9.00340e-004
                  116.80    345.54083                               19.86705             82.578                                        3.45541e+002           4.55408e+001           5.54083e+000           5.40825e-001           4.08252e-002           8.25243e-004           8.25243e-004
