~VERSION INFORMATION
VERS                    .            2.0                                    :CWLS LOG ASCII STANDARD
WRAP                    .            NO                                     :ONE LINE PER TIME STEP


~WELL INFORMATION
#MNEM                   .UNIT        DATA                                    DESCRIPTION
#________________________________________________________________________________________
STRTTIME                .HH/MM/SS    19:37:02                               :START TIME
STOPTIME                .HH/MM/SS    19:40:38                               :STOP TIME
STRT                    .s           2.10                                   :START DATA
STOP                    .s           214.10                                 :STOP DATA
STEP                    .s           0.10                                   :MEASUREMENT TIME INTERVAL
NULL                    .            -999.25                                :NULL VALUE
COMP                    .            Statoil ASA                            :COMPANY
FLD                     .            Volve                                  :FIELD
WELL                    .            15/9-F-11 A                            :WELL
RUN                     .            8                                      :RUN
LOC                     .            Maersk Inspirer                        :LOCATION
PROV                    .            na                                     :PROVINCE
SRVC                    .            Baker Hughes INTEQ                     :SERVICE COMPANY
DATE                    .YY/MM/DD    13/05/23                               :LOG DATE
UWI                     .                                                   :UNIQUE WELL ID
DEPTHMD                 .m           3607.9                                 :MEASURED DEPTH
DEPTHTVD                .m           3008.4                                 :TRUE VERTICAL DEPTH


~CURVE INFORMATION
#MNEM                   .UNIT        API CODES                               DESCRIPTION
#________________________________________________________________________________________
TIME                    .s                                                  :01 TIME
DD_PRESS                .bar                                                :02 DRAW DOWN PRESSURE
DD_VOLUME               .cm3                                                :03 INCREMENTAL DRAW DOWN VOLUME
TEMP                    .degC                                               :04 TRANSDUCER TEMPERATURE
DD_PRESS_MOD_1000       .bar                                                :05 DRAW DOWN PRESSURE MOD 1000
DD_PRESS_MOD_100        .bar                                                :06 DRAW DOWN PRESSURE MOD 100
DD_PRESS_MOD_10         .bar                                                :07 DRAW DOWN PRESSURE MOD 10
DD_PRESS_MOD_1          .bar                                                :08 DRAW DOWN PRESSURE MOD 1
DD_PRESS_MOD_01         .bar                                                :09 DRAW DOWN PRESSURE MOD 01
DD_PRESS_MOD_001        .bar                                                :10 DRAW DOWN PRESSURE MOD 001
DD_PRESS_MOD_0001       .bar                                                :11 DRAW DOWN PRESSURE MOD 0001


~PARAMETER INFORMATION
#MNEM                   .UNIT        VALUE                                   DESCRIPTION
#________________________________________________________________________________________
TOOLFACE                .deg         -38.9                                  :01 TOOLFACE
PUMP_CAPACITY           .bar         400                                    :02 NOMINAL DRAW DOWN PUMP CAPACITY
PUMP_LIMIT              .bar         240                                    :03 DOWNLINK PUMP LIMIT
TIME_LIMIT              .min         10                                     :04 DOWNLINK MAX TIME
TEST_TYPE               .            REPEAT                                 :05 DOWNLINK
TEST_TYPE               .            HIGH MOBILITY                          :06 DOWNLINK
DD_PIST_A               .cm2         3.1416                                 :07 DRAW DOWN PISTON AREA
V_SYS                   .cm3         131.0000                               :08 SYSTEM VOLUME
PROBE_ID                .cm          1.2700                                 :09 TTK PROBE ID
G0                      .            4.6700                                 :10 GEOMETRY FACTOR


~A                  TIME     DD_PRESS                              DD_VOLUME               TEMP                                   DD_PRESS_MOD_1000       DD_PRESS_MOD_100        DD_PRESS_MOD_10         DD_PRESS_MOD_1        DD_PRESS_MOD_01       DD_PRESS_MOD_001      DD_PRESS_MOD_0001
# ...
                   30.10    385.51646                                1.43824             71.281                                        3.85516e+002           8.55165e+001           5.51646e+000           5.16462e-001           1.64619e-002           6.46187e-003           4.61874e-004
                   30.20    382.41284                                1.48271             71.281                                        3.82413e+002           8.24128e+001           2.41284e+000           4.12842e-001           1.28417e-002           2.84171e-003           8.41711e-004
                   30.30    379.15469                                1.52883             71.281                                        3.79155e+002           7.91547e+001           9.15469e+000           1.54686e-001           5.46865e-002           4.68649e-003           6.86487e-004
                   30.40    375.72379                                1.57681             71.281                                        3.75724e+002           7.57238e+001           5.72379e+000           7.23790e-001           2.37904e-002           3.79036e-003           7.90360e-004
                   30.50    372.15656                                1.62659             71.281                                        3.72157e+002           7.21566e+001           2.15656e+000           1.56559e-001           5.65591e-002           6.55905e-003           5.59055e-004
                   30.60    368.45243                                1.67805             71.281                                        3.68452e+002           6.84524e+001           8.45243e+000           4.52434e-001           5.24342e-002           2.43420e-003           4.34203e-004
                   30.70    364.57795                                1.73114             71.281                                        3.64578e+002           6.45779e+001           4.57795e+000           5.77946e-001           7.79464e-002           7.94642e-003           9.46418e-004
                   30.80    360.53913                                1.78590             71.279                                        3.60539e+002           6.05391e+001           5.39129e-001           5.39129e-001           3.91285e-002           9.12854e-003           1.28538e-004
                   30.90    356.36961                                1.84228             71.275                                        3.56370e+002           5.63696e+001           6.36961e+000           3.69607e-001           6.96070e-002           9.60699e-003           6.06992e-004
                   31.00    352.09596                                1.90027             71.273                                        3.52096e+002           5.20960e+001           2.09596e+000           9.59608e-002           9.59608e-002           5.96082e-003           9.60818e-004
                   31.10    347.69281                                1.95989             71.276                                        3.47693e+002           4.76928e+001           7.69281e+000           6.92813e-001           9.28129e-002           2.81295e-003           8.12949e-004
                   31.20    343.19792                                2.02108             71.279                                        3.43198e+002           4.31979e+001           3.19792e+000           1.97918e-001           9.79179e-002           7.91789e-003           9.17886e-004
                   31.30    338.84674                                2.08380             71.281                                        3.38847e+002           3.88467e+001           8.84674e+000           8.46743e-001           4.67434e-002           6.74338e-003           7.43379e-004
                   31.40    335.13158                                2.14812             71.279                                        3.35132e+002           3.51316e+001           5.13158e+000           1.31583e-001           3.15834e-002           1.58342e-003           5.83418e-004
                   31.50    332.49529                                2.21396             71.275                                        3.32495e+002           3.24953e+001           2.49529e+000           4.95289e-001           9.52893e-002           5.28930e-003           2.89302e-004
                   31.60    330.82106                                2.28128             71.273                                        3.30821e+002           3.08211e+001           8.21060e-001           8.21060e-001           2.10596e-002           1.05960e-003           5.95960e-005
                   31.70    329.71134                                2.35008             71.273                                        3.29711e+002           2.97113e+001           9.71134e+000           7.11344e-001           1.13436e-002           1.34357e-003           3.43568e-004
                   31.80    328.95440                                2.42026             71.273                                        3.28954e+002           2.89544e+001           8.95440e+000           9.54403e-001           5.44032e-002           4.40320e-003           4.03196e-004
                   31.90    328.40342                                2.49182             71.273                                        3.28403e+002           2.84034e+001           8.40342e+000           4.03424e-001           3.42366e-003           3.42366e-003           4.23660e-004
                   32.00    327.98889                                2.56488             71.273                                        3.27989e+002           2.79889e+001           7.98889e+000           9.88889e-001           8.88888e-002           8.88884e-003           8.88841e-004
                   32.10    327.68680                                2.63936             71.273                                        3.27687e+002           2.76868e+001           7.68680e+000           6.86801e-001           8.68008e-002           6.80081e-003           8.00812e-004
                   32.20    327.45260                                2.71509             71.273                                        3.27453e+002           2.74526e+001           7.45260e+000           4.52603e-001           5.26031e-002           2.60311e-003           6.03111e-004
                   32.30    327.24472                                2.79210             71.273                                        3.27245e+002           2.72447e+001           7.24472e+000           2.44720e-001           4.47197e-002           4.71967e-003           7.19666e-004
                   32.40    327.07027                                2.87036             71.273                                        3.27070e+002           2.70703e+001           7.07027e+000           7.02707e-002           7.02707e-002           2.70699e-004           2.70699e-004
                   32.50    326.93544                                2.94981             71.273                                        3.26935e+002           2.69354e+001           6.93544e+000           9.35438e-001           3.54378e-002           5.43776e-003           4.37764e-004
                   32.60    326.80231                                3.03051             71.273                                        3.26802e+002           2.68023e+001           6.80231e+000           8.02305e-001           2.30540e-003           2.30540e-003           3.05396e-004
                   32.70    326.66006                                3.11232             71.273                                        3.26660e+002           2.66601e+001           6.66006e+000           6.60063e-001           6.00633e-002           6.32913e-005           6.32913e-005
                   32.80    326.50780                                3.19530             71.273                                        3.26508e+002           2.65078e+001           6.50780e+000           5.07798e-001           7.79839e-003           7.79839e-003           7.98389e-004
