~VERSION INFORMATION
VERS                    .            2.0                                    :CWLS LOG ASCII STANDARD
WRAP                    .            NO                                     :ONE LINE PER TIME STEP


~WELL INFORMATION
#MNEM                   .UNIT        DATA                                    DESCRIPTION
#________________________________________________________________________________________
STRTTIME                .HH/MM/SS    11:44:47                               :START TIME
STOPTIME                .HH/MM/SS    11:47:33                               :STOP TIME
STRT                    .s           2.10                                   :START DATA
STOP                    .s           164.50                                 :STOP DATA
STEP                    .s           0.10                                   :MEASUREMENT TIME INTERVAL
NULL                    .            -999.25                                :NULL VALUE
COMP                    .            Statoil ASA                            :COMPANY
FLD                     .            Volve                                  :FIELD
WELL                    .            15/9-F-11 A                            :WELL
RUN                     .            8                                      :RUN
LOC                     .            Maersk Inspirer                        :LOCATION
PROV                    .            na                                     :PROVINCE
SRVC                    .            Baker Hughes INTEQ                     :SERVICE COMPANY
DATE                    .YY/MM/DD    13/05/21                               :LOG DATE
UWI                     .                                                   :UNIQUE WELL ID
DEPTHMD                 .m           3624.0                                 :MEASURED DEPTH
DEPTHTVD                .m           3020.7                                 :TRUE VERTICAL DEPTH


~CURVE INFORMATION
#MNEM                   .UNIT        API CODES                               DESCRIPTION
#________________________________________________________________________________________
TIME                    .s                                                  :01 TIME
DD_PRESS                .bar                                                :02 DRAW DOWN PRESSURE
DD_VOLUME               .cm3                                                :03 INCREMENTAL DRAW DOWN VOLUME
TEMP                    .degC                                               :04 TRANSDUCER TEMPERATURE
DD_PRESS_MOD_1000       .bar                                                :05 DRAW DOWN PRESSURE MOD 1000
DD_PRESS_MOD_100        .bar                                                :06 DRAW DOWN PRESSURE MOD 100
DD_PRESS_MOD_10         .bar                                                :07 DRAW DOWN PRESSURE MOD 10
DD_PRESS_MOD_1          .bar                                                :08 DRAW DOWN PRESSURE MOD 1
DD_PRESS_MOD_01         .bar                                                :09 DRAW DOWN PRESSURE MOD 01
DD_PRESS_MOD_001        .bar                                                :10 DRAW DOWN PRESSURE MOD 001
DD_PRESS_MOD_0001       .bar                                                :11 DRAW DOWN PRESSURE MOD 0001


~PARAMETER INFORMATION
#MNEM                   .UNIT        VALUE                                   DESCRIPTION
#________________________________________________________________________________________
TOOLFACE                .deg         61.7                                   :01 TOOLFACE
PUMP_CAPACITY           .bar         400                                    :02 NOMINAL DRAW DOWN PUMP CAPACITY
PUMP_LIMIT              .bar         240                                    :03 DOWNLINK PUMP LIMIT
TIME_LIMIT              .min         10                                     :04 DOWNLINK MAX TIME
TEST_TYPE               .            REPEAT                                 :05 DOWNLINK
TEST_TYPE               .            HIGH MOBILITY                          :06 DOWNLINK
DD_PIST_A               .cm2         3.1416                                 :07 DRAW DOWN PISTON AREA
V_SYS                   .cm3         131.0000                               :08 SYSTEM VOLUME
PROBE_ID                .cm          1.2700                                 :09 TTK PROBE ID
G0                      .            4.6700                                 :10 GEOMETRY FACTOR


~A                  TIME     DD_PRESS                              DD_VOLUME               TEMP                                   DD_PRESS_MOD_1000       DD_PRESS_MOD_100        DD_PRESS_MOD_10         DD_PRESS_MOD_1        DD_PRESS_MOD_01       DD_PRESS_MOD_001      DD_PRESS_MOD_0001
# ...
                  108.50    342.13337                               19.78935             81.430                                        3.42133e+002           4.21334e+001           2.13337e+000           1.33374e-001           3.33735e-002           3.37351e-003           3.73513e-004
                  108.60    342.13405                               19.78935             81.430                                        3.42134e+002           4.21341e+001           2.13405e+000           1.34051e-001           3.40507e-002           4.05070e-003           5.06987e-005
                  108.70    342.13387                               19.78935             81.430                                        3.42134e+002           4.21339e+001           2.13387e+000           1.33873e-001           3.38728e-002           3.87278e-003           8.72778e-004
                  108.80    342.13450                               19.78935             81.430                                        3.42135e+002           4.21345e+001           2.13450e+000           1.34502e-001           3.45020e-002           4.50205e-003           5.02047e-004
                  108.90    342.13406                               19.78935             81.430                                        3.42134e+002           4.21341e+001           2.13406e+000           1.34056e-001           3.40559e-002           4.05585e-003           5.58517e-005
                  109.00    342.13502                               19.78935             81.430                                        3.42135e+002           4.21350e+001           2.13502e+000           1.35023e-001           3.50230e-002           5.02300e-003           2.29997e-005
                  109.10    342.13613                               19.78935             81.430                                        3.42136e+002           4.21361e+001           2.13613e+000           1.36131e-001           3.61312e-002           6.13120e-003           1.31200e-004
                  109.20    342.13666                               19.78935             81.430                                        3.42137e+002           4.21367e+001           2.13666e+000           1.36663e-001           3.66632e-002           6.66324e-003           6.63242e-004
                  109.30    342.13490                               19.78935             81.430                                        3.42135e+002           4.21349e+001           2.13490e+000           1.34897e-001           3.48966e-002           4.89664e-003           8.96638e-004
                  109.40    342.13398                               19.78935             81.430                                        3.42134e+002           4.21340e+001           2.13398e+000           1.33980e-001           3.39798e-002           3.97982e-003           9.79820e-004
                  109.50    342.13387                               19.78935             81.430                                        3.42134e+002           4.21339e+001           2.13387e+000           1.33869e-001           3.38690e-002           3.86898e-003           8.68979e-004
                  109.60    342.13391                               19.78935             81.430                                        3.42134e+002           4.21339e+001           2.13391e+000           1.33908e-001           3.39084e-002           3.90841e-003           9.08406e-004
                  109.70    342.13474                               19.78935             81.430                                        3.42135e+002           4.21347e+001           2.13474e+000           1.34745e-001           3.47446e-002           4.74457e-003           7.44565e-004
                  109.80    342.13449                               19.78935             81.430                                        3.42134e+002           4.21345e+001           2.13449e+000           1.34487e-001           3.44874e-002           4.48738e-003           4.87381e-004
                  109.90    342.13487                               19.78935             81.430                                        3.42135e+002           4.21349e+001           2.13487e+000           1.34867e-001           3.48667e-002           4.86670e-003           8.66700e-004
                  110.00    342.13415                               19.78935             81.430                                        3.42134e+002           4.21341e+001           2.13415e+000           1.34148e-001           3.41483e-002           4.14828e-003           1.48279e-004
                  110.10    342.13387                               19.78935             81.430                                        3.42134e+002           4.21339e+001           2.13387e+000           1.33874e-001           3.38742e-002           3.87421e-003           8.74207e-004
                  110.20    342.13468                               19.78935             81.430                                        3.42135e+002           4.21347e+001           2.13468e+000           1.34684e-001           3.46835e-002           4.68352e-003           6.83517e-004
                  110.30    342.13436                               19.78935             81.430                                        3.42134e+002           4.21344e+001           2.13436e+000           1.34357e-001           3.43573e-002           4.35729e-003           3.57295e-004
                  110.40    342.09982                               19.79172             81.430                                        3.42100e+002           4.20998e+001           2.09982e+000           9.98242e-002           9.98242e-002           9.82419e-003           8.24190e-004
                  110.50    341.80130                               19.84556             81.430                                        3.41801e+002           4.18013e+001           1.80130e+000           8.01305e-001           1.30467e-003           1.30467e-003           3.04673e-004
                  110.60    341.35753                               20.01735             81.430                                        3.41358e+002           4.13575e+001           1.35753e+000           3.57532e-001           5.75323e-002           7.53227e-003           5.32265e-004
                  110.70    341.11214                               20.28774             81.430                                        3.41112e+002           4.11121e+001           1.11214e+000           1.12138e-001           1.21384e-002           2.13843e-003           1.38433e-004
                  110.80    341.08438                               20.58180             81.430                                        3.41084e+002           4.10844e+001           1.08438e+000           8.43808e-002           8.43808e-002           4.38085e-003           3.80846e-004
                  110.90    341.08088                               20.87637             81.430                                        3.41081e+002           4.10809e+001           1.08088e+000           8.08779e-002           8.08779e-002           8.77900e-004           8.77900e-004
                  111.00    341.09322                               21.17123             81.430                                        3.41093e+002           4.10932e+001           1.09322e+000           9.32169e-002           9.32169e-002           3.21688e-003           2.16876e-004
                  111.10    341.10455                               21.46616             81.430                                        3.41105e+002           4.11046e+001           1.10455e+000           1.04550e-001           4.55010e-003           4.55010e-003           5.50098e-004
                  111.20    341.10550                               21.76108             81.430                                        3.41105e+002           4.11055e+001           1.10550e+000           1.05499e-001           5.49856e-003           5.49856e-003           4.98555e-004
