~VERSION INFORMATION
VERS                    .            2.0                                    :CWLS LOG ASCII STANDARD
WRAP                    .            NO                                     :ONE LINE PER TIME STEP


~WELL INFORMATION
#MNEM                   .UNIT        DATA                                    DESCRIPTION
#________________________________________________________________________________________
STRTTIME                .HH/MM/SS    19:52:58                               :START TIME
STOPTIME                .HH/MM/SS    19:58:21                               :STOP TIME
STRT                    .s           2.10                                   :START DATA
STOP                    .s           321.30                                 :STOP DATA
STEP                    .s           0.10                                   :MEASUREMENT TIME INTERVAL
NULL                    .            -999.25                                :NULL VALUE
COMP                    .            Statoil ASA                            :COMPANY
FLD                     .            Volve                                  :FIELD
WELL                    .            15/9-F-11 A                            :WELL
RUN                     .            8                                      :RUN
LOC                     .            Maersk Inspirer                        :LOCATION
PROV                    .            na                                     :PROVINCE
SRVC                    .            Baker Hughes INTEQ                     :SERVICE COMPANY
DATE                    .YY/MM/DD    13/05/23                               :LOG DATE
UWI                     .                                                   :UNIQUE WELL ID
DEPTHMD                 .m           3602.0                                 :MEASURED DEPTH
DEPTHTVD                .m           3003.9                                 :TRUE VERTICAL DEPTH


~CURVE INFORMATION
#MNEM                   .UNIT        API CODES                               DESCRIPTION
#________________________________________________________________________________________
TIME                    .s                                                  :01 TIME
DD_PRESS                .bar                                                :02 DRAW DOWN PRESSURE
DD_VOLUME               .cm3                                                :03 INCREMENTAL DRAW DOWN VOLUME
TEMP                    .degC                                               :04 TRANSDUCER TEMPERATURE
DD_PRESS_MOD_1000       .bar                                                :05 DRAW DOWN PRESSURE MOD 1000
DD_PRESS_MOD_100        .bar                                                :06 DRAW DOWN PRESSURE MOD 100
DD_PRESS_MOD_10         .bar                                                :07 DRAW DOWN PRESSURE MOD 10
DD_PRESS_MOD_1          .bar                                                :08 DRAW DOWN PRESSURE MOD 1
DD_PRESS_MOD_01         .bar                                                :09 DRAW DOWN PRESSURE MOD 01
DD_PRESS_MOD_001        .bar                                                :10 DRAW DOWN PRESSURE MOD 001
DD_PRESS_MOD_0001       .bar                                                :11 DRAW DOWN PRESSURE MOD 0001


~PARAMETER INFORMATION
#MNEM                   .UNIT        VALUE                                   DESCRIPTION
#________________________________________________________________________________________
TOOLFACE                .deg         -40.9                                  :01 TOOLFACE
PUMP_CAPACITY           .bar         400                                    :02 NOMINAL DRAW DOWN PUMP CAPACITY
PUMP_LIMIT              .bar         240                                    :03 DOWNLINK PUMP LIMIT
TIME_LIMIT              .min         10                                     :04 DOWNLINK MAX TIME
TEST_TYPE               .            REPEAT                                 :05 DOWNLINK
TEST_TYPE               .            HIGH MOBILITY                          :06 DOWNLINK
DD_PIST_A               .cm2         3.1416                                 :07 DRAW DOWN PISTON AREA
V_SYS                   .cm3         131.0000                               :08 SYSTEM VOLUME
PROBE_ID                .cm          1.2700                                 :09 TTK PROBE ID
G0                      .            4.6700                                 :10 GEOMETRY FACTOR


~A                  TIME     DD_PRESS                              DD_VOLUME               TEMP                                   DD_PRESS_MOD_1000       DD_PRESS_MOD_100        DD_PRESS_MOD_10         DD_PRESS_MOD_1        DD_PRESS_MOD_01       DD_PRESS_MOD_001      DD_PRESS_MOD_0001
# ...
                  150.50    335.32244                               10.71894             71.000                                        3.35322e+002           3.53224e+001           5.32244e+000           3.22442e-001           2.24419e-002           2.44191e-003           4.41909e-004
                  150.60    335.05340                               10.72754             71.000                                        3.35053e+002           3.50534e+001           5.05340e+000           5.33968e-002           5.33968e-002           3.39678e-003           3.96784e-004
                  150.70    334.76947                               10.73729             71.000                                        3.34769e+002           3.47695e+001           4.76947e+000           7.69471e-001           6.94714e-002           9.47141e-003           4.71408e-004
                  150.80    334.44532                               10.74705             71.000                                        3.34445e+002           3.44453e+001           4.44532e+000           4.45321e-001           4.53206e-002           5.32062e-003           3.20622e-004
                  150.90    334.12525                               10.75634             71.000                                        3.34125e+002           3.41252e+001           4.12525e+000           1.25249e-001           2.52490e-002           5.24903e-003           2.49033e-004
                  151.00    333.83559                               10.76638             71.000                                        3.33836e+002           3.38356e+001           3.83559e+000           8.35588e-001           3.55884e-002           5.58837e-003           5.88370e-004
                  151.10    333.52732                               10.77757             71.000                                        3.33527e+002           3.35273e+001           3.52732e+000           5.27316e-001           2.73160e-002           7.31605e-003           3.16050e-004
                  151.20    333.19647                               10.78835             71.000                                        3.33196e+002           3.31965e+001           3.19647e+000           1.96467e-001           9.64670e-002           6.46703e-003           4.67034e-004
                  151.30    332.89448                               10.79839             71.000                                        3.32894e+002           3.28945e+001           2.89448e+000           8.94482e-001           9.44824e-002           4.48241e-003           4.82411e-004
                  151.40    332.61428                               10.80937             71.000                                        3.32614e+002           3.26143e+001           2.61428e+000           6.14282e-001           1.42816e-002           4.28158e-003           2.81585e-004
                  151.50    332.30332                               10.82159             71.000                                        3.32303e+002           3.23033e+001           2.30332e+000           3.03315e-001           3.31515e-003           3.31515e-003           3.15151e-004
                  151.60    331.95682                               10.83385             71.000                                        3.31957e+002           3.19568e+001           1.95682e+000           9.56817e-001           5.68168e-002           6.81681e-003           8.16806e-004
                  151.70    331.62968                               10.84540             71.000                                        3.31630e+002           3.16297e+001           1.62968e+000           6.29685e-001           2.96846e-002           9.68460e-003           6.84600e-004
                  151.80    331.33747                               10.85734             71.000                                        3.31337e+002           3.13375e+001           1.33747e+000           3.37471e-001           3.74713e-002           7.47128e-003           4.71277e-004
                  151.90    331.03256                               10.87032             71.000                                        3.31033e+002           3.10326e+001           1.03256e+000           3.25609e-002           3.25609e-002           2.56087e-003           5.60866e-004
                  152.00    330.68082                               10.88319             71.000                                        3.30681e+002           3.06808e+001           6.80823e-001           6.80823e-001           8.08233e-002           8.23254e-004           8.23254e-004
                  152.10    330.34963                               10.89534             71.000                                        3.30350e+002           3.03496e+001           3.49630e-001           3.49630e-001           4.96304e-002           9.63036e-003           6.30364e-004
                  152.20    330.07645                               10.90816             71.000                                        3.30076e+002           3.00764e+001           7.64496e-002           7.64496e-002           7.64496e-002           6.44961e-003           4.49612e-004
                  152.30    329.79754                               10.92264             71.000                                        3.29798e+002           2.97975e+001           9.79754e+000           7.97539e-001           9.75393e-002           7.53934e-003           5.39337e-004
                  152.40    329.45512                               10.93724             71.000                                        3.29455e+002           2.94551e+001           9.45512e+000           4.55115e-001           5.51152e-002           5.11515e-003           1.15152e-004
                  152.50    329.11078                               10.95068             71.000                                        3.29111e+002           2.91108e+001           9.11078e+000           1.10779e-001           1.07786e-002           7.78628e-004           7.78628e-004
                  152.60    328.83479                               10.96418             71.000                                        3.28835e+002           2.88348e+001           8.83479e+000           8.34794e-001           3.47935e-002           4.79351e-003           7.93513e-004
                  152.70    328.58229                               10.97895             71.000                                        3.28582e+002           2.85823e+001           8.58229e+000           5.82292e-001           8.22916e-002           2.29158e-003           2.91575e-004
                  152.80    328.26855                               10.99432             71.000                                        3.28269e+002           2.82685e+001           8.26855e+000           2.68545e-001           6.85451e-002           8.54508e-003           5.45075e-004
                  152.90    327.93539                               11.00858             71.000                                        3.27935e+002           2.79354e+001           7.93539e+000           9.35393e-001           3.53930e-002           5.39304e-003           3.93036e-004
                  153.00    327.67253                               11.02245             71.000                                        3.27673e+002           2.76725e+001           7.67253e+000           6.72527e-001           7.25268e-002           2.52685e-003           5.26845e-004
                  153.10    327.43145                               11.03786             71.000                                        3.27431e+002           2.74314e+001           7.43145e+000           4.31446e-001           3.14459e-002           1.44593e-003           4.45935e-004
                  153.20    327.11259                               11.05397             71.000                                        3.27113e+002           2.71126e+001           7.11259e+000           1.12590e-001           1.25899e-002           2.58995e-003           5.89948e-004
