~VERSION INFORMATION
VERS                    .            2.0                                    :CWLS LOG ASCII STANDARD
WRAP                    .            NO                                     :ONE LINE PER TIME STEP


~WELL INFORMATION
#MNEM                   .UNIT        DATA                                    DESCRIPTION
#________________________________________________________________________________________
STRTTIME                .HH/MM/SS    15:31:36                               :START TIME
STOPTIME                .HH/MM/SS    15:34:21                               :STOP TIME
STRT                    .s           2.10                                   :START DATA
STOP                    .s           163.50                                 :STOP DATA
STEP                    .s           0.10                                   :MEASUREMENT TIME INTERVAL
NULL                    .            -999.25                                :NULL VALUE
COMP                    .            Statoil ASA                            :COMPANY
FLD                     .            Volve                                  :FIELD
WELL                    .            15/9-F-11 A                            :WELL
RUN                     .            8                                      :RUN
LOC                     .            Maersk Inspirer                        :LOCATION
PROV                    .            na                                     :PROVINCE
SRVC                    .            Baker Hughes INTEQ                     :SERVICE COMPANY
DATE                    .YY/MM/DD    13/05/21                               :LOG DATE
UWI                     .                                                   :UNIQUE WELL ID
DEPTHMD                 .m           3617.2                                 :MEASURED DEPTH
DEPTHTVD                .m           3015.5                                 :TRUE VERTICAL DEPTH


~CURVE INFORMATION
#MNEM                   .UNIT        API CODES                               DESCRIPTION
#________________________________________________________________________________________
TIME                    .s                                                  :01 TIME
DD_PRESS                .bar                                                :02 DRAW DOWN PRESSURE
DD_VOLUME               .cm3                                                :03 INCREMENTAL DRAW DOWN VOLUME
TEMP                    .degC                                               :04 TRANSDUCER TEMPERATURE
DD_PRESS_MOD_1000       .bar                                                :05 DRAW DOWN PRESSURE MOD 1000
DD_PRESS_MOD_100        .bar                                                :06 DRAW DOWN PRESSURE MOD 100
DD_PRESS_MOD_10         .bar                                                :07 DRAW DOWN PRESSURE MOD 10
DD_PRESS_MOD_1          .bar                                                :08 DRAW DOWN PRESSURE MOD 1
DD_PRESS_MOD_01         .bar                                                :09 DRAW DOWN PRESSURE MOD 01
DD_PRESS_MOD_001        .bar                                                :10 DRAW DOWN PRESSURE MOD 001
DD_PRESS_MOD_0001       .bar                                                :11 DRAW DOWN PRESSURE MOD 0001


~PARAMETER INFORMATION
#MNEM                   .UNIT        VALUE                                   DESCRIPTION
#________________________________________________________________________________________
TOOLFACE                .deg         63.0                                   :01 TOOLFACE
PUMP_CAPACITY           .bar         400                                    :02 NOMINAL DRAW DOWN PUMP CAPACITY
PUMP_LIMIT              .bar         240                                    :03 DOWNLINK PUMP LIMIT
TIME_LIMIT              .min         10                                     :04 DOWNLINK MAX TIME
TEST_TYPE               .            HIGH MOBILITY                          :05 DOWNLINK
DD_PIST_A               .cm2         3.1416                                 :06 DRAW DOWN PISTON AREA
V_SYS                   .cm3         131.0000                               :07 SYSTEM VOLUME
PROBE_ID                .cm          1.2700                                 :08 TTK PROBE ID
G0                      .            4.6700                                 :09 GEOMETRY FACTOR


~A                  TIME     DD_PRESS                              DD_VOLUME               TEMP                                   DD_PRESS_MOD_1000       DD_PRESS_MOD_100        DD_PRESS_MOD_10         DD_PRESS_MOD_1        DD_PRESS_MOD_01       DD_PRESS_MOD_001      DD_PRESS_MOD_0001
# ...
                   97.30    341.69000                               19.93262             80.172                                        3.41690e+002           4.16900e+001           1.69000e+000           6.89995e-001           8.99953e-002           9.99533e-003           9.95327e-004
                   97.40    341.69065                               19.93262             80.172                                        3.41691e+002           4.16906e+001           1.69065e+000           6.90646e-001           9.06455e-002           6.45516e-004           6.45516e-004
                   97.50    341.69278                               19.93262             80.172                                        3.41693e+002           4.16928e+001           1.69278e+000           6.92781e-001           9.27814e-002           2.78144e-003           7.81438e-004
                   97.60    341.69238                               19.93262             80.172                                        3.41692e+002           4.16924e+001           1.69238e+000           6.92380e-001           9.23795e-002           2.37951e-003           3.79509e-004
                   97.70    341.68899                               19.93262             80.172                                        3.41689e+002           4.16890e+001           1.68899e+000           6.88990e-001           8.89898e-002           8.98980e-003           9.89801e-004
                   97.80    341.68853                               19.93262             80.172                                        3.41689e+002           4.16885e+001           1.68853e+000           6.88529e-001           8.85286e-002           8.52864e-003           5.28638e-004
                   97.90    341.69018                               19.93262             80.172                                        3.41690e+002           4.16902e+001           1.69018e+000           6.90176e-001           9.01757e-002           1.75720e-004           1.75720e-004
                   98.00    341.69082                               19.93262             80.172                                        3.41691e+002           4.16908e+001           1.69082e+000           6.90820e-001           9.08198e-002           8.19758e-004           8.19758e-004
                   98.10    341.69060                               19.93262             80.172                                        3.41691e+002           4.16906e+001           1.69060e+000           6.90601e-001           9.06010e-002           6.01026e-004           6.01026e-004
                   98.20    341.68797                               19.93262             80.172                                        3.41688e+002           4.16880e+001           1.68797e+000           6.87971e-001           8.79710e-002           7.97104e-003           9.71036e-004
                   98.30    341.68778                               19.93262             80.172                                        3.41688e+002           4.16878e+001           1.68778e+000           6.87778e-001           8.77780e-002           7.77802e-003           7.78023e-004
                   98.40    341.68832                               19.93262             80.172                                        3.41688e+002           4.16883e+001           1.68832e+000           6.88321e-001           8.83214e-002           8.32143e-003           3.21433e-004
                   98.50    341.68980                               19.93262             80.172                                        3.41690e+002           4.16898e+001           1.68980e+000           6.89803e-001           8.98031e-002           9.80309e-003           8.03091e-004
                   98.60    341.68883                               19.93262             80.172                                        3.41689e+002           4.16888e+001           1.68883e+000           6.88826e-001           8.88265e-002           8.82646e-003           8.26456e-004
                   98.70    341.68851                               19.93262             80.172                                        3.41689e+002           4.16885e+001           1.68851e+000           6.88507e-001           8.85073e-002           8.50727e-003           5.07269e-004
                   98.80    341.68975                               19.93262             80.172                                        3.41690e+002           4.16897e+001           1.68975e+000           6.89749e-001           8.97485e-002           9.74851e-003           7.48509e-004
                   98.90    341.69107                               19.93262             80.174                                        3.41691e+002           4.16911e+001           1.69107e+000           6.91069e-001           9.10690e-002           1.06905e-003           6.90498e-005
                   99.00    341.69073                               19.93262             80.178                                        3.41691e+002           4.16907e+001           1.69073e+000           6.90727e-001           9.07269e-002           7.26873e-004           7.26873e-004
                   99.10    341.69004                               19.93262             80.180                                        3.41690e+002           4.16900e+001           1.69004e+000           6.90044e-001           9.00438e-002           4.38246e-005           4.38246e-005
                   99.20    341.68928                               19.93262             80.180                                        3.41689e+002           4.16893e+001           1.68928e+000           6.89281e-001           8.92808e-002           9.28078e-003           2.80782e-004
                   99.30    341.68975                               19.93262             80.180                                        3.41690e+002           4.16897e+001           1.68975e+000           6.89749e-001           8.97489e-002           9.74889e-003           7.48894e-004
                   99.40    341.69004                               19.93262             80.180                                        3.41690e+002           4.16900e+001           1.69004e+000           6.90041e-001           9.00411e-002           4.11151e-005           4.11151e-005
                   99.50    341.68852                               19.93262             80.180                                        3.41689e+002           4.16885e+001           1.68852e+000           6.88522e-001           8.85225e-002           8.52250e-003           5.22497e-004
                   99.60    341.68852                               19.93262             80.180                                        3.41689e+002           4.16885e+001           1.68852e+000           6.88522e-001           8.85223e-002           8.52232e-003           5.22318e-004
                   99.70    341.69015                               19.93262             80.180                                        3.41690e+002           4.16901e+001           1.69015e+000           6.90148e-001           9.01475e-002           1.47522e-004           1.47522e-004
                   99.80    341.69176                               19.93262             80.180                                        3.41692e+002           4.16918e+001           1.69176e+000           6.91757e-001           9.17573e-002           1.75729e-003           7.57287e-004
                   99.90    341.69160                               19.93262             80.180                                        3.41692e+002           4.16916e+001           1.69160e+000           6.91604e-001           9.16042e-002           1.60423e-003           6.04229e-004
                  100.00    341.69196                               19.93262             80.180                                        3.41692e+002           4.16920e+001           1.69196e+000           6.91957e-001           9.19574e-002           1.95744e-003           9.57438e-004
