~VERSION INFORMATION
VERS                    .            2.0                                    :CWLS LOG ASCII STANDARD
WRAP                    .            NO                                     :ONE LINE PER TIME STEP


~WELL INFORMATION
#MNEM                   .UNIT        DATA                                    DESCRIPTION
#________________________________________________________________________________________
STRTTIME                .HH/MM/SS    13:32:32                               :START TIME
STOPTIME                .HH/MM/SS    13:36:23                               :STOP TIME
STRT                    .s           2.10                                   :START DATA
STOP                    .s           229.20                                 :STOP DATA
STEP                    .s           0.10                                   :MEASUREMENT TIME INTERVAL
NULL                    .            -999.25                                :NULL VALUE
COMP                    .            Statoil ASA                            :COMPANY
FLD                     .            Volve                                  :FIELD
WELL                    .            15/9-F-1 B                             :WELL
RUN                     .            7                                      :RUN
LOC                     .            Maersk Inspirer                        :LOCATION
PROV                    .            na                                     :PROVINCE
SRVC                    .            Baker Hughes INTEQ                     :SERVICE COMPANY
DATE                    .YY/MM/DD    13/09/06                               :LOG DATE
UWI                     .                                                   :UNIQUE WELL ID
DEPTHMD                 .m           3301.5                                 :MEASURED DEPTH
DEPTHTVD                .m           3096.9                                 :TRUE VERTICAL DEPTH


~CURVE INFORMATION
#MNEM                   .UNIT        API CODES                               DESCRIPTION
#________________________________________________________________________________________
TIME                    .s                                                  :01 TIME
DD_PRESS                .bar                                                :02 DRAW DOWN PRESSURE
DD_VOLUME               .cm3                                                :03 INCREMENTAL DRAW DOWN VOLUME
TEMP                    .degC                                               :04 TRANSDUCER TEMPERATURE
DD_PRESS_MOD_1000       .bar                                                :05 DRAW DOWN PRESSURE MOD 1000
DD_PRESS_MOD_100        .bar                                                :06 DRAW DOWN PRESSURE MOD 100
DD_PRESS_MOD_10         .bar                                                :07 DRAW DOWN PRESSURE MOD 10
DD_PRESS_MOD_1          .bar                                                :08 DRAW DOWN PRESSURE MOD 1
DD_PRESS_MOD_01         .bar                                                :09 DRAW DOWN PRESSURE MOD 01
DD_PRESS_MOD_001        .bar                                                :10 DRAW DOWN PRESSURE MOD 001
DD_PRESS_MOD_0001       .bar                                                :11 DRAW DOWN PRESSURE MOD 0001


~PARAMETER INFORMATION
#MNEM                   .UNIT        VALUE                                   DESCRIPTION
#________________________________________________________________________________________
TOOLFACE                .deg         na                                     :01 TOOLFACE
PUMP_CAPACITY           .bar         400                                    :02 NOMINAL DRAW DOWN PUMP CAPACITY
PUMP_LIMIT              .bar         400                                    :03 DOWNLINK PUMP LIMIT
TIME_LIMIT              .min         10                                     :04 DOWNLINK MAX TIME
TEST_TYPE               .            LOW MOBILITY                           :05 DOWNLINK
DD_PIST_A               .cm2         3.1416                                 :06 DRAW DOWN PISTON AREA
V_SYS                   .cm3         131.0000                               :07 SYSTEM VOLUME
PROBE_ID                .cm          1.2700                                 :08 TTK PROBE ID
G0                      .            4.6700                                 :09 GEOMETRY FACTOR


~A                  TIME     DD_PRESS                              DD_VOLUME               TEMP                                   DD_PRESS_MOD_1000       DD_PRESS_MOD_100        DD_PRESS_MOD_10         DD_PRESS_MOD_1        DD_PRESS_MOD_01       DD_PRESS_MOD_001      DD_PRESS_MOD_0001
# ...
                  181.40    349.38485                               18.16497             85.305                                        3.49385e+002           4.93848e+001           9.38485e+000           3.84846e-001           8.48462e-002           4.84622e-003           8.46221e-004
                  181.50    349.39845                               18.16497             85.305                                        3.49398e+002           4.93985e+001           9.39845e+000           3.98454e-001           9.84539e-002           8.45392e-003           4.53917e-004
                  181.60    349.42696                               18.16497             85.305                                        3.49427e+002           4.94270e+001           9.42696e+000           4.26963e-001           2.69632e-002           6.96316e-003           9.63157e-004
                  181.70    349.39365                               18.16497             85.305                                        3.49394e+002           4.93936e+001           9.39365e+000           3.93648e-001           9.36484e-002           3.64845e-003           6.48449e-004
                  181.80    349.37463                               18.16497             85.305                                        3.49375e+002           4.93746e+001           9.37463e+000           3.74626e-001           7.46259e-002           4.62586e-003           6.25860e-004
                  181.90    349.41623                               18.16497             85.305                                        3.49416e+002           4.94162e+001           9.41623e+000           4.16227e-001           1.62266e-002           6.22658e-003           2.26575e-004
                  182.00    349.44452                               18.16497             85.305                                        3.49445e+002           4.94445e+001           9.44452e+000           4.44522e-001           4.45218e-002           4.52180e-003           5.21803e-004
                  182.10    349.42399                               18.16497             85.305                                        3.49424e+002           4.94240e+001           9.42399e+000           4.23994e-001           2.39943e-002           3.99433e-003           9.94330e-004
                  182.20    349.40988                               18.16497             85.305                                        3.49410e+002           4.94099e+001           9.40988e+000           4.09884e-001           9.88434e-003           9.88434e-003           8.84341e-004
                  182.30    349.41640                               18.16497             85.305                                        3.49416e+002           4.94164e+001           9.41640e+000           4.16403e-001           1.64027e-002           6.40271e-003           4.02707e-004
                  182.40    349.41649                               18.16497             85.305                                        3.49416e+002           4.94165e+001           9.41649e+000           4.16487e-001           1.64867e-002           6.48674e-003           4.86742e-004
                  182.50    349.40577                               18.16497             85.305                                        3.49406e+002           4.94058e+001           9.40577e+000           4.05774e-001           5.77437e-003           5.77437e-003           7.74367e-004
                  182.60    349.41252                               18.16497             85.305                                        3.49413e+002           4.94125e+001           9.41252e+000           4.12524e-001           1.25245e-002           2.52449e-003           5.24493e-004
                  182.70    349.43238                               18.16497             85.305                                        3.49432e+002           4.94324e+001           9.43238e+000           4.32383e-001           3.23832e-002           2.38324e-003           3.83244e-004
                  182.80    349.43680                               18.16497             85.305                                        3.49437e+002           4.94368e+001           9.43680e+000           4.36799e-001           3.67988e-002           6.79884e-003           7.98837e-004
                  182.90    349.40988                               18.16497             85.305                                        3.49410e+002           4.94099e+001           9.40988e+000           4.09879e-001           9.87881e-003           9.87881e-003           8.78811e-004
                  183.00    349.38742                               18.16497             85.305                                        3.49387e+002           4.93874e+001           9.38742e+000           3.87422e-001           8.74223e-002           7.42225e-003           4.22251e-004
                  183.10    349.40131                               18.16497             85.305                                        3.49401e+002           4.94013e+001           9.40131e+000           4.01312e-001           1.31188e-003           1.31188e-003           3.11881e-004
                  183.20    349.41645                               18.16497             85.305                                        3.49416e+002           4.94164e+001           9.41645e+000           4.16447e-001           1.64468e-002           6.44683e-003           4.46829e-004
                  183.30    349.40479                               18.16497             85.305                                        3.49405e+002           4.94048e+001           9.40479e+000           4.04785e-001           4.78510e-003           4.78510e-003           7.85099e-004
                  183.40    349.39845                               18.16497             85.305                                        3.49398e+002           4.93984e+001           9.39845e+000           3.98449e-001           9.84489e-002           8.44891e-003           4.48915e-004
                  183.50    349.41969                               18.16497             85.305                                        3.49420e+002           4.94197e+001           9.41969e+000           4.19692e-001           1.96916e-002           9.69160e-003           6.91603e-004
                  183.60    349.42500                               18.16497             85.302                                        3.49425e+002           4.94250e+001           9.42500e+000           4.25002e-001           2.50024e-002           5.00241e-003           2.41306e-006
                  183.70    349.40005                               18.16497             85.299                                        3.49400e+002           4.94000e+001           9.40005e+000           4.00046e-001           4.55443e-005           4.55443e-005           4.55443e-005
                  183.80    349.37778                               18.16497             85.297                                        3.49378e+002           4.93778e+001           9.37778e+000           3.77776e-001           7.77755e-002           7.77551e-003           7.75514e-004
                  183.90    349.39151                               18.16497             85.299                                        3.49392e+002           4.93915e+001           9.39151e+000           3.91509e-001           9.15087e-002           1.50872e-003           5.08723e-004
                  184.00    349.41757                               18.16497             85.303                                        3.49418e+002           4.94176e+001           9.41757e+000           4.17567e-001           1.75672e-002           7.56716e-003           5.67159e-004
                  184.10    349.40144                               18.16497             85.305                                        3.49401e+002           4.94014e+001           9.40144e+000           4.01437e-001           1.43687e-003           1.43687e-003           4.36870e-004
