~VERSION INFORMATION
VERS                    .            2.0                                    :CWLS LOG ASCII STANDARD
WRAP                    .            NO                                     :ONE LINE PER TIME STEP


~WELL INFORMATION
#MNEM                   .UNIT        DATA                                    DESCRIPTION
#________________________________________________________________________________________
STRTTIME                .HH/MM/SS    04:27:44                               :START TIME
STOPTIME                .HH/MM/SS    04:30:31                               :STOP TIME
STRT                    .s           2.10                                   :START DATA
STOP                    .s           165.30                                 :STOP DATA
STEP                    .s           0.10                                   :MEASUREMENT TIME INTERVAL
NULL                    .            -999.25                                :NULL VALUE
COMP                    .            Statoil ASA                            :COMPANY
FLD                     .            Volve                                  :FIELD
WELL                    .            15/9-F-1 C                             :WELL
RUN                     .            4                                      :RUN
LOC                     .                                                   :LOCATION
PROV                    .            na                                     :PROVINCE
SRVC                    .            Baker Hughes INTEQ                     :SERVICE COMPANY
DATE                    .YY/MM/DD    14/03/15                               :LOG DATE
UWI                     .                                                   :UNIQUE WELL ID
DEPTHMD                 .m           3273.1                                 :MEASURED DEPTH
DEPTHTVD                .m           2948.3                                 :TRUE VERTICAL DEPTH


~CURVE INFORMATION
#MNEM                   .UNIT        API CODES                               DESCRIPTION
#________________________________________________________________________________________
TIME                    .s                                                  :01 TIME
DD_PRESS                .bar                                                :02 DRAW DOWN PRESSURE
DD_VOLUME               .cm3                                                :03 INCREMENTAL DRAW DOWN VOLUME
TEMP                    .degC                                               :04 TRANSDUCER TEMPERATURE
DD_PRESS_MOD_1000       .bar                                                :05 DRAW DOWN PRESSURE MOD 1000
DD_PRESS_MOD_100        .bar                                                :06 DRAW DOWN PRESSURE MOD 100
DD_PRESS_MOD_10         .bar                                                :07 DRAW DOWN PRESSURE MOD 10
DD_PRESS_MOD_1          .bar                                                :08 DRAW DOWN PRESSURE MOD 1
DD_PRESS_MOD_01         .bar                                                :09 DRAW DOWN PRESSURE MOD 01
DD_PRESS_MOD_001        .bar                                                :10 DRAW DOWN PRESSURE MOD 001
DD_PRESS_MOD_0001       .bar                                                :11 DRAW DOWN PRESSURE MOD 0001


~PARAMETER INFORMATION
#MNEM                   .UNIT        VALUE                                   DESCRIPTION
#________________________________________________________________________________________
TOOLFACE                .deg         76.8                                   :01 TOOLFACE
PUMP_CAPACITY           .bar         400                                    :02 NOMINAL DRAW DOWN PUMP CAPACITY
PUMP_LIMIT              .bar         240                                    :03 DOWNLINK PUMP LIMIT
TIME_LIMIT              .min         10                                     :04 DOWNLINK MAX TIME
TEST_TYPE               .            REPEAT                                 :05 DOWNLINK
TEST_TYPE               .            HIGH MOBILITY                          :06 DOWNLINK
DD_PIST_A               .cm2         3.1416                                 :07 DRAW DOWN PISTON AREA
V_SYS                   .cm3         131.0000                               :08 SYSTEM VOLUME
PROBE_ID                .cm          1.2700                                 :09 TTK PROBE ID
G0                      .            4.6700                                 :10 GEOMETRY FACTOR


~A                  TIME     DD_PRESS                              DD_VOLUME               TEMP                                   DD_PRESS_MOD_1000       DD_PRESS_MOD_100        DD_PRESS_MOD_10         DD_PRESS_MOD_1        DD_PRESS_MOD_01       DD_PRESS_MOD_001      DD_PRESS_MOD_0001
# ...
                   55.30    338.16906                               10.49385             85.023                                        3.38169e+002           3.81691e+001           8.16906e+000           1.69058e-001           6.90582e-002           9.05822e-003           5.82237e-005
                   55.40    338.17044                               10.49385             85.023                                        3.38170e+002           3.81704e+001           8.17044e+000           1.70440e-001           7.04400e-002           4.40013e-004           4.40013e-004
                   55.50    338.17242                               10.49385             85.023                                        3.38172e+002           3.81724e+001           8.17242e+000           1.72421e-001           7.24211e-002           2.42111e-003           4.21113e-004
                   55.60    338.17265                               10.49385             85.023                                        3.38173e+002           3.81727e+001           8.17265e+000           1.72650e-001           7.26502e-002           2.65021e-003           6.50207e-004
                   55.70    338.17093                               10.49385             85.023                                        3.38171e+002           3.81709e+001           8.17093e+000           1.70931e-001           7.09313e-002           9.31254e-004           9.31254e-004
                   55.80    338.16840                               10.49385             85.023                                        3.38168e+002           3.81684e+001           8.16840e+000           1.68397e-001           6.83973e-002           8.39733e-003           3.97327e-004
                   55.90    338.17002                               10.49385             85.023                                        3.38170e+002           3.81700e+001           8.17002e+000           1.70022e-001           7.00215e-002           2.15181e-005           2.15181e-005
                   56.00    338.17177                               10.49385             85.023                                        3.38172e+002           3.81718e+001           8.17177e+000           1.71770e-001           7.17696e-002           1.76961e-003           7.69607e-004
                   56.10    338.17412                               10.49385             85.023                                        3.38174e+002           3.81741e+001           8.17412e+000           1.74118e-001           7.41178e-002           4.11776e-003           1.17763e-004
                   56.20    338.17439                               10.49385             85.023                                        3.38174e+002           3.81744e+001           8.17439e+000           1.74390e-001           7.43901e-002           4.39013e-003           3.90134e-004
                   56.30    338.17301                               10.49385             85.023                                        3.38173e+002           3.81730e+001           8.17301e+000           1.73006e-001           7.30062e-002           3.00616e-003           6.16123e-006
                   56.40    338.17299                               10.49385             85.021                                        3.38173e+002           3.81730e+001           8.17299e+000           1.72995e-001           7.29948e-002           2.99485e-003           9.94846e-004
                   56.50    338.17285                               10.49385             85.018                                        3.38173e+002           3.81728e+001           8.17285e+000           1.72848e-001           7.28478e-002           2.84777e-003           8.47768e-004
                   56.60    338.17306                               10.49385             85.018                                        3.38173e+002           3.81731e+001           8.17306e+000           1.73063e-001           7.30629e-002           3.06291e-003           6.29096e-005
                   56.70    338.17254                               10.49385             85.021                                        3.38173e+002           3.81725e+001           8.17254e+000           1.72543e-001           7.25427e-002           2.54271e-003           5.42714e-004
                   56.80    338.17246                               10.49385             85.021                                        3.38172e+002           3.81725e+001           8.17246e+000           1.72457e-001           7.24565e-002           2.45655e-003           4.56546e-004
                   56.90    338.17129                               10.49385             85.018                                        3.38171e+002           3.81713e+001           8.17129e+000           1.71291e-001           7.12905e-002           1.29054e-003           2.90540e-004
                   57.00    338.17268                               10.49385             85.016                                        3.38173e+002           3.81727e+001           8.17268e+000           1.72677e-001           7.26770e-002           2.67705e-003           6.77048e-004
                   57.10    338.17131                               10.49385             85.016                                        3.38171e+002           3.81713e+001           8.17131e+000           1.71309e-001           7.13092e-002           1.30924e-003           3.09238e-004
                   57.20    338.16962                               10.49385             85.016                                        3.38170e+002           3.81696e+001           8.16962e+000           1.69625e-001           6.96250e-002           9.62499e-003           6.24990e-004
                   57.30    338.16890                               10.49385             85.016                                        3.38169e+002           3.81689e+001           8.16890e+000           1.68904e-001           6.89038e-002           8.90376e-003           9.03757e-004
                   57.40    338.17104                               10.49385             85.016                                        3.38171e+002           3.81710e+001           8.17104e+000           1.71036e-001           7.10357e-002           1.03568e-003           3.56785e-005
                   57.50    338.17089                               10.49385             85.016                                        3.38171e+002           3.81709e+001           8.17089e+000           1.70893e-001           7.08933e-002           8.93328e-004           8.93328e-004
                   57.60    338.17309                               10.49385             85.016                                        3.38173e+002           3.81731e+001           8.17309e+000           1.73087e-001           7.30867e-002           3.08674e-003           8.67422e-005
                   57.70    338.17265                               10.49385             85.016                                        3.38173e+002           3.81727e+001           8.17265e+000           1.72653e-001           7.26535e-002           2.65345e-003           6.53454e-004
                   57.80    338.17120                               10.49385             85.016                                        3.38171e+002           3.81712e+001           8.17120e+000           1.71199e-001           7.11994e-002           1.19944e-003           1.99443e-004
                   57.90    338.17278                               10.49385             85.016                                        3.38173e+002           3.81728e+001           8.17278e+000           1.72783e-001           7.27830e-002           2.78295e-003           7.82953e-004
                   58.00    338.17585                               10.49385             85.016                                        3.38176e+002           3.81759e+001           8.17585e+000           1.75853e-001           7.58533e-002           5.85333e-003           8.53330e-004
