~VERSION INFORMATION
VERS                    .            2.0                                    :CWLS LOG ASCII STANDARD
WRAP                    .            NO                                     :ONE LINE PER TIME STEP


~WELL INFORMATION
#MNEM                   .UNIT        DATA                                    DESCRIPTION
#________________________________________________________________________________________
STRTTIME                .HH/MM/SS    00:10:18                               :START TIME
STOPTIME                .HH/MM/SS    00:13:47                               :STOP TIME
STRT                    .s           2.10                                   :START DATA
STOP                    .s           207.40                                 :STOP DATA
STEP                    .s           0.10                                   :MEASUREMENT TIME INTERVAL
NULL                    .            -999.25                                :NULL VALUE
COMP                    .            Statoil ASA                            :COMPANY
FLD                     .            Volve                                  :FIELD
WELL                    .            15/9-F-1                               :WELL
RUN                     .            4                                      :RUN
LOC                     .            Maersk Inspirer                        :LOCATION
PROV                    .            na                                     :PROVINCE
SRVC                    .            Baker Hughes INTEQ                     :SERVICE COMPANY
DATE                    .YY/MM/DD    13/08/19                               :LOG DATE
UWI                     .                                                   :UNIQUE WELL ID
DEPTHMD                 .m           3332.4                                 :MEASURED DEPTH
DEPTHTVD                .m           3056.0                                 :TRUE VERTICAL DEPTH


~CURVE INFORMATION
#MNEM                   .UNIT        API CODES                               DESCRIPTION
#________________________________________________________________________________________
TIME                    .s                                                  :01 TIME
DD_PRESS                .bar                                                :02 DRAW DOWN PRESSURE
DD_VOLUME               .cm3                                                :03 INCREMENTAL DRAW DOWN VOLUME
TEMP                    .degC                                               :04 TRANSDUCER TEMPERATURE
DD_PRESS_MOD_1000       .bar                                                :05 DRAW DOWN PRESSURE MOD 1000
DD_PRESS_MOD_100        .bar                                                :06 DRAW DOWN PRESSURE MOD 100
DD_PRESS_MOD_10         .bar                                                :07 DRAW DOWN PRESSURE MOD 10
DD_PRESS_MOD_1          .bar                                                :08 DRAW DOWN PRESSURE MOD 1
DD_PRESS_MOD_01         .bar                                                :09 DRAW DOWN PRESSURE MOD 01
DD_PRESS_MOD_001        .bar                                                :10 DRAW DOWN PRESSURE MOD 001
DD_PRESS_MOD_0001       .bar                                                :11 DRAW DOWN PRESSURE MOD 0001


~PARAMETER INFORMATION
#MNEM                   .UNIT        VALUE                                   DESCRIPTION
#________________________________________________________________________________________
TOOLFACE                .deg         78.2                                   :01 TOOLFACE
PUMP_CAPACITY           .bar         400                                    :02 NOMINAL DRAW DOWN PUMP CAPACITY
PUMP_LIMIT              .bar         240                                    :03 DOWNLINK PUMP LIMIT
TIME_LIMIT              .min         10                                     :04 DOWNLINK MAX TIME
TEST_TYPE               .            LOW MOBILITY                           :05 DOWNLINK
DD_PIST_A               .cm2         3.1416                                 :06 DRAW DOWN PISTON AREA
V_SYS                   .cm3         131.0000                               :07 SYSTEM VOLUME
PROBE_ID                .cm          1.2700                                 :08 TTK PROBE ID
G0                      .            4.6700                                 :09 GEOMETRY FACTOR


~A                  TIME     DD_PRESS                              DD_VOLUME               TEMP                                   DD_PRESS_MOD_1000       DD_PRESS_MOD_100        DD_PRESS_MOD_10         DD_PRESS_MOD_1        DD_PRESS_MOD_01       DD_PRESS_MOD_001      DD_PRESS_MOD_0001
# ...
                   97.30    337.16493                               13.08052             74.711                                        3.37165e+002           3.71649e+001           7.16493e+000           1.64931e-001           6.49308e-002           4.93079e-003           9.30787e-004
                   97.40    336.98167                               13.30249             74.711                                        3.36982e+002           3.69817e+001           6.98167e+000           9.81667e-001           8.16666e-002           1.66663e-003           6.66626e-004
                   97.50    336.82782                               13.53976             74.711                                        3.36828e+002           3.68278e+001           6.82782e+000           8.27821e-001           2.78212e-002           7.82120e-003           8.21203e-004
                   97.60    336.72056                               13.79413             74.711                                        3.36721e+002           3.67206e+001           6.72056e+000           7.20558e-001           2.05582e-002           5.58198e-004           5.58198e-004
                   97.70    336.60488                               14.06732             74.711                                        3.36605e+002           3.66049e+001           6.60488e+000           6.04881e-001           4.88142e-003           4.88142e-003           8.81416e-004
                   97.80    336.49589                               14.35522             74.711                                        3.36496e+002           3.64959e+001           6.49589e+000           4.95890e-001           9.58898e-002           5.88984e-003           8.89844e-004
                   97.90    336.45753                               14.64941             74.711                                        3.36458e+002           3.64575e+001           6.45753e+000           4.57532e-001           5.75317e-002           7.53170e-003           5.31703e-004
                   98.00    336.44686                               14.94439             74.711                                        3.36447e+002           3.64469e+001           6.44686e+000           4.46857e-001           4.68575e-002           6.85748e-003           8.57481e-004
                   98.10    336.36331                               15.23942             74.711                                        3.36363e+002           3.63633e+001           6.36331e+000           3.63311e-001           6.33110e-002           3.31100e-003           3.10998e-004
                   98.20    336.22394                               15.53442             74.711                                        3.36224e+002           3.62239e+001           6.22394e+000           2.23936e-001           2.39362e-002           3.93624e-003           9.36238e-004
                   98.30    336.13300                               15.82932             74.711                                        3.36133e+002           3.61330e+001           6.13300e+000           1.33000e-001           3.30002e-002           3.00019e-003           1.91803e-007
                   98.40    336.14044                               16.12419             74.711                                        3.36140e+002           3.61404e+001           6.14044e+000           1.40441e-001           4.04414e-002           4.41445e-004           4.41445e-004
                   98.50    336.23501                               16.41918             74.711                                        3.36235e+002           3.62350e+001           6.23501e+000           2.35009e-001           3.50091e-002           5.00911e-003           9.11400e-006
                   98.60    336.29568                               16.71412             74.711                                        3.36296e+002           3.62957e+001           6.29568e+000           2.95684e-001           9.56838e-002           5.68381e-003           6.83812e-004
                   98.70    336.25806                               17.00905             74.711                                        3.36258e+002           3.62581e+001           6.25806e+000           2.58064e-001           5.80639e-002           8.06389e-003           6.38917e-005
                   98.80    336.20447                               17.30404             74.711                                        3.36204e+002           3.62045e+001           6.20447e+000           2.04472e-001           4.47208e-003           4.47208e-003           4.72077e-004
                   98.90    336.14710                               17.59887             74.711                                        3.36147e+002           3.61471e+001           6.14710e+000           1.47104e-001           4.71042e-002           7.10418e-003           1.04179e-004
                   99.00    336.15374                               17.89201             74.711                                        3.36154e+002           3.61537e+001           6.15374e+000           1.53736e-001           5.37360e-002           3.73596e-003           7.35959e-004
                   99.10    336.34674                               18.17581             74.711                                        3.36347e+002           3.63467e+001           6.34674e+000           3.46744e-001           4.67444e-002           6.74441e-003           7.44407e-004
                   99.20    336.70841                               18.44081             74.711                                        3.36708e+002           3.67084e+001           6.70841e+000           7.08410e-001           8.41007e-003           8.41007e-003           4.10072e-004
                   99.30    337.12121                               18.68296             74.711                                        3.37121e+002           3.71212e+001           7.12121e+000           1.21214e-001           2.12142e-002           1.21420e-003           2.14199e-004
                   99.40    337.53479                               18.90215             74.711                                        3.37535e+002           3.75348e+001           7.53479e+000           5.34795e-001           3.47950e-002           4.79496e-003           7.94961e-004
                   99.50    337.95242                               19.09859             74.711                                        3.37952e+002           3.79524e+001           7.95242e+000           9.52418e-001           5.24182e-002           2.41817e-003           4.18168e-004
                   99.60    338.37400                               19.27232             74.711                                        3.38374e+002           3.83740e+001           8.37400e+000           3.74000e-001           7.40003e-002           4.00027e-003           2.68100e-007
                   99.70    338.77867                               19.42322             74.711                                        3.38779e+002           3.87787e+001           8.77867e+000           7.78668e-001           7.86677e-002           8.66766e-003           6.67655e-004
                   99.80    339.15934                               19.55118             74.711                                        3.39159e+002           3.91593e+001           9.15934e+000           1.59338e-001           5.93385e-002           9.33849e-003           3.38492e-004
                   99.90    339.50493                               19.65640             74.711                                        3.39505e+002           3.95049e+001           9.50493e+000           5.04927e-001           4.92743e-003           4.92743e-003           9.27434e-004
                  100.00    339.82178                               19.73901             74.711                                        3.39822e+002           3.98218e+001           9.82178e+000           8.21777e-001           2.17772e-002           1.77722e-003           7.77219e-004
