~VERSION INFORMATION
VERS                    .            2.0                                    :CWLS LOG ASCII STANDARD
WRAP                    .            NO                                     :ONE LINE PER TIME STEP


~WELL INFORMATION
#MNEM                   .UNIT        DATA                                    DESCRIPTION
#________________________________________________________________________________________
STRTTIME                .HH/MM/SS    11:44:47                               :START TIME
STOPTIME                .HH/MM/SS    11:47:33                               :STOP TIME
STRT                    .s           2.10                                   :START DATA
STOP                    .s           164.50                                 :STOP DATA
STEP                    .s           0.10                                   :MEASUREMENT TIME INTERVAL
NULL                    .            -999.25                                :NULL VALUE
COMP                    .            Statoil ASA                            :COMPANY
FLD                     .            Volve                                  :FIELD
WELL                    .            15/9-F-11 A                            :WELL
RUN                     .            8                                      :RUN
LOC                     .            Maersk Inspirer                        :LOCATION
PROV                    .            na                                     :PROVINCE
SRVC                    .            Baker Hughes INTEQ                     :SERVICE COMPANY
DATE                    .YY/MM/DD    13/05/21                               :LOG DATE
UWI                     .                                                   :UNIQUE WELL ID
DEPTHMD                 .m           3624.0                                 :MEASURED DEPTH
DEPTHTVD                .m           3020.7                                 :TRUE VERTICAL DEPTH


~CURVE INFORMATION
#MNEM                   .UNIT        API CODES                               DESCRIPTION
#________________________________________________________________________________________
TIME                    .s                                                  :01 TIME
DD_PRESS                .bar                                                :02 DRAW DOWN PRESSURE
DD_VOLUME               .cm3                                                :03 INCREMENTAL DRAW DOWN VOLUME
TEMP                    .degC                                               :04 TRANSDUCER TEMPERATURE
DD_PRESS_MOD_1000       .bar                                                :05 DRAW DOWN PRESSURE MOD 1000
DD_PRESS_MOD_100        .bar                                                :06 DRAW DOWN PRESSURE MOD 100
DD_PRESS_MOD_10         .bar                                                :07 DRAW DOWN PRESSURE MOD 10
DD_PRESS_MOD_1          .bar                                                :08 DRAW DOWN PRESSURE MOD 1
DD_PRESS_MOD_01         .bar                                                :09 DRAW DOWN PRESSURE MOD 01
DD_PRESS_MOD_001        .bar                                                :10 DRAW DOWN PRESSURE MOD 001
DD_PRESS_MOD_0001       .bar                                                :11 DRAW DOWN PRESSURE MOD 0001


~PARAMETER INFORMATION
#MNEM                   .UNIT        VALUE                                   DESCRIPTION
#________________________________________________________________________________________
TOOLFACE                .deg         61.7                                   :01 TOOLFACE
PUMP_CAPACITY           .bar         400                                    :02 NOMINAL DRAW DOWN PUMP CAPACITY
PUMP_LIMIT              .bar         240                                    :03 DOWNLINK PUMP LIMIT
TIME_LIMIT              .min         10                                     :04 DOWNLINK MAX TIME
TEST_TYPE               .            REPEAT                                 :05 DOWNLINK
TEST_TYPE               .            HIGH MOBILITY                          :06 DOWNLINK
DD_PIST_A               .cm2         3.1416                                 :07 DRAW DOWN PISTON AREA
V_SYS                   .cm3         131.0000                               :08 SYSTEM VOLUME
PROBE_ID                .cm          1.2700                                 :09 TTK PROBE ID
G0                      .            4.6700                                 :10 GEOMETRY FACTOR


~A                  TIME     DD_PRESS                              DD_VOLUME               TEMP                                   DD_PRESS_MOD_1000       DD_PRESS_MOD_100        DD_PRESS_MOD_10         DD_PRESS_MOD_1        DD_PRESS_MOD_01       DD_PRESS_MOD_001      DD_PRESS_MOD_0001
# ...
                   44.10    342.13264                               10.64927             81.461                                        3.42133e+002           4.21326e+001           2.13264e+000           1.32635e-001           3.26354e-002           2.63544e-003           6.35437e-004
                   44.20    342.13322                               10.64927             81.461                                        3.42133e+002           4.21332e+001           2.13322e+000           1.33223e-001           3.32233e-002           3.22330e-003           2.23296e-004
                   44.30    342.13471                               10.64927             81.461                                        3.42135e+002           4.21347e+001           2.13471e+000           1.34706e-001           3.47061e-002           4.70607e-003           7.06066e-004
                   44.40    342.13641                               10.64927             81.461                                        3.42136e+002           4.21364e+001           2.13641e+000           1.36413e-001           3.64131e-002           6.41309e-003           4.13094e-004
                   44.50    342.13611                               10.64927             81.461                                        3.42136e+002           4.21361e+001           2.13611e+000           1.36106e-001           3.61062e-002           6.10618e-003           1.06179e-004
                   44.60    342.13585                               10.64927             81.461                                        3.42136e+002           4.21358e+001           2.13585e+000           1.35845e-001           3.58452e-002           5.84522e-003           8.45216e-004
                   44.70    342.13530                               10.64927             81.461                                        3.42135e+002           4.21353e+001           2.13530e+000           1.35302e-001           3.53025e-002           5.30250e-003           3.02496e-004
                   44.80    342.13608                               10.64927             81.461                                        3.42136e+002           4.21361e+001           2.13608e+000           1.36079e-001           3.60790e-002           6.07905e-003           7.90454e-005
                   44.90    342.13618                               10.64927             81.461                                        3.42136e+002           4.21362e+001           2.13618e+000           1.36181e-001           3.61812e-002           6.18119e-003           1.81192e-004
                   45.00    342.13488                               10.64927             81.461                                        3.42135e+002           4.21349e+001           2.13488e+000           1.34884e-001           3.48845e-002           4.88446e-003           8.84460e-004
                   45.10    342.13353                               10.64927             81.461                                        3.42134e+002           4.21335e+001           2.13353e+000           1.33530e-001           3.35300e-002           3.52998e-003           5.29983e-004
                   45.20    342.13339                               10.64927             81.461                                        3.42133e+002           4.21334e+001           2.13339e+000           1.33390e-001           3.33898e-002           3.38976e-003           3.89763e-004
                   45.30    342.13279                               10.64927             81.461                                        3.42133e+002           4.21328e+001           2.13279e+000           1.32789e-001           3.27891e-002           2.78907e-003           7.89066e-004
                   45.40    342.13313                               10.64927             81.461                                        3.42133e+002           4.21331e+001           2.13313e+000           1.33133e-001           3.31330e-002           3.13296e-003           1.32956e-004
                   45.50    342.13382                               10.64927             81.461                                        3.42134e+002           4.21338e+001           2.13382e+000           1.33819e-001           3.38192e-002           3.81918e-003           8.19182e-004
                   45.60    342.13403                               10.64927             81.461                                        3.42134e+002           4.21340e+001           2.13403e+000           1.34025e-001           3.40251e-002           4.02514e-003           2.51397e-005
                   45.70    342.13365                               10.64927             81.461                                        3.42134e+002           4.21337e+001           2.13365e+000           1.33653e-001           3.36533e-002           3.65334e-003           6.53343e-004
                   45.80    342.13390                               10.64927             81.461                                        3.42134e+002           4.21339e+001           2.13390e+000           1.33897e-001           3.38975e-002           3.89749e-003           8.97495e-004
                   45.90    342.13553                               10.64927             81.461                                        3.42136e+002           4.21355e+001           2.13553e+000           1.35530e-001           3.55299e-002           5.52988e-003           5.29877e-004
                   46.00    342.13579                               10.64927             81.461                                        3.42136e+002           4.21358e+001           2.13579e+000           1.35792e-001           3.57922e-002           5.79220e-003           7.92203e-004
                   46.10    342.13521                               10.64927             81.461                                        3.42135e+002           4.21352e+001           2.13521e+000           1.35214e-001           3.52137e-002           5.21368e-003           2.13683e-004
                   46.20    342.13547                               10.64927             81.461                                        3.42135e+002           4.21355e+001           2.13547e+000           1.35469e-001           3.54694e-002           5.46940e-003           4.69396e-004
                   46.30    342.13633                               10.64927             81.461                                        3.42136e+002           4.21363e+001           2.13633e+000           1.36329e-001           3.63289e-002           6.32894e-003           3.28937e-004
                   46.40    342.13685                               10.64927             81.461                                        3.42137e+002           4.21368e+001           2.13685e+000           1.36848e-001           3.68483e-002           6.84826e-003           8.48260e-004
                   46.50    342.13700                               10.64927             81.461                                        3.42137e+002           4.21370e+001           2.13700e+000           1.36998e-001           3.69984e-002           6.99838e-003           9.98376e-004
                   46.60    342.13749                               10.64927             81.461                                        3.42137e+002           4.21375e+001           2.13749e+000           1.37487e-001           3.74869e-002           7.48694e-003           4.86945e-004
                   46.70    342.13772                               10.64927             81.461                                        3.42138e+002           4.21377e+001           2.13772e+000           1.37718e-001           3.77179e-002           7.71794e-003           7.17938e-004
                   46.80    342.13549                               10.64927             81.461                                        3.42135e+002           4.21355e+001           2.13549e+000           1.35490e-001           3.54899e-002           5.48985e-003           4.89852e-004
