~VERSION INFORMATION
VERS                    .            2.0                                    :CWLS LOG ASCII STANDARD
WRAP                    .            NO                                     :ONE LINE PER TIME STEP


~WELL INFORMATION
#MNEM                   .UNIT        DATA                                    DESCRIPTION
#________________________________________________________________________________________
STRTTIME                .HH/MM/SS    13:32:32                               :START TIME
STOPTIME                .HH/MM/SS    13:36:23                               :STOP TIME
STRT                    .s           2.10                                   :START DATA
STOP                    .s           229.20                                 :STOP DATA
STEP                    .s           0.10                                   :MEASUREMENT TIME INTERVAL
NULL                    .            -999.25                                :NULL VALUE
COMP                    .            Statoil ASA                            :COMPANY
FLD                     .            Volve                                  :FIELD
WELL                    .            15/9-F-1 B                             :WELL
RUN                     .            7                                      :RUN
LOC                     .            Maersk Inspirer                        :LOCATION
PROV                    .            na                                     :PROVINCE
SRVC                    .            Baker Hughes INTEQ                     :SERVICE COMPANY
DATE                    .YY/MM/DD    13/09/06                               :LOG DATE
UWI                     .                                                   :UNIQUE WELL ID
DEPTHMD                 .m           3301.5                                 :MEASURED DEPTH
DEPTHTVD                .m           3096.9                                 :TRUE VERTICAL DEPTH


~CURVE INFORMATION
#MNEM                   .UNIT        API CODES                               DESCRIPTION
#________________________________________________________________________________________
TIME                    .s                                                  :01 TIME
DD_PRESS                .bar                                                :02 DRAW DOWN PRESSURE
DD_VOLUME               .cm3                                                :03 INCREMENTAL DRAW DOWN VOLUME
TEMP                    .degC                                               :04 TRANSDUCER TEMPERATURE
DD_PRESS_MOD_1000       .bar                                                :05 DRAW DOWN PRESSURE MOD 1000
DD_PRESS_MOD_100        .bar                                                :06 DRAW DOWN PRESSURE MOD 100
DD_PRESS_MOD_10         .bar                                                :07 DRAW DOWN PRESSURE MOD 10
DD_PRESS_MOD_1          .bar                                                :08 DRAW DOWN PRESSURE MOD 1
DD_PRESS_MOD_01         .bar                                                :09 DRAW DOWN PRESSURE MOD 01
DD_PRESS_MOD_001        .bar                                                :10 DRAW DOWN PRESSURE MOD 001
DD_PRESS_MOD_0001       .bar                                                :11 DRAW DOWN PRESSURE MOD 0001


~PARAMETER INFORMATION
#MNEM                   .UNIT        VALUE                                   DESCRIPTION
#________________________________________________________________________________________
TOOLFACE                .deg         na                                     :01 TOOLFACE
PUMP_CAPACITY           .bar         400                                    :02 NOMINAL DRAW DOWN PUMP CAPACITY
PUMP_LIMIT              .bar         400                                    :03 DOWNLINK PUMP LIMIT
TIME_LIMIT              .min         10                                     :04 DOWNLINK MAX TIME
TEST_TYPE               .            LOW MOBILITY                           :05 DOWNLINK
DD_PIST_A               .cm2         3.1416                                 :06 DRAW DOWN PISTON AREA
V_SYS                   .cm3         131.0000                               :07 SYSTEM VOLUME
PROBE_ID                .cm          1.2700                                 :08 TTK PROBE ID
G0                      .            4.6700                                 :09 GEOMETRY FACTOR


~A                  TIME     DD_PRESS                              DD_VOLUME               TEMP                                   DD_PRESS_MOD_1000       DD_PRESS_MOD_100        DD_PRESS_MOD_10         DD_PRESS_MOD_1        DD_PRESS_MOD_01       DD_PRESS_MOD_001      DD_PRESS_MOD_0001
# ...
                  212.20    359.32507                                0.00000             85.273                                        3.59325e+002           5.93251e+001           9.32507e+000           3.25066e-001           2.50657e-002           5.06566e-003           6.56630e-005
                  212.30    365.09245                                0.00000             85.273                                        3.65092e+002           6.50924e+001           5.09245e+000           9.24464e-002           9.24464e-002           2.44640e-003           4.46398e-004
                  212.40    370.60345                                0.00000             85.273                                        3.70603e+002           7.06034e+001           6.03447e-001           6.03447e-001           3.44672e-003           3.44672e-003           4.46719e-004
                  212.50    376.23860                                0.00000             85.273                                        3.76239e+002           7.62386e+001           6.23860e+000           2.38603e-001           3.86033e-002           8.60332e-003           6.03315e-004
                  212.60    381.70863                                0.00000             85.273                                        3.81709e+002           8.17086e+001           1.70863e+000           7.08631e-001           8.63053e-003           8.63053e-003           6.30535e-004
                  212.70    386.90759                                0.00000             85.273                                        3.86908e+002           8.69076e+001           6.90759e+000           9.07594e-001           7.59430e-003           7.59430e-003           5.94304e-004
                  212.80    391.93855                                0.00000             85.273                                        3.91939e+002           9.19386e+001           1.93855e+000           9.38552e-001           3.85523e-002           8.55228e-003           5.52280e-004
                  212.90    396.61826                                0.00000             85.273                                        3.96618e+002           9.66183e+001           6.61826e+000           6.18256e-001           1.82562e-002           8.25622e-003           2.56224e-004
                  213.00    400.64949                                0.00000             85.273                                        4.00649e+002           6.49490e-001           6.49490e-001           6.49490e-001           4.94903e-002           9.49028e-003           4.90278e-004
                  213.10    404.19891                                0.00000             85.273                                        4.04199e+002           4.19891e+000           4.19891e+000           1.98913e-001           9.89127e-002           8.91266e-003           9.12664e-004
                  213.20    407.56095                                0.00000             85.273                                        4.07561e+002           7.56095e+000           7.56095e+000           5.60947e-001           6.09469e-002           9.46902e-004           9.46902e-004
                  213.30    410.91728                                0.00000             85.273                                        4.10917e+002           1.09173e+001           9.17276e-001           9.17276e-001           1.72764e-002           7.27642e-003           2.76423e-004
                  213.40    414.21643                                0.00000             85.273                                        4.14216e+002           1.42164e+001           4.21643e+000           2.16427e-001           1.64266e-002           6.42664e-003           4.26644e-004
                  213.50    417.35660                                0.00000             85.273                                        4.17357e+002           1.73566e+001           7.35660e+000           3.56602e-001           5.66019e-002           6.60192e-003           6.01915e-004
                  213.60    420.45308                                0.00000             85.273                                        4.20453e+002           2.04531e+001           4.53075e-001           4.53075e-001           5.30753e-002           3.07534e-003           7.53441e-005
                  213.70    423.52721                                0.00000             85.273                                        4.23527e+002           2.35272e+001           3.52721e+000           5.27214e-001           2.72137e-002           7.21371e-003           2.13707e-004
                  213.80    426.37417                                0.00000             85.273                                        4.26374e+002           2.63742e+001           6.37417e+000           3.74172e-001           7.41717e-002           4.17167e-003           1.71673e-004
                  213.90    428.96826                                0.00000             85.273                                        4.28968e+002           2.89683e+001           8.96826e+000           9.68261e-001           6.82605e-002           8.26053e-003           2.60532e-004
                  214.00    431.50117                                0.00000             85.273                                        4.31501e+002           3.15012e+001           1.50117e+000           5.01168e-001           1.16781e-003           1.16781e-003           1.67813e-004
                  214.10    433.86013                                0.00000             85.273                                        4.33860e+002           3.38601e+001           3.86013e+000           8.60134e-001           6.01340e-002           1.34039e-004           1.34039e-004
                  214.20    435.73079                                0.00000             85.273                                        4.35731e+002           3.57308e+001           5.73079e+000           7.30790e-001           3.07902e-002           7.90162e-004           7.90162e-004
                  214.30    437.50051                                0.00000             85.273                                        4.37501e+002           3.75005e+001           7.50051e+000           5.00506e-001           5.05799e-004           5.05799e-004           5.05799e-004
                  214.40    439.56790                                0.00000             85.273                                        4.39568e+002           3.95679e+001           9.56790e+000           5.67899e-001           6.78994e-002           7.89935e-003           8.99354e-004
                  214.50    441.49015                                0.00000             85.273                                        4.41490e+002           4.14902e+001           1.49015e+000           4.90155e-001           9.01545e-002           1.54541e-004           1.54541e-004
                  214.60    442.43661                                0.00000             85.273                                        4.42437e+002           4.24366e+001           2.43661e+000           4.36613e-001           3.66128e-002           6.61276e-003           6.12757e-004
                  214.70    442.69604                                0.00000             85.273                                        4.42696e+002           4.26960e+001           2.69604e+000           6.96041e-001           9.60411e-002           6.04106e-003           4.10599e-005
                  214.80    442.73679                                0.00000             85.273                                        4.42737e+002           4.27368e+001           2.73679e+000           7.36788e-001           3.67879e-002           6.78791e-003           7.87907e-004
                  214.90    442.77127                                0.00000             85.276                                        4.42771e+002           4.27713e+001           2.77127e+000           7.71269e-001           7.12694e-002           1.26940e-003           2.69399e-004
