~VERSION INFORMATION
VERS                    .            2.0                                    :CWLS LOG ASCII STANDARD
WRAP                    .            NO                                     :ONE LINE PER TIME STEP


~WELL INFORMATION
#MNEM                   .UNIT        DATA                                    DESCRIPTION
#________________________________________________________________________________________
STRTTIME                .HH/MM/SS    03:09:23                               :START TIME
STOPTIME                .HH/MM/SS    03:12:09                               :STOP TIME
STRT                    .s           2.10                                   :START DATA
STOP                    .s           164.80                                 :STOP DATA
STEP                    .s           0.10                                   :MEASUREMENT TIME INTERVAL
NULL                    .            -999.25                                :NULL VALUE
COMP                    .            Statoil ASA                            :COMPANY
FLD                     .            Volve                                  :FIELD
WELL                    .            15/9-F-1 C                             :WELL
RUN                     .            4                                      :RUN
LOC                     .                                                   :LOCATION
PROV                    .            na                                     :PROVINCE
SRVC                    .            Baker Hughes INTEQ                     :SERVICE COMPANY
DATE                    .YY/MM/DD    14/03/15                               :LOG DATE
UWI                     .                                                   :UNIQUE WELL ID
DEPTHMD                 .m           3523.2                                 :MEASURED DEPTH
DEPTHTVD                .m           2986.7                                 :TRUE VERTICAL DEPTH


~CURVE INFORMATION
#MNEM                   .UNIT        API CODES                               DESCRIPTION
#________________________________________________________________________________________
TIME                    .s                                                  :01 TIME
DD_PRESS                .bar                                                :02 DRAW DOWN PRESSURE
DD_VOLUME               .cm3                                                :03 INCREMENTAL DRAW DOWN VOLUME
TEMP                    .degC                                               :04 TRANSDUCER TEMPERATURE
DD_PRESS_MOD_1000       .bar                                                :05 DRAW DOWN PRESSURE MOD 1000
DD_PRESS_MOD_100        .bar                                                :06 DRAW DOWN PRESSURE MOD 100
DD_PRESS_MOD_10         .bar                                                :07 DRAW DOWN PRESSURE MOD 10
DD_PRESS_MOD_1          .bar                                                :08 DRAW DOWN PRESSURE MOD 1
DD_PRESS_MOD_01         .bar                                                :09 DRAW DOWN PRESSURE MOD 01
DD_PRESS_MOD_001        .bar                                                :10 DRAW DOWN PRESSURE MOD 001
DD_PRESS_MOD_0001       .bar                                                :11 DRAW DOWN PRESSURE MOD 0001


~PARAMETER INFORMATION
#MNEM                   .UNIT        VALUE                                   DESCRIPTION
#________________________________________________________________________________________
TOOLFACE                .deg         104.9                                  :01 TOOLFACE
PUMP_CAPACITY           .bar         400                                    :02 NOMINAL DRAW DOWN PUMP CAPACITY
PUMP_LIMIT              .bar         240                                    :03 DOWNLINK PUMP LIMIT
TIME_LIMIT              .min         10                                     :04 DOWNLINK MAX TIME
TEST_TYPE               .            REPEAT                                 :05 DOWNLINK
TEST_TYPE               .            HIGH MOBILITY                          :06 DOWNLINK
DD_PIST_A               .cm2         3.1416                                 :07 DRAW DOWN PISTON AREA
V_SYS                   .cm3         131.0000                               :08 SYSTEM VOLUME
PROBE_ID                .cm          1.2700                                 :09 TTK PROBE ID
G0                      .            4.6700                                 :10 GEOMETRY FACTOR


~A                  TIME     DD_PRESS                              DD_VOLUME               TEMP                                   DD_PRESS_MOD_1000       DD_PRESS_MOD_100        DD_PRESS_MOD_10         DD_PRESS_MOD_1        DD_PRESS_MOD_01       DD_PRESS_MOD_001      DD_PRESS_MOD_0001
                    2.10    420.74069                                0.00000             84.586                                        4.20741e+002           2.07407e+001           7.40694e-001           7.40694e-001           4.06939e-002           6.93913e-004           6.93913e-004
                    2.20    420.76114                                0.00000             84.586                                        4.20761e+002           2.07611e+001           7.61143e-001           7.61143e-001           6.11429e-002           1.14288e-003           1.42883e-004
                    2.30    420.79097                                0.00000             84.586                                        4.20791e+002           2.07910e+001           7.90972e-001           7.90972e-001           9.09724e-002           9.72443e-004           9.72443e-004
                    2.40    420.80287                                0.00000             84.586                                        4.20803e+002           2.08029e+001           8.02870e-001           8.02870e-001           2.86996e-003           2.86996e-003           8.69957e-004
                    2.50    420.80628                                0.00000             84.586                                        4.20806e+002           2.08063e+001           8.06276e-001           8.06276e-001           6.27608e-003           6.27608e-003           2.76085e-004
                    2.60    420.81536                                0.00000             84.586                                        4.20815e+002           2.08154e+001           8.15356e-001           8.15356e-001           1.53558e-002           5.35576e-003           3.55756e-004
                    2.70    420.82088                                0.00000             84.586                                        4.20821e+002           2.08209e+001           8.20882e-001           8.20882e-001           2.08825e-002           8.82495e-004           8.82495e-004
                    2.80    420.82031                                0.00000             84.586                                        4.20820e+002           2.08203e+001           8.20313e-001           8.20313e-001           2.03126e-002           3.12568e-004           3.12568e-004
                    2.90    420.82919                                0.00000             84.586                                        4.20829e+002           2.08292e+001           8.29186e-001           8.29186e-001           2.91864e-002           9.18635e-003           1.86352e-004
                    3.00    420.84743                                0.00000             84.586                                        4.20847e+002           2.08474e+001           8.47428e-001           8.47428e-001           4.74281e-002           7.42809e-003           4.28093e-004
                    3.10    420.86441                                0.00000             84.586                                        4.20864e+002           2.08644e+001           8.64409e-001           8.64409e-001           6.44087e-002           4.40873e-003           4.08733e-004
                    3.20    420.88279                                0.00000             84.586                                        4.20883e+002           2.08828e+001           8.82792e-001           8.82792e-001           8.27918e-002           2.79182e-003           7.91817e-004
                    3.30    420.90192                                0.00000             84.586                                        4.20902e+002           2.09019e+001           9.01918e-001           9.01918e-001           1.91761e-003           1.91761e-003           9.17606e-004
                    3.40    420.91131                                0.00000             84.586                                        4.20911e+002           2.09113e+001           9.11307e-001           9.11307e-001           1.13067e-002           1.30666e-003           3.06658e-004
                    3.50    420.91340                                0.00000             84.586                                        4.20913e+002           2.09134e+001           9.13403e-001           9.13403e-001           1.34026e-002           3.40259e-003           4.02589e-004
                    3.60    420.92680                                0.00000             84.586                                        4.20927e+002           2.09268e+001           9.26805e-001           9.26805e-001           2.68049e-002           6.80487e-003           8.04871e-004
                    3.70    420.94535                                0.00000             84.586                                        4.20945e+002           2.09454e+001           9.45354e-001           9.45354e-001           4.53542e-002           5.35420e-003           3.54203e-004
                    3.80    420.95104                                0.00000             84.586                                        4.20951e+002           2.09510e+001           9.51043e-001           9.51043e-001           5.10428e-002           1.04284e-003           4.28405e-005
                    3.90    420.95270                                0.00000             84.586                                        4.20953e+002           2.09527e+001           9.52700e-001           9.52700e-001           5.27001e-002           2.70008e-003           7.00076e-004
                    4.00    420.96863                                0.00000             84.586                                        4.20969e+002           2.09686e+001           9.68631e-001           9.68631e-001           6.86310e-002           8.63101e-003           6.31011e-004
                    4.10    420.99451                                0.00000             84.586                                        4.20995e+002           2.09945e+001           9.94509e-001           9.94509e-001           9.45087e-002           4.50871e-003           5.08708e-004
                    4.20    421.01378                                0.00000             84.586                                        4.21014e+002           2.10138e+001           1.01378e+000           1.37792e-002           1.37792e-002           3.77917e-003           7.79168e-004
                    4.30    421.01641                                0.00000             84.586                                        4.21016e+002           2.10164e+001           1.01641e+000           1.64061e-002           1.64061e-002           6.40609e-003           4.06089e-004
                    4.40    421.00785                                0.00000             84.586                                        4.21008e+002           2.10078e+001           1.00785e+000           7.84913e-003           7.84913e-003           7.84913e-003           8.49135e-004
                    4.50    421.01892                                0.00000             84.586                                        4.21019e+002           2.10189e+001           1.01892e+000           1.89163e-002           1.89163e-002           8.91629e-003           9.16287e-004
                    4.60    421.03917                                0.00000             84.586                                        4.21039e+002           2.10392e+001           1.03917e+000           3.91715e-002           3.91715e-002           9.17149e-003           1.71487e-004
                    4.70    421.03597                                0.00000             84.586                                        4.21036e+002           2.10360e+001           1.03597e+000           3.59695e-002           3.59695e-002           5.96947e-003           9.69469e-004
                    4.80    421.03129                                0.00000             84.586                                        4.21031e+002           2.10313e+001           1.03129e+000           3.12881e-002           3.12881e-002           1.28807e-003           2.88072e-004
