~VERSION INFORMATION
VERS                    .            2.0                                    :CWLS LOG ASCII STANDARD
WRAP                    .            NO                                     :ONE LINE PER TIME STEP


~WELL INFORMATION
#MNEM                   .UNIT        DATA                                    DESCRIPTION
#________________________________________________________________________________________
STRTTIME                .HH/MM/SS    04:27:44                               :START TIME
STOPTIME                .HH/MM/SS    04:30:31                               :STOP TIME
STRT                    .s           2.10                                   :START DATA
STOP                    .s           165.30                                 :STOP DATA
STEP                    .s           0.10                                   :MEASUREMENT TIME INTERVAL
NULL                    .            -999.25                                :NULL VALUE
COMP                    .            Statoil ASA                            :COMPANY
FLD                     .            Volve                                  :FIELD
WELL                    .            15/9-F-1 C                             :WELL
RUN                     .            4                                      :RUN
LOC                     .                                                   :LOCATION
PROV                    .            na                                     :PROVINCE
SRVC                    .            Baker Hughes INTEQ                     :SERVICE COMPANY
DATE                    .YY/MM/DD    14/03/15                               :LOG DATE
UWI                     .                                                   :UNIQUE WELL ID
DEPTHMD                 .m           3273.1                                 :MEASURED DEPTH
DEPTHTVD                .m           2948.3                                 :TRUE VERTICAL DEPTH


~CURVE INFORMATION
#MNEM                   .UNIT        API CODES                               DESCRIPTION
#________________________________________________________________________________________
TIME                    .s                                                  :01 TIME
DD_PRESS                .bar                                                :02 DRAW DOWN PRESSURE
DD_VOLUME               .cm3                                                :03 INCREMENTAL DRAW DOWN VOLUME
TEMP                    .degC                                               :04 TRANSDUCER TEMPERATURE
DD_PRESS_MOD_1000       .bar                                                :05 DRAW DOWN PRESSURE MOD 1000
DD_PRESS_MOD_100        .bar                                                :06 DRAW DOWN PRESSURE MOD 100
DD_PRESS_MOD_10         .bar                                                :07 DRAW DOWN PRESSURE MOD 10
DD_PRESS_MOD_1          .bar                                                :08 DRAW DOWN PRESSURE MOD 1
DD_PRESS_MOD_01         .bar                                                :09 DRAW DOWN PRESSURE MOD 01
DD_PRESS_MOD_001        .bar                                                :10 DRAW DOWN PRESSURE MOD 001
DD_PRESS_MOD_0001       .bar                                                :11 DRAW DOWN PRESSURE MOD 0001


~PARAMETER INFORMATION
#MNEM                   .UNIT        VALUE                                   DESCRIPTION
#________________________________________________________________________________________
TOOLFACE                .deg         76.8                                   :01 TOOLFACE
PUMP_CAPACITY           .bar         400                                    :02 NOMINAL DRAW DOWN PUMP CAPACITY
PUMP_LIMIT              .bar         240                                    :03 DOWNLINK PUMP LIMIT
TIME_LIMIT              .min         10                                     :04 DOWNLINK MAX TIME
TEST_TYPE               .            REPEAT                                 :05 DOWNLINK
TEST_TYPE               .            HIGH MOBILITY                          :06 DOWNLINK
DD_PIST_A               .cm2         3.1416                                 :07 DRAW DOWN PISTON AREA
V_SYS                   .cm3         131.0000                               :08 SYSTEM VOLUME
PROBE_ID                .cm          1.2700                                 :09 TTK PROBE ID
G0                      .            4.6700                                 :10 GEOMETRY FACTOR


~A                  TIME     DD_PRESS                              DD_VOLUME               TEMP                                   DD_PRESS_MOD_1000       DD_PRESS_MOD_100        DD_PRESS_MOD_10         DD_PRESS_MOD_1        DD_PRESS_MOD_01       DD_PRESS_MOD_001      DD_PRESS_MOD_0001
# ...
                   13.30    415.36798                                0.00000             85.117                                        4.15368e+002           1.53680e+001           5.36798e+000           3.67985e-001           6.79849e-002           7.98489e-003           9.84888e-004
                   13.40    415.35238                                0.00000             85.117                                        4.15352e+002           1.53524e+001           5.35238e+000           3.52380e-001           5.23796e-002           2.37957e-003           3.79572e-004
                   13.50    415.36575                                0.00000             85.117                                        4.15366e+002           1.53658e+001           5.36575e+000           3.65754e-001           6.57539e-002           5.75388e-003           7.53880e-004
                   13.60    415.39023                                0.00000             85.117                                        4.15390e+002           1.53902e+001           5.39023e+000           3.90226e-001           9.02262e-002           2.26199e-004           2.26199e-004
                   13.70    415.39311                                0.00000             85.117                                        4.15393e+002           1.53931e+001           5.39311e+000           3.93115e-001           9.31146e-002           3.11459e-003           1.14595e-004
                   13.80    415.37898                                0.00000             85.117                                        4.15379e+002           1.53790e+001           5.37898e+000           3.78977e-001           7.89774e-002           8.97738e-003           9.77381e-004
                   13.90    415.37338                                0.00000             85.117                                        4.15373e+002           1.53734e+001           5.37338e+000           3.73385e-001           7.33847e-002           3.38471e-003           3.84715e-004
                   14.00    415.38026                                0.00000             85.117                                        4.15380e+002           1.53803e+001           5.38026e+000           3.80257e-001           8.02569e-002           2.56851e-004           2.56851e-004
                   14.10    415.38461                                0.00000             85.117                                        4.15385e+002           1.53846e+001           5.38461e+000           3.84612e-001           8.46117e-002           4.61172e-003           6.11722e-004
                   14.20    415.37852                                0.00000             85.117                                        4.15379e+002           1.53785e+001           5.37852e+000           3.78520e-001           7.85196e-002           8.51958e-003           5.19575e-004
                   14.30    415.38137                                0.00000             85.117                                        4.15381e+002           1.53814e+001           5.38137e+000           3.81374e-001           8.13743e-002           1.37428e-003           3.74278e-004
                   14.40    415.39410                                0.00000             85.117                                        4.15394e+002           1.53941e+001           5.39410e+000           3.94101e-001           9.41009e-002           4.10086e-003           1.00856e-004
                   14.50    415.40102                                0.00000             85.117                                        4.15401e+002           1.54010e+001           5.40102e+000           4.01018e-001           1.01797e-003           1.01797e-003           1.79710e-005
                   14.60    415.39090                                0.00000             85.117                                        4.15391e+002           1.53909e+001           5.39090e+000           3.90898e-001           9.08982e-002           8.98168e-004           8.98168e-004
                   14.70    415.38834                                0.00000             85.117                                        4.15388e+002           1.53883e+001           5.38834e+000           3.88343e-001           8.83432e-002           8.34315e-003           3.43150e-004
                   14.80    415.40172                                0.00000             85.117                                        4.15402e+002           1.54017e+001           5.40172e+000           4.01717e-001           1.71662e-003           1.71662e-003           7.16622e-004
                   14.90    415.41087                                0.00000             85.117                                        4.15411e+002           1.54109e+001           5.41087e+000           4.10874e-001           1.08742e-002           8.74210e-004           8.74210e-004
                   15.00    415.40751                                0.00000             85.117                                        4.15408e+002           1.54075e+001           5.40751e+000           4.07509e-001           7.50926e-003           7.50926e-003           5.09259e-004
                   15.10    415.39992                                0.00000             85.117                                        4.15400e+002           1.53999e+001           5.39992e+000           3.99918e-001           9.99182e-002           9.91822e-003           9.18220e-004
                   15.20    415.40488                                0.00000             85.117                                        4.15405e+002           1.54049e+001           5.40488e+000           4.04883e-001           4.88347e-003           4.88347e-003           8.83472e-004
                   15.30    415.41971                                0.00000             85.117                                        4.15420e+002           1.54197e+001           5.41971e+000           4.19705e-001           1.97051e-002           9.70513e-003           7.05132e-004
                   15.40    415.42248                                0.00000             85.117                                        4.15422e+002           1.54225e+001           5.42248e+000           4.22477e-001           2.24769e-002           2.47686e-003           4.76859e-004
                   15.50    415.40909                                0.00000             85.117                                        4.15409e+002           1.54091e+001           5.40909e+000           4.09095e-001           9.09474e-003           9.09474e-003           9.47358e-005
                   15.60    415.39519                                0.00000             85.117                                        4.15395e+002           1.53952e+001           5.39519e+000           3.95187e-001           9.51875e-002           5.18748e-003           1.87476e-004
                   15.70    415.40600                                0.00000             85.117                                        4.15406e+002           1.54060e+001           5.40600e+000           4.05997e-001           5.99684e-003           5.99684e-003           9.96839e-004
                   15.80    415.42911                                0.00000             85.117                                        4.15429e+002           1.54291e+001           5.42911e+000           4.29106e-001           2.91063e-002           9.10634e-003           1.06338e-004
                   15.90    415.42919                                0.00000             85.117                                        4.15429e+002           1.54292e+001           5.42919e+000           4.29191e-001           2.91907e-002           9.19071e-003           1.90710e-004
                   16.00    415.41793                                0.00000             85.117                                        4.15418e+002           1.54179e+001           5.41793e+000           4.17930e-001           1.79300e-002           7.93002e-003           9.30016e-004
