~VERSION INFORMATION
VERS                    .            2.0                                    :CWLS LOG ASCII STANDARD
WRAP                    .            NO                                     :ONE LINE PER TIME STEP


~WELL INFORMATION
#MNEM                   .UNIT        DATA                                    DESCRIPTION
#________________________________________________________________________________________
STRTTIME                .HH/MM/SS    00:10:18                               :START TIME
STOPTIME                .HH/MM/SS    00:13:47                               :STOP TIME
STRT                    .s           2.10                                   :START DATA
STOP                    .s           207.40                                 :STOP DATA
STEP                    .s           0.10                                   :MEASUREMENT TIME INTERVAL
NULL                    .            -999.25                                :NULL VALUE
COMP                    .            Statoil ASA                            :COMPANY
FLD                     .            Volve                                  :FIELD
WELL                    .            15/9-F-1                               :WELL
RUN                     .            4                                      :RUN
LOC                     .            Maersk Inspirer                        :LOCATION
PROV                    .            na                                     :PROVINCE
SRVC                    .            Baker Hughes INTEQ                     :SERVICE COMPANY
DATE                    .YY/MM/DD    13/08/19                               :LOG DATE
UWI                     .                                                   :UNIQUE WELL ID
DEPTHMD                 .m           3332.4                                 :MEASURED DEPTH
DEPTHTVD                .m           3056.0                                 :TRUE VERTICAL DEPTH


~CURVE INFORMATION
#MNEM                   .UNIT        API CODES                               DESCRIPTION
#________________________________________________________________________________________
TIME                    .s                                                  :01 TIME
DD_PRESS                .bar                                                :02 DRAW DOWN PRESSURE
DD_VOLUME               .cm3                                                :03 INCREMENTAL DRAW DOWN VOLUME
TEMP                    .degC                                               :04 TRANSDUCER TEMPERATURE
DD_PRESS_MOD_1000       .bar                                                :05 DRAW DOWN PRESSURE MOD 1000
DD_PRESS_MOD_100        .bar                                                :06 DRAW DOWN PRESSURE MOD 100
DD_PRESS_MOD_10         .bar                                                :07 DRAW DOWN PRESSURE MOD 10
DD_PRESS_MOD_1          .bar                                                :08 DRAW DOWN PRESSURE MOD 1
DD_PRESS_MOD_01         .bar                                                :09 DRAW DOWN PRESSURE MOD 01
DD_PRESS_MOD_001        .bar                                                :10 DRAW DOWN PRESSURE MOD 001
DD_PRESS_MOD_0001       .bar                                                :11 DRAW DOWN PRESSURE MOD 0001


~PARAMETER INFORMATION
#MNEM                   .UNIT        VALUE                                   DESCRIPTION
#________________________________________________________________________________________
TOOLFACE                .deg         78.2                                   :01 TOOLFACE
PUMP_CAPACITY           .bar         400                                    :02 NOMINAL DRAW DOWN PUMP CAPACITY
PUMP_LIMIT              .bar         240                                    :03 DOWNLINK PUMP LIMIT
TIME_LIMIT              .min         10                                     :04 DOWNLINK MAX TIME
TEST_TYPE               .            LOW MOBILITY                           :05 DOWNLINK
DD_PIST_A               .cm2         3.1416                                 :06 DRAW DOWN PISTON AREA
V_SYS                   .cm3         131.0000                               :07 SYSTEM VOLUME
PROBE_ID                .cm          1.2700                                 :08 TTK PROBE ID
G0                      .            4.6700                                 :09 GEOMETRY FACTOR


~A                  TIME     DD_PRESS                              DD_VOLUME               TEMP                                   DD_PRESS_MOD_1000       DD_PRESS_MOD_100        DD_PRESS_MOD_10         DD_PRESS_MOD_1        DD_PRESS_MOD_01       DD_PRESS_MOD_001      DD_PRESS_MOD_0001
# ...
                   55.30    340.63523                               10.77702             74.711                                        3.40635e+002           4.06352e+001           6.35228e-001           6.35228e-001           3.52285e-002           5.22849e-003           2.28491e-004
                   55.40    340.63231                               10.77702             74.711                                        3.40632e+002           4.06323e+001           6.32306e-001           6.32306e-001           3.23060e-002           2.30600e-003           3.06005e-004
                   55.50    340.63288                               10.77702             74.711                                        3.40633e+002           4.06329e+001           6.32881e-001           6.32881e-001           3.28810e-002           2.88097e-003           8.80969e-004
                   55.60    340.63185                               10.77702             74.711                                        3.40632e+002           4.06319e+001           6.31855e-001           6.31855e-001           3.18546e-002           1.85464e-003           8.54640e-004
                   55.70    340.63099                               10.77702             74.711                                        3.40631e+002           4.06310e+001           6.30991e-001           6.30991e-001           3.09914e-002           9.91399e-004           9.91399e-004
                   55.80    340.63175                               10.77702             74.711                                        3.40632e+002           4.06317e+001           6.31746e-001           6.31746e-001           3.17464e-002           1.74638e-003           7.46378e-004
                   55.90    340.63221                               10.77702             74.711                                        3.40632e+002           4.06322e+001           6.32205e-001           6.32205e-001           3.22054e-002           2.20540e-003           2.05404e-004
                   56.00    340.63360                               10.77702             74.711                                        3.40634e+002           4.06336e+001           6.33602e-001           6.33602e-001           3.36018e-002           3.60180e-003           6.01801e-004
                   56.10    340.63576                               10.77702             74.711                                        3.40636e+002           4.06358e+001           6.35764e-001           6.35764e-001           3.57635e-002           5.76351e-003           7.63511e-004
                   56.20    340.63448                               10.77702             74.711                                        3.40634e+002           4.06345e+001           6.34482e-001           6.34482e-001           3.44825e-002           4.48249e-003           4.82487e-004
                   56.30    340.63142                               10.77702             74.711                                        3.40631e+002           4.06314e+001           6.31417e-001           6.31417e-001           3.14167e-002           1.41667e-003           4.16675e-004
                   56.40    340.63431                               10.77702             74.711                                        3.40634e+002           4.06343e+001           6.34308e-001           6.34308e-001           3.43082e-002           4.30822e-003           3.08218e-004
                   56.50    340.63719                               10.77702             74.711                                        3.40637e+002           4.06372e+001           6.37188e-001           6.37188e-001           3.71875e-002           7.18752e-003           1.87521e-004
                   56.60    340.63853                               10.77702             74.711                                        3.40639e+002           4.06385e+001           6.38534e-001           6.38534e-001           3.85342e-002           8.53416e-003           5.34162e-004
                   56.70    340.64151                               10.77702             74.711                                        3.40642e+002           4.06415e+001           6.41515e-001           6.41515e-001           4.15145e-002           1.51453e-003           5.14533e-004
                   56.80    340.64457                               10.77702             74.711                                        3.40645e+002           4.06446e+001           6.44570e-001           6.44570e-001           4.45699e-002           4.56989e-003           5.69893e-004
                   56.90    340.64103                               10.77702             74.711                                        3.40641e+002           4.06410e+001           6.41033e-001           6.41033e-001           4.10331e-002           1.03312e-003           3.31185e-005
                   57.00    340.63485                               10.77702             74.711                                        3.40635e+002           4.06349e+001           6.34853e-001           6.34853e-001           3.48532e-002           4.85316e-003           8.53160e-004
                   57.10    340.63114                               10.77702             74.711                                        3.40631e+002           4.06311e+001           6.31143e-001           6.31143e-001           3.11433e-002           1.14335e-003           1.43347e-004
                   57.20    340.63572                               10.77702             74.711                                        3.40636e+002           4.06357e+001           6.35723e-001           6.35723e-001           3.57229e-002           5.72286e-003           7.22856e-004
                   57.30    340.64027                               10.77702             74.711                                        3.40640e+002           4.06403e+001           6.40271e-001           6.40271e-001           4.02705e-002           2.70504e-004           2.70504e-004
                   57.40    340.63830                               10.77702             74.711                                        3.40638e+002           4.06383e+001           6.38304e-001           6.38304e-001           3.83036e-002           8.30364e-003           3.03637e-004
                   57.50    340.63655                               10.77702             74.711                                        3.40637e+002           4.06366e+001           6.36551e-001           6.36551e-001           3.65506e-002           6.55056e-003           5.50560e-004
                   57.60    340.63674                               10.77702             74.711                                        3.40637e+002           4.06367e+001           6.36740e-001           6.36740e-001           3.67400e-002           6.73995e-003           7.39954e-004
                   57.70    340.63436                               10.77702             74.711                                        3.40634e+002           4.06344e+001           6.34359e-001           6.34359e-001           3.43592e-002           4.35919e-003           3.59193e-004
                   57.80    340.63570                               10.77702             74.711                                        3.40636e+002           4.06357e+001           6.35698e-001           6.35698e-001           3.56984e-002           5.69842e-003           6.98417e-004
                   57.90    340.63508                               10.77702             74.711                                        3.40635e+002           4.06351e+001           6.35078e-001           6.35078e-001           3.50778e-002           5.07781e-003           7.78060e-005
                   58.00    340.63443                               10.77702             74.711                                        3.40634e+002           4.06344e+001           6.34428e-001           6.34428e-001           3.44284e-002           4.42837e-003           4.28367e-004
