~VERSION INFORMATION
VERS                    .            2.0                                    :CWLS LOG ASCII STANDARD
WRAP                    .            NO                                     :ONE LINE PER TIME STEP


~WELL INFORMATION
#MNEM                   .UNIT        DATA                                    DESCRIPTION
#________________________________________________________________________________________
STRTTIME                .HH/MM/SS    18:24:11                               :START TIME
STOPTIME                .HH/MM/SS    18:26:54                               :STOP TIME
STRT                    .s           2.10                                   :START DATA
STOP                    .s           161.30                                 :STOP DATA
STEP                    .s           0.10                                   :MEASUREMENT TIME INTERVAL
NULL                    .            -999.25                                :NULL VALUE
COMP                    .            Statoil ASA                            :COMPANY
FLD                     .            Volve                                  :FIELD
WELL                    .            15/9-F-11 A                            :WELL
RUN                     .            8                                      :RUN
LOC                     .            Maersk Inspirer                        :LOCATION
PROV                    .            na                                     :PROVINCE
SRVC                    .            Baker Hughes INTEQ                     :SERVICE COMPANY
DATE                    .YY/MM/DD    13/05/23                               :LOG DATE
UWI                     .                                                   :UNIQUE WELL ID
DEPTHMD                 .m           3681.0                                 :MEASURED DEPTH
DEPTHTVD                .m           3064.4                                 :TRUE VERTICAL DEPTH


~CURVE INFORMATION
#MNEM                   .UNIT        API CODES                               DESCRIPTION
#________________________________________________________________________________________
TIME                    .s                                                  :01 TIME
DD_PRESS                .bar                                                :02 DRAW DOWN PRESSURE
DD_VOLUME               .cm3                                                :03 INCREMENTAL DRAW DOWN VOLUME
TEMP                    .degC                                               :04 TRANSDUCER TEMPERATURE
DD_PRESS_MOD_1000       .bar                                                :05 DRAW DOWN PRESSURE MOD 1000
DD_PRESS_MOD_100        .bar                                                :06 DRAW DOWN PRESSURE MOD 100
DD_PRESS_MOD_10         .bar                                                :07 DRAW DOWN PRESSURE MOD 10
DD_PRESS_MOD_1          .bar                                                :08 DRAW DOWN PRESSURE MOD 1
DD_PRESS_MOD_01         .bar                                                :09 DRAW DOWN PRESSURE MOD 01
DD_PRESS_MOD_001        .bar                                                :10 DRAW DOWN PRESSURE MOD 001
DD_PRESS_MOD_0001       .bar                                                :11 DRAW DOWN PRESSURE MOD 0001


~PARAMETER INFORMATION
#MNEM                   .UNIT        VALUE                                   DESCRIPTION
#________________________________________________________________________________________
TOOLFACE                .deg         -38.1                                  :01 TOOLFACE
PUMP_CAPACITY           .bar         400                                    :02 NOMINAL DRAW DOWN PUMP CAPACITY
PUMP_LIMIT              .bar         240                                    :03 DOWNLINK PUMP LIMIT
TIME_LIMIT              .min         10                                     :04 DOWNLINK MAX TIME
TEST_TYPE               .            HIGH MOBILITY                          :05 DOWNLINK
DD_PIST_A               .cm2         3.1416                                 :06 DRAW DOWN PISTON AREA
V_SYS                   .cm3         131.0000                               :07 SYSTEM VOLUME
PROBE_ID                .cm          1.2700                                 :08 TTK PROBE ID
G0                      .            4.6700                                 :09 GEOMETRY FACTOR


~A                  TIME     DD_PRESS                              DD_VOLUME               TEMP                                   DD_PRESS_MOD_1000       DD_PRESS_MOD_100        DD_PRESS_MOD_10         DD_PRESS_MOD_1        DD_PRESS_MOD_01       DD_PRESS_MOD_001      DD_PRESS_MOD_0001
# ...
                   13.30    426.43818                                0.00000             75.313                                        4.26438e+002           2.64382e+001           6.43818e+000           4.38175e-001           3.81755e-002           8.17549e-003           1.75493e-004
                   13.40    426.41841                                0.00000             75.313                                        4.26418e+002           2.64184e+001           6.41841e+000           4.18408e-001           1.84075e-002           8.40754e-003           4.07539e-004
                   13.50    426.42153                                0.00000             75.313                                        4.26422e+002           2.64215e+001           6.42153e+000           4.21529e-001           2.15290e-002           1.52897e-003           5.28973e-004
                   13.60    426.43731                                0.00000             75.313                                        4.26437e+002           2.64373e+001           6.43731e+000           4.37305e-001           3.73051e-002           7.30507e-003           3.05075e-004
                   13.70    426.45094                                0.00000             75.313                                        4.26451e+002           2.64509e+001           6.45094e+000           4.50940e-001           5.09399e-002           9.39874e-004           9.39874e-004
                   13.80    426.45293                                0.00000             75.313                                        4.26453e+002           2.64529e+001           6.45293e+000           4.52930e-001           5.29304e-002           2.93038e-003           9.30385e-004
                   13.90    426.45455                                0.00000             75.313                                        4.26455e+002           2.64546e+001           6.45455e+000           4.54553e-001           5.45533e-002           4.55332e-003           5.53317e-004
                   14.00    426.47122                                0.00000             75.313                                        4.26471e+002           2.64712e+001           6.47122e+000           4.71218e-001           7.12179e-002           1.21785e-003           2.17854e-004
                   14.10    426.48999                                0.00000             75.313                                        4.26490e+002           2.64900e+001           6.48999e+000           4.89992e-001           8.99925e-002           9.99246e-003           9.92459e-004
                   14.20    426.50388                                0.00000             75.313                                        4.26504e+002           2.65039e+001           6.50388e+000           5.03875e-001           3.87512e-003           3.87512e-003           8.75119e-004
                   14.30    426.50804                                0.00000             75.313                                        4.26508e+002           2.65080e+001           6.50804e+000           5.08043e-001           8.04261e-003           8.04261e-003           4.26145e-005
                   14.40    426.50429                                0.00000             75.313                                        4.26504e+002           2.65043e+001           6.50429e+000           5.04288e-001           4.28831e-003           4.28831e-003           2.88305e-004
                   14.50    426.50713                                0.00000             75.313                                        4.26507e+002           2.65071e+001           6.50713e+000           5.07134e-001           7.13434e-003           7.13434e-003           1.34340e-004
                   14.60    426.52794                                0.00000             75.313                                        4.26528e+002           2.65279e+001           6.52794e+000           5.27941e-001           2.79410e-002           7.94100e-003           9.41000e-004
                   14.70    426.54483                                0.00000             75.313                                        4.26545e+002           2.65448e+001           6.54483e+000           5.44833e-001           4.48326e-002           4.83263e-003           8.32628e-004
                   14.80    426.54362                                0.00000             75.313                                        4.26544e+002           2.65436e+001           6.54362e+000           5.43622e-001           4.36222e-002           3.62220e-003           6.22197e-004
                   14.90    426.53697                                0.00000             75.313                                        4.26537e+002           2.65370e+001           6.53697e+000           5.36968e-001           3.69684e-002           6.96838e-003           9.68377e-004
                   15.00    426.56078                                0.00000             75.313                                        4.26561e+002           2.65608e+001           6.56078e+000           5.60776e-001           6.07759e-002           7.75854e-004           7.75854e-004
                   15.10    426.58317                                0.00000             75.313                                        4.26583e+002           2.65832e+001           6.58317e+000           5.83167e-001           8.31670e-002           3.16698e-003           1.66985e-004
                   15.20    426.60570                                0.00000             75.313                                        4.26606e+002           2.66057e+001           6.60570e+000           6.05697e-001           5.69692e-003           5.69692e-003           6.96919e-004
                   15.30    426.60296                                0.00000             75.313                                        4.26603e+002           2.66030e+001           6.60296e+000           6.02956e-001           2.95601e-003           2.95601e-003           9.56013e-004
                   15.40    426.59303                                0.00000             75.313                                        4.26593e+002           2.65930e+001           6.59303e+000           5.93033e-001           9.30327e-002           3.03268e-003           3.26754e-005
                   15.50    426.59305                                0.00000             75.313                                        4.26593e+002           2.65931e+001           6.59305e+000           5.93054e-001           9.30539e-002           3.05388e-003           5.38802e-005
                   15.60    426.60455                                0.00000             75.313                                        4.26605e+002           2.66046e+001           6.60455e+000           6.04554e-001           4.55418e-003           4.55418e-003           5.54179e-004
                   15.70    426.60569                                0.00000             75.313                                        4.26606e+002           2.66057e+001           6.60569e+000           6.05690e-001           5.69045e-003           5.69045e-003           6.90448e-004
                   15.80    426.61358                                0.00000             75.313                                        4.26614e+002           2.66136e+001           6.61358e+000           6.13577e-001           1.35766e-002           3.57657e-003           5.76571e-004
                   15.90    426.62745                                0.00000             75.313                                        4.26627e+002           2.66274e+001           6.62745e+000           6.27448e-001           2.74484e-002           7.44836e-003           4.48361e-004
                   16.00    426.63424                                0.00000             75.313                                        4.26634e+002           2.66342e+001           6.63424e+000           6.34240e-001           3.42395e-002           4.23953e-003           2.39525e-004
