~VERSION INFORMATION
VERS                    .            2.0                                    :CWLS LOG ASCII STANDARD
WRAP                    .            NO                                     :ONE LINE PER TIME STEP


~WELL INFORMATION
#MNEM                   .UNIT        DATA                                    DESCRIPTION
#________________________________________________________________________________________
STRTTIME                .HH/MM/SS    01:44:52                               :START TIME
STOPTIME                .HH/MM/SS    01:47:47                               :STOP TIME
STRT                    .s           2.10                                   :START DATA
STOP                    .s           173.40                                 :STOP DATA
STEP                    .s           0.10                                   :MEASUREMENT TIME INTERVAL
NULL                    .            -999.25                                :NULL VALUE
COMP                    .            Statoil ASA                            :COMPANY
FLD                     .            Volve                                  :FIELD
WELL                    .            15/9-F-1 C                             :WELL
RUN                     .            4                                      :RUN
LOC                     .                                                   :LOCATION
PROV                    .            na                                     :PROVINCE
SRVC                    .            Baker Hughes INTEQ                     :SERVICE COMPANY
DATE                    .YY/MM/DD    14/03/15                               :LOG DATE
UWI                     .                                                   :UNIQUE WELL ID
DEPTHMD                 .m           3620.2                                 :MEASURED DEPTH
DEPTHTVD                .m           3012.3                                 :TRUE VERTICAL DEPTH


~CURVE INFORMATION
#MNEM                   .UNIT        API CODES                               DESCRIPTION
#________________________________________________________________________________________
TIME                    .s                                                  :01 TIME
DD_PRESS                .bar                                                :02 DRAW DOWN PRESSURE
DD_VOLUME               .cm3                                                :03 INCREMENTAL DRAW DOWN VOLUME
TEMP                    .degC                                               :04 TRANSDUCER TEMPERATURE
DD_PRESS_MOD_1000       .bar                                                :05 DRAW DOWN PRESSURE MOD 1000
DD_PRESS_MOD_100        .bar                                                :06 DRAW DOWN PRESSURE MOD 100
DD_PRESS_MOD_10         .bar                                                :07 DRAW DOWN PRESSURE MOD 10
DD_PRESS_MOD_1          .bar                                                :08 DRAW DOWN PRESSURE MOD 1
DD_PRESS_MOD_01         .bar                                                :09 DRAW DOWN PRESSURE MOD 01
DD_PRESS_MOD_001        .bar                                                :10 DRAW DOWN PRESSURE MOD 001
DD_PRESS_MOD_0001       .bar                                                :11 DRAW DOWN PRESSURE MOD 0001


~PARAMETER INFORMATION
#MNEM                   .UNIT        VALUE                                   DESCRIPTION
#________________________________________________________________________________________
TOOLFACE                .deg         108.7                                  :01 TOOLFACE
PUMP_CAPACITY           .bar         400                                    :02 NOMINAL DRAW DOWN PUMP CAPACITY
PUMP_LIMIT              .bar         240                                    :03 DOWNLINK PUMP LIMIT
TIME_LIMIT              .min         10                                     :04 DOWNLINK MAX TIME
TEST_TYPE               .            REPEAT                                 :05 DOWNLINK
TEST_TYPE               .            HIGH MOBILITY                          :06 DOWNLINK
DD_PIST_A               .cm2         3.1416                                 :07 DRAW DOWN PISTON AREA
V_SYS                   .cm3         131.0000                               :08 SYSTEM VOLUME
PROBE_ID                .cm          1.2700                                 :09 TTK PROBE ID
G0                      .            4.6700                                 :10 GEOMETRY FACTOR


~A                  TIME     DD_PRESS                              DD_VOLUME               TEMP                                   DD_PRESS_MOD_1000       DD_PRESS_MOD_100        DD_PRESS_MOD_10         DD_PRESS_MOD_1        DD_PRESS_MOD_01       DD_PRESS_MOD_001      DD_PRESS_MOD_0001
# ...
                   35.70    343.76713                                9.95325             87.172                                        3.43767e+002           4.37671e+001           3.76713e+000           7.67134e-001           6.71344e-002           7.13439e-003           1.34394e-004
                   35.80    343.78849                               10.01233             87.172                                        3.43788e+002           4.37885e+001           3.78849e+000           7.88486e-001           8.84861e-002           8.48610e-003           4.86100e-004
                   35.90    343.81361                               10.06977             87.172                                        3.43814e+002           4.38136e+001           3.81361e+000           8.13606e-001           1.36059e-002           3.60591e-003           6.05909e-004
                   36.00    343.84108                               10.12554             87.172                                        3.43841e+002           4.38411e+001           3.84108e+000           8.41082e-001           4.10823e-002           1.08227e-003           8.22699e-005
                   36.10    343.86870                               10.17954             87.172                                        3.43869e+002           4.38687e+001           3.86870e+000           8.68703e-001           6.87032e-002           8.70316e-003           7.03164e-004
                   36.20    343.89507                               10.23192             87.172                                        3.43895e+002           4.38951e+001           3.89507e+000           8.95072e-001           9.50718e-002           5.07178e-003           7.17821e-005
                   36.30    343.92331                               10.28272             87.172                                        3.43923e+002           4.39233e+001           3.92331e+000           9.23306e-001           2.33061e-002           3.30605e-003           3.06051e-004
                   36.40    343.95033                               10.33182             87.172                                        3.43950e+002           4.39503e+001           3.95033e+000           9.50330e-001           5.03302e-002           3.30181e-004           3.30181e-004
                   36.50    343.97337                               10.37906             87.172                                        3.43973e+002           4.39734e+001           3.97337e+000           9.73368e-001           7.33684e-002           3.36839e-003           3.68387e-004
                   36.60    343.99450                               10.42446             87.172                                        3.43995e+002           4.39945e+001           3.99450e+000           9.94501e-001           9.45009e-002           4.50086e-003           5.00861e-004
                   36.70    344.01559                               10.46812             87.172                                        3.44016e+002           4.40156e+001           4.01559e+000           1.55902e-002           1.55902e-002           5.59017e-003           5.90166e-004
                   36.80    344.03702                               10.51005             87.172                                        3.44037e+002           4.40370e+001           4.03702e+000           3.70222e-002           3.70222e-002           7.02222e-003           2.22173e-005
                   36.90    344.05908                               10.55013             87.172                                        3.44059e+002           4.40591e+001           4.05908e+000           5.90803e-002           5.90803e-002           9.08033e-003           8.03286e-005
                   37.00    344.08024                               10.58829             87.172                                        3.44080e+002           4.40802e+001           4.08024e+000           8.02403e-002           8.02403e-002           2.40278e-004           2.40278e-004
                   37.10    344.10181                               10.62465             87.172                                        3.44102e+002           4.41018e+001           4.10181e+000           1.01808e-001           1.80752e-003           1.80752e-003           8.07518e-004
                   37.20    344.13975                               10.65840             87.172                                        3.44140e+002           4.41398e+001           4.13975e+000           1.39752e-001           3.97516e-002           9.75159e-003           7.51590e-004
                   37.30    344.22940                               10.68140             87.172                                        3.44229e+002           4.42294e+001           4.22940e+000           2.29402e-001           2.94022e-002           9.40217e-003           4.02167e-004
                   37.40    344.31271                               10.68995             87.172                                        3.44313e+002           4.43127e+001           4.31271e+000           3.12706e-001           1.27059e-002           2.70591e-003           7.05911e-004
                   37.50    344.33610                               10.69062             87.172                                        3.44336e+002           4.43361e+001           4.33610e+000           3.36097e-001           3.60972e-002           6.09716e-003           9.71648e-005
                   37.60    344.33712                               10.69069             87.172                                        3.44337e+002           4.43371e+001           4.33712e+000           3.37125e-001           3.71250e-002           7.12495e-003           1.24950e-004
                   37.70    344.33527                               10.69069             87.172                                        3.44335e+002           4.43353e+001           4.33527e+000           3.35274e-001           3.52738e-002           5.27377e-003           2.73774e-004
                   37.80    344.33561                               10.69069             87.172                                        3.44336e+002           4.43356e+001           4.33561e+000           3.35615e-001           3.56149e-002           5.61494e-003           6.14944e-004
                   37.90    344.33570                               10.69069             87.172                                        3.44336e+002           4.43357e+001           4.33570e+000           3.35700e-001           3.57003e-002           5.70033e-003           7.00327e-004
                   38.00    344.33623                               10.69069             87.172                                        3.44336e+002           4.43362e+001           4.33623e+000           3.36227e-001           3.62274e-002           6.22742e-003           2.27421e-004
                   38.10    344.33465                               10.69069             87.172                                        3.44335e+002           4.43347e+001           4.33465e+000           3.34654e-001           3.46540e-002           4.65395e-003           6.53955e-004
                   38.20    344.33376                               10.69069             87.172                                        3.44334e+002           4.43338e+001           4.33376e+000           3.33757e-001           3.37574e-002           3.75737e-003           7.57372e-004
                   38.30    344.33428                               10.69069             87.172                                        3.44334e+002           4.43343e+001           4.33428e+000           3.34284e-001           3.42841e-002           4.28413e-003           2.84134e-004
                   38.40    344.33597                               10.69069             87.172                                        3.44336e+002           4.43360e+001           4.33597e+000           3.35971e-001           3.59715e-002           5.97149e-003           9.71489e-004
