~VERSION INFORMATION
VERS                    .            2.0                                    :CWLS LOG ASCII STANDARD
WRAP                    .            NO                                     :ONE LINE PER TIME STEP


~WELL INFORMATION
#MNEM                   .UNIT        DATA                                    DESCRIPTION
#________________________________________________________________________________________
STRTTIME                .HH/MM/SS    22:39:37                               :START TIME
STOPTIME                .HH/MM/SS    22:43:03                               :STOP TIME
STRT                    .s           2.10                                   :START DATA
STOP                    .s           204.10                                 :STOP DATA
STEP                    .s           0.10                                   :MEASUREMENT TIME INTERVAL
NULL                    .            -999.25                                :NULL VALUE
COMP                    .            Statoil ASA                            :COMPANY
FLD                     .            Volve                                  :FIELD
WELL                    .            15/9-F-1 C                             :WELL
RUN                     .            4                                      :RUN
LOC                     .                                                   :LOCATION
PROV                    .            na                                     :PROVINCE
SRVC                    .            Baker Hughes INTEQ                     :SERVICE COMPANY
DATE                    .YY/MM/DD    14/03/14                               :LOG DATE
UWI                     .                                                   :UNIQUE WELL ID
DEPTHMD                 .m           3925.1                                 :MEASURED DEPTH
DEPTHTVD                .m           3120.2                                 :TRUE VERTICAL DEPTH


~CURVE INFORMATION
#MNEM                   .UNIT        API CODES                               DESCRIPTION
#________________________________________________________________________________________
TIME                    .s                                                  :01 TIME
DD_PRESS                .bar                                                :02 DRAW DOWN PRESSURE
DD_VOLUME               .cm3                                                :03 INCREMENTAL DRAW DOWN VOLUME
TEMP                    .degC                                               :04 TRANSDUCER TEMPERATURE
DD_PRESS_MOD_1000       .bar                                                :05 DRAW DOWN PRESSURE MOD 1000
DD_PRESS_MOD_100        .bar                                                :06 DRAW DOWN PRESSURE MOD 100
DD_PRESS_MOD_10         .bar                                                :07 DRAW DOWN PRESSURE MOD 10
DD_PRESS_MOD_1          .bar                                                :08 DRAW DOWN PRESSURE MOD 1
DD_PRESS_MOD_01         .bar                                                :09 DRAW DOWN PRESSURE MOD 01
DD_PRESS_MOD_001        .bar                                                :10 DRAW DOWN PRESSURE MOD 001
DD_PRESS_MOD_0001       .bar                                                :11 DRAW DOWN PRESSURE MOD 0001


~PARAMETER INFORMATION
#MNEM                   .UNIT        VALUE                                   DESCRIPTION
#________________________________________________________________________________________
TOOLFACE                .deg         -7.4                                   :01 TOOLFACE
PUMP_CAPACITY           .bar         400                                    :02 NOMINAL DRAW DOWN PUMP CAPACITY
PUMP_LIMIT              .bar         240                                    :03 DOWNLINK PUMP LIMIT
TIME_LIMIT              .min         10                                     :04 DOWNLINK MAX TIME
TEST_TYPE               .            HIGH MOBILITY                          :05 DOWNLINK
DD_PIST_A               .cm2         3.1416                                 :06 DRAW DOWN PISTON AREA
V_SYS                   .cm3         131.0000                               :07 SYSTEM VOLUME
PROBE_ID                .cm          1.2700                                 :08 TTK PROBE ID
G0                      .            4.6700                                 :09 GEOMETRY FACTOR


~A                  TIME     DD_PRESS                              DD_VOLUME               TEMP                                   DD_PRESS_MOD_1000       DD_PRESS_MOD_100        DD_PRESS_MOD_10         DD_PRESS_MOD_1        DD_PRESS_MOD_01       DD_PRESS_MOD_001      DD_PRESS_MOD_0001
# ...
                   55.30    353.16297                               10.80103             91.373                                        3.53163e+002           5.31630e+001           3.16297e+000           1.62967e-001           6.29667e-002           2.96672e-003           9.66721e-004
                   55.40    353.16341                               10.80103             91.369                                        3.53163e+002           5.31634e+001           3.16341e+000           1.63415e-001           6.34145e-002           3.41453e-003           4.14534e-004
                   55.50    353.16408                               10.80103             91.367                                        3.53164e+002           5.31641e+001           3.16408e+000           1.64082e-001           6.40821e-002           4.08211e-003           8.21063e-005
                   55.60    353.16633                               10.80103             91.367                                        3.53166e+002           5.31663e+001           3.16633e+000           1.66328e-001           6.63284e-002           6.32842e-003           3.28424e-004
                   55.70    353.16522                               10.80103             91.370                                        3.53165e+002           5.31652e+001           3.16522e+000           1.65224e-001           6.52238e-002           5.22379e-003           2.23793e-004
                   55.80    353.16719                               10.80103             91.373                                        3.53167e+002           5.31672e+001           3.16719e+000           1.67189e-001           6.71891e-002           7.18913e-003           1.89127e-004
                   55.90    353.16591                               10.80103             91.375                                        3.53166e+002           5.31659e+001           3.16591e+000           1.65913e-001           6.59126e-002           5.91263e-003           9.12633e-004
                   56.00    353.16292                               10.80103             91.375                                        3.53163e+002           5.31629e+001           3.16292e+000           1.62920e-001           6.29195e-002           2.91950e-003           9.19504e-004
                   56.10    353.16601                               10.80103             91.375                                        3.53166e+002           5.31660e+001           3.16601e+000           1.66013e-001           6.60131e-002           6.01308e-003           1.30767e-005
                   56.20    353.16482                               10.80103             91.375                                        3.53165e+002           5.31648e+001           3.16482e+000           1.64815e-001           6.48155e-002           4.81550e-003           8.15497e-004
                   56.30    353.16477                               10.80103             91.373                                        3.53165e+002           5.31648e+001           3.16477e+000           1.64766e-001           6.47659e-002           4.76593e-003           7.65929e-004
                   56.40    353.16510                               10.80103             91.369                                        3.53165e+002           5.31651e+001           3.16510e+000           1.65098e-001           6.50976e-002           5.09761e-003           9.76092e-005
                   56.50    353.16534                               10.80103             91.367                                        3.53165e+002           5.31653e+001           3.16534e+000           1.65336e-001           6.53358e-002           5.33583e-003           3.35835e-004
                   56.60    353.16604                               10.80103             91.370                                        3.53166e+002           5.31660e+001           3.16604e+000           1.66040e-001           6.60398e-002           6.03983e-003           3.98316e-005
                   56.70    353.16346                               10.80103             91.373                                        3.53163e+002           5.31635e+001           3.16346e+000           1.63464e-001           6.34644e-002           3.46443e-003           4.64426e-004
                   56.80    353.16408                               10.80103             91.373                                        3.53164e+002           5.31641e+001           3.16408e+000           1.64075e-001           6.40754e-002           4.07545e-003           7.54468e-005
                   56.90    353.16658                               10.80103             91.369                                        3.53167e+002           5.31666e+001           3.16658e+000           1.66582e-001           6.65819e-002           6.58192e-003           5.81918e-004
                   57.00    353.16382                               10.80103             91.367                                        3.53164e+002           5.31638e+001           3.16382e+000           1.63820e-001           6.38195e-002           3.81953e-003           8.19526e-004
                   57.10    353.16426                               10.80103             91.370                                        3.53164e+002           5.31643e+001           3.16426e+000           1.64255e-001           6.42553e-002           4.25531e-003           2.55314e-004
                   57.20    353.16653                               10.80103             91.371                                        3.53167e+002           5.31665e+001           3.16653e+000           1.66530e-001           6.65301e-002           6.53006e-003           5.30063e-004
                   57.30    353.16699                               10.80103             91.369                                        3.53167e+002           5.31670e+001           3.16699e+000           1.66992e-001           6.69917e-002           6.99170e-003           9.91701e-004
                   57.40    353.16823                               10.80103             91.367                                        3.53168e+002           5.31682e+001           3.16823e+000           1.68230e-001           6.82299e-002           8.22994e-003           2.29942e-004
                   57.50    353.16328                               10.80103             91.367                                        3.53163e+002           5.31633e+001           3.16328e+000           1.63279e-001           6.32792e-002           3.27917e-003           2.79170e-004
                   57.60    353.16108                               10.80103             91.367                                        3.53161e+002           5.31611e+001           3.16108e+000           1.61078e-001           6.10780e-002           1.07804e-003           7.80441e-005
                   57.70    353.16588                               10.80103             91.367                                        3.53166e+002           5.31659e+001           3.16588e+000           1.65875e-001           6.58755e-002           5.87548e-003           8.75481e-004
                   57.80    353.16852                               10.80103             91.367                                        3.53169e+002           5.31685e+001           3.16852e+000           1.68520e-001           6.85203e-002           8.52035e-003           5.20348e-004
                   57.90    353.16855                               10.80103             91.367                                        3.53169e+002           5.31686e+001           3.16855e+000           1.68551e-001           6.85506e-002           8.55057e-003           5.50567e-004
                   58.00    353.16854                               10.80103             91.367                                        3.53169e+002           5.31685e+001           3.16854e+000           1.68545e-001           6.85446e-002           8.54458e-003           5.44577e-004
