~VERSION INFORMATION
VERS                    .            2.0                                    :CWLS LOG ASCII STANDARD
WRAP                    .            NO                                     :ONE LINE PER TIME STEP


~WELL INFORMATION
#MNEM                   .UNIT        DATA                                    DESCRIPTION
#________________________________________________________________________________________
STRTTIME                .HH/MM/SS    18:24:11                               :START TIME
STOPTIME                .HH/MM/SS    18:26:54                               :STOP TIME
STRT                    .s           2.10                                   :START DATA
STOP                    .s           161.30                                 :STOP DATA
STEP                    .s           0.10                                   :MEASUREMENT TIME INTERVAL
NULL                    .            -999.25                                :NULL VALUE
COMP                    .            Statoil ASA                            :COMPANY
FLD                     .            Volve                                  :FIELD
WELL                    .            15/9-F-11 A                            :WELL
RUN                     .            8                                      :RUN
LOC                     .            Maersk Inspirer                        :LOCATION
PROV                    .            na                                     :PROVINCE
SRVC                    .            Baker Hughes INTEQ                     :SERVICE COMPANY
DATE                    .YY/MM/DD    13/05/23                               :LOG DATE
UWI                     .                                                   :UNIQUE WELL ID
DEPTHMD                 .m           3681.0                                 :MEASURED DEPTH
DEPTHTVD                .m           3064.4                                 :TRUE VERTICAL DEPTH


~CURVE INFORMATION
#MNEM                   .UNIT        API CODES                               DESCRIPTION
#________________________________________________________________________________________
TIME                    .s                                                  :01 TIME
DD_PRESS                .bar                                                :02 DRAW DOWN PRESSURE
DD_VOLUME               .cm3                                                :03 INCREMENTAL DRAW DOWN VOLUME
TEMP                    .degC                                               :04 TRANSDUCER TEMPERATURE
DD_PRESS_MOD_1000       .bar                                                :05 DRAW DOWN PRESSURE MOD 1000
DD_PRESS_MOD_100        .bar                                                :06 DRAW DOWN PRESSURE MOD 100
DD_PRESS_MOD_10         .bar                                                :07 DRAW DOWN PRESSURE MOD 10
DD_PRESS_MOD_1          .bar                                                :08 DRAW DOWN PRESSURE MOD 1
DD_PRESS_MOD_01         .bar                                                :09 DRAW DOWN PRESSURE MOD 01
DD_PRESS_MOD_001        .bar                                                :10 DRAW DOWN PRESSURE MOD 001
DD_PRESS_MOD_0001       .bar                                                :11 DRAW DOWN PRESSURE MOD 0001


~PARAMETER INFORMATION
#MNEM                   .UNIT        VALUE                                   DESCRIPTION
#________________________________________________________________________________________
TOOLFACE                .deg         -38.1                                  :01 TOOLFACE
PUMP_CAPACITY           .bar         400                                    :02 NOMINAL DRAW DOWN PUMP CAPACITY
PUMP_LIMIT              .bar         240                                    :03 DOWNLINK PUMP LIMIT
TIME_LIMIT              .min         10                                     :04 DOWNLINK MAX TIME
TEST_TYPE               .            HIGH MOBILITY                          :05 DOWNLINK
DD_PIST_A               .cm2         3.1416                                 :06 DRAW DOWN PISTON AREA
V_SYS                   .cm3         131.0000                               :07 SYSTEM VOLUME
PROBE_ID                .cm          1.2700                                 :08 TTK PROBE ID
G0                      .            4.6700                                 :09 GEOMETRY FACTOR


~A                  TIME     DD_PRESS                              DD_VOLUME               TEMP                                   DD_PRESS_MOD_1000       DD_PRESS_MOD_100        DD_PRESS_MOD_10         DD_PRESS_MOD_1        DD_PRESS_MOD_01       DD_PRESS_MOD_001      DD_PRESS_MOD_0001
# ...
                   32.90    342.20006                                5.91239             75.255                                        3.42200e+002           4.22001e+001           2.20006e+000           2.00063e-001           6.26117e-005           6.26117e-005           6.26117e-005
                   33.00    342.20520                                6.01201             75.252                                        3.42205e+002           4.22052e+001           2.20520e+000           2.05201e-001           5.20073e-003           5.20073e-003           2.00731e-004
                   33.10    342.20345                                6.11168             75.250                                        3.42203e+002           4.22035e+001           2.20345e+000           2.03452e-001           3.45217e-003           3.45217e-003           4.52171e-004
                   33.20    342.20370                                6.21126             75.250                                        3.42204e+002           4.22037e+001           2.20370e+000           2.03697e-001           3.69653e-003           3.69653e-003           6.96528e-004
                   33.30    342.21660                                6.31071             75.250                                        3.42217e+002           4.22166e+001           2.21660e+000           2.16603e-001           1.66033e-002           6.60332e-003           6.03325e-004
                   33.40    342.23062                                6.41013             75.250                                        3.42231e+002           4.22306e+001           2.23062e+000           2.30622e-001           3.06225e-002           6.22467e-004           6.22467e-004
                   33.50    342.23171                                6.50936             75.250                                        3.42232e+002           4.22317e+001           2.23171e+000           2.31709e-001           3.17091e-002           1.70905e-003           7.09053e-004
                   33.60    342.23229                                6.60826             75.250                                        3.42232e+002           4.22323e+001           2.23229e+000           2.32288e-001           3.22879e-002           2.28794e-003           2.87944e-004
                   33.70    342.25342                                6.70689             75.250                                        3.42253e+002           4.22534e+001           2.25342e+000           2.53416e-001           5.34164e-002           3.41641e-003           4.16405e-004
                   33.80    342.27188                                6.80526             75.250                                        3.42272e+002           4.22719e+001           2.27188e+000           2.71880e-001           7.18803e-002           1.88029e-003           8.80294e-004
                   33.90    342.27614                                6.90327             75.250                                        3.42276e+002           4.22761e+001           2.27614e+000           2.76135e-001           7.61355e-002           6.13545e-003           1.35454e-004
                   34.00    342.28430                                7.00092             75.248                                        3.42284e+002           4.22843e+001           2.28430e+000           2.84303e-001           8.43029e-002           4.30292e-003           3.02923e-004
                   34.10    342.29980                                7.09816             75.244                                        3.42300e+002           4.22998e+001           2.29980e+000           2.99801e-001           9.98010e-002           9.80096e-003           8.00956e-004
                   34.20    342.31364                                7.19517             75.242                                        3.42314e+002           4.23136e+001           2.31364e+000           3.13645e-001           1.36448e-002           3.64478e-003           6.44784e-004
                   34.30    342.32781                                7.29155             75.242                                        3.42328e+002           4.23278e+001           2.32781e+000           3.27814e-001           2.78144e-002           7.81442e-003           8.14421e-004
                   34.40    342.34188                                7.38742             75.242                                        3.42342e+002           4.23419e+001           2.34188e+000           3.41883e-001           4.18828e-002           1.88285e-003           8.82849e-004
                   34.50    342.35661                                7.48269             75.242                                        3.42357e+002           4.23566e+001           2.35661e+000           3.56609e-001           5.66089e-002           6.60894e-003           6.08941e-004
                   34.60    342.37407                                7.57746             75.242                                        3.42374e+002           4.23741e+001           2.37407e+000           3.74075e-001           7.40749e-002           4.07485e-003           7.48539e-005
                   34.70    342.39560                                7.67150             75.242                                        3.42396e+002           4.23956e+001           2.39560e+000           3.95602e-001           9.56017e-002           5.60174e-003           6.01736e-004
                   34.80    342.42377                                7.76485             75.242                                        3.42424e+002           4.24238e+001           2.42377e+000           4.23771e-001           2.37708e-002           3.77079e-003           7.70794e-004
                   34.90    342.45212                                7.85754             75.242                                        3.42452e+002           4.24521e+001           2.45212e+000           4.52119e-001           5.21186e-002           2.11859e-003           1.18586e-004
                   35.00    342.47174                                7.94945             75.242                                        3.42472e+002           4.24717e+001           2.47174e+000           4.71741e-001           7.17406e-002           1.74060e-003           7.40605e-004
                   35.10    342.48706                                8.04053             75.242                                        3.42487e+002           4.24871e+001           2.48706e+000           4.87056e-001           8.70556e-002           7.05561e-003           5.56088e-005
                   35.20    342.51302                                8.13071             75.242                                        3.42513e+002           4.25130e+001           2.51302e+000           5.13018e-001           1.30177e-002           3.01765e-003           1.76505e-005
                   35.30    342.54356                                8.22008             75.242                                        3.42544e+002           4.25436e+001           2.54356e+000           5.43563e-001           4.35625e-002           3.56254e-003           5.62536e-004
                   35.40    342.56847                                8.30862             75.242                                        3.42568e+002           4.25685e+001           2.56847e+000           5.68472e-001           6.84719e-002           8.47190e-003           4.71898e-004
                   35.50    342.59263                                8.39624             75.242                                        3.42593e+002           4.25926e+001           2.59263e+000           5.92630e-001           9.26303e-002           2.63031e-003           6.30306e-004
                   35.60    342.62357                                8.48272             75.240                                        3.42624e+002           4.26236e+001           2.62357e+000           6.23566e-001           2.35664e-002           3.56642e-003           5.66421e-004
