~VERSION INFORMATION
VERS                    .            2.0                                    :CWLS LOG ASCII STANDARD
WRAP                    .            NO                                     :ONE LINE PER TIME STEP


~WELL INFORMATION
#MNEM                   .UNIT        DATA                                    DESCRIPTION
#________________________________________________________________________________________
STRTTIME                .HH/MM/SS    23:13:04                               :START TIME
STOPTIME                .HH/MM/SS    23:16:31                               :STOP TIME
STRT                    .s           2.10                                   :START DATA
STOP                    .s           205.60                                 :STOP DATA
STEP                    .s           0.10                                   :MEASUREMENT TIME INTERVAL
NULL                    .            -999.25                                :NULL VALUE
COMP                    .            Statoil ASA                            :COMPANY
FLD                     .            Volve                                  :FIELD
WELL                    .            15/9-F-1 C                             :WELL
RUN                     .            4                                      :RUN
LOC                     .                                                   :LOCATION
PROV                    .            na                                     :PROVINCE
SRVC                    .            Baker Hughes INTEQ                     :SERVICE COMPANY
DATE                    .YY/MM/DD    14/03/14                               :LOG DATE
UWI                     .                                                   :UNIQUE WELL ID
DEPTHMD                 .m           3858.0                                 :MEASURED DEPTH
DEPTHTVD                .m           3096.5                                 :TRUE VERTICAL DEPTH


~CURVE INFORMATION
#MNEM                   .UNIT        API CODES                               DESCRIPTION
#________________________________________________________________________________________
TIME                    .s                                                  :01 TIME
DD_PRESS                .bar                                                :02 DRAW DOWN PRESSURE
DD_VOLUME               .cm3                                                :03 INCREMENTAL DRAW DOWN VOLUME
TEMP                    .degC                                               :04 TRANSDUCER TEMPERATURE
DD_PRESS_MOD_1000       .bar                                                :05 DRAW DOWN PRESSURE MOD 1000
DD_PRESS_MOD_100        .bar                                                :06 DRAW DOWN PRESSURE MOD 100
DD_PRESS_MOD_10         .bar                                                :07 DRAW DOWN PRESSURE MOD 10
DD_PRESS_MOD_1          .bar                                                :08 DRAW DOWN PRESSURE MOD 1
DD_PRESS_MOD_01         .bar                                                :09 DRAW DOWN PRESSURE MOD 01
DD_PRESS_MOD_001        .bar                                                :10 DRAW DOWN PRESSURE MOD 001
DD_PRESS_MOD_0001       .bar                                                :11 DRAW DOWN PRESSURE MOD 0001


~PARAMETER INFORMATION
#MNEM                   .UNIT        VALUE                                   DESCRIPTION
#________________________________________________________________________________________
TOOLFACE                .deg         88.6                                   :01 TOOLFACE
PUMP_CAPACITY           .bar         400                                    :02 NOMINAL DRAW DOWN PUMP CAPACITY
PUMP_LIMIT              .bar         240                                    :03 DOWNLINK PUMP LIMIT
TIME_LIMIT              .min         10                                     :04 DOWNLINK MAX TIME
TEST_TYPE               .            HIGH MOBILITY                          :05 DOWNLINK
DD_PIST_A               .cm2         3.1416                                 :06 DRAW DOWN PISTON AREA
V_SYS                   .cm3         131.0000                               :07 SYSTEM VOLUME
PROBE_ID                .cm          1.2700                                 :08 TTK PROBE ID
G0                      .            4.6700                                 :09 GEOMETRY FACTOR


~A                  TIME     DD_PRESS                              DD_VOLUME               TEMP                                   DD_PRESS_MOD_1000       DD_PRESS_MOD_100        DD_PRESS_MOD_10         DD_PRESS_MOD_1        DD_PRESS_MOD_01       DD_PRESS_MOD_001      DD_PRESS_MOD_0001
# ...
                  150.50    352.20817                               29.35196             90.000                                        3.52208e+002           5.22082e+001           2.20817e+000           2.08171e-001           8.17057e-003           8.17057e-003           1.70570e-004
                  150.60    352.20831                               29.35196             90.000                                        3.52208e+002           5.22083e+001           2.20831e+000           2.08308e-001           8.30818e-003           8.30818e-003           3.08183e-004
                  150.70    352.20593                               29.35196             89.998                                        3.52206e+002           5.22059e+001           2.20593e+000           2.05925e-001           5.92507e-003           5.92507e-003           9.25070e-004
                  150.80    352.20540                               29.35196             89.994                                        3.52205e+002           5.22054e+001           2.20540e+000           2.05401e-001           5.40074e-003           5.40074e-003           4.00739e-004
                  150.90    352.20702                               29.35196             89.992                                        3.52207e+002           5.22070e+001           2.20702e+000           2.07023e-001           7.02280e-003           7.02280e-003           2.27981e-005
                  151.00    352.20689                               29.35196             89.992                                        3.52207e+002           5.22069e+001           2.20689e+000           2.06891e-001           6.89091e-003           6.89091e-003           8.90910e-004
                  151.10    352.20595                               29.35196             89.995                                        3.52206e+002           5.22059e+001           2.20595e+000           2.05947e-001           5.94703e-003           5.94703e-003           9.47033e-004
                  151.20    352.20698                               29.35196             89.996                                        3.52207e+002           5.22070e+001           2.20698e+000           2.06982e-001           6.98183e-003           6.98183e-003           9.81828e-004
                  151.30    352.20688                               29.35196             89.994                                        3.52207e+002           5.22069e+001           2.20688e+000           2.06875e-001           6.87546e-003           6.87546e-003           8.75458e-004
                  151.40    352.20517                               29.35196             89.992                                        3.52205e+002           5.22052e+001           2.20517e+000           2.05172e-001           5.17210e-003           5.17210e-003           1.72104e-004
                  151.50    352.20097                               29.35196             89.992                                        3.52201e+002           5.22010e+001           2.20097e+000           2.00968e-001           9.68456e-004           9.68456e-004           9.68456e-004
                  151.60    352.20159                               29.35196             89.992                                        3.52202e+002           5.22016e+001           2.20159e+000           2.01593e-001           1.59334e-003           1.59334e-003           5.93343e-004
                  151.70    352.20282                               29.35196             89.992                                        3.52203e+002           5.22028e+001           2.20282e+000           2.02824e-001           2.82439e-003           2.82439e-003           8.24389e-004
                  151.80    352.20340                               29.35196             89.992                                        3.52203e+002           5.22034e+001           2.20340e+000           2.03397e-001           3.39728e-003           3.39728e-003           3.97281e-004
                  151.90    352.20551                               29.35196             89.992                                        3.52206e+002           5.22055e+001           2.20551e+000           2.05506e-001           5.50580e-003           5.50580e-003           5.05799e-004
                  152.00    352.20808                               29.35196             89.992                                        3.52208e+002           5.22081e+001           2.20808e+000           2.08081e-001           8.08061e-003           8.08061e-003           8.06070e-005
                  152.10    352.20830                               29.35196             89.992                                        3.52208e+002           5.22083e+001           2.20830e+000           2.08297e-001           8.29656e-003           8.29656e-003           2.96562e-004
                  152.20    352.20571                               29.35196             89.992                                        3.52206e+002           5.22057e+001           2.20571e+000           2.05706e-001           5.70574e-003           5.70574e-003           7.05742e-004
                  152.30    352.20454                               29.35196             89.992                                        3.52205e+002           5.22045e+001           2.20454e+000           2.04535e-001           4.53522e-003           4.53522e-003           5.35218e-004
                  152.40    352.20528                               29.35196             89.992                                        3.52205e+002           5.22053e+001           2.20528e+000           2.05278e-001           5.27807e-003           5.27807e-003           2.78067e-004
                  152.50    352.20688                               29.35196             89.992                                        3.52207e+002           5.22069e+001           2.20688e+000           2.06876e-001           6.87600e-003           6.87600e-003           8.75995e-004
                  152.60    352.20738                               29.35196             89.992                                        3.52207e+002           5.22074e+001           2.20738e+000           2.07384e-001           7.38368e-003           7.38368e-003           3.83681e-004
                  152.70    352.20774                               29.35196             89.992                                        3.52208e+002           5.22077e+001           2.20774e+000           2.07739e-001           7.73890e-003           7.73890e-003           7.38901e-004
                  152.80    352.20775                               29.35196             89.992                                        3.52208e+002           5.22077e+001           2.20775e+000           2.07745e-001           7.74522e-003           7.74522e-003           7.45219e-004
                  152.90    352.20821                               29.35196             89.992                                        3.52208e+002           5.22082e+001           2.20821e+000           2.08206e-001           8.20634e-003           8.20634e-003           2.06344e-004
                  153.00    352.20890                               29.35196             89.992                                        3.52209e+002           5.22089e+001           2.20890e+000           2.08901e-001           8.90130e-003           8.90130e-003           9.01300e-004
                  153.10    352.20859                               29.35196             89.992                                        3.52209e+002           5.22086e+001           2.20859e+000           2.08587e-001           8.58666e-003           8.58666e-003           5.86655e-004
                  153.20    352.20748                               29.35196             89.992                                        3.52207e+002           5.22075e+001           2.20748e+000           2.07483e-001           7.48251e-003           7.48251e-003           4.82513e-004
