~VERSION INFORMATION
VERS                    .            2.0                                    :CWLS LOG ASCII STANDARD
WRAP                    .            NO                                     :ONE LINE PER TIME STEP


~WELL INFORMATION
#MNEM                   .UNIT        DATA                                    DESCRIPTION
#________________________________________________________________________________________
STRTTIME                .HH/MM/SS    10:48:38                               :START TIME
STOPTIME                .HH/MM/SS    10:51:35                               :STOP TIME
STRT                    .s           2.10                                   :START DATA
STOP                    .s           175.10                                 :STOP DATA
STEP                    .s           0.10                                   :MEASUREMENT TIME INTERVAL
NULL                    .            -999.25                                :NULL VALUE
COMP                    .            Statoil ASA                            :COMPANY
FLD                     .            Volve                                  :FIELD
WELL                    .            15/9-F-11 A                            :WELL
RUN                     .            8                                      :RUN
LOC                     .            Maersk Inspirer                        :LOCATION
PROV                    .            na                                     :PROVINCE
SRVC                    .            Baker Hughes INTEQ                     :SERVICE COMPANY
DATE                    .YY/MM/DD    13/05/21                               :LOG DATE
UWI                     .                                                   :UNIQUE WELL ID
DEPTHMD                 .m           3635.2                                 :MEASURED DEPTH
DEPTHTVD                .m           3029.3                                 :TRUE VERTICAL DEPTH


~CURVE INFORMATION
#MNEM                   .UNIT        API CODES                               DESCRIPTION
#________________________________________________________________________________________
TIME                    .s                                                  :01 TIME
DD_PRESS                .bar                                                :02 DRAW DOWN PRESSURE
DD_VOLUME               .cm3                                                :03 INCREMENTAL DRAW DOWN VOLUME
TEMP                    .degC                                               :04 TRANSDUCER TEMPERATURE
DD_PRESS_MOD_1000       .bar                                                :05 DRAW DOWN PRESSURE MOD 1000
DD_PRESS_MOD_100        .bar                                                :06 DRAW DOWN PRESSURE MOD 100
DD_PRESS_MOD_10         .bar                                                :07 DRAW DOWN PRESSURE MOD 10
DD_PRESS_MOD_1          .bar                                                :08 DRAW DOWN PRESSURE MOD 1
DD_PRESS_MOD_01         .bar                                                :09 DRAW DOWN PRESSURE MOD 01
DD_PRESS_MOD_001        .bar                                                :10 DRAW DOWN PRESSURE MOD 001
DD_PRESS_MOD_0001       .bar                                                :11 DRAW DOWN PRESSURE MOD 0001


~PARAMETER INFORMATION
#MNEM                   .UNIT        VALUE                                   DESCRIPTION
#________________________________________________________________________________________
TOOLFACE                .deg         69.1                                   :01 TOOLFACE
PUMP_CAPACITY           .bar         400                                    :02 NOMINAL DRAW DOWN PUMP CAPACITY
PUMP_LIMIT              .bar         240                                    :03 DOWNLINK PUMP LIMIT
TIME_LIMIT              .min         10                                     :04 DOWNLINK MAX TIME
TEST_TYPE               .            REPEAT                                 :05 DOWNLINK
TEST_TYPE               .            HIGH MOBILITY                          :06 DOWNLINK
DD_PIST_A               .cm2         3.1416                                 :07 DRAW DOWN PISTON AREA
V_SYS                   .cm3         131.0000                               :08 SYSTEM VOLUME
PROBE_ID                .cm          1.2700                                 :09 TTK PROBE ID
G0                      .            4.6700                                 :10 GEOMETRY FACTOR


~A                  TIME     DD_PRESS                              DD_VOLUME               TEMP                                   DD_PRESS_MOD_1000       DD_PRESS_MOD_100        DD_PRESS_MOD_10         DD_PRESS_MOD_1        DD_PRESS_MOD_01       DD_PRESS_MOD_001      DD_PRESS_MOD_0001
# ...
                   58.10    342.90632                               10.64562             80.641                                        3.42906e+002           4.29063e+001           2.90632e+000           9.06323e-001           6.32333e-003           6.32333e-003           3.23328e-004
                   58.20    342.88553                               10.64562             80.641                                        3.42886e+002           4.28855e+001           2.88553e+000           8.85535e-001           8.55348e-002           5.53482e-003           5.34822e-004
                   58.30    342.86961                               10.64562             80.641                                        3.42870e+002           4.28696e+001           2.86961e+000           8.69608e-001           6.96082e-002           9.60823e-003           6.08229e-004
                   58.40    342.87319                               10.64562             80.641                                        3.42873e+002           4.28732e+001           2.87319e+000           8.73193e-001           7.31929e-002           3.19288e-003           1.92880e-004
                   58.50    342.89523                               10.64562             80.638                                        3.42895e+002           4.28952e+001           2.89523e+000           8.95227e-001           9.52273e-002           5.22725e-003           2.27254e-004
                   58.60    342.91556                               10.64562             80.635                                        3.42916e+002           4.29156e+001           2.91556e+000           9.15557e-001           1.55570e-002           5.55695e-003           5.56952e-004
                   58.70    342.90897                               10.64562             80.633                                        3.42909e+002           4.29090e+001           2.90897e+000           9.08966e-001           8.96614e-003           8.96614e-003           9.66142e-004
                   58.80    342.88737                               10.64562             80.635                                        3.42887e+002           4.28874e+001           2.88737e+000           8.87369e-001           8.73689e-002           7.36886e-003           3.68858e-004
                   58.90    342.88176                               10.64562             80.639                                        3.42882e+002           4.28818e+001           2.88176e+000           8.81764e-001           8.17644e-002           1.76440e-003           7.64398e-004
                   59.00    342.89183                               10.64562             80.641                                        3.42892e+002           4.28918e+001           2.89183e+000           8.91829e-001           9.18288e-002           1.82878e-003           8.28783e-004
                   59.10    342.89431                               10.64562             80.638                                        3.42894e+002           4.28943e+001           2.89431e+000           8.94309e-001           9.43088e-002           4.30877e-003           3.08767e-004
                   59.20    342.88628                               10.64562             80.635                                        3.42886e+002           4.28863e+001           2.88628e+000           8.86280e-001           8.62803e-002           6.28031e-003           2.80307e-004
                   59.30    342.87649                               10.64562             80.635                                        3.42876e+002           4.28765e+001           2.87649e+000           8.76492e-001           7.64919e-002           6.49186e-003           4.91860e-004
                   59.40    342.87061                               10.64562             80.639                                        3.42871e+002           4.28706e+001           2.87061e+000           8.70615e-001           7.06150e-002           6.14989e-004           6.14989e-004
                   59.50    342.87815                               10.64562             80.641                                        3.42878e+002           4.28781e+001           2.87815e+000           8.78145e-001           7.81450e-002           8.14502e-003           1.45025e-004
                   59.60    342.90068                               10.64562             80.638                                        3.42901e+002           4.29007e+001           2.90068e+000           9.00676e-001           6.76300e-004           6.76300e-004           6.76300e-004
                   59.70    342.90155                               10.64562             80.635                                        3.42902e+002           4.29016e+001           2.90155e+000           9.01552e-001           1.55200e-003           1.55200e-003           5.51996e-004
                   59.80    342.87950                               10.64562             80.633                                        3.42880e+002           4.28795e+001           2.87950e+000           8.79501e-001           7.95007e-002           9.50073e-003           5.00730e-004
                   59.90    342.87052                               10.64562             80.633                                        3.42871e+002           4.28705e+001           2.87052e+000           8.70522e-001           7.05215e-002           5.21519e-004           5.21519e-004
                   60.00    342.88159                               10.64562             80.633                                        3.42882e+002           4.28816e+001           2.88159e+000           8.81590e-001           8.15898e-002           1.58978e-003           5.89783e-004
                   60.10    342.88700                               10.64562             80.633                                        3.42887e+002           4.28870e+001           2.88700e+000           8.86996e-001           8.69961e-002           6.99612e-003           9.96125e-004
                   60.20    342.87695                               10.64562             80.635                                        3.42877e+002           4.28770e+001           2.87695e+000           8.76953e-001           7.69526e-002           6.95263e-003           9.52628e-004
                   60.30    342.89115                               10.64562             80.639                                        3.42891e+002           4.28911e+001           2.89115e+000           8.91150e-001           9.11500e-002           1.14999e-003           1.49986e-004
                   60.40    342.91280                               10.64562             80.638                                        3.42913e+002           4.29128e+001           2.91280e+000           9.12802e-001           1.28015e-002           2.80151e-003           8.01509e-004
                   60.50    342.90935                               10.64562             80.635                                        3.42909e+002           4.29094e+001           2.90935e+000           9.09354e-001           9.35365e-003           9.35365e-003           3.53647e-004
                   60.60    342.89619                               10.64562             80.633                                        3.42896e+002           4.28962e+001           2.89619e+000           8.96188e-001           9.61884e-002           6.18843e-003           1.88429e-004
                   60.70    342.90317                               10.64562             80.635                                        3.42903e+002           4.29032e+001           2.90317e+000           9.03170e-001           3.17031e-003           3.17031e-003           1.70313e-004
                   60.80    342.89971                               10.64562             80.636                                        3.42900e+002           4.28997e+001           2.89971e+000           8.99706e-001           9.97058e-002           9.70575e-003           7.05753e-004
