~VERSION INFORMATION
VERS                    .            2.0                                    :CWLS LOG ASCII STANDARD
WRAP                    .            NO                                     :ONE LINE PER TIME STEP


~WELL INFORMATION
#MNEM                   .UNIT        DATA                                    DESCRIPTION
#________________________________________________________________________________________
STRTTIME                .HH/MM/SS    22:39:37                               :START TIME
STOPTIME                .HH/MM/SS    22:43:03                               :STOP TIME
STRT                    .s           2.10                                   :START DATA
STOP                    .s           204.10                                 :STOP DATA
STEP                    .s           0.10                                   :MEASUREMENT TIME INTERVAL
NULL                    .            -999.25                                :NULL VALUE
COMP                    .            Statoil ASA                            :COMPANY
FLD                     .            Volve                                  :FIELD
WELL                    .            15/9-F-1 C                             :WELL
RUN                     .            4                                      :RUN
LOC                     .                                                   :LOCATION
PROV                    .            na                                     :PROVINCE
SRVC                    .            Baker Hughes INTEQ                     :SERVICE COMPANY
DATE                    .YY/MM/DD    14/03/14                               :LOG DATE
UWI                     .                                                   :UNIQUE WELL ID
DEPTHMD                 .m           3925.1                                 :MEASURED DEPTH
DEPTHTVD                .m           3120.2                                 :TRUE VERTICAL DEPTH


~CURVE INFORMATION
#MNEM                   .UNIT        API CODES                               DESCRIPTION
#________________________________________________________________________________________
TIME                    .s                                                  :01 TIME
DD_PRESS                .bar                                                :02 DRAW DOWN PRESSURE
DD_VOLUME               .cm3                                                :03 INCREMENTAL DRAW DOWN VOLUME
TEMP                    .degC                                               :04 TRANSDUCER TEMPERATURE
DD_PRESS_MOD_1000       .bar                                                :05 DRAW DOWN PRESSURE MOD 1000
DD_PRESS_MOD_100        .bar                                                :06 DRAW DOWN PRESSURE MOD 100
DD_PRESS_MOD_10         .bar                                                :07 DRAW DOWN PRESSURE MOD 10
DD_PRESS_MOD_1          .bar                                                :08 DRAW DOWN PRESSURE MOD 1
DD_PRESS_MOD_01         .bar                                                :09 DRAW DOWN PRESSURE MOD 01
DD_PRESS_MOD_001        .bar                                                :10 DRAW DOWN PRESSURE MOD 001
DD_PRESS_MOD_0001       .bar                                                :11 DRAW DOWN PRESSURE MOD 0001


~PARAMETER INFORMATION
#MNEM                   .UNIT        VALUE                                   DESCRIPTION
#________________________________________________________________________________________
TOOLFACE                .deg         -7.4                                   :01 TOOLFACE
PUMP_CAPACITY           .bar         400                                    :02 NOMINAL DRAW DOWN PUMP CAPACITY
PUMP_LIMIT              .bar         240                                    :03 DOWNLINK PUMP LIMIT
TIME_LIMIT              .min         10                                     :04 DOWNLINK MAX TIME
TEST_TYPE               .            HIGH MOBILITY                          :05 DOWNLINK
DD_PIST_A               .cm2         3.1416                                 :06 DRAW DOWN PISTON AREA
V_SYS                   .cm3         131.0000                               :07 SYSTEM VOLUME
PROBE_ID                .cm          1.2700                                 :08 TTK PROBE ID
G0                      .            4.6700                                 :09 GEOMETRY FACTOR


~A                  TIME     DD_PRESS                              DD_VOLUME               TEMP                                   DD_PRESS_MOD_1000       DD_PRESS_MOD_100        DD_PRESS_MOD_10         DD_PRESS_MOD_1        DD_PRESS_MOD_01       DD_PRESS_MOD_001      DD_PRESS_MOD_0001
# ...
                  161.70    353.16659                               29.42602             91.328                                        3.53167e+002           5.31666e+001           3.16659e+000           1.66594e-001           6.65943e-002           6.59434e-003           5.94343e-004
                  161.80    353.16118                               29.42602             91.328                                        3.53161e+002           5.31612e+001           3.16118e+000           1.61184e-001           6.11836e-002           1.18361e-003           1.83611e-004
                  161.90    353.16261                               29.42602             91.328                                        3.53163e+002           5.31626e+001           3.16261e+000           1.62607e-001           6.26065e-002           2.60653e-003           6.06527e-004
                  162.00    353.16869                               29.42602             91.328                                        3.53169e+002           5.31687e+001           3.16869e+000           1.68691e-001           6.86909e-002           8.69085e-003           6.90851e-004
                  162.10    353.17165                               29.42602             91.328                                        3.53172e+002           5.31717e+001           3.17165e+000           1.71652e-001           7.16520e-002           1.65203e-003           6.52026e-004
                  162.20    353.16735                               29.42602             91.328                                        3.53167e+002           5.31673e+001           3.16735e+000           1.67350e-001           6.73496e-002           7.34962e-003           3.49616e-004
                  162.30    353.16100                               29.42602             91.328                                        3.53161e+002           5.31610e+001           3.16100e+000           1.61000e-001           6.09998e-002           9.99788e-004           9.99788e-004
                  162.40    353.15782                               29.42602             91.328                                        3.53158e+002           5.31578e+001           3.15782e+000           1.57825e-001           5.78248e-002           7.82482e-003           8.24820e-004
                  162.50    353.15807                               29.42602             91.328                                        3.53158e+002           5.31581e+001           3.15807e+000           1.58070e-001           5.80698e-002           8.06981e-003           6.98071e-005
                  162.60    353.16114                               29.42602             91.328                                        3.53161e+002           5.31611e+001           3.16114e+000           1.61138e-001           6.11381e-002           1.13814e-003           1.38135e-004
                  162.70    353.16480                               29.42602             91.328                                        3.53165e+002           5.31648e+001           3.16480e+000           1.64799e-001           6.47986e-002           4.79860e-003           7.98596e-004
                  162.80    353.16763                               29.42602             91.328                                        3.53168e+002           5.31676e+001           3.16763e+000           1.67628e-001           6.76283e-002           7.62829e-003           6.28289e-004
                  162.90    353.16612                               29.42602             91.328                                        3.53166e+002           5.31661e+001           3.16612e+000           1.66115e-001           6.61155e-002           6.11545e-003           1.15454e-004
                  163.00    353.16391                               29.42602             91.328                                        3.53164e+002           5.31639e+001           3.16391e+000           1.63906e-001           6.39064e-002           3.90636e-003           9.06360e-004
                  163.10    353.16431                               29.42602             91.328                                        3.53164e+002           5.31643e+001           3.16431e+000           1.64311e-001           6.43109e-002           4.31088e-003           3.10875e-004
                  163.20    353.16723                               29.42602             91.328                                        3.53167e+002           5.31672e+001           3.16723e+000           1.67230e-001           6.72301e-002           7.23013e-003           2.30128e-004
                  163.30    353.16659                               29.42602             91.328                                        3.53167e+002           5.31666e+001           3.16659e+000           1.66595e-001           6.65945e-002           6.59451e-003           5.94512e-004
                  163.40    353.16666                               29.42602             91.328                                        3.53167e+002           5.31667e+001           3.16666e+000           1.66664e-001           6.66644e-002           6.66439e-003           6.64393e-004
                  163.50    353.16228                               29.42602             91.328                                        3.53162e+002           5.31623e+001           3.16228e+000           1.62284e-001           6.22844e-002           2.28437e-003           2.84367e-004
                  163.60    353.16365                               29.42602             91.328                                        3.53164e+002           5.31637e+001           3.16365e+000           1.63652e-001           6.36516e-002           3.65160e-003           6.51600e-004
                  163.70    353.16578                               29.42602             91.328                                        3.53166e+002           5.31658e+001           3.16578e+000           1.65781e-001           6.57809e-002           5.78090e-003           7.80899e-004
                  163.80    353.16640                               29.42602             91.328                                        3.53166e+002           5.31664e+001           3.16640e+000           1.66404e-001           6.64042e-002           6.40421e-003           4.04209e-004
                  163.90    353.16365                               29.42602             91.328                                        3.53164e+002           5.31636e+001           3.16365e+000           1.63645e-001           6.36454e-002           3.64543e-003           6.45426e-004
                  164.00    353.16165                               29.42602             91.328                                        3.53162e+002           5.31616e+001           3.16165e+000           1.61646e-001           6.16456e-002           1.64555e-003           6.45551e-004
                  164.10    353.16444                               29.42602             91.328                                        3.53164e+002           5.31644e+001           3.16444e+000           1.64444e-001           6.44443e-002           4.44434e-003           4.44338e-004
                  164.20    353.16665                               29.42602             91.328                                        3.53167e+002           5.31667e+001           3.16665e+000           1.66654e-001           6.66541e-002           6.65406e-003           6.54062e-004
                  164.30    353.16437                               29.42602             91.328                                        3.53164e+002           5.31644e+001           3.16437e+000           1.64367e-001           6.43671e-002           4.36707e-003           3.67073e-004
                  164.40    353.16116                               29.42602             91.328                                        3.53161e+002           5.31612e+001           3.16116e+000           1.61159e-001           6.11588e-002           1.15881e-003           1.58809e-004
