~VERSION INFORMATION
VERS                    .            2.0                                    :CWLS LOG ASCII STANDARD
WRAP                    .            NO                                     :ONE LINE PER TIME STEP


~WELL INFORMATION
#MNEM                   .UNIT        DATA                                    DESCRIPTION
#________________________________________________________________________________________
STRTTIME                .HH/MM/SS    10:22:55                               :START TIME
STOPTIME                .HH/MM/SS    10:26:06                               :STOP TIME
STRT                    .s           2.10                                   :START DATA
STOP                    .s           189.80                                 :STOP DATA
STEP                    .s           0.10                                   :MEASUREMENT TIME INTERVAL
NULL                    .            -999.25                                :NULL VALUE
COMP                    .            Statoil ASA                            :COMPANY
FLD                     .            Volve                                  :FIELD
WELL                    .            15/9-F-11 A                            :WELL
RUN                     .            8                                      :RUN
LOC                     .            Maersk Inspirer                        :LOCATION
PROV                    .            na                                     :PROVINCE
SRVC                    .            Baker Hughes INTEQ                     :SERVICE COMPANY
DATE                    .YY/MM/DD    13/05/21                               :LOG DATE
UWI                     .                                                   :UNIQUE WELL ID
DEPTHMD                 .m           3651.0                                 :MEASURED DEPTH
DEPTHTVD                .m           3041.4                                 :TRUE VERTICAL DEPTH


~CURVE INFORMATION
#MNEM                   .UNIT        API CODES                               DESCRIPTION
#________________________________________________________________________________________
TIME                    .s                                                  :01 TIME
DD_PRESS                .bar                                                :02 DRAW DOWN PRESSURE
DD_VOLUME               .cm3                                                :03 INCREMENTAL DRAW DOWN VOLUME
TEMP                    .degC                                               :04 TRANSDUCER TEMPERATURE
DD_PRESS_MOD_1000       .bar                                                :05 DRAW DOWN PRESSURE MOD 1000
DD_PRESS_MOD_100        .bar                                                :06 DRAW DOWN PRESSURE MOD 100
DD_PRESS_MOD_10         .bar                                                :07 DRAW DOWN PRESSURE MOD 10
DD_PRESS_MOD_1          .bar                                                :08 DRAW DOWN PRESSURE MOD 1
DD_PRESS_MOD_01         .bar                                                :09 DRAW DOWN PRESSURE MOD 01
DD_PRESS_MOD_001        .bar                                                :10 DRAW DOWN PRESSURE MOD 001
DD_PRESS_MOD_0001       .bar                                                :11 DRAW DOWN PRESSURE MOD 0001


~PARAMETER INFORMATION
#MNEM                   .UNIT        VALUE                                   DESCRIPTION
#________________________________________________________________________________________
TOOLFACE                .deg         61.5                                   :01 TOOLFACE
PUMP_CAPACITY           .bar         400                                    :02 NOMINAL DRAW DOWN PUMP CAPACITY
PUMP_LIMIT              .bar         240                                    :03 DOWNLINK PUMP LIMIT
TIME_LIMIT              .min         10                                     :04 DOWNLINK MAX TIME
TEST_TYPE               .            REPEAT                                 :05 DOWNLINK
TEST_TYPE               .            HIGH MOBILITY                          :06 DOWNLINK
DD_PIST_A               .cm2         3.1416                                 :07 DRAW DOWN PISTON AREA
V_SYS                   .cm3         131.0000                               :08 SYSTEM VOLUME
PROBE_ID                .cm          1.2700                                 :09 TTK PROBE ID
G0                      .            4.6700                                 :10 GEOMETRY FACTOR


~A                  TIME     DD_PRESS                              DD_VOLUME               TEMP                                   DD_PRESS_MOD_1000       DD_PRESS_MOD_100        DD_PRESS_MOD_10         DD_PRESS_MOD_1        DD_PRESS_MOD_01       DD_PRESS_MOD_001      DD_PRESS_MOD_0001
# ...
                   88.90    343.79219                               19.78571             81.063                                        3.43792e+002           4.37922e+001           3.79219e+000           7.92193e-001           9.21928e-002           2.19276e-003           1.92760e-004
                   89.00    343.79389                               19.78571             81.063                                        3.43794e+002           4.37939e+001           3.79389e+000           7.93889e-001           9.38894e-002           3.88938e-003           8.89385e-004
                   89.10    343.79473                               19.78571             81.063                                        3.43795e+002           4.37947e+001           3.79473e+000           7.94734e-001           9.47341e-002           4.73412e-003           7.34120e-004
                   89.20    343.79843                               19.78571             81.063                                        3.43798e+002           4.37984e+001           3.79843e+000           7.98431e-001           9.84312e-002           8.43117e-003           4.31174e-004
                   89.30    343.79774                               19.78571             81.063                                        3.43798e+002           4.37977e+001           3.79774e+000           7.97745e-001           9.77445e-002           7.74454e-003           7.44539e-004
                   89.40    343.79146                               19.78571             81.063                                        3.43791e+002           4.37915e+001           3.79146e+000           7.91460e-001           9.14598e-002           1.45982e-003           4.59820e-004
                   89.50    343.78716                               19.78571             81.063                                        3.43787e+002           4.37872e+001           3.78716e+000           7.87159e-001           8.71590e-002           7.15896e-003           1.58964e-004
                   89.60    343.78834                               19.78571             81.063                                        3.43788e+002           4.37883e+001           3.78834e+000           7.88337e-001           8.83372e-002           8.33717e-003           3.37166e-004
                   89.70    343.79481                               19.78571             81.065                                        3.43795e+002           4.37948e+001           3.79481e+000           7.94806e-001           9.48063e-002           4.80626e-003           8.06255e-004
                   89.80    343.79773                               19.78571             81.066                                        3.43798e+002           4.37977e+001           3.79773e+000           7.97731e-001           9.77309e-002           7.73091e-003           7.30910e-004
                   89.90    343.79198                               19.78571             81.064                                        3.43792e+002           4.37920e+001           3.79198e+000           7.91980e-001           9.19805e-002           1.98048e-003           9.80479e-004
                   90.00    343.78670                               19.78571             81.063                                        3.43787e+002           4.37867e+001           3.78670e+000           7.86705e-001           8.67049e-002           6.70492e-003           7.04920e-004
                   90.10    343.78618                               19.78571             81.063                                        3.43786e+002           4.37862e+001           3.78618e+000           7.86178e-001           8.61781e-002           6.17807e-003           1.78074e-004
                   90.20    343.78836                               19.78571             81.063                                        3.43788e+002           4.37884e+001           3.78836e+000           7.88357e-001           8.83570e-002           8.35704e-003           3.57041e-004
                   90.30    343.79480                               19.78571             81.063                                        3.43795e+002           4.37948e+001           3.79480e+000           7.94796e-001           9.47956e-002           4.79563e-003           7.95627e-004
                   90.40    343.80048                               19.78571             81.063                                        3.43800e+002           4.38005e+001           3.80048e+000           8.00478e-001           4.78136e-004           4.78136e-004           4.78136e-004
                   90.50    343.80142                               19.78571             81.063                                        3.43801e+002           4.38014e+001           3.80142e+000           8.01416e-001           1.41617e-003           1.41617e-003           4.16172e-004
                   90.60    343.80117                               19.78571             81.063                                        3.43801e+002           4.38012e+001           3.80117e+000           8.01170e-001           1.16991e-003           1.16991e-003           1.69907e-004
                   90.70    343.79623                               19.78571             81.063                                        3.43796e+002           4.37962e+001           3.79623e+000           7.96234e-001           9.62340e-002           6.23398e-003           2.33977e-004
                   90.80    343.78946                               19.78571             81.063                                        3.43789e+002           4.37895e+001           3.78946e+000           7.89463e-001           8.94626e-002           9.46265e-003           4.62647e-004
                   90.90    343.78618                               19.78571             81.063                                        3.43786e+002           4.37862e+001           3.78618e+000           7.86177e-001           8.61770e-002           6.17697e-003           1.76971e-004
                   91.00    343.78836                               19.78571             81.063                                        3.43788e+002           4.37884e+001           3.78836e+000           7.88365e-001           8.83649e-002           8.36491e-003           3.64915e-004
                   91.10    343.79485                               19.78571             81.063                                        3.43795e+002           4.37949e+001           3.79485e+000           7.94853e-001           9.48534e-002           4.85336e-003           8.53363e-004
                   91.20    343.80053                               19.78571             81.063                                        3.43801e+002           4.38005e+001           3.80053e+000           8.00531e-001           5.31481e-004           5.31481e-004           5.31481e-004
                   91.30    343.80141                               19.78571             81.063                                        3.43801e+002           4.38014e+001           3.80141e+000           8.01413e-001           1.41251e-003           1.41251e-003           4.12514e-004
                   91.40    343.80141                               19.78571             81.063                                        3.43801e+002           4.38014e+001           3.80141e+000           8.01413e-001           1.41251e-003           1.41251e-003           4.12514e-004
                   91.50    343.79922                               19.78571             81.063                                        3.43799e+002           4.37992e+001           3.79922e+000           7.99220e-001           9.92201e-002           9.22011e-003           2.20113e-004
                   91.60    343.79273                               19.78571             81.063                                        3.43793e+002           4.37927e+001           3.79273e+000           7.92732e-001           9.27317e-002           2.73167e-003           7.31666e-004
