~VERSION INFORMATION
VERS                    .            2.0                                    :CWLS LOG ASCII STANDARD
WRAP                    .            NO                                     :ONE LINE PER TIME STEP


~WELL INFORMATION
#MNEM                   .UNIT        DATA                                    DESCRIPTION
#________________________________________________________________________________________
STRTTIME                .HH/MM/SS    18:50:18                               :START TIME
STOPTIME                .HH/MM/SS    18:53:14                               :STOP TIME
STRT                    .s           2.10                                   :START DATA
STOP                    .s           174.80                                 :STOP DATA
STEP                    .s           0.10                                   :MEASUREMENT TIME INTERVAL
NULL                    .            -999.25                                :NULL VALUE
COMP                    .            Statoil ASA                            :COMPANY
FLD                     .            Volve                                  :FIELD
WELL                    .            15/9-F-11 A                            :WELL
RUN                     .            8                                      :RUN
LOC                     .            Maersk Inspirer                        :LOCATION
PROV                    .            na                                     :PROVINCE
SRVC                    .            Baker Hughes INTEQ                     :SERVICE COMPANY
DATE                    .YY/MM/DD    13/05/23                               :LOG DATE
UWI                     .                                                   :UNIQUE WELL ID
DEPTHMD                 .m           3651.0                                 :MEASURED DEPTH
DEPTHTVD                .m           3041.4                                 :TRUE VERTICAL DEPTH


~CURVE INFORMATION
#MNEM                   .UNIT        API CODES                               DESCRIPTION
#________________________________________________________________________________________
TIME                    .s                                                  :01 TIME
DD_PRESS                .bar                                                :02 DRAW DOWN PRESSURE
DD_VOLUME               .cm3                                                :03 INCREMENTAL DRAW DOWN VOLUME
TEMP                    .degC                                               :04 TRANSDUCER TEMPERATURE
DD_PRESS_MOD_1000       .bar                                                :05 DRAW DOWN PRESSURE MOD 1000
DD_PRESS_MOD_100        .bar                                                :06 DRAW DOWN PRESSURE MOD 100
DD_PRESS_MOD_10         .bar                                                :07 DRAW DOWN PRESSURE MOD 10
DD_PRESS_MOD_1          .bar                                                :08 DRAW DOWN PRESSURE MOD 1
DD_PRESS_MOD_01         .bar                                                :09 DRAW DOWN PRESSURE MOD 01
DD_PRESS_MOD_001        .bar                                                :10 DRAW DOWN PRESSURE MOD 001
DD_PRESS_MOD_0001       .bar                                                :11 DRAW DOWN PRESSURE MOD 0001


~PARAMETER INFORMATION
#MNEM                   .UNIT        VALUE                                   DESCRIPTION
#________________________________________________________________________________________
TOOLFACE                .deg         -39.7                                  :01 TOOLFACE
PUMP_CAPACITY           .bar         400                                    :02 NOMINAL DRAW DOWN PUMP CAPACITY
PUMP_LIMIT              .bar         240                                    :03 DOWNLINK PUMP LIMIT
TIME_LIMIT              .min         10                                     :04 DOWNLINK MAX TIME
TEST_TYPE               .            REPEAT                                 :05 DOWNLINK
TEST_TYPE               .            HIGH MOBILITY                          :06 DOWNLINK
DD_PIST_A               .cm2         3.1416                                 :07 DRAW DOWN PISTON AREA
V_SYS                   .cm3         131.0000                               :08 SYSTEM VOLUME
PROBE_ID                .cm          1.2700                                 :09 TTK PROBE ID
G0                      .            4.6700                                 :10 GEOMETRY FACTOR


~A                  TIME     DD_PRESS                              DD_VOLUME               TEMP                                   DD_PRESS_MOD_1000       DD_PRESS_MOD_100        DD_PRESS_MOD_10         DD_PRESS_MOD_1        DD_PRESS_MOD_01       DD_PRESS_MOD_001      DD_PRESS_MOD_0001
# ...
                   24.50    422.64233                                0.00000             73.531                                        4.22642e+002           2.26423e+001           2.64233e+000           6.42331e-001           4.23313e-002           2.33133e-003           3.31335e-004
                   24.60    422.67296                                0.00000             73.531                                        4.22673e+002           2.26730e+001           2.67296e+000           6.72960e-001           7.29604e-002           2.96038e-003           9.60377e-004
                   24.70    422.69169                                0.00000             73.531                                        4.22692e+002           2.26917e+001           2.69169e+000           6.91694e-001           9.16937e-002           1.69368e-003           6.93679e-004
                   24.80    422.67764                                0.00000             73.531                                        4.22678e+002           2.26776e+001           2.67764e+000           6.77637e-001           7.76374e-002           7.63737e-003           6.37365e-004
                   24.90    422.69657                                0.97295             73.531                                        4.22697e+002           2.26966e+001           2.69657e+000           6.96572e-001           9.65715e-002           6.57151e-003           5.71513e-004
                   25.00    422.76782                                0.97284             73.531                                        4.22768e+002           2.27678e+001           2.76782e+000           7.67816e-001           6.78164e-002           7.81644e-003           8.16437e-004
                   25.10    422.79083                                0.97413             73.531                                        4.22791e+002           2.27908e+001           2.79083e+000           7.90831e-001           9.08315e-002           8.31477e-004           8.31477e-004
                   25.20    422.66470                                0.97731             73.531                                        4.22665e+002           2.26647e+001           2.66470e+000           6.64701e-001           6.47015e-002           4.70149e-003           7.01492e-004
                   25.30    422.40008                                0.98250             73.531                                        4.22400e+002           2.24001e+001           2.40008e+000           4.00079e-001           7.90875e-005           7.90875e-005           7.90875e-005
                   25.40    422.03263                                0.98968             73.531                                        4.22033e+002           2.20326e+001           2.03263e+000           3.26304e-002           3.26304e-002           2.63039e-003           6.30394e-004
                   25.50    421.56406                                0.99882             73.531                                        4.21564e+002           2.15641e+001           1.56406e+000           5.64062e-001           6.40622e-002           4.06218e-003           6.21813e-005
                   25.60    421.00691                                1.00997             73.531                                        4.21007e+002           2.10069e+001           1.00691e+000           6.90826e-003           6.90826e-003           6.90826e-003           9.08257e-004
                   25.70    420.35032                                1.02308             73.531                                        4.20350e+002           2.03503e+001           3.50318e-001           3.50318e-001           5.03176e-002           3.17638e-004           3.17638e-004
                   25.80    419.58158                                1.03815             73.531                                        4.19582e+002           1.95816e+001           9.58158e+000           5.81581e-001           8.15810e-002           1.58099e-003           5.80986e-004
                   25.90    418.69588                                1.05518             73.531                                        4.18696e+002           1.86959e+001           8.69588e+000           6.95880e-001           9.58799e-002           5.87995e-003           8.79947e-004
                   26.00    417.67770                                1.07417             73.531                                        4.17678e+002           1.76777e+001           7.67770e+000           6.77704e-001           7.77035e-002           7.70352e-003           7.03522e-004
                   26.10    416.49097                                1.09502             73.531                                        4.16491e+002           1.64910e+001           6.49097e+000           4.90974e-001           9.09745e-002           9.74479e-004           9.74479e-004
                   26.20    415.14010                                1.11782             73.531                                        4.15140e+002           1.51401e+001           5.14010e+000           1.40103e-001           4.01030e-002           1.03034e-004           1.03034e-004
                   26.30    413.68432                                1.14266             73.531                                        4.13684e+002           1.36843e+001           3.68432e+000           6.84321e-001           8.43211e-002           4.32106e-003           3.21056e-004
                   26.40    412.12948                                1.16945             73.531                                        4.12129e+002           1.21295e+001           2.12948e+000           1.29477e-001           2.94773e-002           9.47734e-003           4.77342e-004
                   26.50    410.40009                                1.19804             73.531                                        4.10400e+002           1.04001e+001           4.00087e-001           4.00087e-001           8.71289e-005           8.71289e-005           8.71289e-005
                   26.60    408.48311                                1.22860             73.531                                        4.08483e+002           8.48311e+000           8.48311e+000           4.83113e-001           8.31131e-002           3.11311e-003           1.13107e-004
                   26.70    406.42005                                1.26103             73.531                                        4.06420e+002           6.42005e+000           6.42005e+000           4.20053e-001           2.00529e-002           5.28771e-005           5.28771e-005
                   26.80    404.21417                                1.29526             73.531                                        4.04214e+002           4.21417e+000           4.21417e+000           2.14166e-001           1.41655e-002           4.16551e-003           1.65505e-004
                   26.90    401.79587                                1.33143             73.531                                        4.01796e+002           1.79587e+000           1.79587e+000           7.95871e-001           9.58715e-002           5.87145e-003           8.71452e-004
                   27.00    399.15611                                1.36951             73.531                                        3.99156e+002           9.91561e+001           9.15611e+000           1.56114e-001           5.61144e-002           6.11444e-003           1.14436e-004
                   27.10    396.37243                                1.40932             73.529                                        3.96372e+002           9.63724e+001           6.37243e+000           3.72427e-001           7.24273e-002           2.42732e-003           4.27316e-004
                   27.20    393.48414                                1.45093             73.525                                        3.93484e+002           9.34841e+001           3.48414e+000           4.84136e-001           8.41356e-002           4.13556e-003           1.35561e-004
