~VERSION INFORMATION
VERS                    .            2.0                                    :CWLS LOG ASCII STANDARD
WRAP                    .            NO                                     :ONE LINE PER TIME STEP


~WELL INFORMATION
#MNEM                   .UNIT        DATA                                    DESCRIPTION
#________________________________________________________________________________________
STRTTIME                .HH/MM/SS    18:50:18                               :START TIME
STOPTIME                .HH/MM/SS    18:53:14                               :STOP TIME
STRT                    .s           2.10                                   :START DATA
STOP                    .s           174.80                                 :STOP DATA
STEP                    .s           0.10                                   :MEASUREMENT TIME INTERVAL
NULL                    .            -999.25                                :NULL VALUE
COMP                    .            Statoil ASA                            :COMPANY
FLD                     .            Volve                                  :FIELD
WELL                    .            15/9-F-11 A                            :WELL
RUN                     .            8                                      :RUN
LOC                     .            Maersk Inspirer                        :LOCATION
PROV                    .            na                                     :PROVINCE
SRVC                    .            Baker Hughes INTEQ                     :SERVICE COMPANY
DATE                    .YY/MM/DD    13/05/23                               :LOG DATE
UWI                     .                                                   :UNIQUE WELL ID
DEPTHMD                 .m           3651.0                                 :MEASURED DEPTH
DEPTHTVD                .m           3041.4                                 :TRUE VERTICAL DEPTH


~CURVE INFORMATION
#MNEM                   .UNIT        API CODES                               DESCRIPTION
#________________________________________________________________________________________
TIME                    .s                                                  :01 TIME
DD_PRESS                .bar                                                :02 DRAW DOWN PRESSURE
DD_VOLUME               .cm3                                                :03 INCREMENTAL DRAW DOWN VOLUME
TEMP                    .degC                                               :04 TRANSDUCER TEMPERATURE
DD_PRESS_MOD_1000       .bar                                                :05 DRAW DOWN PRESSURE MOD 1000
DD_PRESS_MOD_100        .bar                                                :06 DRAW DOWN PRESSURE MOD 100
DD_PRESS_MOD_10         .bar                                                :07 DRAW DOWN PRESSURE MOD 10
DD_PRESS_MOD_1          .bar                                                :08 DRAW DOWN PRESSURE MOD 1
DD_PRESS_MOD_01         .bar                                                :09 DRAW DOWN PRESSURE MOD 01
DD_PRESS_MOD_001        .bar                                                :10 DRAW DOWN PRESSURE MOD 001
DD_PRESS_MOD_0001       .bar                                                :11 DRAW DOWN PRESSURE MOD 0001


~PARAMETER INFORMATION
#MNEM                   .UNIT        VALUE                                   DESCRIPTION
#________________________________________________________________________________________
TOOLFACE                .deg         -39.7                                  :01 TOOLFACE
PUMP_CAPACITY           .bar         400                                    :02 NOMINAL DRAW DOWN PUMP CAPACITY
PUMP_LIMIT              .bar         240                                    :03 DOWNLINK PUMP LIMIT
TIME_LIMIT              .min         10                                     :04 DOWNLINK MAX TIME
TEST_TYPE               .            REPEAT                                 :05 DOWNLINK
TEST_TYPE               .            HIGH MOBILITY                          :06 DOWNLINK
DD_PIST_A               .cm2         3.1416                                 :07 DRAW DOWN PISTON AREA
V_SYS                   .cm3         131.0000                               :08 SYSTEM VOLUME
PROBE_ID                .cm          1.2700                                 :09 TTK PROBE ID
G0                      .            4.6700                                 :10 GEOMETRY FACTOR


~A                  TIME     DD_PRESS                              DD_VOLUME               TEMP                                   DD_PRESS_MOD_1000       DD_PRESS_MOD_100        DD_PRESS_MOD_10         DD_PRESS_MOD_1        DD_PRESS_MOD_01       DD_PRESS_MOD_001      DD_PRESS_MOD_0001
# ...
                   94.50    343.38450                               19.79906             73.375                                        3.43384e+002           4.33845e+001           3.38450e+000           3.84497e-001           8.44966e-002           4.49660e-003           4.96597e-004
                   94.60    343.38510                               19.79906             73.375                                        3.43385e+002           4.33851e+001           3.38510e+000           3.85097e-001           8.50974e-002           5.09739e-003           9.73889e-005
                   94.70    343.38962                               19.79906             73.375                                        3.43390e+002           4.33896e+001           3.38962e+000           3.89623e-001           8.96226e-002           9.62256e-003           6.22559e-004
                   94.80    343.39514                               19.79906             73.375                                        3.43395e+002           4.33951e+001           3.39514e+000           3.95139e-001           9.51386e-002           5.13864e-003           1.38638e-004
                   94.90    343.39719                               19.79906             73.375                                        3.43397e+002           4.33972e+001           3.39719e+000           3.97186e-001           9.71862e-002           7.18619e-003           1.86187e-004
                   95.00    343.39523                               19.79906             73.375                                        3.43395e+002           4.33952e+001           3.39523e+000           3.95229e-001           9.52291e-002           5.22913e-003           2.29127e-004
                   95.10    343.39524                               19.79906             73.375                                        3.43395e+002           4.33952e+001           3.39524e+000           3.95241e-001           9.52410e-002           5.24098e-003           2.40977e-004
                   95.20    343.39516                               19.79906             73.375                                        3.43395e+002           4.33952e+001           3.39516e+000           3.95161e-001           9.51613e-002           5.16133e-003           1.61327e-004
                   95.30    343.38999                               19.79906             73.375                                        3.43390e+002           4.33900e+001           3.38999e+000           3.89985e-001           8.99854e-002           9.98541e-003           9.85412e-004
                   95.40    343.38754                               19.79906             73.375                                        3.43388e+002           4.33875e+001           3.38754e+000           3.87542e-001           8.75423e-002           7.54231e-003           5.42312e-004
                   95.50    343.38827                               19.79906             73.375                                        3.43388e+002           4.33883e+001           3.38827e+000           3.88273e-001           8.82731e-002           8.27305e-003           2.73055e-004
                   95.60    343.38676                               19.79906             73.375                                        3.43387e+002           4.33868e+001           3.38676e+000           3.86759e-001           8.67586e-002           6.75861e-003           7.58605e-004
                   95.70    343.38577                               19.79906             73.375                                        3.43386e+002           4.33858e+001           3.38577e+000           3.85766e-001           8.57661e-002           5.76608e-003           7.66077e-004
                   95.80    343.38619                               19.79906             73.375                                        3.43386e+002           4.33862e+001           3.38619e+000           3.86185e-001           8.61850e-002           6.18504e-003           1.85040e-004
                   95.90    343.38587                               19.79906             73.375                                        3.43386e+002           4.33859e+001           3.38587e+000           3.85873e-001           8.58731e-002           5.87314e-003           8.73136e-004
                   96.00    343.38609                               19.79906             73.375                                        3.43386e+002           4.33861e+001           3.38609e+000           3.86089e-001           8.60888e-002           6.08882e-003           8.88182e-005
                   96.10    343.38725                               19.79906             73.373                                        3.43387e+002           4.33872e+001           3.38725e+000           3.87245e-001           8.72455e-002           7.24547e-003           2.45466e-004
                   96.20    343.38598                               19.79906             73.369                                        3.43386e+002           4.33860e+001           3.38598e+000           3.85982e-001           8.59825e-002           5.98246e-003           9.82462e-004
                   96.30    343.38489                               19.79906             73.367                                        3.43385e+002           4.33849e+001           3.38489e+000           3.84886e-001           8.48864e-002           4.88641e-003           8.86405e-004
                   96.40    343.38380                               19.79906             73.367                                        3.43384e+002           4.33838e+001           3.38380e+000           3.83801e-001           8.38011e-002           3.80111e-003           8.01110e-004
                   96.50    343.38413                               19.79906             73.367                                        3.43384e+002           4.33841e+001           3.38413e+000           3.84129e-001           8.41293e-002           4.12931e-003           1.29306e-004
                   96.60    343.38600                               19.79906             73.367                                        3.43386e+002           4.33860e+001           3.38600e+000           3.85995e-001           8.59951e-002           5.99508e-003           9.95076e-004
                   96.70    343.38698                               19.79906             73.367                                        3.43387e+002           4.33870e+001           3.38698e+000           3.86980e-001           8.69796e-002           6.97962e-003           9.79617e-004
                   96.80    343.38927                               19.79906             73.367                                        3.43389e+002           4.33893e+001           3.38927e+000           3.89266e-001           8.92662e-002           9.26623e-003           2.66227e-004
                   96.90    343.39104                               19.79906             73.367                                        3.43391e+002           4.33910e+001           3.39104e+000           3.91042e-001           9.10418e-002           1.04176e-003           4.17621e-005
                   97.00    343.38836                               19.79906             73.367                                        3.43388e+002           4.33884e+001           3.38836e+000           3.88358e-001           8.83579e-002           8.35791e-003           3.57914e-004
                   97.10    343.38568                               19.79906             73.367                                        3.43386e+002           4.33857e+001           3.38568e+000           3.85683e-001           8.56834e-002           5.68342e-003           6.83418e-004
                   97.20    343.38743                               19.79906             73.367                                        3.43387e+002           4.33874e+001           3.38743e+000           3.87429e-001           8.74290e-002           7.42900e-003           4.29003e-004
