~VERSION INFORMATION
VERS                    .            2.0                                    :CWLS LOG ASCII STANDARD
WRAP                    .            NO                                     :ONE LINE PER TIME STEP


~WELL INFORMATION
#MNEM                   .UNIT        DATA                                    DESCRIPTION
#________________________________________________________________________________________
STRTTIME                .HH/MM/SS    14:04:48                               :START TIME
STOPTIME                .HH/MM/SS    14:07:57                               :STOP TIME
STRT                    .s           2.10                                   :START DATA
STOP                    .s           187.50                                 :STOP DATA
STEP                    .s           0.10                                   :MEASUREMENT TIME INTERVAL
NULL                    .            -999.25                                :NULL VALUE
COMP                    .            Statoil ASA                            :COMPANY
FLD                     .            Volve                                  :FIELD
WELL                    .            15/9-F-1 B                             :WELL
RUN                     .            7                                      :RUN
LOC                     .            Maersk Inspirer                        :LOCATION
PROV                    .            na                                     :PROVINCE
SRVC                    .            Baker Hughes INTEQ                     :SERVICE COMPANY
DATE                    .YY/MM/DD    13/09/06                               :LOG DATE
UWI                     .                                                   :UNIQUE WELL ID
DEPTHMD                 .m           3296.0                                 :MEASURED DEPTH
DEPTHTVD                .m           3091.5                                 :TRUE VERTICAL DEPTH


~CURVE INFORMATION
#MNEM                   .UNIT        API CODES                               DESCRIPTION
#________________________________________________________________________________________
TIME                    .s                                                  :01 TIME
DD_PRESS                .bar                                                :02 DRAW DOWN PRESSURE
DD_VOLUME               .cm3                                                :03 INCREMENTAL DRAW DOWN VOLUME
TEMP                    .degC                                               :04 TRANSDUCER TEMPERATURE
DD_PRESS_MOD_1000       .bar                                                :05 DRAW DOWN PRESSURE MOD 1000
DD_PRESS_MOD_100        .bar                                                :06 DRAW DOWN PRESSURE MOD 100
DD_PRESS_MOD_10         .bar                                                :07 DRAW DOWN PRESSURE MOD 10
DD_PRESS_MOD_1          .bar                                                :08 DRAW DOWN PRESSURE MOD 1
DD_PRESS_MOD_01         .bar                                                :09 DRAW DOWN PRESSURE MOD 01
DD_PRESS_MOD_001        .bar                                                :10 DRAW DOWN PRESSURE MOD 001
DD_PRESS_MOD_0001       .bar                                                :11 DRAW DOWN PRESSURE MOD 0001


~PARAMETER INFORMATION
#MNEM                   .UNIT        VALUE                                   DESCRIPTION
#________________________________________________________________________________________
TOOLFACE                .deg         na                                     :01 TOOLFACE
PUMP_CAPACITY           .bar         400                                    :02 NOMINAL DRAW DOWN PUMP CAPACITY
PUMP_LIMIT              .bar         400                                    :03 DOWNLINK PUMP LIMIT
TIME_LIMIT              .min         10                                     :04 DOWNLINK MAX TIME
TEST_TYPE               .            LOW MOBILITY                           :05 DOWNLINK
DD_PIST_A               .cm2         3.1416                                 :06 DRAW DOWN PISTON AREA
V_SYS                   .cm3         131.0000                               :07 SYSTEM VOLUME
PROBE_ID                .cm          1.2700                                 :08 TTK PROBE ID
G0                      .            4.6700                                 :09 GEOMETRY FACTOR


~A                  TIME     DD_PRESS                              DD_VOLUME               TEMP                                   DD_PRESS_MOD_1000       DD_PRESS_MOD_100        DD_PRESS_MOD_10         DD_PRESS_MOD_1        DD_PRESS_MOD_01       DD_PRESS_MOD_001      DD_PRESS_MOD_0001
# ...
                  136.50    348.63169                               29.21840             83.250                                        3.48632e+002           4.86317e+001           8.63169e+000           6.31692e-001           3.16923e-002           1.69230e-003           6.92299e-004
                  136.60    348.62989                               29.21840             83.250                                        3.48630e+002           4.86299e+001           8.62989e+000           6.29890e-001           2.98900e-002           9.88998e-003           8.89982e-004
                  136.70    348.62929                               29.21840             83.250                                        3.48629e+002           4.86293e+001           8.62929e+000           6.29289e-001           2.92888e-002           9.28877e-003           2.88773e-004
                  136.80    348.64789                               29.21840             83.250                                        3.48648e+002           4.86479e+001           8.64789e+000           6.47894e-001           4.78936e-002           7.89358e-003           8.93580e-004
                  136.90    348.64687                               29.21840             83.250                                        3.48647e+002           4.86469e+001           8.64687e+000           6.46869e-001           4.68687e-002           6.86874e-003           8.68739e-004
                  137.00    348.61609                               29.21840             83.250                                        3.48616e+002           4.86161e+001           8.61609e+000           6.16085e-001           1.60851e-002           6.08513e-003           8.51279e-005
                  137.10    348.61116                               29.21840             83.250                                        3.48611e+002           4.86112e+001           8.61116e+000           6.11155e-001           1.11552e-002           1.15521e-003           1.55214e-004
                  137.20    348.64061                               29.21840             83.250                                        3.48641e+002           4.86406e+001           8.64061e+000           6.40613e-001           4.06132e-002           6.13217e-004           6.13217e-004
                  137.30    348.64643                               29.21840             83.250                                        3.48646e+002           4.86464e+001           8.64643e+000           6.46431e-001           4.64305e-002           6.43053e-003           4.30530e-004
                  137.40    348.63620                               29.21840             83.250                                        3.48636e+002           4.86362e+001           8.63620e+000           6.36197e-001           3.61971e-002           6.19708e-003           1.97076e-004
                  137.50    348.62430                               29.21840             83.250                                        3.48624e+002           4.86243e+001           8.62430e+000           6.24298e-001           2.42984e-002           4.29843e-003           2.98426e-004
                  137.60    348.63287                               29.21840             83.250                                        3.48633e+002           4.86329e+001           8.63287e+000           6.32875e-001           3.28749e-002           2.87490e-003           8.74899e-004
                  137.70    348.64144                               29.21840             83.250                                        3.48641e+002           4.86414e+001           8.64144e+000           6.41442e-001           4.14421e-002           1.44208e-003           4.42081e-004
                  137.80    348.61296                               29.21840             83.250                                        3.48613e+002           4.86130e+001           8.61296e+000           6.12957e-001           1.29574e-002           2.95738e-003           9.57376e-004
                  137.90    348.59939                               29.21840             83.250                                        3.48599e+002           4.85994e+001           8.59939e+000           5.99392e-001           9.93923e-002           9.39228e-003           3.92281e-004
                  138.00    348.63683                               29.21840             83.250                                        3.48637e+002           4.86368e+001           8.63683e+000           6.36834e-001           3.68336e-002           6.83356e-003           8.33564e-004
                  138.10    348.66070                               29.21840             83.250                                        3.48661e+002           4.86607e+001           8.66070e+000           6.60696e-001           6.06962e-002           6.96211e-004           6.96211e-004
                  138.20    348.64808                               29.21840             83.250                                        3.48648e+002           4.86481e+001           8.64808e+000           6.48080e-001           4.80798e-002           8.07978e-003           7.97789e-005
                  138.30    348.64135                               29.21840             83.250                                        3.48641e+002           4.86414e+001           8.64135e+000           6.41355e-001           4.13549e-002           1.35492e-003           3.54923e-004
                  138.40    348.64643                               29.21840             83.250                                        3.48646e+002           4.86464e+001           8.64643e+000           6.46434e-001           4.64339e-002           6.43392e-003           4.33920e-004
                  138.50    348.64090                               29.21840             83.250                                        3.48641e+002           4.86409e+001           8.64090e+000           6.40904e-001           4.09045e-002           9.04497e-004           9.04497e-004
                  138.60    348.62356                               29.21840             83.250                                        3.48624e+002           4.86236e+001           8.62356e+000           6.23561e-001           2.35610e-002           3.56102e-003           5.61022e-004
                  138.70    348.61307                               29.21840             83.250                                        3.48613e+002           4.86131e+001           8.61307e+000           6.13073e-001           1.30732e-002           3.07319e-003           7.31877e-005
                  138.80    348.64565                               29.21840             83.250                                        3.48646e+002           4.86457e+001           8.64565e+000           6.45653e-001           4.56528e-002           5.65275e-003           6.52751e-004
                  138.90    348.66252                               29.21840             83.250                                        3.48663e+002           4.86625e+001           8.66252e+000           6.62525e-001           6.25245e-002           2.52452e-003           5.24519e-004
                  139.00    348.62949                               29.21840             83.250                                        3.48629e+002           4.86295e+001           8.62949e+000           6.29486e-001           2.94865e-002           9.48646e-003           4.86457e-004
                  139.10    348.61104                               29.21840             83.250                                        3.48611e+002           4.86110e+001           8.61104e+000           6.11043e-001           1.10429e-002           1.04288e-003           4.28832e-005
                  139.20    348.63212                               29.21840             83.250                                        3.48632e+002           4.86321e+001           8.63212e+000           6.32119e-001           3.21192e-002           2.11918e-003           1.19178e-004
