~VERSION INFORMATION
VERS                    .            2.0                                    :CWLS LOG ASCII STANDARD
WRAP                    .            NO                                     :ONE LINE PER TIME STEP


~WELL INFORMATION
#MNEM                   .UNIT        DATA                                    DESCRIPTION
#________________________________________________________________________________________
STRTTIME                .HH/MM/SS    10:22:55                               :START TIME
STOPTIME                .HH/MM/SS    10:26:06                               :STOP TIME
STRT                    .s           2.10                                   :START DATA
STOP                    .s           189.80                                 :STOP DATA
STEP                    .s           0.10                                   :MEASUREMENT TIME INTERVAL
NULL                    .            -999.25                                :NULL VALUE
COMP                    .            Statoil ASA                            :COMPANY
FLD                     .            Volve                                  :FIELD
WELL                    .            15/9-F-11 A                            :WELL
RUN                     .            8                                      :RUN
LOC                     .            Maersk Inspirer                        :LOCATION
PROV                    .            na                                     :PROVINCE
SRVC                    .            Baker Hughes INTEQ                     :SERVICE COMPANY
DATE                    .YY/MM/DD    13/05/21                               :LOG DATE
UWI                     .                                                   :UNIQUE WELL ID
DEPTHMD                 .m           3651.0                                 :MEASURED DEPTH
DEPTHTVD                .m           3041.4                                 :TRUE VERTICAL DEPTH


~CURVE INFORMATION
#MNEM                   .UNIT        API CODES                               DESCRIPTION
#________________________________________________________________________________________
TIME                    .s                                                  :01 TIME
DD_PRESS                .bar                                                :02 DRAW DOWN PRESSURE
DD_VOLUME               .cm3                                                :03 INCREMENTAL DRAW DOWN VOLUME
TEMP                    .degC                                               :04 TRANSDUCER TEMPERATURE
DD_PRESS_MOD_1000       .bar                                                :05 DRAW DOWN PRESSURE MOD 1000
DD_PRESS_MOD_100        .bar                                                :06 DRAW DOWN PRESSURE MOD 100
DD_PRESS_MOD_10         .bar                                                :07 DRAW DOWN PRESSURE MOD 10
DD_PRESS_MOD_1          .bar                                                :08 DRAW DOWN PRESSURE MOD 1
DD_PRESS_MOD_01         .bar                                                :09 DRAW DOWN PRESSURE MOD 01
DD_PRESS_MOD_001        .bar                                                :10 DRAW DOWN PRESSURE MOD 001
DD_PRESS_MOD_0001       .bar                                                :11 DRAW DOWN PRESSURE MOD 0001


~PARAMETER INFORMATION
#MNEM                   .UNIT        VALUE                                   DESCRIPTION
#________________________________________________________________________________________
TOOLFACE                .deg         61.5                                   :01 TOOLFACE
PUMP_CAPACITY           .bar         400                                    :02 NOMINAL DRAW DOWN PUMP CAPACITY
PUMP_LIMIT              .bar         240                                    :03 DOWNLINK PUMP LIMIT
TIME_LIMIT              .min         10                                     :04 DOWNLINK MAX TIME
TEST_TYPE               .            REPEAT                                 :05 DOWNLINK
TEST_TYPE               .            HIGH MOBILITY                          :06 DOWNLINK
DD_PIST_A               .cm2         3.1416                                 :07 DRAW DOWN PISTON AREA
V_SYS                   .cm3         131.0000                               :08 SYSTEM VOLUME
PROBE_ID                .cm          1.2700                                 :09 TTK PROBE ID
G0                      .            4.6700                                 :10 GEOMETRY FACTOR


~A                  TIME     DD_PRESS                              DD_VOLUME               TEMP                                   DD_PRESS_MOD_1000       DD_PRESS_MOD_100        DD_PRESS_MOD_10         DD_PRESS_MOD_1        DD_PRESS_MOD_01       DD_PRESS_MOD_001      DD_PRESS_MOD_0001
# ...
                   27.30    387.74214                                1.41020             81.102                                        3.87742e+002           8.77421e+001           7.74214e+000           7.42141e-001           4.21411e-002           2.14112e-003           1.41120e-004
                   27.40    384.61021                                1.45286             81.102                                        3.84610e+002           8.46102e+001           4.61021e+000           6.10209e-001           1.02090e-002           2.09049e-004           2.09049e-004
                   27.50    381.32824                                1.49725             81.102                                        3.81328e+002           8.13282e+001           1.32824e+000           3.28240e-001           2.82400e-002           8.24004e-003           2.40044e-004
                   27.60    377.89214                                1.54348             81.102                                        3.77892e+002           7.78921e+001           7.89214e+000           8.92141e-001           9.21412e-002           2.14119e-003           1.41185e-004
                   27.70    374.29488                                1.59151             81.102                                        3.74295e+002           7.42949e+001           4.29488e+000           2.94883e-001           9.48834e-002           4.88342e-003           8.83417e-004
                   27.80    370.53859                                1.64124             81.102                                        3.70539e+002           7.05386e+001           5.38592e-001           5.38592e-001           3.85919e-002           8.59194e-003           5.91937e-004
                   27.90    366.66931                                1.69264             81.102                                        3.66669e+002           6.66693e+001           6.66931e+000           6.69309e-001           6.93090e-002           9.30897e-003           3.08973e-004
                   28.00    362.69837                                1.74575             81.102                                        3.62698e+002           6.26984e+001           2.69837e+000           6.98367e-001           9.83665e-002           8.36652e-003           3.66524e-004
                   28.10    358.61106                                1.80057             81.102                                        3.58611e+002           5.86111e+001           8.61106e+000           6.11059e-001           1.10591e-002           1.05906e-003           5.90556e-005
                   28.20    354.39775                                1.85705             81.102                                        3.54398e+002           5.43978e+001           4.39775e+000           3.97751e-001           9.77505e-002           7.75050e-003           7.50504e-004
                   28.30    350.07948                                1.91499             81.102                                        3.50079e+002           5.00795e+001           7.94768e-002           7.94768e-002           7.94768e-002           9.47683e-003           4.76835e-004
                   28.40    346.14442                                1.97456             81.102                                        3.46144e+002           4.61444e+001           6.14442e+000           1.44417e-001           4.44170e-002           4.41695e-003           4.16952e-004
                   28.50    343.95118                                2.03577             81.102                                        3.43951e+002           4.39512e+001           3.95118e+000           9.51178e-001           5.11783e-002           1.17830e-003           1.78301e-004
                   28.60    343.51134                                2.09866             81.102                                        3.43511e+002           4.35113e+001           3.51134e+000           5.11335e-001           1.13354e-002           1.33541e-003           3.35407e-004
                   28.70    343.53246                                2.16314             81.102                                        3.43532e+002           4.35325e+001           3.53246e+000           5.32463e-001           3.24630e-002           2.46297e-003           4.62966e-004
                   28.80    343.52806                                2.22915             81.102                                        3.43528e+002           4.35281e+001           3.52806e+000           5.28056e-001           2.80558e-002           8.05584e-003           5.58412e-005
                   28.90    343.53130                                2.29670             81.099                                        3.43531e+002           4.35313e+001           3.53130e+000           5.31298e-001           3.12975e-002           1.29753e-003           2.97529e-004
                   29.00    343.53655                                2.36560             81.096                                        3.43537e+002           4.35365e+001           3.53655e+000           5.36547e-001           3.65468e-002           6.54685e-003           5.46849e-004
                   29.10    343.53156                                2.43581             81.094                                        3.43532e+002           4.35316e+001           3.53156e+000           5.31556e-001           3.15565e-002           1.55649e-003           5.56493e-004
                   29.20    343.51869                                2.50747             81.094                                        3.43519e+002           4.35187e+001           3.51869e+000           5.18686e-001           1.86864e-002           8.68635e-003           6.86354e-004
                   29.30    343.50043                                2.58061             81.094                                        3.43500e+002           4.35004e+001           3.50043e+000           5.00434e-001           4.33723e-004           4.33723e-004           4.33723e-004
                   29.40    343.48786                                2.65514             81.094                                        3.43488e+002           4.34879e+001           3.48786e+000           4.87857e-001           8.78572e-002           7.85717e-003           8.57169e-004
                   29.50    343.48940                                2.73093             81.094                                        3.43489e+002           4.34894e+001           3.48940e+000           4.89398e-001           8.93980e-002           9.39798e-003           3.97980e-004
                   29.60    343.48924                                2.80791             81.094                                        3.43489e+002           4.34892e+001           3.48924e+000           4.89245e-001           8.92448e-002           9.24480e-003           2.44798e-004
                   29.70    343.47390                                2.88612             81.094                                        3.43474e+002           4.34739e+001           3.47390e+000           4.73903e-001           7.39031e-002           3.90308e-003           9.03083e-004
                   29.80    343.45755                                2.96557             81.094                                        3.43458e+002           4.34576e+001           3.45755e+000           4.57553e-001           5.75530e-002           7.55302e-003           5.53024e-004
                   29.90    343.44347                                3.04631             81.094                                        3.43443e+002           4.34435e+001           3.44347e+000           4.43466e-001           4.34657e-002           3.46567e-003           4.65667e-004
                   30.00    343.42968                                3.12814             81.094                                        3.43430e+002           4.34297e+001           3.42968e+000           4.29684e-001           2.96844e-002           9.68444e-003           6.84437e-004
