~VERSION INFORMATION
VERS                    .            2.0                                    :CWLS LOG ASCII STANDARD
WRAP                    .            NO                                     :ONE LINE PER TIME STEP


~WELL INFORMATION
#MNEM                   .UNIT        DATA                                    DESCRIPTION
#________________________________________________________________________________________
STRTTIME                .HH/MM/SS    18:50:18                               :START TIME
STOPTIME                .HH/MM/SS    18:53:14                               :STOP TIME
STRT                    .s           2.10                                   :START DATA
STOP                    .s           174.80                                 :STOP DATA
STEP                    .s           0.10                                   :MEASUREMENT TIME INTERVAL
NULL                    .            -999.25                                :NULL VALUE
COMP                    .            Statoil ASA                            :COMPANY
FLD                     .            Volve                                  :FIELD
WELL                    .            15/9-F-11 A                            :WELL
RUN                     .            8                                      :RUN
LOC                     .            Maersk Inspirer                        :LOCATION
PROV                    .            na                                     :PROVINCE
SRVC                    .            Baker Hughes INTEQ                     :SERVICE COMPANY
DATE                    .YY/MM/DD    13/05/23                               :LOG DATE
UWI                     .                                                   :UNIQUE WELL ID
DEPTHMD                 .m           3651.0                                 :MEASURED DEPTH
DEPTHTVD                .m           3041.4                                 :TRUE VERTICAL DEPTH


~CURVE INFORMATION
#MNEM                   .UNIT        API CODES                               DESCRIPTION
#________________________________________________________________________________________
TIME                    .s                                                  :01 TIME
DD_PRESS                .bar                                                :02 DRAW DOWN PRESSURE
DD_VOLUME               .cm3                                                :03 INCREMENTAL DRAW DOWN VOLUME
TEMP                    .degC                                               :04 TRANSDUCER TEMPERATURE
DD_PRESS_MOD_1000       .bar                                                :05 DRAW DOWN PRESSURE MOD 1000
DD_PRESS_MOD_100        .bar                                                :06 DRAW DOWN PRESSURE MOD 100
DD_PRESS_MOD_10         .bar                                                :07 DRAW DOWN PRESSURE MOD 10
DD_PRESS_MOD_1          .bar                                                :08 DRAW DOWN PRESSURE MOD 1
DD_PRESS_MOD_01         .bar                                                :09 DRAW DOWN PRESSURE MOD 01
DD_PRESS_MOD_001        .bar                                                :10 DRAW DOWN PRESSURE MOD 001
DD_PRESS_MOD_0001       .bar                                                :11 DRAW DOWN PRESSURE MOD 0001


~PARAMETER INFORMATION
#MNEM                   .UNIT        VALUE                                   DESCRIPTION
#________________________________________________________________________________________
TOOLFACE                .deg         -39.7                                  :01 TOOLFACE
PUMP_CAPACITY           .bar         400                                    :02 NOMINAL DRAW DOWN PUMP CAPACITY
PUMP_LIMIT              .bar         240                                    :03 DOWNLINK PUMP LIMIT
TIME_LIMIT              .min         10                                     :04 DOWNLINK MAX TIME
TEST_TYPE               .            REPEAT                                 :05 DOWNLINK
TEST_TYPE               .            HIGH MOBILITY                          :06 DOWNLINK
DD_PIST_A               .cm2         3.1416                                 :07 DRAW DOWN PISTON AREA
V_SYS                   .cm3         131.0000                               :08 SYSTEM VOLUME
PROBE_ID                .cm          1.2700                                 :09 TTK PROBE ID
G0                      .            4.6700                                 :10 GEOMETRY FACTOR


~A                  TIME     DD_PRESS                              DD_VOLUME               TEMP                                   DD_PRESS_MOD_1000       DD_PRESS_MOD_100        DD_PRESS_MOD_10         DD_PRESS_MOD_1        DD_PRESS_MOD_01       DD_PRESS_MOD_001      DD_PRESS_MOD_0001
# ...
                  128.10    343.38786                               29.44302             73.313                                        3.43388e+002           4.33879e+001           3.38786e+000           3.87858e-001           8.78583e-002           7.85826e-003           8.58257e-004
                  128.20    343.38803                               29.44302             73.313                                        3.43388e+002           4.33880e+001           3.38803e+000           3.88029e-001           8.80293e-002           8.02929e-003           2.92910e-005
                  128.30    343.38496                               29.44302             73.313                                        3.43385e+002           4.33850e+001           3.38496e+000           3.84957e-001           8.49572e-002           4.95719e-003           9.57188e-004
                  128.40    343.38406                               29.44302             73.313                                        3.43384e+002           4.33841e+001           3.38406e+000           3.84064e-001           8.40635e-002           4.06351e-003           6.35054e-005
                  128.50    343.38514                               29.44302             73.313                                        3.43385e+002           4.33851e+001           3.38514e+000           3.85141e-001           8.51407e-002           5.14070e-003           1.40698e-004
                  128.60    343.38654                               29.44302             73.313                                        3.43387e+002           4.33865e+001           3.38654e+000           3.86543e-001           8.65427e-002           6.54271e-003           5.42710e-004
                  128.70    343.38760                               29.44302             73.313                                        3.43388e+002           4.33876e+001           3.38760e+000           3.87604e-001           8.76037e-002           7.60370e-003           6.03704e-004
                  128.80    343.38691                               29.44302             73.313                                        3.43387e+002           4.33869e+001           3.38691e+000           3.86914e-001           8.69142e-002           6.91425e-003           9.14247e-004
                  128.90    343.38678                               29.44302             73.313                                        3.43387e+002           4.33868e+001           3.38678e+000           3.86782e-001           8.67816e-002           6.78159e-003           7.81588e-004
                  129.00    343.38753                               29.44302             73.313                                        3.43388e+002           4.33875e+001           3.38753e+000           3.87527e-001           8.75266e-002           7.52662e-003           5.26625e-004
                  129.10    343.38726                               29.44302             73.313                                        3.43387e+002           4.33873e+001           3.38726e+000           3.87259e-001           8.72594e-002           7.25940e-003           2.59403e-004
                  129.20    343.38747                               29.44302             73.313                                        3.43387e+002           4.33875e+001           3.38747e+000           3.87470e-001           8.74698e-002           7.46976e-003           4.69763e-004
                  129.30    343.38794                               29.44302             73.313                                        3.43388e+002           4.33879e+001           3.38794e+000           3.87945e-001           8.79448e-002           7.94482e-003           9.44818e-004
                  129.40    343.38833                               29.44302             73.313                                        3.43388e+002           4.33883e+001           3.38833e+000           3.88332e-001           8.83325e-002           8.33250e-003           3.32499e-004
                  129.50    343.38833                               29.44302             73.313                                        3.43388e+002           4.33883e+001           3.38833e+000           3.88332e-001           8.83325e-002           8.33250e-003           3.32499e-004
                  129.60    343.38833                               29.44302             73.313                                        3.43388e+002           4.33883e+001           3.38833e+000           3.88334e-001           8.83342e-002           8.33421e-003           3.34206e-004
                  129.70    343.38838                               29.44302             73.313                                        3.43388e+002           4.33884e+001           3.38838e+000           3.88383e-001           8.83826e-002           8.38263e-003           3.82633e-004
                  129.80    343.38841                               29.44302             73.313                                        3.43388e+002           4.33884e+001           3.38841e+000           3.88408e-001           8.84082e-002           8.40825e-003           4.08245e-004
                  129.90    343.38840                               29.44302             73.313                                        3.43388e+002           4.33884e+001           3.38840e+000           3.88405e-001           8.84049e-002           8.40486e-003           4.04865e-004
                  130.00    343.38837                               29.44302             73.313                                        3.43388e+002           4.33884e+001           3.38837e+000           3.88365e-001           8.83654e-002           8.36537e-003           3.65369e-004
                  130.10    343.38827                               29.44302             73.313                                        3.43388e+002           4.33883e+001           3.38827e+000           3.88267e-001           8.82667e-002           8.26667e-003           2.66668e-004
                  130.20    343.38838                               29.44302             73.313                                        3.43388e+002           4.33884e+001           3.38838e+000           3.88377e-001           8.83766e-002           8.37664e-003           3.76641e-004
                  130.30    343.38847                               29.44302             73.313                                        3.43388e+002           4.33885e+001           3.38847e+000           3.88472e-001           8.84716e-002           8.47159e-003           4.71589e-004
                  130.40    343.38857                               29.44302             73.313                                        3.43389e+002           4.33886e+001           3.38857e+000           3.88566e-001           8.85664e-002           8.56643e-003           5.66425e-004
                  130.50    343.38867                               29.44302             73.313                                        3.43389e+002           4.33887e+001           3.38867e+000           3.88674e-001           8.86737e-002           8.67374e-003           6.73737e-004
                  130.60    343.38867                               29.44302             73.310                                        3.43389e+002           4.33887e+001           3.38867e+000           3.88674e-001           8.86744e-002           8.67442e-003           6.74424e-004
                  130.70    343.38865                               29.44302             73.307                                        3.43389e+002           4.33887e+001           3.38865e+000           3.88651e-001           8.86512e-002           8.65121e-003           6.51205e-004
                  130.80    343.38783                               29.44302             73.305                                        3.43388e+002           4.33878e+001           3.38783e+000           3.87835e-001           8.78345e-002           7.83454e-003           8.34543e-004
