~VERSION INFORMATION
VERS                    .            2.0                                    :CWLS LOG ASCII STANDARD
WRAP                    .            NO                                     :ONE LINE PER TIME STEP


~WELL INFORMATION
#MNEM                   .UNIT        DATA                                    DESCRIPTION
#________________________________________________________________________________________
STRTTIME                .HH/MM/SS    00:10:18                               :START TIME
STOPTIME                .HH/MM/SS    00:13:47                               :STOP TIME
STRT                    .s           2.10                                   :START DATA
STOP                    .s           207.40                                 :STOP DATA
STEP                    .s           0.10                                   :MEASUREMENT TIME INTERVAL
NULL                    .            -999.25                                :NULL VALUE
COMP                    .            Statoil ASA                            :COMPANY
FLD                     .            Volve                                  :FIELD
WELL                    .            15/9-F-1                               :WELL
RUN                     .            4                                      :RUN
LOC                     .            Maersk Inspirer                        :LOCATION
PROV                    .            na                                     :PROVINCE
SRVC                    .            Baker Hughes INTEQ                     :SERVICE COMPANY
DATE                    .YY/MM/DD    13/08/19                               :LOG DATE
UWI                     .                                                   :UNIQUE WELL ID
DEPTHMD                 .m           3332.4                                 :MEASURED DEPTH
DEPTHTVD                .m           3056.0                                 :TRUE VERTICAL DEPTH


~CURVE INFORMATION
#MNEM                   .UNIT        API CODES                               DESCRIPTION
#________________________________________________________________________________________
TIME                    .s                                                  :01 TIME
DD_PRESS                .bar                                                :02 DRAW DOWN PRESSURE
DD_VOLUME               .cm3                                                :03 INCREMENTAL DRAW DOWN VOLUME
TEMP                    .degC                                               :04 TRANSDUCER TEMPERATURE
DD_PRESS_MOD_1000       .bar                                                :05 DRAW DOWN PRESSURE MOD 1000
DD_PRESS_MOD_100        .bar                                                :06 DRAW DOWN PRESSURE MOD 100
DD_PRESS_MOD_10         .bar                                                :07 DRAW DOWN PRESSURE MOD 10
DD_PRESS_MOD_1          .bar                                                :08 DRAW DOWN PRESSURE MOD 1
DD_PRESS_MOD_01         .bar                                                :09 DRAW DOWN PRESSURE MOD 01
DD_PRESS_MOD_001        .bar                                                :10 DRAW DOWN PRESSURE MOD 001
DD_PRESS_MOD_0001       .bar                                                :11 DRAW DOWN PRESSURE MOD 0001


~PARAMETER INFORMATION
#MNEM                   .UNIT        VALUE                                   DESCRIPTION
#________________________________________________________________________________________
TOOLFACE                .deg         78.2                                   :01 TOOLFACE
PUMP_CAPACITY           .bar         400                                    :02 NOMINAL DRAW DOWN PUMP CAPACITY
PUMP_LIMIT              .bar         240                                    :03 DOWNLINK PUMP LIMIT
TIME_LIMIT              .min         10                                     :04 DOWNLINK MAX TIME
TEST_TYPE               .            LOW MOBILITY                           :05 DOWNLINK
DD_PIST_A               .cm2         3.1416                                 :06 DRAW DOWN PISTON AREA
V_SYS                   .cm3         131.0000                               :07 SYSTEM VOLUME
PROBE_ID                .cm          1.2700                                 :08 TTK PROBE ID
G0                      .            4.6700                                 :09 GEOMETRY FACTOR


~A                  TIME     DD_PRESS                              DD_VOLUME               TEMP                                   DD_PRESS_MOD_1000       DD_PRESS_MOD_100        DD_PRESS_MOD_10         DD_PRESS_MOD_1        DD_PRESS_MOD_01       DD_PRESS_MOD_001      DD_PRESS_MOD_0001
# ...
                   69.30    340.64269                               10.77702             74.711                                        3.40643e+002           4.06427e+001           6.42686e-001           6.42686e-001           4.26863e-002           2.68626e-003           6.86257e-004
                   69.40    340.64259                               10.77702             74.711                                        3.40643e+002           4.06426e+001           6.42593e-001           6.42593e-001           4.25930e-002           2.59300e-003           5.92995e-004
                   69.50    340.64265                               10.77702             74.711                                        3.40643e+002           4.06426e+001           6.42647e-001           6.42647e-001           4.26469e-002           2.64687e-003           6.46867e-004
                   69.60    340.64187                               10.77702             74.711                                        3.40642e+002           4.06419e+001           6.41873e-001           6.41873e-001           4.18734e-002           1.87343e-003           8.73433e-004
                   69.70    340.63856                               10.77702             74.711                                        3.40639e+002           4.06386e+001           6.38558e-001           6.38558e-001           3.85581e-002           8.55813e-003           5.58128e-004
                   69.80    340.63662                               10.77702             74.711                                        3.40637e+002           4.06366e+001           6.36620e-001           6.36620e-001           3.66197e-002           6.61972e-003           6.19716e-004
                   69.90    340.63807                               10.77702             74.711                                        3.40638e+002           4.06381e+001           6.38066e-001           6.38066e-001           3.80662e-002           8.06623e-003           6.62332e-005
                   70.00    340.64114                               10.77702             74.711                                        3.40641e+002           4.06411e+001           6.41142e-001           6.41142e-001           4.11415e-002           1.14151e-003           1.41513e-004
                   70.10    340.64090                               10.77702             74.711                                        3.40641e+002           4.06409e+001           6.40901e-001           6.40901e-001           4.09013e-002           9.01322e-004           9.01322e-004
                   70.20    340.63942                               10.77702             74.711                                        3.40639e+002           4.06394e+001           6.39415e-001           6.39415e-001           3.94150e-002           9.41504e-003           4.15037e-004
                   70.30    340.63954                               10.77702             74.711                                        3.40640e+002           4.06395e+001           6.39545e-001           6.39545e-001           3.95446e-002           9.54459e-003           5.44588e-004
                   70.40    340.64188                               10.77702             74.711                                        3.40642e+002           4.06419e+001           6.41879e-001           6.41879e-001           4.18785e-002           1.87850e-003           8.78500e-004
                   70.50    340.64110                               10.77702             74.711                                        3.40641e+002           4.06411e+001           6.41103e-001           6.41103e-001           4.11026e-002           1.10264e-003           1.02644e-004
                   70.60    340.64023                               10.77702             74.711                                        3.40640e+002           4.06402e+001           6.40227e-001           6.40227e-001           4.02266e-002           2.26608e-004           2.26608e-004
                   70.70    340.63893                               10.77702             74.711                                        3.40639e+002           4.06389e+001           6.38929e-001           6.38929e-001           3.89291e-002           8.92913e-003           9.29130e-004
                   70.80    340.63934                               10.77702             74.711                                        3.40639e+002           4.06393e+001           6.39337e-001           6.39337e-001           3.93366e-002           9.33665e-003           3.36647e-004
                   70.90    340.63986                               10.77702             74.711                                        3.40640e+002           4.06399e+001           6.39858e-001           6.39858e-001           3.98580e-002           9.85799e-003           8.57993e-004
                   71.00    340.63693                               10.77702             74.711                                        3.40637e+002           4.06369e+001           6.36933e-001           6.36933e-001           3.69328e-002           6.93280e-003           9.32801e-004
                   71.10    340.63798                               10.77702             74.711                                        3.40638e+002           4.06380e+001           6.37980e-001           6.37980e-001           3.79799e-002           7.97987e-003           9.79868e-004
                   71.20    340.64124                               10.77702             74.711                                        3.40641e+002           4.06412e+001           6.41242e-001           6.41242e-001           4.12419e-002           1.24192e-003           2.41918e-004
                   71.30    340.64151                               10.77702             74.711                                        3.40642e+002           4.06415e+001           6.41510e-001           6.41510e-001           4.15100e-002           1.51000e-003           5.10003e-004
                   71.40    340.64074                               10.77702             74.711                                        3.40641e+002           4.06407e+001           6.40741e-001           6.40741e-001           4.07410e-002           7.40988e-004           7.40988e-004
                   71.50    340.63981                               10.77702             74.711                                        3.40640e+002           4.06398e+001           6.39811e-001           6.39811e-001           3.98105e-002           9.81050e-003           8.10503e-004
                   71.60    340.63949                               10.77702             74.711                                        3.40639e+002           4.06395e+001           6.39493e-001           6.39493e-001           3.94934e-002           9.49336e-003           4.93359e-004
                   71.70    340.64239                               10.77702             74.711                                        3.40642e+002           4.06424e+001           6.42390e-001           6.42390e-001           4.23899e-002           2.38995e-003           3.89947e-004
                   71.80    340.63915                               10.77702             74.711                                        3.40639e+002           4.06392e+001           6.39152e-001           6.39152e-001           3.91518e-002           9.15183e-003           1.51833e-004
                   71.90    340.63667                               10.77702             74.711                                        3.40637e+002           4.06367e+001           6.36671e-001           6.36671e-001           3.66707e-002           6.67068e-003           6.70676e-004
                   72.00    340.63893                               10.77702             74.711                                        3.40639e+002           4.06389e+001           6.38927e-001           6.38927e-001           3.89273e-002           8.92732e-003           9.27323e-004
