~VERSION INFORMATION
VERS                    .            2.0                                    :CWLS LOG ASCII STANDARD
WRAP                    .            NO                                     :ONE LINE PER TIME STEP


~WELL INFORMATION
#MNEM                   .UNIT        DATA                                    DESCRIPTION
#________________________________________________________________________________________
STRTTIME                .HH/MM/SS    18:50:18                               :START TIME
STOPTIME                .HH/MM/SS    18:53:14                               :STOP TIME
STRT                    .s           2.10                                   :START DATA
STOP                    .s           174.80                                 :STOP DATA
STEP                    .s           0.10                                   :MEASUREMENT TIME INTERVAL
NULL                    .            -999.25                                :NULL VALUE
COMP                    .            Statoil ASA                            :COMPANY
FLD                     .            Volve                                  :FIELD
WELL                    .            15/9-F-11 A                            :WELL
RUN                     .            8                                      :RUN
LOC                     .            Maersk Inspirer                        :LOCATION
PROV                    .            na                                     :PROVINCE
SRVC                    .            Baker Hughes INTEQ                     :SERVICE COMPANY
DATE                    .YY/MM/DD    13/05/23                               :LOG DATE
UWI                     .                                                   :UNIQUE WELL ID
DEPTHMD                 .m           3651.0                                 :MEASURED DEPTH
DEPTHTVD                .m           3041.4                                 :TRUE VERTICAL DEPTH


~CURVE INFORMATION
#MNEM                   .UNIT        API CODES                               DESCRIPTION
#________________________________________________________________________________________
TIME                    .s                                                  :01 TIME
DD_PRESS                .bar                                                :02 DRAW DOWN PRESSURE
DD_VOLUME               .cm3                                                :03 INCREMENTAL DRAW DOWN VOLUME
TEMP                    .degC                                               :04 TRANSDUCER TEMPERATURE
DD_PRESS_MOD_1000       .bar                                                :05 DRAW DOWN PRESSURE MOD 1000
DD_PRESS_MOD_100        .bar                                                :06 DRAW DOWN PRESSURE MOD 100
DD_PRESS_MOD_10         .bar                                                :07 DRAW DOWN PRESSURE MOD 10
DD_PRESS_MOD_1          .bar                                                :08 DRAW DOWN PRESSURE MOD 1
DD_PRESS_MOD_01         .bar                                                :09 DRAW DOWN PRESSURE MOD 01
DD_PRESS_MOD_001        .bar                                                :10 DRAW DOWN PRESSURE MOD 001
DD_PRESS_MOD_0001       .bar                                                :11 DRAW DOWN PRESSURE MOD 0001


~PARAMETER INFORMATION
#MNEM                   .UNIT        VALUE                                   DESCRIPTION
#________________________________________________________________________________________
TOOLFACE                .deg         -39.7                                  :01 TOOLFACE
PUMP_CAPACITY           .bar         400                                    :02 NOMINAL DRAW DOWN PUMP CAPACITY
PUMP_LIMIT              .bar         240                                    :03 DOWNLINK PUMP LIMIT
TIME_LIMIT              .min         10                                     :04 DOWNLINK MAX TIME
TEST_TYPE               .            REPEAT                                 :05 DOWNLINK
TEST_TYPE               .            HIGH MOBILITY                          :06 DOWNLINK
DD_PIST_A               .cm2         3.1416                                 :07 DRAW DOWN PISTON AREA
V_SYS                   .cm3         131.0000                               :08 SYSTEM VOLUME
PROBE_ID                .cm          1.2700                                 :09 TTK PROBE ID
G0                      .            4.6700                                 :10 GEOMETRY FACTOR


~A                  TIME     DD_PRESS                              DD_VOLUME               TEMP                                   DD_PRESS_MOD_1000       DD_PRESS_MOD_100        DD_PRESS_MOD_10         DD_PRESS_MOD_1        DD_PRESS_MOD_01       DD_PRESS_MOD_001      DD_PRESS_MOD_0001
# ...
                   58.10    343.39226                               10.67962             73.443                                        3.43392e+002           4.33923e+001           3.39226e+000           3.92259e-001           9.22590e-002           2.25901e-003           2.59013e-004
                   58.20    343.39159                               10.67962             73.439                                        3.43392e+002           4.33916e+001           3.39159e+000           3.91588e-001           9.15881e-002           1.58805e-003           5.88052e-004
                   58.30    343.39126                               10.67962             73.440                                        3.43391e+002           4.33913e+001           3.39126e+000           3.91264e-001           9.12639e-002           1.26387e-003           2.63873e-004
                   58.40    343.39174                               10.67962             73.443                                        3.43392e+002           4.33917e+001           3.39174e+000           3.91737e-001           9.17369e-002           1.73689e-003           7.36893e-004
                   58.50    343.39234                               10.67962             73.445                                        3.43392e+002           4.33923e+001           3.39234e+000           3.92342e-001           9.23425e-002           2.34245e-003           3.42453e-004
                   58.60    343.39247                               10.67962             73.443                                        3.43392e+002           4.33925e+001           3.39247e+000           3.92472e-001           9.24720e-002           2.47203e-003           4.72035e-004
                   58.70    343.39283                               10.67962             73.439                                        3.43393e+002           4.33928e+001           3.39283e+000           3.92834e-001           9.28344e-002           2.83441e-003           8.34409e-004
                   58.80    343.39289                               10.67962             73.438                                        3.43393e+002           4.33929e+001           3.39289e+000           3.92893e-001           9.28926e-002           2.89262e-003           8.92617e-004
                   58.90    343.39268                               10.67962             73.438                                        3.43393e+002           4.33927e+001           3.39268e+000           3.92683e-001           9.26830e-002           2.68296e-003           6.82965e-004
                   59.00    343.39251                               10.67962             73.438                                        3.43393e+002           4.33925e+001           3.39251e+000           3.92511e-001           9.25105e-002           2.51052e-003           5.10518e-004
                   59.10    343.39252                               10.67962             73.438                                        3.43393e+002           4.33925e+001           3.39252e+000           3.92515e-001           9.25150e-002           2.51502e-003           5.15022e-004
                   59.20    343.39257                               10.67962             73.438                                        3.43393e+002           4.33926e+001           3.39257e+000           3.92566e-001           9.25662e-002           2.56618e-003           5.66180e-004
                   59.30    343.39259                               10.67962             73.438                                        3.43393e+002           4.33926e+001           3.39259e+000           3.92589e-001           9.25890e-002           2.58903e-003           5.89034e-004
                   59.40    343.39258                               10.67962             73.438                                        3.43393e+002           4.33926e+001           3.39258e+000           3.92582e-001           9.25824e-002           2.58241e-003           5.82411e-004
                   59.50    343.39253                               10.67962             73.438                                        3.43393e+002           4.33925e+001           3.39253e+000           3.92527e-001           9.25270e-002           2.52701e-003           5.27010e-004
                   59.60    343.39251                               10.67962             73.438                                        3.43393e+002           4.33925e+001           3.39251e+000           3.92512e-001           9.25123e-002           2.51232e-003           5.12317e-004
                   59.70    343.39254                               10.67962             73.438                                        3.43393e+002           4.33925e+001           3.39254e+000           3.92543e-001           9.25429e-002           2.54287e-003           5.42875e-004
                   59.80    343.39257                               10.67962             73.438                                        3.43393e+002           4.33926e+001           3.39257e+000           3.92572e-001           9.25725e-002           2.57250e-003           5.72500e-004
                   59.90    343.39265                               10.67962             73.438                                        3.43393e+002           4.33926e+001           3.39265e+000           3.92648e-001           9.26482e-002           2.64821e-003           6.48208e-004
                   60.00    343.39268                               10.67962             73.438                                        3.43393e+002           4.33927e+001           3.39268e+000           3.92683e-001           9.26827e-002           2.68274e-003           6.82736e-004
                   60.10    343.39269                               10.67962             73.438                                        3.43393e+002           4.33927e+001           3.39269e+000           3.92688e-001           9.26879e-002           2.68788e-003           6.87875e-004
                   60.20    343.39272                               10.67962             73.438                                        3.43393e+002           4.33927e+001           3.39272e+000           3.92721e-001           9.27212e-002           2.72119e-003           7.21191e-004
                   60.30    343.39272                               10.67962             73.438                                        3.43393e+002           4.33927e+001           3.39272e+000           3.92716e-001           9.27162e-002           2.71619e-003           7.16189e-004
                   60.40    343.39262                               10.67962             73.438                                        3.43393e+002           4.33926e+001           3.39262e+000           3.92623e-001           9.26235e-002           2.62348e-003           6.23482e-004
                   60.50    343.39260                               10.67962             73.438                                        3.43393e+002           4.33926e+001           3.39260e+000           3.92599e-001           9.25991e-002           2.59910e-003           5.99105e-004
                   60.60    343.39260                               10.67962             73.438                                        3.43393e+002           4.33926e+001           3.39260e+000           3.92604e-001           9.26038e-002           2.60384e-003           6.03843e-004
                   60.70    343.39261                               10.67962             73.438                                        3.43393e+002           4.33926e+001           3.39261e+000           3.92615e-001           9.26148e-002           2.61480e-003           6.14796e-004
                   60.80    343.39267                               10.67962             73.438                                        3.43393e+002           4.33927e+001           3.39267e+000           3.92669e-001           9.26689e-002           2.66890e-003           6.68899e-004
