~VERSION INFORMATION
VERS                    .            2.0                                    :CWLS LOG ASCII STANDARD
WRAP                    .            NO                                     :ONE LINE PER TIME STEP


~WELL INFORMATION
#MNEM                   .UNIT        DATA                                    DESCRIPTION
#________________________________________________________________________________________
STRTTIME                .HH/MM/SS    22:39:37                               :START TIME
STOPTIME                .HH/MM/SS    22:43:03                               :STOP TIME
STRT                    .s           2.10                                   :START DATA
STOP                    .s           204.10                                 :STOP DATA
STEP                    .s           0.10                                   :MEASUREMENT TIME INTERVAL
NULL                    .            -999.25                                :NULL VALUE
COMP                    .            Statoil ASA                            :COMPANY
FLD                     .            Volve                                  :FIELD
WELL                    .            15/9-F-1 C                             :WELL
RUN                     .            4                                      :RUN
LOC                     .                                                   :LOCATION
PROV                    .            na                                     :PROVINCE
SRVC                    .            Baker Hughes INTEQ                     :SERVICE COMPANY
DATE                    .YY/MM/DD    14/03/14                               :LOG DATE
UWI                     .                                                   :UNIQUE WELL ID
DEPTHMD                 .m           3925.1                                 :MEASURED DEPTH
DEPTHTVD                .m           3120.2                                 :TRUE VERTICAL DEPTH


~CURVE INFORMATION
#MNEM                   .UNIT        API CODES                               DESCRIPTION
#________________________________________________________________________________________
TIME                    .s                                                  :01 TIME
DD_PRESS                .bar                                                :02 DRAW DOWN PRESSURE
DD_VOLUME               .cm3                                                :03 INCREMENTAL DRAW DOWN VOLUME
TEMP                    .degC                                               :04 TRANSDUCER TEMPERATURE
DD_PRESS_MOD_1000       .bar                                                :05 DRAW DOWN PRESSURE MOD 1000
DD_PRESS_MOD_100        .bar                                                :06 DRAW DOWN PRESSURE MOD 100
DD_PRESS_MOD_10         .bar                                                :07 DRAW DOWN PRESSURE MOD 10
DD_PRESS_MOD_1          .bar                                                :08 DRAW DOWN PRESSURE MOD 1
DD_PRESS_MOD_01         .bar                                                :09 DRAW DOWN PRESSURE MOD 01
DD_PRESS_MOD_001        .bar                                                :10 DRAW DOWN PRESSURE MOD 001
DD_PRESS_MOD_0001       .bar                                                :11 DRAW DOWN PRESSURE MOD 0001


~PARAMETER INFORMATION
#MNEM                   .UNIT        VALUE                                   DESCRIPTION
#________________________________________________________________________________________
TOOLFACE                .deg         -7.4                                   :01 TOOLFACE
PUMP_CAPACITY           .bar         400                                    :02 NOMINAL DRAW DOWN PUMP CAPACITY
PUMP_LIMIT              .bar         240                                    :03 DOWNLINK PUMP LIMIT
TIME_LIMIT              .min         10                                     :04 DOWNLINK MAX TIME
TEST_TYPE               .            HIGH MOBILITY                          :05 DOWNLINK
DD_PIST_A               .cm2         3.1416                                 :06 DRAW DOWN PISTON AREA
V_SYS                   .cm3         131.0000                               :07 SYSTEM VOLUME
PROBE_ID                .cm          1.2700                                 :08 TTK PROBE ID
G0                      .            4.6700                                 :09 GEOMETRY FACTOR


~A                  TIME     DD_PRESS                              DD_VOLUME               TEMP                                   DD_PRESS_MOD_1000       DD_PRESS_MOD_100        DD_PRESS_MOD_10         DD_PRESS_MOD_1        DD_PRESS_MOD_01       DD_PRESS_MOD_001      DD_PRESS_MOD_0001
# ...
                   27.30    425.73065                                1.39549             91.422                                        4.25731e+002           2.57307e+001           5.73065e+000           7.30655e-001           3.06547e-002           6.54742e-004           6.54742e-004
                   27.40    423.41672                                1.43057             91.422                                        4.23417e+002           2.34167e+001           3.41672e+000           4.16718e-001           1.67182e-002           6.71818e-003           7.18183e-004
                   27.50    420.96705                                1.46744             91.422                                        4.20967e+002           2.09671e+001           9.67052e-001           9.67052e-001           6.70518e-002           7.05182e-003           5.18222e-005
                   27.60    418.37520                                1.50613             91.422                                        4.18375e+002           1.83752e+001           8.37520e+000           3.75200e-001           7.52003e-002           5.20034e-003           2.00340e-004
                   27.70    415.64091                                1.54670             91.422                                        4.15641e+002           1.56409e+001           5.64091e+000           6.40905e-001           4.09054e-002           9.05361e-004           9.05361e-004
                   27.80    412.76128                                1.58902             91.422                                        4.12761e+002           1.27613e+001           2.76128e+000           7.61280e-001           6.12799e-002           1.27991e-003           2.79909e-004
                   27.90    409.73707                                1.63317             91.422                                        4.09737e+002           9.73707e+000           9.73707e+000           7.37071e-001           3.70707e-002           7.07068e-003           7.06783e-005
                   28.00    406.56719                                1.67912             91.422                                        4.06567e+002           6.56719e+000           6.56719e+000           5.67191e-001           6.71910e-002           7.19095e-003           1.90950e-004
                   28.10    403.24950                                1.72682             91.422                                        4.03250e+002           3.24950e+000           3.24950e+000           2.49502e-001           4.95020e-002           9.50205e-003           5.02046e-004
                   28.20    399.79043                                1.77629             91.422                                        3.99790e+002           9.97904e+001           9.79043e+000           7.90434e-001           9.04342e-002           4.34245e-004           4.34245e-004
                   28.30    396.19285                                1.82735             91.422                                        3.96193e+002           9.61929e+001           6.19285e+000           1.92854e-001           9.28539e-002           2.85394e-003           8.53937e-004
                   28.40    392.44469                                1.88014             91.422                                        3.92445e+002           9.24447e+001           2.44469e+000           4.44693e-001           4.46934e-002           4.69337e-003           6.93375e-004
                   28.50    388.54948                                1.93466             91.422                                        3.88549e+002           8.85495e+001           8.54948e+000           5.49482e-001           4.94821e-002           9.48208e-003           4.82080e-004
                   28.60    384.53445                                1.99073             91.422                                        3.84534e+002           8.45345e+001           4.53445e+000           5.34452e-001           3.44519e-002           4.45191e-003           4.51914e-004
                   28.70    380.39606                                2.04849             91.420                                        3.80396e+002           8.03961e+001           3.96059e-001           3.96059e-001           9.60588e-002           6.05876e-003           5.87633e-005
                   28.80    376.12400                                2.10795             91.416                                        3.76124e+002           7.61240e+001           6.12400e+000           1.24005e-001           2.40045e-002           4.00453e-003           4.53046e-006
                   28.90    371.73459                                2.16879             91.414                                        3.71735e+002           7.17346e+001           1.73459e+000           7.34594e-001           3.45941e-002           4.59407e-003           5.94071e-004
                   29.00    367.24953                                2.23110             91.414                                        3.67250e+002           6.72495e+001           7.24953e+000           2.49527e-001           4.95273e-002           9.52727e-003           5.27268e-004
                   29.10    362.68452                                2.29512             91.414                                        3.62685e+002           6.26845e+001           2.68452e+000           6.84517e-001           8.45168e-002           4.51678e-003           5.16777e-004
                   29.20    358.04873                                2.36055             91.414                                        3.58049e+002           5.80487e+001           8.04873e+000           4.87275e-002           4.87275e-002           8.72748e-003           7.27475e-004
                   29.30    353.84254                                2.42750             91.414                                        3.53843e+002           5.38425e+001           3.84254e+000           8.42536e-001           4.25364e-002           2.53641e-003           5.36407e-004
                   29.40    351.16730                                2.49597             91.414                                        3.51167e+002           5.11673e+001           1.16730e+000           1.67300e-001           6.73001e-002           7.30007e-003           3.00069e-004
                   29.50    350.18643                                2.56591             91.414                                        3.50186e+002           5.01864e+001           1.86426e-001           1.86426e-001           8.64263e-002           6.42631e-003           4.26306e-004
                   29.60    349.93282                                2.63738             91.414                                        3.49933e+002           4.99328e+001           9.93282e+000           9.32823e-001           3.28234e-002           2.82343e-003           8.23427e-004
                   29.70    349.81601                                2.71021             91.414                                        3.49816e+002           4.98160e+001           9.81601e+000           8.16008e-001           1.60076e-002           6.00759e-003           7.59324e-006
                   29.80    349.72305                                2.78427             91.414                                        3.49723e+002           4.97231e+001           9.72305e+000           7.23053e-001           2.30529e-002           3.05295e-003           5.29454e-005
                   29.90    349.64318                                2.85978             91.414                                        3.49643e+002           4.96432e+001           9.64318e+000           6.43181e-001           4.31814e-002           3.18142e-003           1.81417e-004
                   30.00    349.57708                                2.93661             91.414                                        3.49577e+002           4.95771e+001           9.57708e+000           5.77081e-001           7.70810e-002           7.08098e-003           8.09829e-005
