~VERSION INFORMATION
VERS                    .            2.0                                    :CWLS LOG ASCII STANDARD
WRAP                    .            NO                                     :ONE LINE PER TIME STEP


~WELL INFORMATION
#MNEM                   .UNIT        DATA                                    DESCRIPTION
#________________________________________________________________________________________
STRTTIME                .HH/MM/SS    23:13:04                               :START TIME
STOPTIME                .HH/MM/SS    23:16:31                               :STOP TIME
STRT                    .s           2.10                                   :START DATA
STOP                    .s           205.60                                 :STOP DATA
STEP                    .s           0.10                                   :MEASUREMENT TIME INTERVAL
NULL                    .            -999.25                                :NULL VALUE
COMP                    .            Statoil ASA                            :COMPANY
FLD                     .            Volve                                  :FIELD
WELL                    .            15/9-F-1 C                             :WELL
RUN                     .            4                                      :RUN
LOC                     .                                                   :LOCATION
PROV                    .            na                                     :PROVINCE
SRVC                    .            Baker Hughes INTEQ                     :SERVICE COMPANY
DATE                    .YY/MM/DD    14/03/14                               :LOG DATE
UWI                     .                                                   :UNIQUE WELL ID
DEPTHMD                 .m           3858.0                                 :MEASURED DEPTH
DEPTHTVD                .m           3096.5                                 :TRUE VERTICAL DEPTH


~CURVE INFORMATION
#MNEM                   .UNIT        API CODES                               DESCRIPTION
#________________________________________________________________________________________
TIME                    .s                                                  :01 TIME
DD_PRESS                .bar                                                :02 DRAW DOWN PRESSURE
DD_VOLUME               .cm3                                                :03 INCREMENTAL DRAW DOWN VOLUME
TEMP                    .degC                                               :04 TRANSDUCER TEMPERATURE
DD_PRESS_MOD_1000       .bar                                                :05 DRAW DOWN PRESSURE MOD 1000
DD_PRESS_MOD_100        .bar                                                :06 DRAW DOWN PRESSURE MOD 100
DD_PRESS_MOD_10         .bar                                                :07 DRAW DOWN PRESSURE MOD 10
DD_PRESS_MOD_1          .bar                                                :08 DRAW DOWN PRESSURE MOD 1
DD_PRESS_MOD_01         .bar                                                :09 DRAW DOWN PRESSURE MOD 01
DD_PRESS_MOD_001        .bar                                                :10 DRAW DOWN PRESSURE MOD 001
DD_PRESS_MOD_0001       .bar                                                :11 DRAW DOWN PRESSURE MOD 0001


~PARAMETER INFORMATION
#MNEM                   .UNIT        VALUE                                   DESCRIPTION
#________________________________________________________________________________________
TOOLFACE                .deg         88.6                                   :01 TOOLFACE
PUMP_CAPACITY           .bar         400                                    :02 NOMINAL DRAW DOWN PUMP CAPACITY
PUMP_LIMIT              .bar         240                                    :03 DOWNLINK PUMP LIMIT
TIME_LIMIT              .min         10                                     :04 DOWNLINK MAX TIME
TEST_TYPE               .            HIGH MOBILITY                          :05 DOWNLINK
DD_PIST_A               .cm2         3.1416                                 :06 DRAW DOWN PISTON AREA
V_SYS                   .cm3         131.0000                               :07 SYSTEM VOLUME
PROBE_ID                .cm          1.2700                                 :08 TTK PROBE ID
G0                      .            4.6700                                 :09 GEOMETRY FACTOR


~A                  TIME     DD_PRESS                              DD_VOLUME               TEMP                                   DD_PRESS_MOD_1000       DD_PRESS_MOD_100        DD_PRESS_MOD_10         DD_PRESS_MOD_1        DD_PRESS_MOD_01       DD_PRESS_MOD_001      DD_PRESS_MOD_0001
# ...
                  122.50    352.20855                               19.73593             90.023                                        3.52209e+002           5.22085e+001           2.20855e+000           2.08547e-001           8.54726e-003           8.54726e-003           5.47258e-004
                  122.60    352.21098                               19.73593             90.023                                        3.52211e+002           5.22110e+001           2.21098e+000           2.10980e-001           1.09801e-002           9.80139e-004           9.80139e-004
                  122.70    352.21206                               19.73593             90.023                                        3.52212e+002           5.22121e+001           2.21206e+000           2.12063e-001           1.20635e-002           2.06346e-003           6.34590e-005
                  122.80    352.21018                               19.73593             90.023                                        3.52210e+002           5.22102e+001           2.21018e+000           2.10181e-001           1.01806e-002           1.80636e-004           1.80636e-004
                  122.90    352.20824                               19.73593             90.023                                        3.52208e+002           5.22082e+001           2.20824e+000           2.08242e-001           8.24208e-003           8.24208e-003           2.42078e-004
                  123.00    352.20942                               19.73593             90.023                                        3.52209e+002           5.22094e+001           2.20942e+000           2.09421e-001           9.42074e-003           9.42074e-003           4.20735e-004
                  123.10    352.21074                               19.73593             90.023                                        3.52211e+002           5.22107e+001           2.21074e+000           2.10743e-001           1.07425e-002           7.42525e-004           7.42525e-004
                  123.20    352.21127                               19.73593             90.023                                        3.52211e+002           5.22113e+001           2.21127e+000           2.11265e-001           1.12651e-002           1.26513e-003           2.65128e-004
                  123.30    352.21230                               19.73593             90.023                                        3.52212e+002           5.22123e+001           2.21230e+000           2.12303e-001           1.23034e-002           2.30340e-003           3.03400e-004
                  123.40    352.21211                               19.73593             90.023                                        3.52212e+002           5.22121e+001           2.21211e+000           2.12110e-001           1.21100e-002           2.10997e-003           1.09969e-004
                  123.50    352.20879                               19.73593             90.023                                        3.52209e+002           5.22088e+001           2.20879e+000           2.08788e-001           8.78775e-003           8.78775e-003           7.87751e-004
                  123.60    352.20947                               19.73593             90.023                                        3.52209e+002           5.22095e+001           2.20947e+000           2.09466e-001           9.46617e-003           9.46617e-003           4.66173e-004
                  123.70    352.21158                               19.73593             90.023                                        3.52212e+002           5.22116e+001           2.21158e+000           2.11577e-001           1.15769e-002           1.57688e-003           5.76884e-004
                  123.80    352.21109                               19.73593             90.023                                        3.52211e+002           5.22111e+001           2.21109e+000           2.11093e-001           1.10932e-002           1.09318e-003           9.31823e-005
                  123.90    352.20840                               19.73593             90.023                                        3.52208e+002           5.22084e+001           2.20840e+000           2.08397e-001           8.39697e-003           8.39697e-003           3.96970e-004
                  124.00    352.21073                               19.73593             90.023                                        3.52211e+002           5.22107e+001           2.21073e+000           2.10727e-001           1.07270e-002           7.27016e-004           7.27016e-004
                  124.10    352.21473                               19.73593             90.023                                        3.52215e+002           5.22147e+001           2.21473e+000           2.14732e-001           1.47317e-002           4.73167e-003           7.31666e-004
                  124.20    352.21378                               19.73593             90.023                                        3.52214e+002           5.22138e+001           2.21378e+000           2.13783e-001           1.37833e-002           3.78331e-003           7.83310e-004
                  124.30    352.21042                               19.73593             90.023                                        3.52210e+002           5.22104e+001           2.21042e+000           2.10423e-001           1.04226e-002           4.22640e-004           4.22640e-004
                  124.40    352.21215                               19.73593             90.023                                        3.52212e+002           5.22122e+001           2.21215e+000           2.12153e-001           1.21531e-002           2.15307e-003           1.53068e-004
                  124.50    352.21355                               19.73593             90.023                                        3.52214e+002           5.22136e+001           2.21355e+000           2.13553e-001           1.35527e-002           3.55275e-003           5.52745e-004
                  124.60    352.21400                               19.73593             90.023                                        3.52214e+002           5.22140e+001           2.21400e+000           2.13998e-001           1.39979e-002           3.99793e-003           9.97930e-004
                  124.70    352.21305                               19.73593             90.023                                        3.52213e+002           5.22131e+001           2.21305e+000           2.13054e-001           1.30543e-002           3.05425e-003           5.42538e-005
                  124.80    352.21105                               19.73593             90.023                                        3.52211e+002           5.22111e+001           2.21105e+000           2.11053e-001           1.10527e-002           1.05266e-003           5.26625e-005
                  124.90    352.21310                               19.73593             90.023                                        3.52213e+002           5.22131e+001           2.21310e+000           2.13103e-001           1.31028e-002           3.10280e-003           1.02804e-004
                  125.00    352.21425                               19.73593             90.023                                        3.52214e+002           5.22142e+001           2.21425e+000           2.14248e-001           1.42483e-002           4.24826e-003           2.48265e-004
                  125.10    352.21107                               19.73593             90.023                                        3.52211e+002           5.22111e+001           2.21107e+000           2.11068e-001           1.10684e-002           1.06836e-003           6.83592e-005
                  125.20    352.20768                               19.73593             90.023                                        3.52208e+002           5.22077e+001           2.20768e+000           2.07678e-001           7.67843e-003           7.67843e-003           6.78427e-004
