~VERSION INFORMATION
VERS                    .            2.0                                    :CWLS LOG ASCII STANDARD
WRAP                    .            NO                                     :ONE LINE PER TIME STEP


~WELL INFORMATION
#MNEM                   .UNIT        DATA                                    DESCRIPTION
#________________________________________________________________________________________
STRTTIME                .HH/MM/SS    10:22:55                               :START TIME
STOPTIME                .HH/MM/SS    10:26:06                               :STOP TIME
STRT                    .s           2.10                                   :START DATA
STOP                    .s           189.80                                 :STOP DATA
STEP                    .s           0.10                                   :MEASUREMENT TIME INTERVAL
NULL                    .            -999.25                                :NULL VALUE
COMP                    .            Statoil ASA                            :COMPANY
FLD                     .            Volve                                  :FIELD
WELL                    .            15/9-F-11 A                            :WELL
RUN                     .            8                                      :RUN
LOC                     .            Maersk Inspirer                        :LOCATION
PROV                    .            na                                     :PROVINCE
SRVC                    .            Baker Hughes INTEQ                     :SERVICE COMPANY
DATE                    .YY/MM/DD    13/05/21                               :LOG DATE
UWI                     .                                                   :UNIQUE WELL ID
DEPTHMD                 .m           3651.0                                 :MEASURED DEPTH
DEPTHTVD                .m           3041.4                                 :TRUE VERTICAL DEPTH


~CURVE INFORMATION
#MNEM                   .UNIT        API CODES                               DESCRIPTION
#________________________________________________________________________________________
TIME                    .s                                                  :01 TIME
DD_PRESS                .bar                                                :02 DRAW DOWN PRESSURE
DD_VOLUME               .cm3                                                :03 INCREMENTAL DRAW DOWN VOLUME
TEMP                    .degC                                               :04 TRANSDUCER TEMPERATURE
DD_PRESS_MOD_1000       .bar                                                :05 DRAW DOWN PRESSURE MOD 1000
DD_PRESS_MOD_100        .bar                                                :06 DRAW DOWN PRESSURE MOD 100
DD_PRESS_MOD_10         .bar                                                :07 DRAW DOWN PRESSURE MOD 10
DD_PRESS_MOD_1          .bar                                                :08 DRAW DOWN PRESSURE MOD 1
DD_PRESS_MOD_01         .bar                                                :09 DRAW DOWN PRESSURE MOD 01
DD_PRESS_MOD_001        .bar                                                :10 DRAW DOWN PRESSURE MOD 001
DD_PRESS_MOD_0001       .bar                                                :11 DRAW DOWN PRESSURE MOD 0001


~PARAMETER INFORMATION
#MNEM                   .UNIT        VALUE                                   DESCRIPTION
#________________________________________________________________________________________
TOOLFACE                .deg         61.5                                   :01 TOOLFACE
PUMP_CAPACITY           .bar         400                                    :02 NOMINAL DRAW DOWN PUMP CAPACITY
PUMP_LIMIT              .bar         240                                    :03 DOWNLINK PUMP LIMIT
TIME_LIMIT              .min         10                                     :04 DOWNLINK MAX TIME
TEST_TYPE               .            REPEAT                                 :05 DOWNLINK
TEST_TYPE               .            HIGH MOBILITY                          :06 DOWNLINK
DD_PIST_A               .cm2         3.1416                                 :07 DRAW DOWN PISTON AREA
V_SYS                   .cm3         131.0000                               :08 SYSTEM VOLUME
PROBE_ID                .cm          1.2700                                 :09 TTK PROBE ID
G0                      .            4.6700                                 :10 GEOMETRY FACTOR


~A                  TIME     DD_PRESS                              DD_VOLUME               TEMP                                   DD_PRESS_MOD_1000       DD_PRESS_MOD_100        DD_PRESS_MOD_10         DD_PRESS_MOD_1        DD_PRESS_MOD_01       DD_PRESS_MOD_001      DD_PRESS_MOD_0001
# ...
                   63.70    343.80135                               10.65291             81.063                                        3.43801e+002           4.38014e+001           3.80135e+000           8.01353e-001           1.35314e-003           1.35314e-003           3.53137e-004
                   63.80    343.80138                               10.65291             81.063                                        3.43801e+002           4.38014e+001           3.80138e+000           8.01383e-001           1.38268e-003           1.38268e-003           3.82680e-004
                   63.90    343.80141                               10.65291             81.063                                        3.43801e+002           4.38014e+001           3.80141e+000           8.01413e-001           1.41251e-003           1.41251e-003           4.12514e-004
                   64.00    343.80141                               10.65291             81.063                                        3.43801e+002           4.38014e+001           3.80141e+000           8.01413e-001           1.41251e-003           1.41251e-003           4.12514e-004
                   64.10    343.80141                               10.65291             81.063                                        3.43801e+002           4.38014e+001           3.80141e+000           8.01413e-001           1.41251e-003           1.41251e-003           4.12514e-004
                   64.20    343.80141                               10.65291             81.063                                        3.43801e+002           4.38014e+001           3.80141e+000           8.01413e-001           1.41251e-003           1.41251e-003           4.12514e-004
                   64.30    343.80084                               10.65291             81.063                                        3.43801e+002           4.38008e+001           3.80084e+000           8.00836e-001           8.36107e-004           8.36107e-004           8.36107e-004
                   64.40    343.80078                               10.65291             81.063                                        3.43801e+002           4.38008e+001           3.80078e+000           8.00775e-001           7.75105e-004           7.75105e-004           7.75105e-004
                   64.50    343.80118                               10.65291             81.063                                        3.43801e+002           4.38012e+001           3.80118e+000           8.01181e-001           1.18064e-003           1.18064e-003           1.80643e-004
                   64.60    343.80141                               10.65291             81.063                                        3.43801e+002           4.38014e+001           3.80141e+000           8.01413e-001           1.41251e-003           1.41251e-003           4.12514e-004
                   64.70    343.80141                               10.65291             81.063                                        3.43801e+002           4.38014e+001           3.80141e+000           8.01413e-001           1.41251e-003           1.41251e-003           4.12514e-004
                   64.80    343.80141                               10.65291             81.063                                        3.43801e+002           4.38014e+001           3.80141e+000           8.01413e-001           1.41251e-003           1.41251e-003           4.12514e-004
                   64.90    343.80141                               10.65291             81.063                                        3.43801e+002           4.38014e+001           3.80141e+000           8.01413e-001           1.41251e-003           1.41251e-003           4.12514e-004
                   65.00    343.80141                               10.65291             81.063                                        3.43801e+002           4.38014e+001           3.80141e+000           8.01413e-001           1.41251e-003           1.41251e-003           4.12514e-004
                   65.10    343.80107                               10.65291             81.063                                        3.43801e+002           4.38011e+001           3.80107e+000           8.01071e-001           1.07055e-003           1.07055e-003           7.05517e-005
                   65.20    343.80067                               10.65291             81.063                                        3.43801e+002           4.38007e+001           3.80067e+000           8.00670e-001           6.70087e-004           6.70087e-004           6.70087e-004
                   65.30    343.79947                               10.65291             81.063                                        3.43799e+002           4.37995e+001           3.79947e+000           7.99467e-001           9.94674e-002           9.46736e-003           4.67359e-004
                   65.40    343.79920                               10.65291             81.063                                        3.43799e+002           4.37992e+001           3.79920e+000           7.99200e-001           9.91999e-002           9.19986e-003           1.99857e-004
                   65.50    343.80003                               10.65291             81.063                                        3.43800e+002           4.38000e+001           3.80003e+000           8.00026e-001           2.55398e-005           2.55398e-005           2.55398e-005
                   65.60    343.80141                               10.65291             81.063                                        3.43801e+002           4.38014e+001           3.80141e+000           8.01413e-001           1.41251e-003           1.41251e-003           4.12514e-004
                   65.70    343.80140                               10.65291             81.063                                        3.43801e+002           4.38014e+001           3.80140e+000           8.01402e-001           1.40221e-003           1.40221e-003           4.02210e-004
                   65.80    343.80136                               10.65291             81.063                                        3.43801e+002           4.38014e+001           3.80136e+000           8.01358e-001           1.35817e-003           1.35817e-003           3.58175e-004
                   65.90    343.80136                               10.65291             81.063                                        3.43801e+002           4.38014e+001           3.80136e+000           8.01361e-001           1.36062e-003           1.36062e-003           3.60617e-004
                   66.00    343.80136                               10.65291             81.063                                        3.43801e+002           4.38014e+001           3.80136e+000           8.01360e-001           1.36039e-003           1.36039e-003           3.60389e-004
                   66.10    343.80135                               10.65291             81.063                                        3.43801e+002           4.38014e+001           3.80135e+000           8.01353e-001           1.35265e-003           1.35265e-003           3.52647e-004
                   66.20    343.80139                               10.65291             81.063                                        3.43801e+002           4.38014e+001           3.80139e+000           8.01388e-001           1.38847e-003           1.38847e-003           3.88469e-004
                   66.30    343.80139                               10.65291             81.063                                        3.43801e+002           4.38014e+001           3.80139e+000           8.01386e-001           1.38565e-003           1.38565e-003           3.85648e-004
                   66.40    343.80138                               10.65291             81.063                                        3.43801e+002           4.38014e+001           3.80138e+000           8.01383e-001           1.38305e-003           1.38305e-003           3.83053e-004
