~VERSION INFORMATION
VERS                    .            2.0                                    :CWLS LOG ASCII STANDARD
WRAP                    .            NO                                     :ONE LINE PER TIME STEP


~WELL INFORMATION
#MNEM                   .UNIT        DATA                                    DESCRIPTION
#________________________________________________________________________________________
STRTTIME                .HH/MM/SS    02:42:03                               :START TIME
STOPTIME                .HH/MM/SS    02:44:56                               :STOP TIME
STRT                    .s           2.10                                   :START DATA
STOP                    .s           171.40                                 :STOP DATA
STEP                    .s           0.10                                   :MEASUREMENT TIME INTERVAL
NULL                    .            -999.25                                :NULL VALUE
COMP                    .            Statoil ASA                            :COMPANY
FLD                     .            Volve                                  :FIELD
WELL                    .            15/9-F-1 C                             :WELL
RUN                     .            4                                      :RUN
LOC                     .                                                   :LOCATION
PROV                    .            na                                     :PROVINCE
SRVC                    .            Baker Hughes INTEQ                     :SERVICE COMPANY
DATE                    .YY/MM/DD    14/03/15                               :LOG DATE
UWI                     .                                                   :UNIQUE WELL ID
DEPTHMD                 .m           3551.1                                 :MEASURED DEPTH
DEPTHTVD                .m           2992.9                                 :TRUE VERTICAL DEPTH


~CURVE INFORMATION
#MNEM                   .UNIT        API CODES                               DESCRIPTION
#________________________________________________________________________________________
TIME                    .s                                                  :01 TIME
DD_PRESS                .bar                                                :02 DRAW DOWN PRESSURE
DD_VOLUME               .cm3                                                :03 INCREMENTAL DRAW DOWN VOLUME
TEMP                    .degC                                               :04 TRANSDUCER TEMPERATURE
DD_PRESS_MOD_1000       .bar                                                :05 DRAW DOWN PRESSURE MOD 1000
DD_PRESS_MOD_100        .bar                                                :06 DRAW DOWN PRESSURE MOD 100
DD_PRESS_MOD_10         .bar                                                :07 DRAW DOWN PRESSURE MOD 10
DD_PRESS_MOD_1          .bar                                                :08 DRAW DOWN PRESSURE MOD 1
DD_PRESS_MOD_01         .bar                                                :09 DRAW DOWN PRESSURE MOD 01
DD_PRESS_MOD_001        .bar                                                :10 DRAW DOWN PRESSURE MOD 001
DD_PRESS_MOD_0001       .bar                                                :11 DRAW DOWN PRESSURE MOD 0001


~PARAMETER INFORMATION
#MNEM                   .UNIT        VALUE                                   DESCRIPTION
#________________________________________________________________________________________
TOOLFACE                .deg         84.6                                   :01 TOOLFACE
PUMP_CAPACITY           .bar         400                                    :02 NOMINAL DRAW DOWN PUMP CAPACITY
PUMP_LIMIT              .bar         240                                    :03 DOWNLINK PUMP LIMIT
TIME_LIMIT              .min         10                                     :04 DOWNLINK MAX TIME
TEST_TYPE               .            REPEAT                                 :05 DOWNLINK
TEST_TYPE               .            HIGH MOBILITY                          :06 DOWNLINK
DD_PIST_A               .cm2         3.1416                                 :07 DRAW DOWN PISTON AREA
V_SYS                   .cm3         131.0000                               :08 SYSTEM VOLUME
PROBE_ID                .cm          1.2700                                 :09 TTK PROBE ID
G0                      .            4.6700                                 :10 GEOMETRY FACTOR


~A                  TIME     DD_PRESS                              DD_VOLUME               TEMP                                   DD_PRESS_MOD_1000       DD_PRESS_MOD_100        DD_PRESS_MOD_10         DD_PRESS_MOD_1        DD_PRESS_MOD_01       DD_PRESS_MOD_001      DD_PRESS_MOD_0001
# ...
                  136.50    341.51051                               29.44302             85.119                                        3.41511e+002           4.15105e+001           1.51051e+000           5.10506e-001           1.05056e-002           5.05588e-004           5.05588e-004
                  136.60    341.50564                               29.44302             85.120                                        3.41506e+002           4.15056e+001           1.50564e+000           5.05639e-001           5.63903e-003           5.63903e-003           6.39034e-004
                  136.70    341.50238                               29.44302             85.123                                        3.41502e+002           4.15024e+001           1.50238e+000           5.02380e-001           2.37982e-003           2.37982e-003           3.79819e-004
                  136.80    341.50886                               29.44302             85.123                                        3.41509e+002           4.15089e+001           1.50886e+000           5.08864e-001           8.86354e-003           8.86354e-003           8.63545e-004
                  136.90    341.51352                               29.44302             85.119                                        3.41514e+002           4.15135e+001           1.51352e+000           5.13519e-001           1.35185e-002           3.51854e-003           5.18536e-004
                  137.00    341.51039                               29.44302             85.117                                        3.41510e+002           4.15104e+001           1.51039e+000           5.10394e-001           1.03944e-002           3.94358e-004           3.94358e-004
                  137.10    341.50658                               29.44302             85.117                                        3.41507e+002           4.15066e+001           1.50658e+000           5.06575e-001           6.57518e-003           6.57518e-003           5.75177e-004
                  137.20    341.50440                               29.44302             85.117                                        3.41504e+002           4.15044e+001           1.50440e+000           5.04399e-001           4.39944e-003           4.39944e-003           3.99442e-004
                  137.30    341.50775                               29.44302             85.117                                        3.41508e+002           4.15077e+001           1.50775e+000           5.07749e-001           7.74929e-003           7.74929e-003           7.49286e-004
                  137.40    341.51375                               29.44302             85.117                                        3.41514e+002           4.15137e+001           1.51375e+000           5.13747e-001           1.37470e-002           3.74695e-003           7.46952e-004
                  137.50    341.50985                               29.44302             85.117                                        3.41510e+002           4.15099e+001           1.50985e+000           5.09852e-001           9.85229e-003           9.85229e-003           8.52289e-004
                  137.60    341.50362                               29.44302             85.117                                        3.41504e+002           4.15036e+001           1.50362e+000           5.03619e-001           3.61860e-003           3.61860e-003           6.18599e-004
                  137.70    341.50813                               29.44302             85.117                                        3.41508e+002           4.15081e+001           1.50813e+000           5.08127e-001           8.12702e-003           8.12702e-003           1.27020e-004
                  137.80    341.51139                               29.44302             85.117                                        3.41511e+002           4.15114e+001           1.51139e+000           5.11388e-001           1.13880e-002           1.38796e-003           3.87961e-004
                  137.90    341.50642                               29.44302             85.117                                        3.41506e+002           4.15064e+001           1.50642e+000           5.06425e-001           6.42493e-003           6.42493e-003           4.24927e-004
                  138.00    341.50074                               29.44302             85.117                                        3.41501e+002           4.15007e+001           1.50074e+000           5.00735e-001           7.35025e-004           7.35025e-004           7.35025e-004
                  138.10    341.50339                               29.44302             85.117                                        3.41503e+002           4.15034e+001           1.50339e+000           5.03387e-001           3.38716e-003           3.38716e-003           3.87155e-004
                  138.20    341.50771                               29.44302             85.117                                        3.41508e+002           4.15077e+001           1.50771e+000           5.07708e-001           7.70791e-003           7.70791e-003           7.07905e-004
                  138.30    341.50744                               29.44302             85.117                                        3.41507e+002           4.15074e+001           1.50744e+000           5.07441e-001           7.44095e-003           7.44095e-003           4.40949e-004
                  138.40    341.50628                               29.44302             85.117                                        3.41506e+002           4.15063e+001           1.50628e+000           5.06277e-001           6.27696e-003           6.27696e-003           2.76963e-004
                  138.50    341.50937                               29.44302             85.117                                        3.41509e+002           4.15094e+001           1.50937e+000           5.09366e-001           9.36610e-003           9.36610e-003           3.66101e-004
                  138.60    341.51133                               29.44302             85.117                                        3.41511e+002           4.15113e+001           1.51133e+000           5.11332e-001           1.13323e-002           1.33235e-003           3.32346e-004
                  138.70    341.51010                               29.44302             85.117                                        3.41510e+002           4.15101e+001           1.51010e+000           5.10096e-001           1.00959e-002           9.59404e-005           9.59404e-005
                  138.80    341.50493                               29.44302             85.117                                        3.41505e+002           4.15049e+001           1.50493e+000           5.04933e-001           4.93303e-003           4.93303e-003           9.33027e-004
                  138.90    341.50157                               29.44302             85.117                                        3.41502e+002           4.15016e+001           1.50157e+000           5.01568e-001           1.56788e-003           1.56788e-003           5.67881e-004
                  139.00    341.50466                               29.44302             85.120                                        3.41505e+002           4.15047e+001           1.50466e+000           5.04655e-001           4.65520e-003           4.65520e-003           6.55196e-004
                  139.10    341.50687                               29.44302             85.121                                        3.41507e+002           4.15069e+001           1.50687e+000           5.06871e-001           6.87146e-003           6.87146e-003           8.71462e-004
                  139.20    341.50776                               29.44302             85.119                                        3.41508e+002           4.15078e+001           1.50776e+000           5.07755e-001           7.75501e-003           7.75501e-003           7.55010e-004
