~VERSION INFORMATION
VERS                    .            2.0                                    :CWLS LOG ASCII STANDARD
WRAP                    .            NO                                     :ONE LINE PER TIME STEP


~WELL INFORMATION
#MNEM                   .UNIT        DATA                                    DESCRIPTION
#________________________________________________________________________________________
STRTTIME                .HH/MM/SS    16:02:11                               :START TIME
STOPTIME                .HH/MM/SS    16:05:47                               :STOP TIME
STRT                    .s           2.10                                   :START DATA
STOP                    .s           214.40                                 :STOP DATA
STEP                    .s           0.10                                   :MEASUREMENT TIME INTERVAL
NULL                    .            -999.25                                :NULL VALUE
COMP                    .            Statoil ASA                            :COMPANY
FLD                     .            Volve                                  :FIELD
WELL                    .            15/9-F-1 B                             :WELL
RUN                     .            7                                      :RUN
LOC                     .            Maersk Inspirer                        :LOCATION
PROV                    .            na                                     :PROVINCE
SRVC                    .            Baker Hughes INTEQ                     :SERVICE COMPANY
DATE                    .YY/MM/DD    13/09/06                               :LOG DATE
UWI                     .                                                   :UNIQUE WELL ID
DEPTHMD                 .m           3261.0                                 :MEASURED DEPTH
DEPTHTVD                .m           3057.0                                 :TRUE VERTICAL DEPTH


~CURVE INFORMATION
#MNEM                   .UNIT        API CODES                               DESCRIPTION
#________________________________________________________________________________________
TIME                    .s                                                  :01 TIME
DD_PRESS                .bar                                                :02 DRAW DOWN PRESSURE
DD_VOLUME               .cm3                                                :03 INCREMENTAL DRAW DOWN VOLUME
TEMP                    .degC                                               :04 TRANSDUCER TEMPERATURE
DD_PRESS_MOD_1000       .bar                                                :05 DRAW DOWN PRESSURE MOD 1000
DD_PRESS_MOD_100        .bar                                                :06 DRAW DOWN PRESSURE MOD 100
DD_PRESS_MOD_10         .bar                                                :07 DRAW DOWN PRESSURE MOD 10
DD_PRESS_MOD_1          .bar                                                :08 DRAW DOWN PRESSURE MOD 1
DD_PRESS_MOD_01         .bar                                                :09 DRAW DOWN PRESSURE MOD 01
DD_PRESS_MOD_001        .bar                                                :10 DRAW DOWN PRESSURE MOD 001
DD_PRESS_MOD_0001       .bar                                                :11 DRAW DOWN PRESSURE MOD 0001


~PARAMETER INFORMATION
#MNEM                   .UNIT        VALUE                                   DESCRIPTION
#________________________________________________________________________________________
TOOLFACE                .deg         na                                     :01 TOOLFACE
PUMP_CAPACITY           .bar         400                                    :02 NOMINAL DRAW DOWN PUMP CAPACITY
PUMP_LIMIT              .bar         400                                    :03 DOWNLINK PUMP LIMIT
TIME_LIMIT              .min         10                                     :04 DOWNLINK MAX TIME
TEST_TYPE               .            LOW MOBILITY                           :05 DOWNLINK
DD_PIST_A               .cm2         3.1416                                 :06 DRAW DOWN PISTON AREA
V_SYS                   .cm3         131.0000                               :07 SYSTEM VOLUME
PROBE_ID                .cm          1.2700                                 :08 TTK PROBE ID
G0                      .            4.6700                                 :09 GEOMETRY FACTOR


~A                  TIME     DD_PRESS                              DD_VOLUME               TEMP                                   DD_PRESS_MOD_1000       DD_PRESS_MOD_100        DD_PRESS_MOD_10         DD_PRESS_MOD_1        DD_PRESS_MOD_01       DD_PRESS_MOD_001      DD_PRESS_MOD_0001
                    2.10    435.49792                                0.00000             82.185                                        4.35498e+002           3.54979e+001           5.49792e+000           4.97919e-001           9.79192e-002           7.91922e-003           9.19219e-004
                    2.20    435.43935                                0.00000             82.182                                        4.35439e+002           3.54393e+001           5.43935e+000           4.39350e-001           3.93499e-002           9.34989e-003           3.49895e-004
                    2.30    435.42037                                0.00000             82.180                                        4.35420e+002           3.54204e+001           5.42037e+000           4.20372e-001           2.03715e-002           3.71536e-004           3.71536e-004
                    2.40    435.41331                                0.00000             82.180                                        4.35413e+002           3.54133e+001           5.41331e+000           4.13309e-001           1.33089e-002           3.30893e-003           3.08928e-004
                    2.50    435.39311                                0.00000             82.180                                        4.35393e+002           3.53931e+001           5.39311e+000           3.93112e-001           9.31117e-002           3.11169e-003           1.11687e-004
                    2.60    435.41638                                0.00000             82.180                                        4.35416e+002           3.54164e+001           5.41638e+000           4.16378e-001           1.63781e-002           6.37805e-003           3.78054e-004
                    2.70    435.47701                                0.00000             82.180                                        4.35477e+002           3.54770e+001           5.47701e+000           4.77011e-001           7.70110e-002           7.01101e-003           1.10144e-005
                    2.80    435.53620                                0.00000             82.180                                        4.35536e+002           3.55362e+001           5.53620e+000           5.36204e-001           3.62040e-002           6.20403e-003           2.04031e-004
                    2.90    435.55028                                0.00000             82.180                                        4.35550e+002           3.55503e+001           5.55028e+000           5.50278e-001           5.02776e-002           2.77553e-004           2.77553e-004
                    3.00    435.57915                                0.00000             82.180                                        4.35579e+002           3.55791e+001           5.57915e+000           5.79147e-001           7.91469e-002           9.14690e-003           1.46897e-004
                    3.10    435.65988                                0.00000             82.180                                        4.35660e+002           3.56599e+001           5.65988e+000           6.59884e-001           5.98836e-002           9.88357e-003           8.83574e-004
                    3.20    435.77861                                0.00000             82.180                                        4.35779e+002           3.57786e+001           5.77861e+000           7.78613e-001           7.86128e-002           8.61283e-003           6.12830e-004
                    3.30    435.84083                                0.00000             82.180                                        4.35841e+002           3.58408e+001           5.84083e+000           8.40833e-001           4.08329e-002           8.32906e-004           8.32906e-004
                    3.40    435.87691                                0.00000             82.180                                        4.35877e+002           3.58769e+001           5.87691e+000           8.76913e-001           7.69133e-002           6.91329e-003           9.13292e-004
                    3.50    435.89851                                0.00000             82.180                                        4.35899e+002           3.58985e+001           5.89851e+000           8.98508e-001           9.85076e-002           8.50756e-003           5.07561e-004
                    3.60    435.88725                                0.00000             82.180                                        4.35887e+002           3.58872e+001           5.88725e+000           8.87250e-001           8.72496e-002           7.24962e-003           2.49619e-004
                    3.70    435.82513                                0.00000             82.180                                        4.35825e+002           3.58251e+001           5.82513e+000           8.25128e-001           2.51277e-002           5.12769e-003           1.27694e-004
                    3.80    435.78148                                0.00000             82.180                                        4.35781e+002           3.57815e+001           5.78148e+000           7.81475e-001           8.14750e-002           1.47502e-003           4.75022e-004
                    3.90    435.77031                                0.00000             82.180                                        4.35770e+002           3.57703e+001           5.77031e+000           7.70312e-001           7.03115e-002           3.11537e-004           3.11537e-004
                    4.00    435.77640                                0.00000             82.180                                        4.35776e+002           3.57764e+001           5.77640e+000           7.76405e-001           7.64045e-002           6.40454e-003           4.04543e-004
                    4.10    435.74031                                0.00000             82.180                                        4.35740e+002           3.57403e+001           5.74031e+000           7.40314e-001           4.03135e-002           3.13542e-004           3.13542e-004
                    4.20    435.68564                                0.00000             82.180                                        4.35686e+002           3.56856e+001           5.68564e+000           6.85639e-001           8.56388e-002           5.63878e-003           6.38779e-004
                    4.30    435.70987                                0.00000             82.180                                        4.35710e+002           3.57099e+001           5.70987e+000           7.09866e-001           9.86565e-003           9.86565e-003           8.65650e-004
                    4.40    435.79448                                0.00000             82.180                                        4.35794e+002           3.57945e+001           5.79448e+000           7.94478e-001           9.44782e-002           4.47824e-003           4.78238e-004
                    4.50    435.79017                                0.00000             82.180                                        4.35790e+002           3.57902e+001           5.79017e+000           7.90167e-001           9.01668e-002           1.66838e-004           1.66838e-004
                    4.60    435.75107                                0.00000             82.180                                        4.35751e+002           3.57511e+001           5.75107e+000           7.51073e-001           5.10729e-002           1.07291e-003           7.29140e-005
                    4.70    435.78091                                0.00000             82.180                                        4.35781e+002           3.57809e+001           5.78091e+000           7.80909e-001           8.09089e-002           9.08930e-004           9.08930e-004
                    4.80    435.85186                                0.00000             82.180                                        4.35852e+002           3.58519e+001           5.85186e+000           8.51864e-001           5.18636e-002           1.86360e-003           8.63600e-004
