~VERSION INFORMATION
VERS                    .            2.0                                    :CWLS LOG ASCII STANDARD
WRAP                    .            NO                                     :ONE LINE PER TIME STEP


~WELL INFORMATION
#MNEM                   .UNIT        DATA                                    DESCRIPTION
#________________________________________________________________________________________
STRTTIME                .HH/MM/SS    10:48:38                               :START TIME
STOPTIME                .HH/MM/SS    10:51:35                               :STOP TIME
STRT                    .s           2.10                                   :START DATA
STOP                    .s           175.10                                 :STOP DATA
STEP                    .s           0.10                                   :MEASUREMENT TIME INTERVAL
NULL                    .            -999.25                                :NULL VALUE
COMP                    .            Statoil ASA                            :COMPANY
FLD                     .            Volve                                  :FIELD
WELL                    .            15/9-F-11 A                            :WELL
RUN                     .            8                                      :RUN
LOC                     .            Maersk Inspirer                        :LOCATION
PROV                    .            na                                     :PROVINCE
SRVC                    .            Baker Hughes INTEQ                     :SERVICE COMPANY
DATE                    .YY/MM/DD    13/05/21                               :LOG DATE
UWI                     .                                                   :UNIQUE WELL ID
DEPTHMD                 .m           3635.2                                 :MEASURED DEPTH
DEPTHTVD                .m           3029.3                                 :TRUE VERTICAL DEPTH


~CURVE INFORMATION
#MNEM                   .UNIT        API CODES                               DESCRIPTION
#________________________________________________________________________________________
TIME                    .s                                                  :01 TIME
DD_PRESS                .bar                                                :02 DRAW DOWN PRESSURE
DD_VOLUME               .cm3                                                :03 INCREMENTAL DRAW DOWN VOLUME
TEMP                    .degC                                               :04 TRANSDUCER TEMPERATURE
DD_PRESS_MOD_1000       .bar                                                :05 DRAW DOWN PRESSURE MOD 1000
DD_PRESS_MOD_100        .bar                                                :06 DRAW DOWN PRESSURE MOD 100
DD_PRESS_MOD_10         .bar                                                :07 DRAW DOWN PRESSURE MOD 10
DD_PRESS_MOD_1          .bar                                                :08 DRAW DOWN PRESSURE MOD 1
DD_PRESS_MOD_01         .bar                                                :09 DRAW DOWN PRESSURE MOD 01
DD_PRESS_MOD_001        .bar                                                :10 DRAW DOWN PRESSURE MOD 001
DD_PRESS_MOD_0001       .bar                                                :11 DRAW DOWN PRESSURE MOD 0001


~PARAMETER INFORMATION
#MNEM                   .UNIT        VALUE                                   DESCRIPTION
#________________________________________________________________________________________
TOOLFACE                .deg         69.1                                   :01 TOOLFACE
PUMP_CAPACITY           .bar         400                                    :02 NOMINAL DRAW DOWN PUMP CAPACITY
PUMP_LIMIT              .bar         240                                    :03 DOWNLINK PUMP LIMIT
TIME_LIMIT              .min         10                                     :04 DOWNLINK MAX TIME
TEST_TYPE               .            REPEAT                                 :05 DOWNLINK
TEST_TYPE               .            HIGH MOBILITY                          :06 DOWNLINK
DD_PIST_A               .cm2         3.1416                                 :07 DRAW DOWN PISTON AREA
V_SYS                   .cm3         131.0000                               :08 SYSTEM VOLUME
PROBE_ID                .cm          1.2700                                 :09 TTK PROBE ID
G0                      .            4.6700                                 :10 GEOMETRY FACTOR


~A                  TIME     DD_PRESS                              DD_VOLUME               TEMP                                   DD_PRESS_MOD_1000       DD_PRESS_MOD_100        DD_PRESS_MOD_10         DD_PRESS_MOD_1        DD_PRESS_MOD_01       DD_PRESS_MOD_001      DD_PRESS_MOD_0001
# ...
                  105.70    342.87753                               16.22340             80.641                                        3.42878e+002           4.28775e+001           2.87753e+000           8.77525e-001           7.75255e-002           7.52549e-003           5.25489e-004
                  105.80    342.85482                               16.22340             80.641                                        3.42855e+002           4.28548e+001           2.85482e+000           8.54821e-001           5.48211e-002           4.82111e-003           8.21111e-004
                  105.90    342.85751                               16.22340             80.641                                        3.42858e+002           4.28575e+001           2.85751e+000           8.57508e-001           5.75082e-002           7.50819e-003           5.08193e-004
                  106.00    342.87720                               16.22340             80.641                                        3.42877e+002           4.28772e+001           2.87720e+000           8.77197e-001           7.71974e-002           7.19738e-003           1.97382e-004
                  106.10    342.88057                               16.22340             80.641                                        3.42881e+002           4.28806e+001           2.88057e+000           8.80571e-001           8.05713e-002           5.71320e-004           5.71320e-004
                  106.20    342.86478                               16.22340             80.641                                        3.42865e+002           4.28648e+001           2.86478e+000           8.64781e-001           6.47812e-002           4.78122e-003           7.81221e-004
                  106.30    342.86667                               16.22340             80.641                                        3.42867e+002           4.28667e+001           2.86667e+000           8.66667e-001           6.66671e-002           6.66712e-003           6.67125e-004
                  106.40    342.88509                               16.22340             80.641                                        3.42885e+002           4.28851e+001           2.88509e+000           8.85085e-001           8.50853e-002           5.08534e-003           8.53382e-005
                  106.50    342.89128                               16.22340             80.641                                        3.42891e+002           4.28913e+001           2.89128e+000           8.91283e-001           9.12832e-002           1.28315e-003           2.83152e-004
                  106.60    342.88586                               16.22340             80.641                                        3.42886e+002           4.28859e+001           2.88586e+000           8.85856e-001           8.58564e-002           5.85636e-003           8.56360e-004
                  106.70    342.88000                               16.22340             80.641                                        3.42880e+002           4.28800e+001           2.88000e+000           8.80005e-001           8.00045e-002           4.50437e-006           4.50437e-006
                  106.80    342.86557                               16.22340             80.641                                        3.42866e+002           4.28656e+001           2.86557e+000           8.65569e-001           6.55685e-002           5.56851e-003           5.68508e-004
                  106.90    342.85740                               16.22340             80.641                                        3.42857e+002           4.28574e+001           2.85740e+000           8.57400e-001           5.73999e-002           7.39990e-003           3.99902e-004
                  107.00    342.86953                               16.22340             80.641                                        3.42870e+002           4.28695e+001           2.86953e+000           8.69533e-001           6.95334e-002           9.53337e-003           5.33368e-004
                  107.10    342.87570                               16.22340             80.641                                        3.42876e+002           4.28757e+001           2.87570e+000           8.75703e-001           7.57028e-002           5.70276e-003           7.02756e-004
                  107.20    342.86358                               16.22340             80.641                                        3.42864e+002           4.28636e+001           2.86358e+000           8.63579e-001           6.35787e-002           3.57871e-003           5.78711e-004
                  107.30    342.86300                               16.22340             80.641                                        3.42863e+002           4.28630e+001           2.86300e+000           8.63002e-001           6.30022e-002           3.00221e-003           2.20774e-006
                  107.40    342.88321                               16.22340             80.641                                        3.42883e+002           4.28832e+001           2.88321e+000           8.83207e-001           8.32073e-002           3.20732e-003           2.07325e-004
                  107.50    342.88730                               16.22340             80.641                                        3.42887e+002           4.28873e+001           2.88730e+000           8.87303e-001           8.73034e-002           7.30340e-003           3.03396e-004
                  107.60    342.86352                               16.22340             80.641                                        3.42864e+002           4.28635e+001           2.86352e+000           8.63518e-001           6.35175e-002           3.51752e-003           5.17515e-004
                  107.70    342.84260                               16.22340             80.641                                        3.42843e+002           4.28426e+001           2.84260e+000           8.42604e-001           4.26036e-002           2.60358e-003           6.03580e-004
                  107.80    342.85420                               16.22340             80.641                                        3.42854e+002           4.28542e+001           2.85420e+000           8.54204e-001           5.42039e-002           4.20394e-003           2.03943e-004
                  107.90    342.88486                               16.22340             80.641                                        3.42885e+002           4.28849e+001           2.88486e+000           8.84861e-001           8.48607e-002           4.86069e-003           8.60692e-004
                  108.00    342.89226                               16.22340             80.641                                        3.42892e+002           4.28923e+001           2.89226e+000           8.92256e-001           9.22560e-002           2.25605e-003           2.56047e-004
                  108.10    342.86801                               16.22340             80.641                                        3.42868e+002           4.28680e+001           2.86801e+000           8.68015e-001           6.80147e-002           8.01469e-003           1.46947e-005
                  108.20    342.85172                               16.22340             80.641                                        3.42852e+002           4.28517e+001           2.85172e+000           8.51716e-001           5.17162e-002           1.71619e-003           7.16194e-004
                  108.30    342.87022                               16.22340             80.641                                        3.42870e+002           4.28702e+001           2.87022e+000           8.70221e-001           7.02214e-002           2.21379e-004           2.21379e-004
                  108.40    342.88479                               16.22340             80.641                                        3.42885e+002           4.28848e+001           2.88479e+000           8.84787e-001           8.47873e-002           4.78729e-003           7.87288e-004
