~VERSION INFORMATION
VERS                    .            2.0                                    :CWLS LOG ASCII STANDARD
WRAP                    .            NO                                     :ONE LINE PER TIME STEP


~WELL INFORMATION
#MNEM                   .UNIT        DATA                                    DESCRIPTION
#________________________________________________________________________________________
STRTTIME                .HH/MM/SS    02:14:19                               :START TIME
STOPTIME                .HH/MM/SS    02:17:23                               :STOP TIME
STRT                    .s           2.10                                   :START DATA
STOP                    .s           182.70                                 :STOP DATA
STEP                    .s           0.10                                   :MEASUREMENT TIME INTERVAL
NULL                    .            -999.25                                :NULL VALUE
COMP                    .            Statoil ASA                            :COMPANY
FLD                     .            Volve                                  :FIELD
WELL                    .            15/9-F-1 C                             :WELL
RUN                     .            4                                      :RUN
LOC                     .                                                   :LOCATION
PROV                    .            na                                     :PROVINCE
SRVC                    .            Baker Hughes INTEQ                     :SERVICE COMPANY
DATE                    .YY/MM/DD    14/03/15                               :LOG DATE
UWI                     .                                                   :UNIQUE WELL ID
DEPTHMD                 .m           3603.0                                 :MEASURED DEPTH
DEPTHTVD                .m           3006.7                                 :TRUE VERTICAL DEPTH


~CURVE INFORMATION
#MNEM                   .UNIT        API CODES                               DESCRIPTION
#________________________________________________________________________________________
TIME                    .s                                                  :01 TIME
DD_PRESS                .bar                                                :02 DRAW DOWN PRESSURE
DD_VOLUME               .cm3                                                :03 INCREMENTAL DRAW DOWN VOLUME
TEMP                    .degC                                               :04 TRANSDUCER TEMPERATURE
DD_PRESS_MOD_1000       .bar                                                :05 DRAW DOWN PRESSURE MOD 1000
DD_PRESS_MOD_100        .bar                                                :06 DRAW DOWN PRESSURE MOD 100
DD_PRESS_MOD_10         .bar                                                :07 DRAW DOWN PRESSURE MOD 10
DD_PRESS_MOD_1          .bar                                                :08 DRAW DOWN PRESSURE MOD 1
DD_PRESS_MOD_01         .bar                                                :09 DRAW DOWN PRESSURE MOD 01
DD_PRESS_MOD_001        .bar                                                :10 DRAW DOWN PRESSURE MOD 001
DD_PRESS_MOD_0001       .bar                                                :11 DRAW DOWN PRESSURE MOD 0001


~PARAMETER INFORMATION
#MNEM                   .UNIT        VALUE                                   DESCRIPTION
#________________________________________________________________________________________
TOOLFACE                .deg         109.6                                  :01 TOOLFACE
PUMP_CAPACITY           .bar         400                                    :02 NOMINAL DRAW DOWN PUMP CAPACITY
PUMP_LIMIT              .bar         240                                    :03 DOWNLINK PUMP LIMIT
TIME_LIMIT              .min         10                                     :04 DOWNLINK MAX TIME
TEST_TYPE               .            REPEAT                                 :05 DOWNLINK
TEST_TYPE               .            HIGH MOBILITY                          :06 DOWNLINK
DD_PIST_A               .cm2         3.1416                                 :07 DRAW DOWN PISTON AREA
V_SYS                   .cm3         131.0000                               :08 SYSTEM VOLUME
PROBE_ID                .cm          1.2700                                 :09 TTK PROBE ID
G0                      .            4.6700                                 :10 GEOMETRY FACTOR


~A                  TIME     DD_PRESS                              DD_VOLUME               TEMP                                   DD_PRESS_MOD_1000       DD_PRESS_MOD_100        DD_PRESS_MOD_10         DD_PRESS_MOD_1        DD_PRESS_MOD_01       DD_PRESS_MOD_001      DD_PRESS_MOD_0001
# ...
                  122.50    345.34491                               29.46609             86.055                                        3.45345e+002           4.53449e+001           5.34491e+000           3.44911e-001           4.49109e-002           4.91094e-003           9.10944e-004
                  122.60    345.34518                               29.46609             86.055                                        3.45345e+002           4.53452e+001           5.34518e+000           3.45178e-001           4.51780e-002           5.17799e-003           1.77987e-004
                  122.70    345.34857                               29.46609             86.055                                        3.45349e+002           4.53486e+001           5.34857e+000           3.48567e-001           4.85671e-002           8.56714e-003           5.67141e-004
                  122.80    345.35406                               29.46609             86.055                                        3.45354e+002           4.53541e+001           5.35406e+000           3.54063e-001           5.40626e-002           4.06259e-003           6.25927e-005
                  122.90    345.35531                               29.46609             86.055                                        3.45355e+002           4.53553e+001           5.35531e+000           3.55312e-001           5.53124e-002           5.31240e-003           3.12403e-004
                  123.00    345.35608                               29.46609             86.055                                        3.45356e+002           4.53561e+001           5.35608e+000           3.56081e-001           5.60813e-002           6.08130e-003           8.13029e-005
                  123.10    345.35774                               29.46609             86.055                                        3.45358e+002           4.53577e+001           5.35774e+000           3.57741e-001           5.77407e-002           7.74071e-003           7.40714e-004
                  123.20    345.35942                               29.46609             86.055                                        3.45359e+002           4.53594e+001           5.35942e+000           3.59418e-001           5.94184e-002           9.41841e-003           4.18408e-004
                  123.30    345.35951                               29.46609             86.055                                        3.45360e+002           4.53595e+001           5.35951e+000           3.59508e-001           5.95077e-002           9.50768e-003           5.07684e-004
                  123.40    345.35955                               29.46609             86.055                                        3.45360e+002           4.53596e+001           5.35955e+000           3.59550e-001           5.95505e-002           9.55048e-003           5.50481e-004
                  123.50    345.36043                               29.46609             86.055                                        3.45360e+002           4.53604e+001           5.36043e+000           3.60427e-001           6.04274e-002           4.27398e-004           4.27398e-004
                  123.60    345.36360                               29.46609             86.055                                        3.45364e+002           4.53636e+001           5.36360e+000           3.63596e-001           6.35963e-002           3.59633e-003           5.96326e-004
                  123.70    345.36482                               29.46609             86.055                                        3.45365e+002           4.53648e+001           5.36482e+000           3.64818e-001           6.48181e-002           4.81806e-003           8.18059e-004
                  123.80    345.36175                               29.46609             86.055                                        3.45362e+002           4.53617e+001           5.36175e+000           3.61750e-001           6.17497e-002           1.74971e-003           7.49710e-004
                  123.90    345.36060                               29.46609             86.055                                        3.45361e+002           4.53606e+001           5.36060e+000           3.60604e-001           6.06043e-002           6.04306e-004           6.04306e-004
                  124.00    345.36639                               29.46609             86.055                                        3.45366e+002           4.53664e+001           5.36639e+000           3.66392e-001           6.63922e-002           6.39216e-003           3.92162e-004
                  124.10    345.37217                               29.46609             86.055                                        3.45372e+002           4.53722e+001           5.37217e+000           3.72169e-001           7.21689e-002           2.16895e-003           1.68949e-004
                  124.20    345.37285                               29.46609             86.055                                        3.45373e+002           4.53729e+001           5.37285e+000           3.72852e-001           7.28517e-002           2.85169e-003           8.51690e-004
                  124.30    345.36943                               29.46609             86.055                                        3.45369e+002           4.53694e+001           5.36943e+000           3.69433e-001           6.94325e-002           9.43251e-003           4.32507e-004
                  124.40    345.36963                               29.46609             86.055                                        3.45370e+002           4.53696e+001           5.36963e+000           3.69626e-001           6.96258e-002           9.62583e-003           6.25826e-004
                  124.50    345.37278                               29.46609             86.052                                        3.45373e+002           4.53728e+001           5.37278e+000           3.72782e-001           7.27821e-002           2.78207e-003           7.82074e-004
                  124.60    345.37273                               29.46609             86.049                                        3.45373e+002           4.53727e+001           5.37273e+000           3.72727e-001           7.27268e-002           2.72679e-003           7.26795e-004
                  124.70    345.37085                               29.46609             86.047                                        3.45371e+002           4.53708e+001           5.37085e+000           3.70846e-001           7.08464e-002           8.46368e-004           8.46368e-004
                  124.80    345.37146                               29.46609             86.049                                        3.45371e+002           4.53715e+001           5.37146e+000           3.71463e-001           7.14635e-002           1.46347e-003           4.63473e-004
                  124.90    345.37410                               29.46609             86.053                                        3.45374e+002           4.53741e+001           5.37410e+000           3.74099e-001           7.40989e-002           4.09887e-003           9.88749e-005
                  125.00    345.37394                               29.46609             86.055                                        3.45374e+002           4.53739e+001           5.37394e+000           3.73936e-001           7.39361e-002           3.93608e-003           9.36081e-004
                  125.10    345.37037                               29.46609             86.055                                        3.45370e+002           4.53704e+001           5.37037e+000           3.70371e-001           7.03714e-002           3.71398e-004           3.71398e-004
                  125.20    345.36958                               29.46609             86.055                                        3.45370e+002           4.53696e+001           5.36958e+000           3.69580e-001           6.95804e-002           9.58044e-003           5.80444e-004
