~VERSION INFORMATION
VERS                    .            2.0                                    :CWLS LOG ASCII STANDARD
WRAP                    .            NO                                     :ONE LINE PER TIME STEP


~WELL INFORMATION
#MNEM                   .UNIT        DATA                                    DESCRIPTION
#________________________________________________________________________________________
STRTTIME                .HH/MM/SS    09:08:53                               :START TIME
STOPTIME                .HH/MM/SS    09:11:57                               :STOP TIME
STRT                    .s           2.10                                   :START DATA
STOP                    .s           182.80                                 :STOP DATA
STEP                    .s           0.10                                   :MEASUREMENT TIME INTERVAL
NULL                    .            -999.25                                :NULL VALUE
COMP                    .            Statoil ASA                            :COMPANY
FLD                     .            Volve                                  :FIELD
WELL                    .            15/9-F-11 A                            :WELL
RUN                     .            8                                      :RUN
LOC                     .            Maersk Inspirer                        :LOCATION
PROV                    .            na                                     :PROVINCE
SRVC                    .            Baker Hughes INTEQ                     :SERVICE COMPANY
DATE                    .YY/MM/DD    13/05/21                               :LOG DATE
UWI                     .                                                   :UNIQUE WELL ID
DEPTHMD                 .m           3671.1                                 :MEASURED DEPTH
DEPTHTVD                .m           3056.7                                 :TRUE VERTICAL DEPTH


~CURVE INFORMATION
#MNEM                   .UNIT        API CODES                               DESCRIPTION
#________________________________________________________________________________________
TIME                    .s                                                  :01 TIME
DD_PRESS                .bar                                                :02 DRAW DOWN PRESSURE
DD_VOLUME               .cm3                                                :03 INCREMENTAL DRAW DOWN VOLUME
TEMP                    .degC                                               :04 TRANSDUCER TEMPERATURE
DD_PRESS_MOD_1000       .bar                                                :05 DRAW DOWN PRESSURE MOD 1000
DD_PRESS_MOD_100        .bar                                                :06 DRAW DOWN PRESSURE MOD 100
DD_PRESS_MOD_10         .bar                                                :07 DRAW DOWN PRESSURE MOD 10
DD_PRESS_MOD_1          .bar                                                :08 DRAW DOWN PRESSURE MOD 1
DD_PRESS_MOD_01         .bar                                                :09 DRAW DOWN PRESSURE MOD 01
DD_PRESS_MOD_001        .bar                                                :10 DRAW DOWN PRESSURE MOD 001
DD_PRESS_MOD_0001       .bar                                                :11 DRAW DOWN PRESSURE MOD 0001


~PARAMETER INFORMATION
#MNEM                   .UNIT        VALUE                                   DESCRIPTION
#________________________________________________________________________________________
TOOLFACE                .deg         -56.2                                  :01 TOOLFACE
PUMP_CAPACITY           .bar         400                                    :02 NOMINAL DRAW DOWN PUMP CAPACITY
PUMP_LIMIT              .bar         240                                    :03 DOWNLINK PUMP LIMIT
TIME_LIMIT              .min         10                                     :04 DOWNLINK MAX TIME
TEST_TYPE               .            REPEAT                                 :05 DOWNLINK
TEST_TYPE               .            HIGH MOBILITY                          :06 DOWNLINK
DD_PIST_A               .cm2         3.1416                                 :07 DRAW DOWN PISTON AREA
V_SYS                   .cm3         131.0000                               :08 SYSTEM VOLUME
PROBE_ID                .cm          1.2700                                 :09 TTK PROBE ID
G0                      .            4.6700                                 :10 GEOMETRY FACTOR


~A                  TIME     DD_PRESS                              DD_VOLUME               TEMP                                   DD_PRESS_MOD_1000       DD_PRESS_MOD_100        DD_PRESS_MOD_10         DD_PRESS_MOD_1        DD_PRESS_MOD_01       DD_PRESS_MOD_001      DD_PRESS_MOD_0001
# ...
                   13.30    422.75878                                0.00000             82.414                                        4.22759e+002           2.27588e+001           2.75878e+000           7.58777e-001           5.87774e-002           8.77737e-003           7.77370e-004
                   13.40    422.75492                                0.00000             82.414                                        4.22755e+002           2.27549e+001           2.75492e+000           7.54917e-001           5.49170e-002           4.91697e-003           9.16969e-004
                   13.50    422.74251                                0.00000             82.414                                        4.22743e+002           2.27425e+001           2.74251e+000           7.42506e-001           4.25059e-002           2.50590e-003           5.05897e-004
                   13.60    422.75975                                0.00000             82.414                                        4.22760e+002           2.27598e+001           2.75975e+000           7.59751e-001           5.97511e-002           9.75107e-003           7.51068e-004
                   13.70    422.77590                                0.00000             82.414                                        4.22776e+002           2.27759e+001           2.77590e+000           7.75897e-001           7.58968e-002           5.89684e-003           8.96842e-004
                   13.80    422.78863                                0.00000             82.414                                        4.22789e+002           2.27886e+001           2.78863e+000           7.88634e-001           8.86341e-002           8.63408e-003           6.34075e-004
                   13.90    422.79097                                0.00000             82.414                                        4.22791e+002           2.27910e+001           2.79097e+000           7.90970e-001           9.09705e-002           9.70456e-004           9.70456e-004
                   14.00    422.78698                                0.00000             82.414                                        4.22787e+002           2.27870e+001           2.78698e+000           7.86980e-001           8.69799e-002           6.97991e-003           9.79912e-004
                   14.10    422.80369                                0.00000             82.414                                        4.22804e+002           2.28037e+001           2.80369e+000           8.03694e-001           3.69410e-003           3.69410e-003           6.94099e-004
                   14.20    422.82230                                0.00000             82.414                                        4.22822e+002           2.28223e+001           2.82230e+000           8.22298e-001           2.22979e-002           2.29793e-003           2.97934e-004
                   14.30    422.81727                                0.00000             82.414                                        4.22817e+002           2.28173e+001           2.81727e+000           8.17267e-001           1.72674e-002           7.26745e-003           2.67447e-004
                   14.40    422.80535                                0.00000             82.414                                        4.22805e+002           2.28053e+001           2.80535e+000           8.05349e-001           5.34931e-003           5.34931e-003           3.49311e-004
                   14.50    422.81340                                0.00000             82.414                                        4.22813e+002           2.28134e+001           2.81340e+000           8.13403e-001           1.34034e-002           3.40343e-003           4.03426e-004
                   14.60    422.84133                                0.00000             82.414                                        4.22841e+002           2.28413e+001           2.84133e+000           8.41327e-001           4.13275e-002           1.32746e-003           3.27465e-004
                   14.70    422.85992                                0.00000             82.414                                        4.22860e+002           2.28599e+001           2.85992e+000           8.59921e-001           5.99214e-002           9.92145e-003           9.21447e-004
                   14.80    422.85226                                0.00000             82.414                                        4.22852e+002           2.28523e+001           2.85226e+000           8.52259e-001           5.22588e-002           2.25882e-003           2.58819e-004
                   14.90    422.85038                                0.00000             82.414                                        4.22850e+002           2.28504e+001           2.85038e+000           8.50377e-001           5.03773e-002           3.77315e-004           3.77315e-004
                   15.00    422.86674                                0.00000             82.414                                        4.22867e+002           2.28667e+001           2.86674e+000           8.66742e-001           6.67425e-002           6.74246e-003           7.42458e-004
                   15.10    422.88294                                0.00000             82.414                                        4.22883e+002           2.28829e+001           2.88294e+000           8.82935e-001           8.29354e-002           2.93538e-003           9.35380e-004
                   15.20    422.87637                                0.00000             82.414                                        4.22876e+002           2.28764e+001           2.87637e+000           8.76369e-001           7.63687e-002           6.36869e-003           3.68694e-004
                   15.30    422.88404                                0.00000             82.414                                        4.22884e+002           2.28840e+001           2.88404e+000           8.84044e-001           8.40438e-002           4.04379e-003           4.37921e-005
                   15.40    422.90246                                0.00000             82.414                                        4.22902e+002           2.29025e+001           2.90246e+000           9.02461e-001           2.46053e-003           2.46053e-003           4.60531e-004
                   15.50    422.90479                                0.00000             82.414                                        4.22905e+002           2.29048e+001           2.90479e+000           9.04793e-001           4.79316e-003           4.79316e-003           7.93160e-004
                   15.60    422.88913                                0.00000             82.414                                        4.22889e+002           2.28891e+001           2.88913e+000           8.89130e-001           8.91299e-002           9.12990e-003           1.29901e-004
                   15.70    422.89045                                0.00000             82.414                                        4.22890e+002           2.28905e+001           2.89045e+000           8.90454e-001           9.04538e-002           4.53822e-004           4.53822e-004
                   15.80    422.90712                                0.00000             82.414                                        4.22907e+002           2.29071e+001           2.90712e+000           9.07122e-001           7.12210e-003           7.12210e-003           1.22096e-004
                   15.90    422.90332                                0.00000             82.414                                        4.22903e+002           2.29033e+001           2.90332e+000           9.03321e-001           3.32142e-003           3.32142e-003           3.21416e-004
                   16.00    422.90561                                0.00000             82.414                                        4.22906e+002           2.29056e+001           2.90561e+000           9.05609e-001           5.60943e-003           5.60943e-003           6.09432e-004
