~VERSION INFORMATION
VERS                    .            2.0                                    :CWLS LOG ASCII STANDARD
WRAP                    .            NO                                     :ONE LINE PER TIME STEP


~WELL INFORMATION
#MNEM                   .UNIT        DATA                                    DESCRIPTION
#________________________________________________________________________________________
STRTTIME                .HH/MM/SS    11:07:04                               :START TIME
STOPTIME                .HH/MM/SS    11:10:49                               :STOP TIME
STRT                    .s           2.10                                   :START DATA
STOP                    .s           223.10                                 :STOP DATA
STEP                    .s           0.10                                   :MEASUREMENT TIME INTERVAL
NULL                    .            -999.25                                :NULL VALUE
COMP                    .            Statoil ASA                            :COMPANY
FLD                     .            Volve                                  :FIELD
WELL                    .            15/9-F-11 A                            :WELL
RUN                     .            8                                      :RUN
LOC                     .            Maersk Inspirer                        :LOCATION
PROV                    .            na                                     :PROVINCE
SRVC                    .            Baker Hughes INTEQ                     :SERVICE COMPANY
DATE                    .YY/MM/DD    13/05/21                               :LOG DATE
UWI                     .                                                   :UNIQUE WELL ID
DEPTHMD                 .m           3632.0                                 :MEASURED DEPTH
DEPTHTVD                .m           3026.9                                 :TRUE VERTICAL DEPTH


~CURVE INFORMATION
#MNEM                   .UNIT        API CODES                               DESCRIPTION
#________________________________________________________________________________________
TIME                    .s                                                  :01 TIME
DD_PRESS                .bar                                                :02 DRAW DOWN PRESSURE
DD_VOLUME               .cm3                                                :03 INCREMENTAL DRAW DOWN VOLUME
TEMP                    .degC                                               :04 TRANSDUCER TEMPERATURE
DD_PRESS_MOD_1000       .bar                                                :05 DRAW DOWN PRESSURE MOD 1000
DD_PRESS_MOD_100        .bar                                                :06 DRAW DOWN PRESSURE MOD 100
DD_PRESS_MOD_10         .bar                                                :07 DRAW DOWN PRESSURE MOD 10
DD_PRESS_MOD_1          .bar                                                :08 DRAW DOWN PRESSURE MOD 1
DD_PRESS_MOD_01         .bar                                                :09 DRAW DOWN PRESSURE MOD 01
DD_PRESS_MOD_001        .bar                                                :10 DRAW DOWN PRESSURE MOD 001
DD_PRESS_MOD_0001       .bar                                                :11 DRAW DOWN PRESSURE MOD 0001


~PARAMETER INFORMATION
#MNEM                   .UNIT        VALUE                                   DESCRIPTION
#________________________________________________________________________________________
TOOLFACE                .deg         66.7                                   :01 TOOLFACE
PUMP_CAPACITY           .bar         400                                    :02 NOMINAL DRAW DOWN PUMP CAPACITY
PUMP_LIMIT              .bar         240                                    :03 DOWNLINK PUMP LIMIT
TIME_LIMIT              .min         10                                     :04 DOWNLINK MAX TIME
TEST_TYPE               .            REPEAT                                 :05 DOWNLINK
TEST_TYPE               .            HIGH MOBILITY                          :06 DOWNLINK
DD_PIST_A               .cm2         3.1416                                 :07 DRAW DOWN PISTON AREA
V_SYS                   .cm3         131.0000                               :08 SYSTEM VOLUME
PROBE_ID                .cm          1.2700                                 :09 TTK PROBE ID
G0                      .            4.6700                                 :10 GEOMETRY FACTOR


~A                  TIME     DD_PRESS                              DD_VOLUME               TEMP                                   DD_PRESS_MOD_1000       DD_PRESS_MOD_100        DD_PRESS_MOD_10         DD_PRESS_MOD_1        DD_PRESS_MOD_01       DD_PRESS_MOD_001      DD_PRESS_MOD_0001
# ...
                   30.10    305.64334                                3.74427             80.641                                        3.05643e+002           5.64334e+000           5.64334e+000           6.43337e-001           4.33366e-002           3.33658e-003           3.36584e-004
                   30.20    305.05586                                3.83559             80.641                                        3.05056e+002           5.05586e+000           5.05586e+000           5.58554e-002           5.58554e-002           5.85541e-003           8.55413e-004
                   30.30    304.47985                                3.92768             80.641                                        3.04480e+002           4.47985e+000           4.47985e+000           4.79845e-001           7.98454e-002           9.84539e-003           8.45390e-004
                   30.40    303.93828                                4.02051             80.638                                        3.03938e+002           3.93828e+000           3.93828e+000           9.38277e-001           3.82774e-002           8.27742e-003           2.77416e-004
                   30.50    303.41828                                4.11405             80.635                                        3.03418e+002           3.41828e+000           3.41828e+000           4.18285e-001           1.82848e-002           8.28475e-003           2.84753e-004
                   30.60    302.90513                                4.20818             80.633                                        3.02905e+002           2.90513e+000           2.90513e+000           9.05128e-001           5.12781e-003           5.12781e-003           1.27815e-004
                   30.70    302.39668                                4.30296             80.633                                        3.02397e+002           2.39668e+000           2.39668e+000           3.96676e-001           9.66760e-002           6.67598e-003           6.75982e-004
                   30.80    301.91953                                4.39831             80.633                                        3.01920e+002           1.91953e+000           1.91953e+000           9.19534e-001           1.95345e-002           9.53447e-003           5.34470e-004
                   30.90    301.45163                                4.49423             80.633                                        3.01452e+002           1.45163e+000           1.45163e+000           4.51631e-001           5.16313e-002           1.63128e-003           6.31280e-004
                   31.00    300.96480                                4.59079             80.633                                        3.00965e+002           9.64803e-001           9.64803e-001           9.64803e-001           6.48035e-002           4.80347e-003           8.03465e-004
                   31.10    300.47454                                4.68781             80.633                                        3.00475e+002           4.74543e-001           4.74543e-001           4.74543e-001           7.45428e-002           4.54276e-003           5.42765e-004
                   31.20    300.26719                                4.78512             80.633                                        3.00267e+002           2.67188e-001           2.67188e-001           2.67188e-001           6.71878e-002           7.18783e-003           1.87834e-004
                   31.30    300.20083                                4.88290             80.630                                        3.00201e+002           2.00834e-001           2.00834e-001           2.00834e-001           8.33868e-004           8.33868e-004           8.33868e-004
                   31.40    299.91600                                4.98116             80.627                                        2.99916e+002           9.99160e+001           9.91600e+000           9.15997e-001           1.59971e-002           5.99711e-003           9.97111e-004
                   31.50    299.37492                                5.07969             80.625                                        2.99375e+002           9.93749e+001           9.37492e+000           3.74924e-001           7.49237e-002           4.92371e-003           9.23706e-004
                   31.60    298.87324                                5.17845             80.625                                        2.98873e+002           9.88732e+001           8.87324e+000           8.73235e-001           7.32353e-002           3.23532e-003           2.35323e-004
                   31.70    298.42865                                5.27743             80.625                                        2.98429e+002           9.84287e+001           8.42865e+000           4.28653e-001           2.86531e-002           8.65306e-003           6.53059e-004
                   31.80    298.03693                                5.37658             80.625                                        2.98037e+002           9.80369e+001           8.03693e+000           3.69266e-002           3.69266e-002           6.92664e-003           9.26638e-004
                   31.90    297.67820                                5.47598             80.625                                        2.97678e+002           9.76782e+001           7.67820e+000           6.78203e-001           7.82032e-002           8.20318e-003           2.03179e-004
                   32.00    297.35106                                5.57545             80.625                                        2.97351e+002           9.73511e+001           7.35106e+000           3.51056e-001           5.10556e-002           1.05558e-003           5.55830e-005
                   32.10    297.06499                                5.67501             80.625                                        2.97065e+002           9.70650e+001           7.06499e+000           6.49926e-002           6.49926e-002           4.99256e-003           9.92563e-004
                   32.20    296.80491                                5.77466             80.625                                        2.96805e+002           9.68049e+001           6.80491e+000           8.04910e-001           4.91033e-003           4.91033e-003           9.10334e-004
                   32.30    296.55580                                5.87436             80.625                                        2.96556e+002           9.65558e+001           6.55580e+000           5.55796e-001           5.57961e-002           5.79611e-003           7.96106e-004
                   32.40    296.33163                                5.97395             80.623                                        2.96332e+002           9.63316e+001           6.33163e+000           3.31628e-001           3.16281e-002           1.62813e-003           6.28126e-004
                   32.50    296.14457                                6.07346             80.619                                        2.96145e+002           9.61446e+001           6.14457e+000           1.44572e-001           4.45717e-002           4.57170e-003           5.71700e-004
                   32.60    295.98235                                6.17283             80.617                                        2.95982e+002           9.59824e+001           5.98235e+000           9.82351e-001           8.23514e-002           2.35137e-003           3.51372e-004
                   32.70    295.81984                                6.27207             80.617                                        2.95820e+002           9.58198e+001           5.81984e+000           8.19838e-001           1.98382e-002           9.83824e-003           8.38241e-004
                   32.80    295.67041                                6.37108             80.617                                        2.95670e+002           9.56704e+001           5.67041e+000           6.70410e-001           7.04100e-002           4.09952e-004           4.09952e-004
