~VERSION INFORMATION
VERS                    .            2.0                                    :CWLS LOG ASCII STANDARD
WRAP                    .            NO                                     :ONE LINE PER TIME STEP


~WELL INFORMATION
#MNEM                   .UNIT        DATA                                    DESCRIPTION
#________________________________________________________________________________________
STRTTIME                .HH/MM/SS    03:09:23                               :START TIME
STOPTIME                .HH/MM/SS    03:12:09                               :STOP TIME
STRT                    .s           2.10                                   :START DATA
STOP                    .s           164.80                                 :STOP DATA
STEP                    .s           0.10                                   :MEASUREMENT TIME INTERVAL
NULL                    .            -999.25                                :NULL VALUE
COMP                    .            Statoil ASA                            :COMPANY
FLD                     .            Volve                                  :FIELD
WELL                    .            15/9-F-1 C                             :WELL
RUN                     .            4                                      :RUN
LOC                     .                                                   :LOCATION
PROV                    .            na                                     :PROVINCE
SRVC                    .            Baker Hughes INTEQ                     :SERVICE COMPANY
DATE                    .YY/MM/DD    14/03/15                               :LOG DATE
UWI                     .                                                   :UNIQUE WELL ID
DEPTHMD                 .m           3523.2                                 :MEASURED DEPTH
DEPTHTVD                .m           2986.7                                 :TRUE VERTICAL DEPTH


~CURVE INFORMATION
#MNEM                   .UNIT        API CODES                               DESCRIPTION
#________________________________________________________________________________________
TIME                    .s                                                  :01 TIME
DD_PRESS                .bar                                                :02 DRAW DOWN PRESSURE
DD_VOLUME               .cm3                                                :03 INCREMENTAL DRAW DOWN VOLUME
TEMP                    .degC                                               :04 TRANSDUCER TEMPERATURE
DD_PRESS_MOD_1000       .bar                                                :05 DRAW DOWN PRESSURE MOD 1000
DD_PRESS_MOD_100        .bar                                                :06 DRAW DOWN PRESSURE MOD 100
DD_PRESS_MOD_10         .bar                                                :07 DRAW DOWN PRESSURE MOD 10
DD_PRESS_MOD_1          .bar                                                :08 DRAW DOWN PRESSURE MOD 1
DD_PRESS_MOD_01         .bar                                                :09 DRAW DOWN PRESSURE MOD 01
DD_PRESS_MOD_001        .bar                                                :10 DRAW DOWN PRESSURE MOD 001
DD_PRESS_MOD_0001       .bar                                                :11 DRAW DOWN PRESSURE MOD 0001


~PARAMETER INFORMATION
#MNEM                   .UNIT        VALUE                                   DESCRIPTION
#________________________________________________________________________________________
TOOLFACE                .deg         104.9                                  :01 TOOLFACE
PUMP_CAPACITY           .bar         400                                    :02 NOMINAL DRAW DOWN PUMP CAPACITY
PUMP_LIMIT              .bar         240                                    :03 DOWNLINK PUMP LIMIT
TIME_LIMIT              .min         10                                     :04 DOWNLINK MAX TIME
TEST_TYPE               .            REPEAT                                 :05 DOWNLINK
TEST_TYPE               .            HIGH MOBILITY                          :06 DOWNLINK
DD_PIST_A               .cm2         3.1416                                 :07 DRAW DOWN PISTON AREA
V_SYS                   .cm3         131.0000                               :08 SYSTEM VOLUME
PROBE_ID                .cm          1.2700                                 :09 TTK PROBE ID
G0                      .            4.6700                                 :10 GEOMETRY FACTOR


~A                  TIME     DD_PRESS                              DD_VOLUME               TEMP                                   DD_PRESS_MOD_1000       DD_PRESS_MOD_100        DD_PRESS_MOD_10         DD_PRESS_MOD_1        DD_PRESS_MOD_01       DD_PRESS_MOD_001      DD_PRESS_MOD_0001
# ...
                  150.50    421.83136                                0.00000             84.500                                        4.21831e+002           2.18314e+001           1.83136e+000           8.31359e-001           3.13592e-002           1.35916e-003           3.59157e-004
                  150.60    421.85708                                0.00000             84.500                                        4.21857e+002           2.18571e+001           1.85708e+000           8.57077e-001           5.70772e-002           7.07723e-003           7.72260e-005
                  150.70    421.85895                                0.00000             84.500                                        4.21859e+002           2.18590e+001           1.85895e+000           8.58952e-001           5.89524e-002           8.95244e-003           9.52443e-004
                  150.80    421.83651                                0.00000             84.500                                        4.21837e+002           2.18365e+001           1.83651e+000           8.36505e-001           3.65054e-002           6.50539e-003           5.05386e-004
                  150.90    421.82001                                0.00000             84.500                                        4.21820e+002           2.18200e+001           1.82001e+000           8.20009e-001           2.00093e-002           9.27225e-006           9.27225e-006
                  151.00    421.82475                                0.00000             84.500                                        4.21825e+002           2.18248e+001           1.82475e+000           8.24750e-001           2.47501e-002           4.75010e-003           7.50097e-004
                  151.10    421.84298                                0.00000             84.500                                        4.21843e+002           2.18430e+001           1.84298e+000           8.42977e-001           4.29767e-002           2.97671e-003           9.76709e-004
                  151.20    421.84542                                0.00000             84.500                                        4.21845e+002           2.18454e+001           1.84542e+000           8.45415e-001           4.54152e-002           5.41515e-003           4.15151e-004
                  151.30    421.83179                                0.00000             84.500                                        4.21832e+002           2.18318e+001           1.83179e+000           8.31793e-001           3.17929e-002           1.79292e-003           7.92921e-004
                  151.40    421.83177                                0.00000             84.500                                        4.21832e+002           2.18318e+001           1.83177e+000           8.31775e-001           3.17745e-002           1.77451e-003           7.74510e-004
                  151.50    421.84225                                0.00000             84.500                                        4.21842e+002           2.18422e+001           1.84225e+000           8.42245e-001           4.22452e-002           2.24518e-003           2.45184e-004
                  151.60    421.84765                                0.00000             84.500                                        4.21848e+002           2.18476e+001           1.84765e+000           8.47647e-001           4.76468e-002           7.64678e-003           6.46778e-004
                  151.70    421.83338                                0.00000             84.500                                        4.21833e+002           2.18334e+001           1.83338e+000           8.33378e-001           3.33776e-002           3.37761e-003           3.77610e-004
                  151.80    421.82317                                0.00000             84.500                                        4.21823e+002           2.18232e+001           1.82317e+000           8.23167e-001           2.31668e-002           3.16679e-003           1.66791e-004
                  151.90    421.83633                                0.00000             84.500                                        4.21836e+002           2.18363e+001           1.83633e+000           8.36327e-001           3.63268e-002           6.32681e-003           3.26807e-004
                  152.00    421.85410                                0.00000             84.500                                        4.21854e+002           2.18541e+001           1.85410e+000           8.54100e-001           5.41005e-002           4.10047e-003           1.00474e-004
                  152.10    421.84976                                0.00000             84.500                                        4.21850e+002           2.18498e+001           1.84976e+000           8.49755e-001           4.97553e-002           9.75532e-003           7.55321e-004
                  152.20    421.83252                                0.00000             84.500                                        4.21833e+002           2.18325e+001           1.83252e+000           8.32515e-001           3.25154e-002           2.51543e-003           5.15428e-004
                  152.30    421.82843                                0.00000             84.500                                        4.21828e+002           2.18284e+001           1.82843e+000           8.28428e-001           2.84280e-002           8.42798e-003           4.27983e-004
                  152.40    421.83532                                0.00000             84.500                                        4.21835e+002           2.18353e+001           1.83532e+000           8.35317e-001           3.53173e-002           5.31727e-003           3.17274e-004
                  152.50    421.83793                                0.00000             84.500                                        4.21838e+002           2.18379e+001           1.83793e+000           8.37933e-001           3.79327e-002           7.93270e-003           9.32701e-004
                  152.60    421.82730                                0.00000             84.500                                        4.21827e+002           2.18273e+001           1.82730e+000           8.27297e-001           2.72970e-002           7.29697e-003           2.96972e-004
                  152.70    421.81368                                0.00000             84.500                                        4.21814e+002           2.18137e+001           1.81368e+000           8.13685e-001           1.36846e-002           3.68462e-003           6.84621e-004
                  152.80    421.82107                                0.00000             84.500                                        4.21821e+002           2.18211e+001           1.82107e+000           8.21067e-001           2.10670e-002           1.06697e-003           6.69684e-005
                  152.90    421.83951                                0.00000             84.500                                        4.21840e+002           2.18395e+001           1.83951e+000           8.39514e-001           3.95142e-002           9.51416e-003           5.14165e-004
                  153.00    421.84072                                0.00000             84.500                                        4.21841e+002           2.18407e+001           1.84072e+000           8.40725e-001           4.07249e-002           7.24850e-004           7.24850e-004
                  153.10    421.82825                                0.00000             84.500                                        4.21828e+002           2.18283e+001           1.82825e+000           8.28255e-001           2.82546e-002           8.25461e-003           2.54608e-004
                  153.20    421.82512                                0.00000             84.500                                        4.21825e+002           2.18251e+001           1.82512e+000           8.25122e-001           2.51216e-002           5.12158e-003           1.21578e-004
