~VERSION INFORMATION
VERS                    .            2.0                                    :CWLS LOG ASCII STANDARD
WRAP                    .            NO                                     :ONE LINE PER TIME STEP


~WELL INFORMATION
#MNEM                   .UNIT        DATA                                    DESCRIPTION
#________________________________________________________________________________________
STRTTIME                .HH/MM/SS    11:44:47                               :START TIME
STOPTIME                .HH/MM/SS    11:47:33                               :STOP TIME
STRT                    .s           2.10                                   :START DATA
STOP                    .s           164.50                                 :STOP DATA
STEP                    .s           0.10                                   :MEASUREMENT TIME INTERVAL
NULL                    .            -999.25                                :NULL VALUE
COMP                    .            Statoil ASA                            :COMPANY
FLD                     .            Volve                                  :FIELD
WELL                    .            15/9-F-11 A                            :WELL
RUN                     .            8                                      :RUN
LOC                     .            Maersk Inspirer                        :LOCATION
PROV                    .            na                                     :PROVINCE
SRVC                    .            Baker Hughes INTEQ                     :SERVICE COMPANY
DATE                    .YY/MM/DD    13/05/21                               :LOG DATE
UWI                     .                                                   :UNIQUE WELL ID
DEPTHMD                 .m           3624.0                                 :MEASURED DEPTH
DEPTHTVD                .m           3020.7                                 :TRUE VERTICAL DEPTH


~CURVE INFORMATION
#MNEM                   .UNIT        API CODES                               DESCRIPTION
#________________________________________________________________________________________
TIME                    .s                                                  :01 TIME
DD_PRESS                .bar                                                :02 DRAW DOWN PRESSURE
DD_VOLUME               .cm3                                                :03 INCREMENTAL DRAW DOWN VOLUME
TEMP                    .degC                                               :04 TRANSDUCER TEMPERATURE
DD_PRESS_MOD_1000       .bar                                                :05 DRAW DOWN PRESSURE MOD 1000
DD_PRESS_MOD_100        .bar                                                :06 DRAW DOWN PRESSURE MOD 100
DD_PRESS_MOD_10         .bar                                                :07 DRAW DOWN PRESSURE MOD 10
DD_PRESS_MOD_1          .bar                                                :08 DRAW DOWN PRESSURE MOD 1
DD_PRESS_MOD_01         .bar                                                :09 DRAW DOWN PRESSURE MOD 01
DD_PRESS_MOD_001        .bar                                                :10 DRAW DOWN PRESSURE MOD 001
DD_PRESS_MOD_0001       .bar                                                :11 DRAW DOWN PRESSURE MOD 0001


~PARAMETER INFORMATION
#MNEM                   .UNIT        VALUE                                   DESCRIPTION
#________________________________________________________________________________________
TOOLFACE                .deg         61.7                                   :01 TOOLFACE
PUMP_CAPACITY           .bar         400                                    :02 NOMINAL DRAW DOWN PUMP CAPACITY
PUMP_LIMIT              .bar         240                                    :03 DOWNLINK PUMP LIMIT
TIME_LIMIT              .min         10                                     :04 DOWNLINK MAX TIME
TEST_TYPE               .            REPEAT                                 :05 DOWNLINK
TEST_TYPE               .            HIGH MOBILITY                          :06 DOWNLINK
DD_PIST_A               .cm2         3.1416                                 :07 DRAW DOWN PISTON AREA
V_SYS                   .cm3         131.0000                               :08 SYSTEM VOLUME
PROBE_ID                .cm          1.2700                                 :09 TTK PROBE ID
G0                      .            4.6700                                 :10 GEOMETRY FACTOR


~A                  TIME     DD_PRESS                              DD_VOLUME               TEMP                                   DD_PRESS_MOD_1000       DD_PRESS_MOD_100        DD_PRESS_MOD_10         DD_PRESS_MOD_1        DD_PRESS_MOD_01       DD_PRESS_MOD_001      DD_PRESS_MOD_0001
# ...
                   97.30    342.13737                               19.78935             81.438                                        3.42137e+002           4.21374e+001           2.13737e+000           1.37374e-001           3.73742e-002           7.37421e-003           3.74214e-004
                   97.40    342.13781                               19.78935             81.438                                        3.42138e+002           4.21378e+001           2.13781e+000           1.37813e-001           3.78126e-002           7.81260e-003           8.12602e-004
                   97.50    342.13698                               19.78935             81.438                                        3.42137e+002           4.21370e+001           2.13698e+000           1.36979e-001           3.69791e-002           6.97909e-003           9.79094e-004
                   97.60    342.13644                               19.78935             81.438                                        3.42136e+002           4.21364e+001           2.13644e+000           1.36440e-001           3.64401e-002           6.44013e-003           4.40127e-004
                   97.70    342.13522                               19.78935             81.438                                        3.42135e+002           4.21352e+001           2.13522e+000           1.35223e-001           3.52227e-002           5.22273e-003           2.22734e-004
                   97.80    342.13516                               19.78935             81.438                                        3.42135e+002           4.21352e+001           2.13516e+000           1.35162e-001           3.51621e-002           5.16210e-003           1.62102e-004
                   97.90    342.13632                               19.78935             81.438                                        3.42136e+002           4.21363e+001           2.13632e+000           1.36315e-001           3.63154e-002           6.31543e-003           3.15432e-004
                   98.00    342.13575                               19.78935             81.438                                        3.42136e+002           4.21357e+001           2.13575e+000           1.35748e-001           3.57475e-002           5.74753e-003           7.47527e-004
                   98.10    342.13349                               19.78935             81.438                                        3.42133e+002           4.21335e+001           2.13349e+000           1.33487e-001           3.34867e-002           3.48669e-003           4.86686e-004
                   98.20    342.13369                               19.78935             81.438                                        3.42134e+002           4.21337e+001           2.13369e+000           1.33689e-001           3.36891e-002           3.68915e-003           6.89147e-004
                   98.30    342.13602                               19.78935             81.438                                        3.42136e+002           4.21360e+001           2.13602e+000           1.36024e-001           3.60239e-002           6.02393e-003           2.39302e-005
                   98.40    342.13656                               19.78935             81.438                                        3.42137e+002           4.21366e+001           2.13656e+000           1.36565e-001           3.65649e-002           6.56486e-003           5.64862e-004
                   98.50    342.13642                               19.78935             81.438                                        3.42136e+002           4.21364e+001           2.13642e+000           1.36416e-001           3.64165e-002           6.41648e-003           4.16480e-004
                   98.60    342.13555                               19.78935             81.438                                        3.42136e+002           4.21355e+001           2.13555e+000           1.35548e-001           3.55481e-002           5.54806e-003           5.48057e-004
                   98.70    342.13618                               19.78935             81.438                                        3.42136e+002           4.21362e+001           2.13618e+000           1.36178e-001           3.61782e-002           6.17822e-003           1.78220e-004
                   98.80    342.13683                               19.78935             81.438                                        3.42137e+002           4.21368e+001           2.13683e+000           1.36830e-001           3.68305e-002           6.83047e-003           8.30470e-004
                   98.90    342.13712                               19.78935             81.438                                        3.42137e+002           4.21371e+001           2.13712e+000           1.37122e-001           3.71216e-002           7.12162e-003           1.21618e-004
                   99.00    342.13623                               19.78935             81.438                                        3.42136e+002           4.21362e+001           2.13623e+000           1.36227e-001           3.62268e-002           6.22682e-003           2.26823e-004
                   99.10    342.13557                               19.78935             81.438                                        3.42136e+002           4.21356e+001           2.13557e+000           1.35567e-001           3.55674e-002           5.56739e-003           5.67390e-004
                   99.20    342.13612                               19.78935             81.438                                        3.42136e+002           4.21361e+001           2.13612e+000           1.36121e-001           3.61210e-002           6.12098e-003           1.20982e-004
                   99.30    342.13693                               19.78935             81.438                                        3.42137e+002           4.21369e+001           2.13693e+000           1.36931e-001           3.69308e-002           6.93085e-003           9.30850e-004
                   99.40    342.13634                               19.78935             81.438                                        3.42136e+002           4.21363e+001           2.13634e+000           1.36338e-001           3.63385e-002           6.33847e-003           3.38469e-004
                   99.50    342.13671                               19.78935             81.438                                        3.42137e+002           4.21367e+001           2.13671e+000           1.36707e-001           3.67071e-002           6.70711e-003           7.07110e-004
                   99.60    342.13636                               19.78935             81.438                                        3.42136e+002           4.21364e+001           2.13636e+000           1.36359e-001           3.63588e-002           6.35882e-003           3.58817e-004
                   99.70    342.13522                               19.78935             81.438                                        3.42135e+002           4.21352e+001           2.13522e+000           1.35215e-001           3.52150e-002           5.21503e-003           2.15033e-004
                   99.80    342.13393                               19.78935             81.438                                        3.42134e+002           4.21339e+001           2.13393e+000           1.33935e-001           3.39349e-002           3.93494e-003           9.34943e-004
                   99.90    342.13399                               19.78935             81.438                                        3.42134e+002           4.21340e+001           2.13399e+000           1.33993e-001           3.39932e-002           3.99319e-003           9.93195e-004
                  100.00    342.13334                               19.78935             81.435                                        3.42133e+002           4.21333e+001           2.13334e+000           1.33335e-001           3.33351e-002           3.33511e-003           3.35106e-004
