~VERSION INFORMATION
VERS                    .            2.0                                    :CWLS LOG ASCII STANDARD
WRAP                    .            NO                                     :ONE LINE PER TIME STEP


~WELL INFORMATION
#MNEM                   .UNIT        DATA                                    DESCRIPTION
#________________________________________________________________________________________
STRTTIME                .HH/MM/SS    10:48:38                               :START TIME
STOPTIME                .HH/MM/SS    10:51:35                               :STOP TIME
STRT                    .s           2.10                                   :START DATA
STOP                    .s           175.10                                 :STOP DATA
STEP                    .s           0.10                                   :MEASUREMENT TIME INTERVAL
NULL                    .            -999.25                                :NULL VALUE
COMP                    .            Statoil ASA                            :COMPANY
FLD                     .            Volve                                  :FIELD
WELL                    .            15/9-F-11 A                            :WELL
RUN                     .            8                                      :RUN
LOC                     .            Maersk Inspirer                        :LOCATION
PROV                    .            na                                     :PROVINCE
SRVC                    .            Baker Hughes INTEQ                     :SERVICE COMPANY
DATE                    .YY/MM/DD    13/05/21                               :LOG DATE
UWI                     .                                                   :UNIQUE WELL ID
DEPTHMD                 .m           3635.2                                 :MEASURED DEPTH
DEPTHTVD                .m           3029.3                                 :TRUE VERTICAL DEPTH


~CURVE INFORMATION
#MNEM                   .UNIT        API CODES                               DESCRIPTION
#________________________________________________________________________________________
TIME                    .s                                                  :01 TIME
DD_PRESS                .bar                                                :02 DRAW DOWN PRESSURE
DD_VOLUME               .cm3                                                :03 INCREMENTAL DRAW DOWN VOLUME
TEMP                    .degC                                               :04 TRANSDUCER TEMPERATURE
DD_PRESS_MOD_1000       .bar                                                :05 DRAW DOWN PRESSURE MOD 1000
DD_PRESS_MOD_100        .bar                                                :06 DRAW DOWN PRESSURE MOD 100
DD_PRESS_MOD_10         .bar                                                :07 DRAW DOWN PRESSURE MOD 10
DD_PRESS_MOD_1          .bar                                                :08 DRAW DOWN PRESSURE MOD 1
DD_PRESS_MOD_01         .bar                                                :09 DRAW DOWN PRESSURE MOD 01
DD_PRESS_MOD_001        .bar                                                :10 DRAW DOWN PRESSURE MOD 001
DD_PRESS_MOD_0001       .bar                                                :11 DRAW DOWN PRESSURE MOD 0001


~PARAMETER INFORMATION
#MNEM                   .UNIT        VALUE                                   DESCRIPTION
#________________________________________________________________________________________
TOOLFACE                .deg         69.1                                   :01 TOOLFACE
PUMP_CAPACITY           .bar         400                                    :02 NOMINAL DRAW DOWN PUMP CAPACITY
PUMP_LIMIT              .bar         240                                    :03 DOWNLINK PUMP LIMIT
TIME_LIMIT              .min         10                                     :04 DOWNLINK MAX TIME
TEST_TYPE               .            REPEAT                                 :05 DOWNLINK
TEST_TYPE               .            HIGH MOBILITY                          :06 DOWNLINK
DD_PIST_A               .cm2         3.1416                                 :07 DRAW DOWN PISTON AREA
V_SYS                   .cm3         131.0000                               :08 SYSTEM VOLUME
PROBE_ID                .cm          1.2700                                 :09 TTK PROBE ID
G0                      .            4.6700                                 :10 GEOMETRY FACTOR


~A                  TIME     DD_PRESS                              DD_VOLUME               TEMP                                   DD_PRESS_MOD_1000       DD_PRESS_MOD_100        DD_PRESS_MOD_10         DD_PRESS_MOD_1        DD_PRESS_MOD_01       DD_PRESS_MOD_001      DD_PRESS_MOD_0001
# ...
                   69.30    342.88922                               10.64562             80.633                                        3.42889e+002           4.28892e+001           2.88922e+000           8.89221e-001           8.92213e-002           9.22132e-003           2.21322e-004
                   69.40    342.88929                               10.64562             80.633                                        3.42889e+002           4.28893e+001           2.88929e+000           8.89293e-001           8.92929e-002           9.29290e-003           2.92895e-004
                   69.50    342.88785                               10.64562             80.633                                        3.42888e+002           4.28878e+001           2.88785e+000           8.87850e-001           8.78500e-002           7.84997e-003           8.49966e-004
                   69.60    342.89153                               10.64562             80.633                                        3.42892e+002           4.28915e+001           2.89153e+000           8.91525e-001           9.15250e-002           1.52503e-003           5.25029e-004
                   69.70    342.88997                               10.64562             80.633                                        3.42890e+002           4.28900e+001           2.88997e+000           8.89967e-001           8.99670e-002           9.96696e-003           9.66959e-004
                   69.80    342.88266                               10.64562             80.633                                        3.42883e+002           4.28827e+001           2.88266e+000           8.82659e-001           8.26589e-002           2.65890e-003           6.58904e-004
                   69.90    342.87752                               10.64562             80.633                                        3.42878e+002           4.28775e+001           2.87752e+000           8.77523e-001           7.75231e-002           7.52311e-003           5.23110e-004
                   70.00    342.87358                               10.64562             80.633                                        3.42874e+002           4.28736e+001           2.87358e+000           8.73585e-001           7.35848e-002           3.58482e-003           5.84816e-004
                   70.10    342.87129                               10.64562             80.633                                        3.42871e+002           4.28713e+001           2.87129e+000           8.71288e-001           7.12883e-002           1.28827e-003           2.88271e-004
                   70.20    342.87214                               10.64562             80.633                                        3.42872e+002           4.28721e+001           2.87214e+000           8.72142e-001           7.21416e-002           2.14165e-003           1.41646e-004
                   70.30    342.88989                               10.64562             80.633                                        3.42890e+002           4.28899e+001           2.88989e+000           8.89890e-001           8.98902e-002           9.89022e-003           8.90215e-004
                   70.40    342.90428                               10.64562             80.633                                        3.42904e+002           4.29043e+001           2.90428e+000           9.04285e-001           4.28478e-003           4.28478e-003           2.84779e-004
                   70.50    342.89580                               10.64562             80.633                                        3.42896e+002           4.28958e+001           2.89580e+000           8.95797e-001           9.57975e-002           5.79747e-003           7.97473e-004
                   70.60    342.87161                               10.64562             80.633                                        3.42872e+002           4.28716e+001           2.87161e+000           8.71610e-001           7.16098e-002           1.60977e-003           6.09770e-004
                   70.70    342.87525                               10.64562             80.633                                        3.42875e+002           4.28753e+001           2.87525e+000           8.75251e-001           7.52510e-002           5.25103e-003           2.51034e-004
                   70.80    342.89819                               10.64562             80.633                                        3.42898e+002           4.28982e+001           2.89819e+000           8.98194e-001           9.81941e-002           8.19410e-003           1.94104e-004
                   70.90    342.90040                               10.64562             80.633                                        3.42900e+002           4.29004e+001           2.90040e+000           9.00403e-001           4.02889e-004           4.02889e-004           4.02889e-004
                   71.00    342.88228                               10.64562             80.633                                        3.42882e+002           4.28823e+001           2.88228e+000           8.82277e-001           8.22774e-002           2.27740e-003           2.77395e-004
                   71.10    342.88017                               10.64562             80.633                                        3.42880e+002           4.28802e+001           2.88017e+000           8.80170e-001           8.01701e-002           1.70117e-004           1.70117e-004
                   71.20    342.90336                               10.64562             80.633                                        3.42903e+002           4.29034e+001           2.90336e+000           9.03360e-001           3.36042e-003           3.36042e-003           3.60419e-004
                   71.30    342.91926                               10.64562             80.633                                        3.42919e+002           4.29193e+001           2.91926e+000           9.19263e-001           1.92633e-002           9.26334e-003           2.63339e-004
                   71.40    342.90844                               10.64562             80.633                                        3.42908e+002           4.29084e+001           2.90844e+000           9.08437e-001           8.43696e-003           8.43696e-003           4.36962e-004
                   71.50    342.88924                               10.64562             80.633                                        3.42889e+002           4.28892e+001           2.88924e+000           8.89240e-001           8.92403e-002           9.24032e-003           2.40318e-004
                   71.60    342.88422                               10.64562             80.633                                        3.42884e+002           4.28842e+001           2.88422e+000           8.84216e-001           8.42160e-002           4.21603e-003           2.16032e-004
                   71.70    342.89366                               10.64562             80.633                                        3.42894e+002           4.28937e+001           2.89366e+000           8.93664e-001           9.36637e-002           3.66372e-003           6.63716e-004
                   71.80    342.89263                               10.64562             80.633                                        3.42893e+002           4.28926e+001           2.89263e+000           8.92634e-001           9.26340e-002           2.63405e-003           6.34048e-004
                   71.90    342.88166                               10.64562             80.633                                        3.42882e+002           4.28817e+001           2.88166e+000           8.81659e-001           8.16590e-002           1.65903e-003           6.59032e-004
                   72.00    342.87579                               10.64562             80.633                                        3.42876e+002           4.28758e+001           2.87579e+000           8.75787e-001           7.57869e-002           5.78689e-003           7.86887e-004
