~VERSION INFORMATION
VERS                    .            2.0                                    :CWLS LOG ASCII STANDARD
WRAP                    .            NO                                     :ONE LINE PER TIME STEP


~WELL INFORMATION
#MNEM                   .UNIT        DATA                                    DESCRIPTION
#________________________________________________________________________________________
STRTTIME                .HH/MM/SS    02:42:03                               :START TIME
STOPTIME                .HH/MM/SS    02:44:56                               :STOP TIME
STRT                    .s           2.10                                   :START DATA
STOP                    .s           171.40                                 :STOP DATA
STEP                    .s           0.10                                   :MEASUREMENT TIME INTERVAL
NULL                    .            -999.25                                :NULL VALUE
COMP                    .            Statoil ASA                            :COMPANY
FLD                     .            Volve                                  :FIELD
WELL                    .            15/9-F-1 C                             :WELL
RUN                     .            4                                      :RUN
LOC                     .                                                   :LOCATION
PROV                    .            na                                     :PROVINCE
SRVC                    .            Baker Hughes INTEQ                     :SERVICE COMPANY
DATE                    .YY/MM/DD    14/03/15                               :LOG DATE
UWI                     .                                                   :UNIQUE WELL ID
DEPTHMD                 .m           3551.1                                 :MEASURED DEPTH
DEPTHTVD                .m           2992.9                                 :TRUE VERTICAL DEPTH


~CURVE INFORMATION
#MNEM                   .UNIT        API CODES                               DESCRIPTION
#________________________________________________________________________________________
TIME                    .s                                                  :01 TIME
DD_PRESS                .bar                                                :02 DRAW DOWN PRESSURE
DD_VOLUME               .cm3                                                :03 INCREMENTAL DRAW DOWN VOLUME
TEMP                    .degC                                               :04 TRANSDUCER TEMPERATURE
DD_PRESS_MOD_1000       .bar                                                :05 DRAW DOWN PRESSURE MOD 1000
DD_PRESS_MOD_100        .bar                                                :06 DRAW DOWN PRESSURE MOD 100
DD_PRESS_MOD_10         .bar                                                :07 DRAW DOWN PRESSURE MOD 10
DD_PRESS_MOD_1          .bar                                                :08 DRAW DOWN PRESSURE MOD 1
DD_PRESS_MOD_01         .bar                                                :09 DRAW DOWN PRESSURE MOD 01
DD_PRESS_MOD_001        .bar                                                :10 DRAW DOWN PRESSURE MOD 001
DD_PRESS_MOD_0001       .bar                                                :11 DRAW DOWN PRESSURE MOD 0001


~PARAMETER INFORMATION
#MNEM                   .UNIT        VALUE                                   DESCRIPTION
#________________________________________________________________________________________
TOOLFACE                .deg         84.6                                   :01 TOOLFACE
PUMP_CAPACITY           .bar         400                                    :02 NOMINAL DRAW DOWN PUMP CAPACITY
PUMP_LIMIT              .bar         240                                    :03 DOWNLINK PUMP LIMIT
TIME_LIMIT              .min         10                                     :04 DOWNLINK MAX TIME
TEST_TYPE               .            REPEAT                                 :05 DOWNLINK
TEST_TYPE               .            HIGH MOBILITY                          :06 DOWNLINK
DD_PIST_A               .cm2         3.1416                                 :07 DRAW DOWN PISTON AREA
V_SYS                   .cm3         131.0000                               :08 SYSTEM VOLUME
PROBE_ID                .cm          1.2700                                 :09 TTK PROBE ID
G0                      .            4.6700                                 :10 GEOMETRY FACTOR


~A                  TIME     DD_PRESS                              DD_VOLUME               TEMP                                   DD_PRESS_MOD_1000       DD_PRESS_MOD_100        DD_PRESS_MOD_10         DD_PRESS_MOD_1        DD_PRESS_MOD_01       DD_PRESS_MOD_001      DD_PRESS_MOD_0001
# ...
                   91.70    341.49896                               19.84156             85.141                                        3.41499e+002           4.14990e+001           1.49896e+000           4.98957e-001           9.89568e-002           8.95683e-003           9.56833e-004
                   91.80    341.49605                               19.84156             85.141                                        3.41496e+002           4.14960e+001           1.49605e+000           4.96050e-001           9.60497e-002           6.04966e-003           4.96577e-005
                   91.90    341.50106                               19.84156             85.141                                        3.41501e+002           4.15011e+001           1.50106e+000           5.01057e-001           1.05724e-003           1.05724e-003           5.72353e-005
                   92.00    341.51236                               19.84156             85.141                                        3.41512e+002           4.15124e+001           1.51236e+000           5.12360e-001           1.23596e-002           2.35963e-003           3.59627e-004
                   92.10    341.51594                               19.84156             85.141                                        3.41516e+002           4.15159e+001           1.51594e+000           5.15939e-001           1.59385e-002           5.93853e-003           9.38527e-004
                   92.20    341.50885                               19.84156             85.141                                        3.41509e+002           4.15089e+001           1.50885e+000           5.08854e-001           8.85426e-003           8.85426e-003           8.54255e-004
                   92.30    341.50234                               19.84156             85.141                                        3.41502e+002           4.15023e+001           1.50234e+000           5.02340e-001           2.33969e-003           2.33969e-003           3.39694e-004
                   92.40    341.50408                               19.84156             85.141                                        3.41504e+002           4.15041e+001           1.50408e+000           5.04080e-001           4.08035e-003           4.08035e-003           8.03545e-005
                   92.50    341.50886                               19.84156             85.141                                        3.41509e+002           4.15089e+001           1.50886e+000           5.08862e-001           8.86181e-003           8.86181e-003           8.61806e-004
                   92.60    341.50908                               19.84156             85.141                                        3.41509e+002           4.15091e+001           1.50908e+000           5.09081e-001           9.08132e-003           9.08132e-003           8.13164e-005
                   92.70    341.50490                               19.84156             85.141                                        3.41505e+002           4.15049e+001           1.50490e+000           5.04905e-001           4.90453e-003           4.90453e-003           9.04526e-004
                   92.80    341.50095                               19.84156             85.141                                        3.41501e+002           4.15010e+001           1.50095e+000           5.00952e-001           9.52059e-004           9.52059e-004           9.52059e-004
                   92.90    341.50279                               19.84156             85.141                                        3.41503e+002           4.15028e+001           1.50279e+000           5.02789e-001           2.78856e-003           2.78856e-003           7.88562e-004
                   93.00    341.50882                               19.84156             85.141                                        3.41509e+002           4.15088e+001           1.50882e+000           5.08824e-001           8.82439e-003           8.82439e-003           8.24395e-004
                   93.10    341.51406                               19.84156             85.141                                        3.41514e+002           4.15141e+001           1.51406e+000           5.14060e-001           1.40600e-002           4.05998e-003           5.99816e-005
                   93.20    341.51171                               19.84156             85.141                                        3.41512e+002           4.15117e+001           1.51171e+000           5.11705e-001           1.17055e-002           1.70545e-003           7.05451e-004
                   93.30    341.50765                               19.84156             85.141                                        3.41508e+002           4.15077e+001           1.50765e+000           5.07650e-001           7.65049e-003           7.65049e-003           6.50487e-004
                   93.40    341.50588                               19.84156             85.141                                        3.41506e+002           4.15059e+001           1.50588e+000           5.05880e-001           5.88025e-003           5.88025e-003           8.80245e-004
                   93.50    341.50410                               19.84156             85.141                                        3.41504e+002           4.15041e+001           1.50410e+000           5.04098e-001           4.09819e-003           4.09819e-003           9.81867e-005
                   93.60    341.50477                               19.84156             85.141                                        3.41505e+002           4.15048e+001           1.50477e+000           5.04769e-001           4.76903e-003           4.76903e-003           7.69027e-004
                   93.70    341.50938                               19.84156             85.141                                        3.41509e+002           4.15094e+001           1.50938e+000           5.09379e-001           9.37936e-003           9.37936e-003           3.79363e-004
                   93.80    341.50821                               19.84156             85.141                                        3.41508e+002           4.15082e+001           1.50821e+000           5.08213e-001           8.21297e-003           8.21297e-003           2.12975e-004
                   93.90    341.50442                               19.84156             85.141                                        3.41504e+002           4.15044e+001           1.50442e+000           5.04424e-001           4.42446e-003           4.42446e-003           4.24455e-004
                   94.00    341.50581                               19.84156             85.141                                        3.41506e+002           4.15058e+001           1.50581e+000           5.05813e-001           5.81344e-003           5.81344e-003           8.13443e-004
                   94.10    341.50764                               19.84156             85.141                                        3.41508e+002           4.15076e+001           1.50764e+000           5.07636e-001           7.63558e-003           7.63558e-003           6.35577e-004
                   94.20    341.51064                               19.84156             85.141                                        3.41511e+002           4.15106e+001           1.51064e+000           5.10643e-001           1.06429e-002           6.42950e-004           6.42950e-004
                   94.30    341.50987                               19.84156             85.141                                        3.41510e+002           4.15099e+001           1.50987e+000           5.09873e-001           9.87253e-003           9.87253e-003           8.72530e-004
                   94.40    341.50947                               19.84156             85.141                                        3.41509e+002           4.15095e+001           1.50947e+000           5.09474e-001           9.47433e-003           9.47433e-003           4.74328e-004
