~VERSION INFORMATION
VERS                    .            2.0                                    :CWLS LOG ASCII STANDARD
WRAP                    .            NO                                     :ONE LINE PER TIME STEP


~WELL INFORMATION
#MNEM                   .UNIT        DATA                                    DESCRIPTION
#________________________________________________________________________________________
STRTTIME                .HH/MM/SS    15:31:36                               :START TIME
STOPTIME                .HH/MM/SS    15:34:21                               :STOP TIME
STRT                    .s           2.10                                   :START DATA
STOP                    .s           163.50                                 :STOP DATA
STEP                    .s           0.10                                   :MEASUREMENT TIME INTERVAL
NULL                    .            -999.25                                :NULL VALUE
COMP                    .            Statoil ASA                            :COMPANY
FLD                     .            Volve                                  :FIELD
WELL                    .            15/9-F-11 A                            :WELL
RUN                     .            8                                      :RUN
LOC                     .            Maersk Inspirer                        :LOCATION
PROV                    .            na                                     :PROVINCE
SRVC                    .            Baker Hughes INTEQ                     :SERVICE COMPANY
DATE                    .YY/MM/DD    13/05/21                               :LOG DATE
UWI                     .                                                   :UNIQUE WELL ID
DEPTHMD                 .m           3617.2                                 :MEASURED DEPTH
DEPTHTVD                .m           3015.5                                 :TRUE VERTICAL DEPTH


~CURVE INFORMATION
#MNEM                   .UNIT        API CODES                               DESCRIPTION
#________________________________________________________________________________________
TIME                    .s                                                  :01 TIME
DD_PRESS                .bar                                                :02 DRAW DOWN PRESSURE
DD_VOLUME               .cm3                                                :03 INCREMENTAL DRAW DOWN VOLUME
TEMP                    .degC                                               :04 TRANSDUCER TEMPERATURE
DD_PRESS_MOD_1000       .bar                                                :05 DRAW DOWN PRESSURE MOD 1000
DD_PRESS_MOD_100        .bar                                                :06 DRAW DOWN PRESSURE MOD 100
DD_PRESS_MOD_10         .bar                                                :07 DRAW DOWN PRESSURE MOD 10
DD_PRESS_MOD_1          .bar                                                :08 DRAW DOWN PRESSURE MOD 1
DD_PRESS_MOD_01         .bar                                                :09 DRAW DOWN PRESSURE MOD 01
DD_PRESS_MOD_001        .bar                                                :10 DRAW DOWN PRESSURE MOD 001
DD_PRESS_MOD_0001       .bar                                                :11 DRAW DOWN PRESSURE MOD 0001


~PARAMETER INFORMATION
#MNEM                   .UNIT        VALUE                                   DESCRIPTION
#________________________________________________________________________________________
TOOLFACE                .deg         63.0                                   :01 TOOLFACE
PUMP_CAPACITY           .bar         400                                    :02 NOMINAL DRAW DOWN PUMP CAPACITY
PUMP_LIMIT              .bar         240                                    :03 DOWNLINK PUMP LIMIT
TIME_LIMIT              .min         10                                     :04 DOWNLINK MAX TIME
TEST_TYPE               .            HIGH MOBILITY                          :05 DOWNLINK
DD_PIST_A               .cm2         3.1416                                 :06 DRAW DOWN PISTON AREA
V_SYS                   .cm3         131.0000                               :07 SYSTEM VOLUME
PROBE_ID                .cm          1.2700                                 :08 TTK PROBE ID
G0                      .            4.6700                                 :09 GEOMETRY FACTOR


~A                  TIME     DD_PRESS                              DD_VOLUME               TEMP                                   DD_PRESS_MOD_1000       DD_PRESS_MOD_100        DD_PRESS_MOD_10         DD_PRESS_MOD_1        DD_PRESS_MOD_01       DD_PRESS_MOD_001      DD_PRESS_MOD_0001
# ...
                  150.50    414.98873                                0.00000             80.320                                        4.14989e+002           1.49887e+001           4.98873e+000           9.88733e-001           8.87326e-002           8.73260e-003           7.32595e-004
                  150.60    414.96943                                0.00000             80.320                                        4.14969e+002           1.49694e+001           4.96943e+000           9.69434e-001           6.94342e-002           9.43423e-003           4.34227e-004
                  150.70    414.96919                                0.00000             80.320                                        4.14969e+002           1.49692e+001           4.96919e+000           9.69189e-001           6.91886e-002           9.18860e-003           1.88598e-004
                  150.80    414.99011                                0.00000             80.320                                        4.14990e+002           1.49901e+001           4.99011e+000           9.90105e-001           9.01052e-002           1.05228e-004           1.05228e-004
                  150.90    414.98963                                0.00000             80.320                                        4.14990e+002           1.49896e+001           4.98963e+000           9.89626e-001           8.96265e-002           9.62648e-003           6.26482e-004
                  151.00    414.95927                                0.00000             80.320                                        4.14959e+002           1.49593e+001           4.95927e+000           9.59266e-001           5.92657e-002           9.26567e-003           2.65667e-004
                  151.10    414.95370                                0.00000             80.320                                        4.14954e+002           1.49537e+001           4.95370e+000           9.53700e-001           5.36996e-002           3.69963e-003           6.99632e-004
                  151.20    414.98592                                0.00000             80.323                                        4.14986e+002           1.49859e+001           4.98592e+000           9.85917e-001           8.59166e-002           5.91660e-003           9.16601e-004
                  151.30    414.98646                                0.00000             80.326                                        4.14986e+002           1.49865e+001           4.98646e+000           9.86459e-001           8.64586e-002           6.45856e-003           4.58562e-004
                  151.40    414.95419                                0.00000             80.328                                        4.14954e+002           1.49542e+001           4.95419e+000           9.54191e-001           5.41912e-002           4.19120e-003           1.91195e-004
                  151.50    414.95035                                0.00000             80.328                                        4.14950e+002           1.49503e+001           4.95035e+000           9.50349e-001           5.03491e-002           3.49087e-004           3.49087e-004
                  151.60    414.98087                                0.00000             80.328                                        4.14981e+002           1.49809e+001           4.98087e+000           9.80871e-001           8.08713e-002           8.71292e-004           8.71292e-004
                  151.70    414.97850                                0.00000             80.328                                        4.14978e+002           1.49785e+001           4.97850e+000           9.78500e-001           7.84999e-002           8.49994e-003           4.99940e-004
                  151.80    414.94418                                0.00000             80.328                                        4.14944e+002           1.49442e+001           4.94418e+000           9.44181e-001           4.41807e-002           4.18070e-003           1.80703e-004
                  151.90    414.92870                                0.00000             80.328                                        4.14929e+002           1.49287e+001           4.92870e+000           9.28704e-001           2.87039e-002           8.70393e-003           7.03925e-004
                  152.00    414.95661                                0.00000             80.328                                        4.14957e+002           1.49566e+001           4.95661e+000           9.56606e-001           5.66058e-002           6.60584e-003           6.05836e-004
                  152.10    414.96980                                0.00000             80.328                                        4.14970e+002           1.49698e+001           4.96980e+000           9.69803e-001           6.98033e-002           9.80326e-003           8.03265e-004
                  152.20    414.95353                                0.00000             80.328                                        4.14954e+002           1.49535e+001           4.95353e+000           9.53525e-001           5.35251e-002           3.52512e-003           5.25122e-004
                  152.30    414.95820                                0.00000             80.328                                        4.14958e+002           1.49582e+001           4.95820e+000           9.58198e-001           5.81983e-002           8.19831e-003           1.98310e-004
                  152.40    414.98014                                0.00000             80.328                                        4.14980e+002           1.49801e+001           4.98014e+000           9.80142e-001           8.01422e-002           1.42156e-004           1.42156e-004
                  152.50    414.97959                                0.00000             80.328                                        4.14980e+002           1.49796e+001           4.97959e+000           9.79588e-001           7.95884e-002           9.58842e-003           5.88422e-004
                  152.60    414.97066                                0.00000             80.328                                        4.14971e+002           1.49707e+001           4.97066e+000           9.70660e-001           7.06598e-002           6.59842e-004           6.59842e-004
                  152.70    414.98108                                0.00000             80.328                                        4.14981e+002           1.49811e+001           4.98108e+000           9.81082e-001           8.10825e-002           1.08248e-003           8.24766e-005
                  152.80    414.99042                                0.00000             80.328                                        4.14990e+002           1.49904e+001           4.99042e+000           9.90419e-001           9.04188e-002           4.18769e-004           4.18769e-004
                  152.90    414.98850                                0.00000             80.328                                        4.14989e+002           1.49885e+001           4.98850e+000           9.88501e-001           8.85006e-002           8.50055e-003           5.00555e-004
                  153.00    414.97631                                0.00000             80.328                                        4.14976e+002           1.49763e+001           4.97631e+000           9.76309e-001           7.63093e-002           6.30933e-003           3.09335e-004
                  153.10    414.97302                                0.00000             80.328                                        4.14973e+002           1.49730e+001           4.97302e+000           9.73023e-001           7.30226e-002           3.02258e-003           2.25810e-005
                  153.20    414.97755                                0.00000             80.328                                        4.14978e+002           1.49775e+001           4.97755e+000           9.77548e-001           7.75485e-002           7.54850e-003           5.48495e-004
