~VERSION INFORMATION
VERS                    .            2.0                                    :CWLS LOG ASCII STANDARD
WRAP                    .            NO                                     :ONE LINE PER TIME STEP


~WELL INFORMATION
#MNEM                   .UNIT        DATA                                    DESCRIPTION
#________________________________________________________________________________________
STRTTIME                .HH/MM/SS    08:31:17                               :START TIME
STOPTIME                .HH/MM/SS    08:34:03                               :STOP TIME
STRT                    .s           2.10                                   :START DATA
STOP                    .s           164.70                                 :STOP DATA
STEP                    .s           0.10                                   :MEASUREMENT TIME INTERVAL
NULL                    .            -999.25                                :NULL VALUE
COMP                    .            Statoil ASA                            :COMPANY
FLD                     .            Volve                                  :FIELD
WELL                    .            15/9-F-11 A                            :WELL
RUN                     .            8                                      :RUN
LOC                     .            Maersk Inspirer                        :LOCATION
PROV                    .            na                                     :PROVINCE
SRVC                    .            Baker Hughes INTEQ                     :SERVICE COMPANY
DATE                    .YY/MM/DD    13/05/21                               :LOG DATE
UWI                     .                                                   :UNIQUE WELL ID
DEPTHMD                 .m           3688.1                                 :MEASURED DEPTH
DEPTHTVD                .m           3069.8                                 :TRUE VERTICAL DEPTH


~CURVE INFORMATION
#MNEM                   .UNIT        API CODES                               DESCRIPTION
#________________________________________________________________________________________
TIME                    .s                                                  :01 TIME
DD_PRESS                .bar                                                :02 DRAW DOWN PRESSURE
DD_VOLUME               .cm3                                                :03 INCREMENTAL DRAW DOWN VOLUME
TEMP                    .degC                                               :04 TRANSDUCER TEMPERATURE
DD_PRESS_MOD_1000       .bar                                                :05 DRAW DOWN PRESSURE MOD 1000
DD_PRESS_MOD_100        .bar                                                :06 DRAW DOWN PRESSURE MOD 100
DD_PRESS_MOD_10         .bar                                                :07 DRAW DOWN PRESSURE MOD 10
DD_PRESS_MOD_1          .bar                                                :08 DRAW DOWN PRESSURE MOD 1
DD_PRESS_MOD_01         .bar                                                :09 DRAW DOWN PRESSURE MOD 01
DD_PRESS_MOD_001        .bar                                                :10 DRAW DOWN PRESSURE MOD 001
DD_PRESS_MOD_0001       .bar                                                :11 DRAW DOWN PRESSURE MOD 0001


~PARAMETER INFORMATION
#MNEM                   .UNIT        VALUE                                   DESCRIPTION
#________________________________________________________________________________________
TOOLFACE                .deg         -78.9                                  :01 TOOLFACE
PUMP_CAPACITY           .bar         400                                    :02 NOMINAL DRAW DOWN PUMP CAPACITY
PUMP_LIMIT              .bar         240                                    :03 DOWNLINK PUMP LIMIT
TIME_LIMIT              .min         10                                     :04 DOWNLINK MAX TIME
TEST_TYPE               .            REPEAT                                 :05 DOWNLINK
TEST_TYPE               .            HIGH MOBILITY                          :06 DOWNLINK
DD_PIST_A               .cm2         3.1416                                 :07 DRAW DOWN PISTON AREA
V_SYS                   .cm3         131.0000                               :08 SYSTEM VOLUME
PROBE_ID                .cm          1.2700                                 :09 TTK PROBE ID
G0                      .            4.6700                                 :10 GEOMETRY FACTOR


~A                  TIME     DD_PRESS                              DD_VOLUME               TEMP                                   DD_PRESS_MOD_1000       DD_PRESS_MOD_100        DD_PRESS_MOD_10         DD_PRESS_MOD_1        DD_PRESS_MOD_01       DD_PRESS_MOD_001      DD_PRESS_MOD_0001
# ...
                  130.90    346.05067                               29.44544             83.248                                        3.46051e+002           4.60507e+001           6.05067e+000           5.06672e-002           5.06672e-002           6.67154e-004           6.67154e-004
                  131.00    346.04072                               29.44544             83.244                                        3.46041e+002           4.60407e+001           6.04072e+000           4.07206e-002           4.07206e-002           7.20597e-004           7.20597e-004
                  131.10    346.04462                               29.44544             83.242                                        3.46045e+002           4.60446e+001           6.04462e+000           4.46186e-002           4.46186e-002           4.61862e-003           6.18622e-004
                  131.20    346.06024                               29.44544             83.242                                        3.46060e+002           4.60602e+001           6.06024e+000           6.02438e-002           6.02438e-002           2.43756e-004           2.43756e-004
                  131.30    346.06402                               29.44544             83.242                                        3.46064e+002           4.60640e+001           6.06402e+000           6.40247e-002           6.40247e-002           4.02466e-003           2.46629e-005
                  131.40    346.05266                               29.44544             83.242                                        3.46053e+002           4.60527e+001           6.05266e+000           5.26623e-002           5.26623e-002           2.66233e-003           6.62326e-004
                  131.50    346.05305                               29.44544             83.242                                        3.46053e+002           4.60530e+001           6.05305e+000           5.30458e-002           5.30458e-002           3.04581e-003           4.58053e-005
                  131.60    346.06027                               29.44544             83.242                                        3.46060e+002           4.60603e+001           6.06027e+000           6.02682e-002           6.02682e-002           2.68240e-004           2.68240e-004
                  131.70    346.05328                               29.44544             83.242                                        3.46053e+002           4.60533e+001           6.05328e+000           5.32834e-002           5.32834e-002           3.28345e-003           2.83449e-004
                  131.80    346.04444                               29.44544             83.245                                        3.46044e+002           4.60444e+001           6.04444e+000           4.44362e-002           4.44362e-002           4.43619e-003           4.36191e-004
                  131.90    346.05154                               29.44544             83.246                                        3.46052e+002           4.60515e+001           6.05154e+000           5.15445e-002           5.15445e-002           1.54448e-003           5.44475e-004
                  132.00    346.05759                               29.44544             83.244                                        3.46058e+002           4.60576e+001           6.05759e+000           5.75916e-002           5.75916e-002           7.59157e-003           5.91571e-004
                  132.10    346.04983                               29.44544             83.242                                        3.46050e+002           4.60498e+001           6.04983e+000           4.98270e-002           4.98270e-002           9.82700e-003           8.27004e-004
                  132.20    346.05265                               29.44544             83.242                                        3.46053e+002           4.60527e+001           6.05265e+000           5.26505e-002           5.26505e-002           2.65054e-003           6.50544e-004
                  132.30    346.06255                               29.44544             83.242                                        3.46063e+002           4.60625e+001           6.06255e+000           6.25451e-002           6.25451e-002           2.54514e-003           5.45137e-004
                  132.40    346.05809                               29.44544             83.242                                        3.46058e+002           4.60581e+001           6.05809e+000           5.80911e-002           5.80911e-002           8.09113e-003           9.11265e-005
                  132.50    346.04298                               29.44544             83.242                                        3.46043e+002           4.60430e+001           6.04298e+000           4.29799e-002           4.29799e-002           2.97988e-003           9.79883e-004
                  132.60    346.04113                               29.44544             83.242                                        3.46041e+002           4.60411e+001           6.04113e+000           4.11284e-002           4.11284e-002           1.12839e-003           1.28386e-004
                  132.70    346.05224                               29.44544             83.242                                        3.46052e+002           4.60522e+001           6.05224e+000           5.22357e-002           5.22357e-002           2.23569e-003           2.35687e-004
                  132.80    346.06053                               29.44544             83.245                                        3.46061e+002           4.60605e+001           6.06053e+000           6.05273e-002           6.05273e-002           5.27322e-004           5.27322e-004
                  132.90    346.05334                               29.44544             83.248                                        3.46053e+002           4.60533e+001           6.05334e+000           5.33415e-002           5.33415e-002           3.34150e-003           3.41504e-004
                  133.00    346.04218                               29.44544             83.250                                        3.46042e+002           4.60422e+001           6.04218e+000           4.21838e-002           4.21838e-002           2.18377e-003           1.83767e-004
                  133.10    346.04906                               29.44544             83.248                                        3.46049e+002           4.60491e+001           6.04906e+000           4.90578e-002           4.90578e-002           9.05780e-003           5.77957e-005
                  133.20    346.06790                               29.44544             83.244                                        3.46068e+002           4.60679e+001           6.06790e+000           6.78985e-002           6.78985e-002           7.89852e-003           8.98522e-004
                  133.30    346.06783                               29.44544             83.242                                        3.46068e+002           4.60678e+001           6.06783e+000           6.78300e-002           6.78300e-002           7.82999e-003           8.29985e-004
                  133.40    346.05156                               29.44544             83.242                                        3.46052e+002           4.60516e+001           6.05156e+000           5.15558e-002           5.15558e-002           1.55578e-003           5.55784e-004
                  133.50    346.04522                               29.44544             83.242                                        3.46045e+002           4.60452e+001           6.04522e+000           4.52212e-002           4.52212e-002           5.22118e-003           2.21178e-004
                  133.60    346.05380                               29.44544             83.242                                        3.46054e+002           4.60538e+001           6.05380e+000           5.37972e-002           5.37972e-002           3.79720e-003           7.97198e-004
