~VERSION INFORMATION
VERS                    .            2.0                                    :CWLS LOG ASCII STANDARD
WRAP                    .            NO                                     :ONE LINE PER TIME STEP


~WELL INFORMATION
#MNEM                   .UNIT        DATA                                    DESCRIPTION
#________________________________________________________________________________________
STRTTIME                .HH/MM/SS    09:08:53                               :START TIME
STOPTIME                .HH/MM/SS    09:11:57                               :STOP TIME
STRT                    .s           2.10                                   :START DATA
STOP                    .s           182.80                                 :STOP DATA
STEP                    .s           0.10                                   :MEASUREMENT TIME INTERVAL
NULL                    .            -999.25                                :NULL VALUE
COMP                    .            Statoil ASA                            :COMPANY
FLD                     .            Volve                                  :FIELD
WELL                    .            15/9-F-11 A                            :WELL
RUN                     .            8                                      :RUN
LOC                     .            Maersk Inspirer                        :LOCATION
PROV                    .            na                                     :PROVINCE
SRVC                    .            Baker Hughes INTEQ                     :SERVICE COMPANY
DATE                    .YY/MM/DD    13/05/21                               :LOG DATE
UWI                     .                                                   :UNIQUE WELL ID
DEPTHMD                 .m           3671.1                                 :MEASURED DEPTH
DEPTHTVD                .m           3056.7                                 :TRUE VERTICAL DEPTH


~CURVE INFORMATION
#MNEM                   .UNIT        API CODES                               DESCRIPTION
#________________________________________________________________________________________
TIME                    .s                                                  :01 TIME
DD_PRESS                .bar                                                :02 DRAW DOWN PRESSURE
DD_VOLUME               .cm3                                                :03 INCREMENTAL DRAW DOWN VOLUME
TEMP                    .degC                                               :04 TRANSDUCER TEMPERATURE
DD_PRESS_MOD_1000       .bar                                                :05 DRAW DOWN PRESSURE MOD 1000
DD_PRESS_MOD_100        .bar                                                :06 DRAW DOWN PRESSURE MOD 100
DD_PRESS_MOD_10         .bar                                                :07 DRAW DOWN PRESSURE MOD 10
DD_PRESS_MOD_1          .bar                                                :08 DRAW DOWN PRESSURE MOD 1
DD_PRESS_MOD_01         .bar                                                :09 DRAW DOWN PRESSURE MOD 01
DD_PRESS_MOD_001        .bar                                                :10 DRAW DOWN PRESSURE MOD 001
DD_PRESS_MOD_0001       .bar                                                :11 DRAW DOWN PRESSURE MOD 0001


~PARAMETER INFORMATION
#MNEM                   .UNIT        VALUE                                   DESCRIPTION
#________________________________________________________________________________________
TOOLFACE                .deg         -56.2                                  :01 TOOLFACE
PUMP_CAPACITY           .bar         400                                    :02 NOMINAL DRAW DOWN PUMP CAPACITY
PUMP_LIMIT              .bar         240                                    :03 DOWNLINK PUMP LIMIT
TIME_LIMIT              .min         10                                     :04 DOWNLINK MAX TIME
TEST_TYPE               .            REPEAT                                 :05 DOWNLINK
TEST_TYPE               .            HIGH MOBILITY                          :06 DOWNLINK
DD_PIST_A               .cm2         3.1416                                 :07 DRAW DOWN PISTON AREA
V_SYS                   .cm3         131.0000                               :08 SYSTEM VOLUME
PROBE_ID                .cm          1.2700                                 :09 TTK PROBE ID
G0                      .            4.6700                                 :10 GEOMETRY FACTOR


~A                  TIME     DD_PRESS                              DD_VOLUME               TEMP                                   DD_PRESS_MOD_1000       DD_PRESS_MOD_100        DD_PRESS_MOD_10         DD_PRESS_MOD_1        DD_PRESS_MOD_01       DD_PRESS_MOD_001      DD_PRESS_MOD_0001
# ...
                   97.30    345.03811                               18.89938             82.391                                        3.45038e+002           4.50381e+001           5.03811e+000           3.81137e-002           3.81137e-002           8.11374e-003           1.13738e-004
                   97.40    345.01984                               18.89938             82.391                                        3.45020e+002           4.50198e+001           5.01984e+000           1.98403e-002           1.98403e-002           9.84032e-003           8.40324e-004
                   97.50    345.04026                               18.89938             82.391                                        3.45040e+002           4.50403e+001           5.04026e+000           4.02628e-002           4.02628e-002           2.62783e-004           2.62783e-004
                   97.60    345.05113                               18.89938             82.391                                        3.45051e+002           4.50511e+001           5.05113e+000           5.11344e-002           5.11344e-002           1.13440e-003           1.34405e-004
                   97.70    345.03645                               18.89938             82.391                                        3.45036e+002           4.50364e+001           5.03645e+000           3.64455e-002           3.64455e-002           6.44549e-003           4.45490e-004
                   97.80    345.03176                               18.89938             82.391                                        3.45032e+002           4.50318e+001           5.03176e+000           3.17637e-002           3.17637e-002           1.76370e-003           7.63702e-004
                   97.90    345.04858                               18.89938             82.391                                        3.45049e+002           4.50486e+001           5.04858e+000           4.85774e-002           4.85774e-002           8.57744e-003           5.77439e-004
                   98.00    345.05611                               18.89938             82.391                                        3.45056e+002           4.50561e+001           5.05611e+000           5.61077e-002           5.61077e-002           6.10773e-003           1.07730e-004
                   98.10    345.05776                               18.89938             82.391                                        3.45058e+002           4.50578e+001           5.05776e+000           5.77603e-002           5.77603e-002           7.76030e-003           7.60296e-004
                   98.20    345.06044                               18.89938             82.391                                        3.45060e+002           4.50604e+001           5.06044e+000           6.04372e-002           6.04372e-002           4.37236e-004           4.37236e-004
                   98.30    345.05006                               18.89938             82.391                                        3.45050e+002           4.50501e+001           5.05006e+000           5.00603e-002           5.00603e-002           6.02630e-005           6.02630e-005
                   98.40    345.04356                               18.89938             82.391                                        3.45044e+002           4.50436e+001           5.04356e+000           4.35594e-002           4.35594e-002           3.55942e-003           5.59418e-004
                   98.50    345.04127                               18.89938             82.391                                        3.45041e+002           4.50413e+001           5.04127e+000           4.12680e-002           4.12680e-002           1.26796e-003           2.67959e-004
                   98.60    345.03504                               18.89938             82.391                                        3.45035e+002           4.50350e+001           5.03504e+000           3.50354e-002           3.50354e-002           5.03538e-003           3.53791e-005
                   98.70    345.03827                               18.89938             82.391                                        3.45038e+002           4.50383e+001           5.03827e+000           3.82704e-002           3.82704e-002           8.27044e-003           2.70443e-004
                   98.80    345.05358                               18.89938             82.391                                        3.45054e+002           4.50536e+001           5.05358e+000           5.35793e-002           5.35793e-002           3.57932e-003           5.79319e-004
                   98.90    345.05614                               18.89938             82.391                                        3.45056e+002           4.50561e+001           5.05614e+000           5.61371e-002           5.61371e-002           6.13711e-003           1.37112e-004
                   99.00    345.03733                               18.89938             82.391                                        3.45037e+002           4.50373e+001           5.03733e+000           3.73317e-002           3.73317e-002           7.33173e-003           3.31734e-004
                   99.10    345.03316                               18.89938             82.391                                        3.45033e+002           4.50332e+001           5.03316e+000           3.31619e-002           3.31619e-002           3.16195e-003           1.61945e-004
                   99.20    345.05454                               18.89938             82.391                                        3.45055e+002           4.50545e+001           5.05454e+000           5.45405e-002           5.45405e-002           4.54050e-003           5.40501e-004
                   99.30    345.06473                               18.89938             82.391                                        3.45065e+002           4.50647e+001           5.06473e+000           6.47327e-002           6.47327e-002           4.73273e-003           7.32729e-004
                   99.40    345.04980                               18.89938             82.391                                        3.45050e+002           4.50498e+001           5.04980e+000           4.98005e-002           4.98005e-002           9.80053e-003           8.00531e-004
                   99.50    345.04544                               18.89938             82.391                                        3.45045e+002           4.50454e+001           5.04544e+000           4.54447e-002           4.54447e-002           5.44474e-003           4.44744e-004
                   99.60    345.04349                               18.89938             82.391                                        3.45043e+002           4.50435e+001           5.04349e+000           4.34917e-002           4.34917e-002           3.49171e-003           4.91708e-004
                   99.70    345.03414                               18.89938             82.391                                        3.45034e+002           4.50341e+001           5.03414e+000           3.41388e-002           3.41388e-002           4.13880e-003           1.38797e-004
                   99.80    345.04501                               18.89938             82.391                                        3.45045e+002           4.50450e+001           5.04501e+000           4.50141e-002           4.50141e-002           5.01405e-003           1.40506e-005
                   99.90    345.06740                               18.89938             82.391                                        3.45067e+002           4.50674e+001           5.06740e+000           6.74033e-002           6.74033e-002           7.40325e-003           4.03252e-004
                  100.00    345.05963                               18.89938             82.391                                        3.45060e+002           4.50596e+001           5.05963e+000           5.96305e-002           5.96305e-002           9.63046e-003           6.30459e-004
