~VERSION INFORMATION
VERS                    .            2.0                                    :CWLS LOG ASCII STANDARD
WRAP                    .            NO                                     :ONE LINE PER TIME STEP


~WELL INFORMATION
#MNEM                   .UNIT        DATA                                    DESCRIPTION
#________________________________________________________________________________________
STRTTIME                .HH/MM/SS    08:48:41                               :START TIME
STOPTIME                .HH/MM/SS    08:51:35                               :STOP TIME
STRT                    .s           2.10                                   :START DATA
STOP                    .s           172.50                                 :STOP DATA
STEP                    .s           0.10                                   :MEASUREMENT TIME INTERVAL
NULL                    .            -999.25                                :NULL VALUE
COMP                    .            Statoil ASA                            :COMPANY
FLD                     .            Volve                                  :FIELD
WELL                    .            15/9-F-11 A                            :WELL
RUN                     .            8                                      :RUN
LOC                     .            Maersk Inspirer                        :LOCATION
PROV                    .            na                                     :PROVINCE
SRVC                    .            Baker Hughes INTEQ                     :SERVICE COMPANY
DATE                    .YY/MM/DD    13/05/21                               :LOG DATE
UWI                     .                                                   :UNIQUE WELL ID
DEPTHMD                 .m           3681.0                                 :MEASURED DEPTH
DEPTHTVD                .m           3064.4                                 :TRUE VERTICAL DEPTH


~CURVE INFORMATION
#MNEM                   .UNIT        API CODES                               DESCRIPTION
#________________________________________________________________________________________
TIME                    .s                                                  :01 TIME
DD_PRESS                .bar                                                :02 DRAW DOWN PRESSURE
DD_VOLUME               .cm3                                                :03 INCREMENTAL DRAW DOWN VOLUME
TEMP                    .degC                                               :04 TRANSDUCER TEMPERATURE
DD_PRESS_MOD_1000       .bar                                                :05 DRAW DOWN PRESSURE MOD 1000
DD_PRESS_MOD_100        .bar                                                :06 DRAW DOWN PRESSURE MOD 100
DD_PRESS_MOD_10         .bar                                                :07 DRAW DOWN PRESSURE MOD 10
DD_PRESS_MOD_1          .bar                                                :08 DRAW DOWN PRESSURE MOD 1
DD_PRESS_MOD_01         .bar                                                :09 DRAW DOWN PRESSURE MOD 01
DD_PRESS_MOD_001        .bar                                                :10 DRAW DOWN PRESSURE MOD 001
DD_PRESS_MOD_0001       .bar                                                :11 DRAW DOWN PRESSURE MOD 0001


~PARAMETER INFORMATION
#MNEM                   .UNIT        VALUE                                   DESCRIPTION
#________________________________________________________________________________________
TOOLFACE                .deg         -59.5                                  :01 TOOLFACE
PUMP_CAPACITY           .bar         400                                    :02 NOMINAL DRAW DOWN PUMP CAPACITY
PUMP_LIMIT              .bar         240                                    :03 DOWNLINK PUMP LIMIT
TIME_LIMIT              .min         10                                     :04 DOWNLINK MAX TIME
TEST_TYPE               .            REPEAT                                 :05 DOWNLINK
TEST_TYPE               .            HIGH MOBILITY                          :06 DOWNLINK
DD_PIST_A               .cm2         3.1416                                 :07 DRAW DOWN PISTON AREA
V_SYS                   .cm3         131.0000                               :08 SYSTEM VOLUME
PROBE_ID                .cm          1.2700                                 :09 TTK PROBE ID
G0                      .            4.6700                                 :10 GEOMETRY FACTOR


~A                  TIME     DD_PRESS                              DD_VOLUME               TEMP                                   DD_PRESS_MOD_1000       DD_PRESS_MOD_100        DD_PRESS_MOD_10         DD_PRESS_MOD_1        DD_PRESS_MOD_01       DD_PRESS_MOD_001      DD_PRESS_MOD_0001
# ...
                  136.50    345.52792                               29.44423             82.578                                        3.45528e+002           4.55279e+001           5.52792e+000           5.27917e-001           2.79167e-002           7.91669e-003           9.16692e-004
                  136.60    345.52880                               29.44423             82.578                                        3.45529e+002           4.55288e+001           5.52880e+000           5.28801e-001           2.88009e-002           8.80091e-003           8.00909e-004
                  136.70    345.54576                               29.44423             82.578                                        3.45546e+002           4.55458e+001           5.54576e+000           5.45759e-001           4.57594e-002           5.75942e-003           7.59424e-004
                  136.80    345.55043                               29.44423             82.578                                        3.45550e+002           4.55504e+001           5.55043e+000           5.50428e-001           5.04279e-002           4.27888e-004           4.27888e-004
                  136.90    345.53010                               29.44423             82.578                                        3.45530e+002           4.55301e+001           5.53010e+000           5.30102e-001           3.01017e-002           1.01741e-004           1.01741e-004
                  137.00    345.52500                               29.44423             82.578                                        3.45525e+002           4.55250e+001           5.52500e+000           5.24995e-001           2.49953e-002           4.99534e-003           9.95342e-004
                  137.10    345.53953                               29.44423             82.578                                        3.45540e+002           4.55395e+001           5.53953e+000           5.39532e-001           3.95317e-002           9.53170e-003           5.31704e-004
                  137.20    345.54742                               29.44423             82.578                                        3.45547e+002           4.55474e+001           5.54742e+000           5.47419e-001           4.74185e-002           7.41852e-003           4.18524e-004
                  137.30    345.54050                               29.44423             82.578                                        3.45540e+002           4.55405e+001           5.54050e+000           5.40497e-001           4.04970e-002           4.97035e-004           4.97035e-004
                  137.40    345.53393                               29.44423             82.578                                        3.45534e+002           4.55339e+001           5.53393e+000           5.33927e-001           3.39272e-002           3.92715e-003           9.27153e-004
                  137.50    345.53188                               29.44423             82.578                                        3.45532e+002           4.55319e+001           5.53188e+000           5.31880e-001           3.18798e-002           1.87978e-003           8.79783e-004
                  137.60    345.53664                               29.44423             82.578                                        3.45537e+002           4.55366e+001           5.53664e+000           5.36641e-001           3.66412e-002           6.64119e-003           6.41188e-004
                  137.70    345.54066                               29.44423             82.578                                        3.45541e+002           4.55407e+001           5.54066e+000           5.40656e-001           4.06564e-002           6.56421e-004           6.56421e-004
                  137.80    345.54224                               29.44423             82.578                                        3.45542e+002           4.55422e+001           5.54224e+000           5.42237e-001           4.22367e-002           2.23674e-003           2.36741e-004
                  137.90    345.54494                               29.44423             82.578                                        3.45545e+002           4.55449e+001           5.54494e+000           5.44938e-001           4.49377e-002           4.93770e-003           9.37698e-004
                  138.00    345.54054                               29.44423             82.578                                        3.45541e+002           4.55405e+001           5.54054e+000           5.40541e-001           4.05409e-002           5.40922e-004           5.40922e-004
                  138.10    345.53522                               29.44423             82.578                                        3.45535e+002           4.55352e+001           5.53522e+000           5.35218e-001           3.52180e-002           5.21796e-003           2.17959e-004
                  138.20    345.53865                               29.44423             82.578                                        3.45539e+002           4.55386e+001           5.53865e+000           5.38646e-001           3.86460e-002           8.64605e-003           6.46046e-004
                  138.30    345.53799                               29.44423             82.578                                        3.45538e+002           4.55380e+001           5.53799e+000           5.37989e-001           3.79890e-002           7.98904e-003           9.89044e-004
                  138.40    345.53497                               29.44423             82.578                                        3.45535e+002           4.55350e+001           5.53497e+000           5.34971e-001           3.49713e-002           4.97129e-003           9.71286e-004
                  138.50    345.53926                               29.44423             82.578                                        3.45539e+002           4.55393e+001           5.53926e+000           5.39265e-001           3.92648e-002           9.26477e-003           2.64766e-004
                  138.60    345.54524                               29.44423             82.578                                        3.45545e+002           4.55452e+001           5.54524e+000           5.45245e-001           4.52446e-002           5.24456e-003           2.44558e-004
                  138.70    345.54219                               29.44423             82.578                                        3.45542e+002           4.55422e+001           5.54219e+000           5.42192e-001           4.21918e-002           2.19178e-003           1.91782e-004
                  138.80    345.53441                               29.44423             82.578                                        3.45534e+002           4.55344e+001           5.53441e+000           5.34409e-001           3.44094e-002           4.40943e-003           4.09427e-004
                  138.90    345.52968                               29.44423             82.578                                        3.45530e+002           4.55297e+001           5.52968e+000           5.29680e-001           2.96801e-002           9.68015e-003           6.80147e-004
                  139.00    345.53018                               29.44423             82.578                                        3.45530e+002           4.55302e+001           5.53018e+000           5.30177e-001           3.01772e-002           1.77233e-004           1.77233e-004
                  139.10    345.53890                               29.44423             82.578                                        3.45539e+002           4.55389e+001           5.53890e+000           5.38904e-001           3.89036e-002           8.90363e-003           9.03625e-004
                  139.20    345.54209                               29.44423             82.578                                        3.45542e+002           4.55421e+001           5.54209e+000           5.42094e-001           4.20942e-002           2.09418e-003           9.41819e-005
