~VERSION INFORMATION
VERS                    .            2.0                                    :CWLS LOG ASCII STANDARD
WRAP                    .            NO                                     :ONE LINE PER TIME STEP


~WELL INFORMATION
#MNEM                   .UNIT        DATA                                    DESCRIPTION
#________________________________________________________________________________________
STRTTIME                .HH/MM/SS    10:02:47                               :START TIME
STOPTIME                .HH/MM/SS    10:07:04                               :STOP TIME
STRT                    .s           2.10                                   :START DATA
STOP                    .s           255.20                                 :STOP DATA
STEP                    .s           0.10                                   :MEASUREMENT TIME INTERVAL
NULL                    .            -999.25                                :NULL VALUE
COMP                    .            Statoil ASA                            :COMPANY
FLD                     .            Volve                                  :FIELD
WELL                    .            15/9-F-11 A                            :WELL
RUN                     .            8                                      :RUN
LOC                     .            Maersk Inspirer                        :LOCATION
PROV                    .            na                                     :PROVINCE
SRVC                    .            Baker Hughes INTEQ                     :SERVICE COMPANY
DATE                    .YY/MM/DD    13/05/21                               :LOG DATE
UWI                     .                                                   :UNIQUE WELL ID
DEPTHMD                 .m           3657.3                                 :MEASURED DEPTH
DEPTHTVD                .m           3046.2                                 :TRUE VERTICAL DEPTH


~CURVE INFORMATION
#MNEM                   .UNIT        API CODES                               DESCRIPTION
#________________________________________________________________________________________
TIME                    .s                                                  :01 TIME
DD_PRESS                .bar                                                :02 DRAW DOWN PRESSURE
DD_VOLUME               .cm3                                                :03 INCREMENTAL DRAW DOWN VOLUME
TEMP                    .degC                                               :04 TRANSDUCER TEMPERATURE
DD_PRESS_MOD_1000       .bar                                                :05 DRAW DOWN PRESSURE MOD 1000
DD_PRESS_MOD_100        .bar                                                :06 DRAW DOWN PRESSURE MOD 100
DD_PRESS_MOD_10         .bar                                                :07 DRAW DOWN PRESSURE MOD 10
DD_PRESS_MOD_1          .bar                                                :08 DRAW DOWN PRESSURE MOD 1
DD_PRESS_MOD_01         .bar                                                :09 DRAW DOWN PRESSURE MOD 01
DD_PRESS_MOD_001        .bar                                                :10 DRAW DOWN PRESSURE MOD 001
DD_PRESS_MOD_0001       .bar                                                :11 DRAW DOWN PRESSURE MOD 0001


~PARAMETER INFORMATION
#MNEM                   .UNIT        VALUE                                   DESCRIPTION
#________________________________________________________________________________________
TOOLFACE                .deg         60.1                                   :01 TOOLFACE
PUMP_CAPACITY           .bar         400                                    :02 NOMINAL DRAW DOWN PUMP CAPACITY
PUMP_LIMIT              .bar         240                                    :03 DOWNLINK PUMP LIMIT
TIME_LIMIT              .min         10                                     :04 DOWNLINK MAX TIME
TEST_TYPE               .            REPEAT                                 :05 DOWNLINK
TEST_TYPE               .            HIGH MOBILITY                          :06 DOWNLINK
DD_PIST_A               .cm2         3.1416                                 :07 DRAW DOWN PISTON AREA
V_SYS                   .cm3         131.0000                               :08 SYSTEM VOLUME
PROBE_ID                .cm          1.2700                                 :09 TTK PROBE ID
G0                      .            4.6700                                 :10 GEOMETRY FACTOR


~A                  TIME     DD_PRESS                              DD_VOLUME               TEMP                                   DD_PRESS_MOD_1000       DD_PRESS_MOD_100        DD_PRESS_MOD_10         DD_PRESS_MOD_1        DD_PRESS_MOD_01       DD_PRESS_MOD_001      DD_PRESS_MOD_0001
# ...
                  184.10    341.04742                               13.65670             82.102                                        3.41047e+002           4.10474e+001           1.04742e+000           4.74214e-002           4.74214e-002           7.42142e-003           4.21421e-004
                  184.20    341.33010                               13.65670             82.102                                        3.41330e+002           4.13301e+001           1.33010e+000           3.30096e-001           3.00962e-002           9.62258e-005           9.62258e-005
                  184.30    341.59374                               13.65670             82.102                                        3.41594e+002           4.15937e+001           1.59374e+000           5.93737e-001           9.37373e-002           3.73729e-003           7.37295e-004
                  184.40    341.82531                               13.65670             82.102                                        3.41825e+002           4.18253e+001           1.82531e+000           8.25309e-001           2.53089e-002           5.30890e-003           3.08903e-004
                  184.50    342.03235                               13.65670             82.102                                        3.42032e+002           4.20324e+001           2.03235e+000           3.23519e-002           3.23519e-002           2.35195e-003           3.51949e-004
                  184.60    342.22345                               13.65670             82.102                                        3.42223e+002           4.22235e+001           2.22345e+000           2.23454e-001           2.34543e-002           3.45428e-003           4.54279e-004
                  184.70    342.40421                               13.65670             82.102                                        3.42404e+002           4.24042e+001           2.40421e+000           4.04212e-001           4.21233e-003           4.21233e-003           2.12329e-004
                  184.80    342.57260                               13.65670             82.102                                        3.42573e+002           4.25726e+001           2.57260e+000           5.72598e-001           7.25976e-002           2.59764e-003           5.97641e-004
                  184.90    342.72210                               13.65670             82.102                                        3.42722e+002           4.27221e+001           2.72210e+000           7.22096e-001           2.20963e-002           2.09627e-003           9.62664e-005
                  185.00    342.85229                               13.65670             82.102                                        3.42852e+002           4.28523e+001           2.85229e+000           8.52292e-001           5.22919e-002           2.29187e-003           2.91868e-004
                  185.10    342.97734                               13.65670             82.102                                        3.42977e+002           4.29773e+001           2.97734e+000           9.77341e-001           7.73408e-002           7.34080e-003           3.40799e-004
                  185.20    343.09628                               13.65670             82.102                                        3.43096e+002           4.30963e+001           3.09628e+000           9.62841e-002           9.62841e-002           6.28407e-003           2.84075e-004
                  185.30    343.19954                               13.65670             82.102                                        3.43200e+002           4.31995e+001           3.19954e+000           1.99538e-001           9.95383e-002           9.53833e-003           5.38329e-004
                  185.40    343.29169                               13.65670             82.102                                        3.43292e+002           4.32917e+001           3.29169e+000           2.91690e-001           9.16898e-002           1.68984e-003           6.89839e-004
                  185.50    343.38155                               13.65670             82.102                                        3.43382e+002           4.33815e+001           3.38155e+000           3.81546e-001           8.15456e-002           1.54562e-003           5.45622e-004
                  185.60    343.46666                               13.65670             82.102                                        3.43467e+002           4.34667e+001           3.46666e+000           4.66661e-001           6.66607e-002           6.66070e-003           6.60699e-004
                  185.70    343.53862                               13.65670             82.102                                        3.43539e+002           4.35386e+001           3.53862e+000           5.38624e-001           3.86238e-002           8.62380e-003           6.23798e-004
                  185.80    343.60133                               13.65670             82.102                                        3.43601e+002           4.36013e+001           3.60133e+000           6.01335e-001           1.33484e-003           1.33484e-003           3.34842e-004
                  185.90    343.66523                               13.65670             82.102                                        3.43665e+002           4.36652e+001           3.66523e+000           6.65230e-001           6.52298e-002           5.22975e-003           2.29755e-004
                  186.00    343.72660                               13.65670             82.102                                        3.43727e+002           4.37266e+001           3.72660e+000           7.26604e-001           2.66039e-002           6.60392e-003           6.03918e-004
                  186.10    343.77690                               13.65670             82.102                                        3.43777e+002           4.37769e+001           3.77690e+000           7.76903e-001           7.69031e-002           6.90312e-003           9.03123e-004
                  186.20    343.81726                               13.65670             82.102                                        3.43817e+002           4.38173e+001           3.81726e+000           8.17264e-001           1.72643e-002           7.26429e-003           2.64295e-004
                  186.30    343.86264                               13.65670             82.102                                        3.43863e+002           4.38626e+001           3.86264e+000           8.62644e-001           6.26436e-002           2.64359e-003           6.43586e-004
                  186.40    343.91333                               13.65670             82.102                                        3.43913e+002           4.39133e+001           3.91333e+000           9.13335e-001           1.33347e-002           3.33475e-003           3.34750e-004
                  186.50    343.95080                               13.65670             82.102                                        3.43951e+002           4.39508e+001           3.95080e+000           9.50796e-001           5.07963e-002           7.96252e-004           7.96252e-004
                  186.60    343.97725                               13.65670             82.102                                        3.43977e+002           4.39772e+001           3.97725e+000           9.77249e-001           7.72493e-002           7.24934e-003           2.49345e-004
                  186.70    344.00951                               13.65670             82.102                                        3.44010e+002           4.40095e+001           4.00951e+000           9.50687e-003           9.50687e-003           9.50687e-003           5.06870e-004
                  186.80    344.04382                               13.65670             82.102                                        3.44044e+002           4.40438e+001           4.04382e+000           4.38183e-002           4.38183e-002           3.81832e-003           8.18320e-004
