~VERSION INFORMATION
VERS                    .            2.0                                    :CWLS LOG ASCII STANDARD
WRAP                    .            NO                                     :ONE LINE PER TIME STEP


~WELL INFORMATION
#MNEM                   .UNIT        DATA                                    DESCRIPTION
#________________________________________________________________________________________
STRTTIME                .HH/MM/SS    02:14:19                               :START TIME
STOPTIME                .HH/MM/SS    02:17:23                               :STOP TIME
STRT                    .s           2.10                                   :START DATA
STOP                    .s           182.70                                 :STOP DATA
STEP                    .s           0.10                                   :MEASUREMENT TIME INTERVAL
NULL                    .            -999.25                                :NULL VALUE
COMP                    .            Statoil ASA                            :COMPANY
FLD                     .            Volve                                  :FIELD
WELL                    .            15/9-F-1 C                             :WELL
RUN                     .            4                                      :RUN
LOC                     .                                                   :LOCATION
PROV                    .            na                                     :PROVINCE
SRVC                    .            Baker Hughes INTEQ                     :SERVICE COMPANY
DATE                    .YY/MM/DD    14/03/15                               :LOG DATE
UWI                     .                                                   :UNIQUE WELL ID
DEPTHMD                 .m           3603.0                                 :MEASURED DEPTH
DEPTHTVD                .m           3006.7                                 :TRUE VERTICAL DEPTH


~CURVE INFORMATION
#MNEM                   .UNIT        API CODES                               DESCRIPTION
#________________________________________________________________________________________
TIME                    .s                                                  :01 TIME
DD_PRESS                .bar                                                :02 DRAW DOWN PRESSURE
DD_VOLUME               .cm3                                                :03 INCREMENTAL DRAW DOWN VOLUME
TEMP                    .degC                                               :04 TRANSDUCER TEMPERATURE
DD_PRESS_MOD_1000       .bar                                                :05 DRAW DOWN PRESSURE MOD 1000
DD_PRESS_MOD_100        .bar                                                :06 DRAW DOWN PRESSURE MOD 100
DD_PRESS_MOD_10         .bar                                                :07 DRAW DOWN PRESSURE MOD 10
DD_PRESS_MOD_1          .bar                                                :08 DRAW DOWN PRESSURE MOD 1
DD_PRESS_MOD_01         .bar                                                :09 DRAW DOWN PRESSURE MOD 01
DD_PRESS_MOD_001        .bar                                                :10 DRAW DOWN PRESSURE MOD 001
DD_PRESS_MOD_0001       .bar                                                :11 DRAW DOWN PRESSURE MOD 0001


~PARAMETER INFORMATION
#MNEM                   .UNIT        VALUE                                   DESCRIPTION
#________________________________________________________________________________________
TOOLFACE                .deg         109.6                                  :01 TOOLFACE
PUMP_CAPACITY           .bar         400                                    :02 NOMINAL DRAW DOWN PUMP CAPACITY
PUMP_LIMIT              .bar         240                                    :03 DOWNLINK PUMP LIMIT
TIME_LIMIT              .min         10                                     :04 DOWNLINK MAX TIME
TEST_TYPE               .            REPEAT                                 :05 DOWNLINK
TEST_TYPE               .            HIGH MOBILITY                          :06 DOWNLINK
DD_PIST_A               .cm2         3.1416                                 :07 DRAW DOWN PISTON AREA
V_SYS                   .cm3         131.0000                               :08 SYSTEM VOLUME
PROBE_ID                .cm          1.2700                                 :09 TTK PROBE ID
G0                      .            4.6700                                 :10 GEOMETRY FACTOR


~A                  TIME     DD_PRESS                              DD_VOLUME               TEMP                                   DD_PRESS_MOD_1000       DD_PRESS_MOD_100        DD_PRESS_MOD_10         DD_PRESS_MOD_1        DD_PRESS_MOD_01       DD_PRESS_MOD_001      DD_PRESS_MOD_0001
# ...
                   27.30    340.07643                                2.81541             86.188                                        3.40076e+002           4.00764e+001           7.64318e-002           7.64318e-002           7.64318e-002           6.43181e-003           4.31806e-004
                   27.40    339.98837                                2.89201             86.188                                        3.39988e+002           3.99884e+001           9.98837e+000           9.88367e-001           8.83671e-002           8.36708e-003           3.67079e-004
                   27.50    339.91486                                2.96982             86.188                                        3.39915e+002           3.99149e+001           9.91486e+000           9.14858e-001           1.48585e-002           4.85847e-003           8.58470e-004
                   27.60    339.85251                                3.04886             86.188                                        3.39853e+002           3.98525e+001           9.85251e+000           8.52505e-001           5.25052e-002           2.50519e-003           5.05194e-004
                   27.70    339.79552                                3.12908             86.185                                        3.39796e+002           3.97955e+001           9.79552e+000           7.95521e-001           9.55213e-002           5.52126e-003           5.21265e-004
                   27.80    339.74720                                3.21052             86.182                                        3.39747e+002           3.97472e+001           9.74720e+000           7.47200e-001           4.71996e-002           7.19957e-003           1.99574e-004
                   27.90    339.69521                                3.29307             86.180                                        3.39695e+002           3.96952e+001           9.69521e+000           6.95211e-001           9.52112e-002           5.21117e-003           2.11168e-004
                   28.00    339.64061                                3.37684             86.180                                        3.39641e+002           3.96406e+001           9.64061e+000           6.40607e-001           4.06071e-002           6.07125e-004           6.07125e-004
                   28.10    339.59049                                3.46160             86.180                                        3.39590e+002           3.95905e+001           9.59049e+000           5.90486e-001           9.04858e-002           4.85756e-004           4.85756e-004
                   28.20    339.54459                                3.54721             86.180                                        3.39545e+002           3.95446e+001           9.54459e+000           5.44590e-001           4.45902e-002           4.59022e-003           5.90215e-004
                   28.30    339.49838                                3.63382             86.180                                        3.39498e+002           3.94984e+001           9.49838e+000           4.98376e-001           9.83765e-002           8.37648e-003           3.76479e-004
                   28.40    339.44224                                3.72147             86.180                                        3.39442e+002           3.94422e+001           9.44224e+000           4.42242e-001           4.22420e-002           2.24200e-003           2.42005e-004
                   28.50    339.39401                                3.81012             86.180                                        3.39394e+002           3.93940e+001           9.39401e+000           3.94015e-001           9.40147e-002           4.01473e-003           1.47284e-005
                   28.60    339.35802                                3.89970             86.180                                        3.39358e+002           3.93580e+001           9.35802e+000           3.58018e-001           5.80177e-002           8.01773e-003           1.77275e-005
                   28.70    339.32559                                3.99005             86.180                                        3.39326e+002           3.93256e+001           9.32559e+000           3.25590e-001           2.55904e-002           5.59043e-003           5.90428e-004
                   28.80    339.29426                                4.08118             86.180                                        3.39294e+002           3.92943e+001           9.29426e+000           2.94255e-001           9.42551e-002           4.25511e-003           2.55109e-004
                   28.90    339.25851                                4.17310             86.180                                        3.39259e+002           3.92585e+001           9.25851e+000           2.58508e-001           5.85078e-002           8.50775e-003           5.07754e-004
                   29.00    339.21717                                4.26581             86.177                                        3.39217e+002           3.92172e+001           9.21717e+000           2.17172e-001           1.71722e-002           7.17219e-003           1.72188e-004
                   29.10    339.17502                                4.35930             86.174                                        3.39175e+002           3.91750e+001           9.17502e+000           1.75021e-001           7.50208e-002           5.02075e-003           2.07509e-005
                   29.20    339.14292                                4.45337             86.172                                        3.39143e+002           3.91429e+001           9.14292e+000           1.42921e-001           4.29207e-002           2.92070e-003           9.20705e-004
                   29.30    339.11815                                4.54811             86.172                                        3.39118e+002           3.91181e+001           9.11815e+000           1.18148e-001           1.81476e-002           8.14764e-003           1.47638e-004
                   29.40    339.09289                                4.64347             86.172                                        3.39093e+002           3.90929e+001           9.09289e+000           9.28888e-002           9.28888e-002           2.88876e-003           8.88760e-004
                   29.50    339.07720                                4.73943             86.172                                        3.39077e+002           3.90772e+001           9.07720e+000           7.72042e-002           7.72042e-002           7.20419e-003           2.04194e-004
                   29.60    339.06764                                4.83601             86.172                                        3.39068e+002           3.90676e+001           9.06764e+000           6.76405e-002           6.76405e-002           7.64051e-003           6.40506e-004
                   29.70    339.05015                                4.93307             86.172                                        3.39050e+002           3.90502e+001           9.05015e+000           5.01531e-002           5.01531e-002           1.53082e-004           1.53082e-004
                   29.80    339.02187                                5.03022             86.172                                        3.39022e+002           3.90219e+001           9.02187e+000           2.18747e-002           2.18747e-002           1.87474e-003           8.74739e-004
                   29.90    338.99857                                5.12777             86.172                                        3.38999e+002           3.89986e+001           8.99857e+000           9.98571e-001           9.85709e-002           8.57088e-003           5.70878e-004
                   30.00    338.98701                                5.22587             86.172                                        3.38987e+002           3.89870e+001           8.98701e+000           9.87013e-001           8.70134e-002           7.01342e-003           1.34150e-005
