~VERSION INFORMATION
VERS                    .            2.0                                    :CWLS LOG ASCII STANDARD
WRAP                    .            NO                                     :ONE LINE PER TIME STEP


~WELL INFORMATION
#MNEM                   .UNIT        DATA                                    DESCRIPTION
#________________________________________________________________________________________
STRTTIME                .HH/MM/SS    13:32:32                               :START TIME
STOPTIME                .HH/MM/SS    13:36:23                               :STOP TIME
STRT                    .s           2.10                                   :START DATA
STOP                    .s           229.20                                 :STOP DATA
STEP                    .s           0.10                                   :MEASUREMENT TIME INTERVAL
NULL                    .            -999.25                                :NULL VALUE
COMP                    .            Statoil ASA                            :COMPANY
FLD                     .            Volve                                  :FIELD
WELL                    .            15/9-F-1 B                             :WELL
RUN                     .            7                                      :RUN
LOC                     .            Maersk Inspirer                        :LOCATION
PROV                    .            na                                     :PROVINCE
SRVC                    .            Baker Hughes INTEQ                     :SERVICE COMPANY
DATE                    .YY/MM/DD    13/09/06                               :LOG DATE
UWI                     .                                                   :UNIQUE WELL ID
DEPTHMD                 .m           3301.5                                 :MEASURED DEPTH
DEPTHTVD                .m           3096.9                                 :TRUE VERTICAL DEPTH


~CURVE INFORMATION
#MNEM                   .UNIT        API CODES                               DESCRIPTION
#________________________________________________________________________________________
TIME                    .s                                                  :01 TIME
DD_PRESS                .bar                                                :02 DRAW DOWN PRESSURE
DD_VOLUME               .cm3                                                :03 INCREMENTAL DRAW DOWN VOLUME
TEMP                    .degC                                               :04 TRANSDUCER TEMPERATURE
DD_PRESS_MOD_1000       .bar                                                :05 DRAW DOWN PRESSURE MOD 1000
DD_PRESS_MOD_100        .bar                                                :06 DRAW DOWN PRESSURE MOD 100
DD_PRESS_MOD_10         .bar                                                :07 DRAW DOWN PRESSURE MOD 10
DD_PRESS_MOD_1          .bar                                                :08 DRAW DOWN PRESSURE MOD 1
DD_PRESS_MOD_01         .bar                                                :09 DRAW DOWN PRESSURE MOD 01
DD_PRESS_MOD_001        .bar                                                :10 DRAW DOWN PRESSURE MOD 001
DD_PRESS_MOD_0001       .bar                                                :11 DRAW DOWN PRESSURE MOD 0001


~PARAMETER INFORMATION
#MNEM                   .UNIT        VALUE                                   DESCRIPTION
#________________________________________________________________________________________
TOOLFACE                .deg         na                                     :01 TOOLFACE
PUMP_CAPACITY           .bar         400                                    :02 NOMINAL DRAW DOWN PUMP CAPACITY
PUMP_LIMIT              .bar         400                                    :03 DOWNLINK PUMP LIMIT
TIME_LIMIT              .min         10                                     :04 DOWNLINK MAX TIME
TEST_TYPE               .            LOW MOBILITY                           :05 DOWNLINK
DD_PIST_A               .cm2         3.1416                                 :06 DRAW DOWN PISTON AREA
V_SYS                   .cm3         131.0000                               :07 SYSTEM VOLUME
PROBE_ID                .cm          1.2700                                 :08 TTK PROBE ID
G0                      .            4.6700                                 :09 GEOMETRY FACTOR


~A                  TIME     DD_PRESS                              DD_VOLUME               TEMP                                   DD_PRESS_MOD_1000       DD_PRESS_MOD_100        DD_PRESS_MOD_10         DD_PRESS_MOD_1        DD_PRESS_MOD_01       DD_PRESS_MOD_001      DD_PRESS_MOD_0001
# ...
                   32.90    313.91846                                5.66245             85.453                                        3.13918e+002           1.39185e+001           3.91846e+000           9.18456e-001           1.84564e-002           8.45643e-003           4.56428e-004
                   33.00    313.81673                                5.76140             85.451                                        3.13817e+002           1.38167e+001           3.81673e+000           8.16732e-001           1.67320e-002           6.73196e-003           7.31959e-004
                   33.10    313.68746                                5.86073             85.447                                        3.13687e+002           1.36875e+001           3.68746e+000           6.87456e-001           8.74565e-002           7.45648e-003           4.56482e-004
                   33.20    313.52044                                5.96018             85.445                                        3.13520e+002           1.35204e+001           3.52044e+000           5.20439e-001           2.04385e-002           4.38506e-004           4.38506e-004
                   33.30    313.40093                                6.05970             85.445                                        3.13401e+002           1.34009e+001           3.40093e+000           4.00934e-001           9.33533e-004           9.33533e-004           9.33533e-004
                   33.40    313.33160                                6.15926             85.445                                        3.13332e+002           1.33316e+001           3.33160e+000           3.31602e-001           3.16019e-002           1.60189e-003           6.01890e-004
                   33.50    313.24294                                6.25882             85.445                                        3.13243e+002           1.32429e+001           3.24294e+000           2.42940e-001           4.29403e-002           2.94027e-003           9.40272e-004
                   33.60    313.14170                                6.35844             85.445                                        3.13142e+002           1.31417e+001           3.14170e+000           1.41704e-001           4.17040e-002           1.70397e-003           7.03974e-004
                   33.70    313.09978                                6.45811             85.445                                        3.13100e+002           1.30998e+001           3.09978e+000           9.97808e-002           9.97808e-002           9.78076e-003           7.80757e-004
                   33.80    313.07001                                6.55770             85.445                                        3.13070e+002           1.30700e+001           3.07001e+000           7.00072e-002           7.00072e-002           7.22901e-006           7.22901e-006
                   33.90    313.01885                                6.65711             85.445                                        3.13019e+002           1.30188e+001           3.01885e+000           1.88478e-002           1.88478e-002           8.84783e-003           8.47828e-004
                   34.00    313.01255                                6.75642             85.445                                        3.13013e+002           1.30125e+001           3.01255e+000           1.25477e-002           1.25477e-002           2.54768e-003           5.47677e-004
                   34.10    313.07002                                6.85553             85.445                                        3.13070e+002           1.30700e+001           3.07002e+000           7.00182e-002           7.00182e-002           1.82237e-005           1.82237e-005
                   34.20    313.11063                                6.95425             85.443                                        3.13111e+002           1.31106e+001           3.11063e+000           1.10631e-001           1.06309e-002           6.30908e-004           6.30908e-004
                   34.30    313.12263                                7.05273             85.439                                        3.13123e+002           1.31226e+001           3.12263e+000           1.22626e-001           2.26264e-002           2.62643e-003           6.26432e-004
                   34.40    313.15790                                7.15092             85.438                                        3.13158e+002           1.31579e+001           3.15790e+000           1.57897e-001           5.78965e-002           7.89652e-003           8.96515e-004
                   34.50    313.22552                                7.24882             85.438                                        3.13226e+002           1.32255e+001           3.22552e+000           2.25524e-001           2.55240e-002           5.52395e-003           5.23951e-004
                   34.60    313.30043                                7.34639             85.438                                        3.13300e+002           1.33004e+001           3.30043e+000           3.00430e-001           4.29890e-004           4.29890e-004           4.29890e-004
                   34.70    313.37180                                7.44344             85.438                                        3.13372e+002           1.33718e+001           3.37180e+000           3.71796e-001           7.17963e-002           1.79629e-003           7.96294e-004
                   34.80    313.44933                                7.53989             85.438                                        3.13449e+002           1.34493e+001           3.44933e+000           4.49330e-001           4.93299e-002           9.32991e-003           3.29909e-004
                   34.90    313.55298                                7.63594             85.438                                        3.13553e+002           1.35530e+001           3.55298e+000           5.52983e-001           5.29827e-002           2.98273e-003           9.82726e-004
                   35.00    313.69177                                7.73148             85.438                                        3.13692e+002           1.36918e+001           3.69177e+000           6.91772e-001           9.17716e-002           1.77157e-003           7.71571e-004
                   35.10    313.85472                                7.82652             85.438                                        3.13855e+002           1.38547e+001           3.85472e+000           8.54716e-001           5.47156e-002           4.71558e-003           7.15579e-004
                   35.20    314.03619                                7.92090             85.438                                        3.14036e+002           1.40362e+001           4.03619e+000           3.61876e-002           3.61876e-002           6.18763e-003           1.87632e-004
                   35.30    314.23676                                8.01452             85.435                                        3.14237e+002           1.42368e+001           4.23676e+000           2.36762e-001           3.67615e-002           6.76154e-003           7.61537e-004
                   35.40    314.44132                                8.10751             85.432                                        3.14441e+002           1.44413e+001           4.44132e+000           4.41320e-001           4.13197e-002           1.31969e-003           3.19693e-004
                   35.50    314.61388                                8.19972             85.430                                        3.14614e+002           1.46139e+001           4.61388e+000           6.13879e-001           1.38795e-002           3.87949e-003           8.79486e-004
                   35.60    314.77168                                8.29115             85.430                                        3.14772e+002           1.47717e+001           4.77168e+000           7.71677e-001           7.16770e-002           1.67696e-003           6.76960e-004
