~VERSION INFORMATION
VERS                    .            2.0                                    :CWLS LOG ASCII STANDARD
WRAP                    .            NO                                     :ONE LINE PER TIME STEP


~WELL INFORMATION
#MNEM                   .UNIT        DATA                                    DESCRIPTION
#________________________________________________________________________________________
STRTTIME                .HH/MM/SS    01:04:55                               :START TIME
STOPTIME                .HH/MM/SS    01:07:44                               :STOP TIME
STRT                    .s           2.10                                   :START DATA
STOP                    .s           167.40                                 :STOP DATA
STEP                    .s           0.10                                   :MEASUREMENT TIME INTERVAL
NULL                    .            -999.25                                :NULL VALUE
COMP                    .            Statoil ASA                            :COMPANY
FLD                     .            Volve                                  :FIELD
WELL                    .            15/9-F-1 C                             :WELL
RUN                     .            4                                      :RUN
LOC                     .                                                   :LOCATION
PROV                    .            na                                     :PROVINCE
SRVC                    .            Baker Hughes INTEQ                     :SERVICE COMPANY
DATE                    .YY/MM/DD    14/03/15                               :LOG DATE
UWI                     .                                                   :UNIQUE WELL ID
DEPTHMD                 .m           3720.1                                 :MEASURED DEPTH
DEPTHTVD                .m           3050.6                                 :TRUE VERTICAL DEPTH


~CURVE INFORMATION
#MNEM                   .UNIT        API CODES                               DESCRIPTION
#________________________________________________________________________________________
TIME                    .s                                                  :01 TIME
DD_PRESS                .bar                                                :02 DRAW DOWN PRESSURE
DD_VOLUME               .cm3                                                :03 INCREMENTAL DRAW DOWN VOLUME
TEMP                    .degC                                               :04 TRANSDUCER TEMPERATURE
DD_PRESS_MOD_1000       .bar                                                :05 DRAW DOWN PRESSURE MOD 1000
DD_PRESS_MOD_100        .bar                                                :06 DRAW DOWN PRESSURE MOD 100
DD_PRESS_MOD_10         .bar                                                :07 DRAW DOWN PRESSURE MOD 10
DD_PRESS_MOD_1          .bar                                                :08 DRAW DOWN PRESSURE MOD 1
DD_PRESS_MOD_01         .bar                                                :09 DRAW DOWN PRESSURE MOD 01
DD_PRESS_MOD_001        .bar                                                :10 DRAW DOWN PRESSURE MOD 001
DD_PRESS_MOD_0001       .bar                                                :11 DRAW DOWN PRESSURE MOD 0001


~PARAMETER INFORMATION
#MNEM                   .UNIT        VALUE                                   DESCRIPTION
#________________________________________________________________________________________
TOOLFACE                .deg         134.6                                  :01 TOOLFACE
PUMP_CAPACITY           .bar         400                                    :02 NOMINAL DRAW DOWN PUMP CAPACITY
PUMP_LIMIT              .bar         240                                    :03 DOWNLINK PUMP LIMIT
TIME_LIMIT              .min         10                                     :04 DOWNLINK MAX TIME
TEST_TYPE               .            REPEAT                                 :05 DOWNLINK
TEST_TYPE               .            HIGH MOBILITY                          :06 DOWNLINK
DD_PIST_A               .cm2         3.1416                                 :07 DRAW DOWN PISTON AREA
V_SYS                   .cm3         131.0000                               :08 SYSTEM VOLUME
PROBE_ID                .cm          1.2700                                 :09 TTK PROBE ID
G0                      .            4.6700                                 :10 GEOMETRY FACTOR


~A                  TIME     DD_PRESS                              DD_VOLUME               TEMP                                   DD_PRESS_MOD_1000       DD_PRESS_MOD_100        DD_PRESS_MOD_10         DD_PRESS_MOD_1        DD_PRESS_MOD_01       DD_PRESS_MOD_001      DD_PRESS_MOD_0001
                    2.10    432.78582                                0.00000             87.352                                        4.32786e+002           3.27858e+001           2.78582e+000           7.85825e-001           8.58248e-002           5.82479e-003           8.24791e-004
                    2.20    432.81250                                0.00000             87.352                                        4.32812e+002           3.28125e+001           2.81250e+000           8.12500e-001           1.24995e-002           2.49953e-003           4.99533e-004
                    2.30    432.82972                                0.00000             87.352                                        4.32830e+002           3.28297e+001           2.82972e+000           8.29716e-001           2.97158e-002           9.71584e-003           7.15844e-004
                    2.40    432.82966                                0.00000             87.352                                        4.32830e+002           3.28297e+001           2.82966e+000           8.29663e-001           2.96629e-002           9.66292e-003           6.62917e-004
                    2.50    432.83463                                0.00000             87.352                                        4.32835e+002           3.28346e+001           2.83463e+000           8.34625e-001           3.46255e-002           4.62548e-003           6.25475e-004
                    2.60    432.84546                                0.00000             87.352                                        4.32845e+002           3.28455e+001           2.84546e+000           8.45461e-001           4.54608e-002           5.46081e-003           4.60806e-004
                    2.70    432.84733                                0.00000             87.352                                        4.32847e+002           3.28473e+001           2.84733e+000           8.47328e-001           4.73278e-002           7.32777e-003           3.27767e-004
                    2.80    432.85080                                0.00000             87.352                                        4.32851e+002           3.28508e+001           2.85080e+000           8.50801e-001           5.08010e-002           8.00985e-004           8.00985e-004
                    2.90    432.85826                                0.00000             87.352                                        4.32858e+002           3.28583e+001           2.85826e+000           8.58265e-001           5.82648e-002           8.26476e-003           2.64764e-004
                    3.00    432.86535                                0.00000             87.352                                        4.32865e+002           3.28654e+001           2.86535e+000           8.65355e-001           6.53548e-002           5.35480e-003           3.54801e-004
                    3.10    432.87620                                0.00000             87.352                                        4.32876e+002           3.28762e+001           2.87620e+000           8.76202e-001           7.62017e-002           6.20167e-003           2.01672e-004
                    3.20    432.87539                                0.00000             87.352                                        4.32875e+002           3.28754e+001           2.87539e+000           8.75388e-001           7.53883e-002           5.38832e-003           3.88322e-004
                    3.30    432.85614                                0.00000             87.352                                        4.32856e+002           3.28561e+001           2.85614e+000           8.56140e-001           5.61401e-002           6.14009e-003           1.40089e-004
                    3.40    432.85315                                0.00000             87.352                                        4.32853e+002           3.28532e+001           2.85315e+000           8.53153e-001           5.31531e-002           3.15308e-003           1.53075e-004
                    3.50    432.88886                                0.00000             87.352                                        4.32889e+002           3.28889e+001           2.88886e+000           8.88860e-001           8.88603e-002           8.86028e-003           8.60281e-004
                    3.60    432.94332                                0.00000             87.352                                        4.32943e+002           3.29433e+001           2.94332e+000           9.43317e-001           4.33170e-002           3.31702e-003           3.17020e-004
                    3.70    432.97564                                0.00000             87.352                                        4.32976e+002           3.29756e+001           2.97564e+000           9.75643e-001           7.56427e-002           5.64272e-003           6.42719e-004
                    3.80    432.97542                                0.00000             87.352                                        4.32975e+002           3.29754e+001           2.97542e+000           9.75415e-001           7.54153e-002           5.41525e-003           4.15252e-004
                    3.90    432.98010                                0.00000             87.352                                        4.32980e+002           3.29801e+001           2.98010e+000           9.80096e-001           8.00958e-002           9.57894e-005           9.57894e-005
                    4.00    433.00225                                0.00000             87.352                                        4.33002e+002           3.30023e+001           3.00225e+000           2.25397e-003           2.25397e-003           2.25397e-003           2.53969e-004
                    4.10    433.01984                                0.00000             87.352                                        4.33020e+002           3.30198e+001           3.01984e+000           1.98378e-002           1.98378e-002           9.83783e-003           8.37833e-004
                    4.20    433.02406                                0.00000             87.352                                        4.33024e+002           3.30241e+001           3.02406e+000           2.40571e-002           2.40571e-002           4.05710e-003           5.70963e-005
                    4.30    433.03183                                0.00000             87.352                                        4.33032e+002           3.30318e+001           3.03183e+000           3.18291e-002           3.18291e-002           1.82910e-003           8.29098e-004
                    4.40    433.04921                                0.00000             87.352                                        4.33049e+002           3.30492e+001           3.04921e+000           4.92054e-002           4.92054e-002           9.20543e-003           2.05434e-004
                    4.50    433.05992                                0.00000             87.352                                        4.33060e+002           3.30599e+001           3.05992e+000           5.99168e-002           5.99168e-002           9.91679e-003           9.16787e-004
                    4.60    433.06406                                0.00000             87.352                                        4.33064e+002           3.30641e+001           3.06406e+000           6.40565e-002           6.40565e-002           4.05649e-003           5.64876e-005
                    4.70    433.06994                                0.00000             87.352                                        4.33070e+002           3.30699e+001           3.06994e+000           6.99443e-002           6.99443e-002           9.94432e-003           9.44318e-004
                    4.80    433.07855                                0.00000             87.352                                        4.33079e+002           3.30785e+001           3.07855e+000           7.85497e-002           7.85497e-002           8.54973e-003           5.49726e-004
