~VERSION INFORMATION
VERS                    .            2.0                                    :CWLS LOG ASCII STANDARD
WRAP                    .            NO                                     :ONE LINE PER TIME STEP


~WELL INFORMATION
#MNEM                   .UNIT        DATA                                    DESCRIPTION
#________________________________________________________________________________________
STRTTIME                .HH/MM/SS    22:05:32                               :START TIME
STOPTIME                .HH/MM/SS    22:09:32                               :STOP TIME
STRT                    .s           2.10                                   :START DATA
STOP                    .s           238.90                                 :STOP DATA
STEP                    .s           0.10                                   :MEASUREMENT TIME INTERVAL
NULL                    .            -999.25                                :NULL VALUE
COMP                    .            Statoil                                :COMPANY
FLD                     .            Volve                                  :FIELD
WELL                    .            15/9-F-11 T2                           :WELL
RUN                     .            7                                      :RUN
LOC                     .            Maersk Inspirer                        :LOCATION
PROV                    .            na                                     :PROVINCE
SRVC                    .            Baker Hughes INTEQ                     :SERVICE COMPANY
DATE                    .YY/MM/DD    13/05/04                               :LOG DATE
UWI                     .                                                   :UNIQUE WELL ID
DEPTHMD                 .m           4490.1                                 :MEASURED DEPTH
DEPTHTVD                .m           3328.5                                 :TRUE VERTICAL DEPTH


~CURVE INFORMATION
#MNEM                   .UNIT        API CODES                               DESCRIPTION
#________________________________________________________________________________________
TIME                    .s                                                  :01 TIME
DD_PRESS                .bar                                                :02 DRAW DOWN PRESSURE
DD_VOLUME               .cm3                                                :03 INCREMENTAL DRAW DOWN VOLUME
TEMP                    .degC                                               :04 TRANSDUCER TEMPERATURE
DD_PRESS_MOD_1000       .bar                                                :05 DRAW DOWN PRESSURE MOD 1000
DD_PRESS_MOD_100        .bar                                                :06 DRAW DOWN PRESSURE MOD 100
DD_PRESS_MOD_10         .bar                                                :07 DRAW DOWN PRESSURE MOD 10
DD_PRESS_MOD_1          .bar                                                :08 DRAW DOWN PRESSURE MOD 1
DD_PRESS_MOD_01         .bar                                                :09 DRAW DOWN PRESSURE MOD 01
DD_PRESS_MOD_001        .bar                                                :10 DRAW DOWN PRESSURE MOD 001
DD_PRESS_MOD_0001       .bar                                                :11 DRAW DOWN PRESSURE MOD 0001


~PARAMETER INFORMATION
#MNEM                   .UNIT        VALUE                                   DESCRIPTION
#________________________________________________________________________________________
TOOLFACE                .deg         na                                     :01 TOOLFACE
PUMP_CAPACITY           .bar         400                                    :02 NOMINAL DRAW DOWN PUMP CAPACITY
PUMP_LIMIT              .bar         240                                    :03 DOWNLINK PUMP LIMIT
TIME_LIMIT              .min         10                                     :04 DOWNLINK MAX TIME
TEST_TYPE               .            HIGH MOBILITY                          :05 DOWNLINK
DD_PIST_A               .cm2         3.1416                                 :06 DRAW DOWN PISTON AREA
V_SYS                   .cm3         131.0000                               :07 SYSTEM VOLUME
PROBE_ID                .cm          1.2700                                 :08 TTK PROBE ID
G0                      .            4.6700                                 :09 GEOMETRY FACTOR


~A                  TIME     DD_PRESS                              DD_VOLUME               TEMP                                   DD_PRESS_MOD_1000       DD_PRESS_MOD_100        DD_PRESS_MOD_10         DD_PRESS_MOD_1        DD_PRESS_MOD_01       DD_PRESS_MOD_001      DD_PRESS_MOD_0001
# ...
                  142.10    367.52899                               17.96449             97.242                                        3.67529e+002           6.75290e+001           7.52899e+000           5.28986e-001           2.89858e-002           8.98580e-003           9.85801e-004
                  142.20    367.50774                               17.96449             97.242                                        3.67508e+002           6.75077e+001           7.50774e+000           5.07737e-001           7.73684e-003           7.73684e-003           7.36841e-004
                  142.30    367.47834                               17.96449             97.242                                        3.67478e+002           6.74783e+001           7.47834e+000           4.78336e-001           7.83362e-002           8.33618e-003           3.36181e-004
                  142.40    367.46681                               17.96449             97.242                                        3.67467e+002           6.74668e+001           7.46681e+000           4.66810e-001           6.68102e-002           6.81015e-003           8.10152e-004
                  142.50    367.49737                               17.96449             97.242                                        3.67497e+002           6.74974e+001           7.49737e+000           4.97369e-001           9.73686e-002           7.36862e-003           3.68619e-004
                  142.60    367.54873                               17.96449             97.242                                        3.67549e+002           6.75487e+001           7.54873e+000           5.48731e-001           4.87311e-002           8.73111e-003           7.31110e-004
                  142.70    367.52235                               17.96449             97.242                                        3.67522e+002           6.75223e+001           7.52235e+000           5.22345e-001           2.23453e-002           2.34532e-003           3.45316e-004
                  142.80    367.43556                               17.96449             97.242                                        3.67436e+002           6.74356e+001           7.43556e+000           4.35559e-001           3.55590e-002           5.55904e-003           5.59037e-004
                  142.90    367.43080                               17.96449             97.242                                        3.67431e+002           6.74308e+001           7.43080e+000           4.30799e-001           3.07993e-002           7.99255e-004           7.99255e-004
                  143.00    367.48030                               17.96449             97.242                                        3.67480e+002           6.74803e+001           7.48030e+000           4.80298e-001           8.02981e-002           2.98132e-004           2.98132e-004
                  143.10    367.51475                               17.96449             97.242                                        3.67515e+002           6.75148e+001           7.51475e+000           5.14754e-001           1.47544e-002           4.75439e-003           7.54390e-004
                  143.20    367.52010                               17.96449             97.242                                        3.67520e+002           6.75201e+001           7.52010e+000           5.20095e-001           2.00952e-002           9.52418e-005           9.52418e-005
                  143.30    367.50195                               17.96449             97.242                                        3.67502e+002           6.75019e+001           7.50195e+000           5.01950e-001           1.94974e-003           1.94974e-003           9.49745e-004
                  143.40    367.50375                               17.96449             97.242                                        3.67504e+002           6.75038e+001           7.50375e+000           5.03751e-001           3.75111e-003           3.75111e-003           7.51114e-004
                  143.50    367.53278                               17.96449             97.242                                        3.67533e+002           6.75328e+001           7.53278e+000           5.32779e-001           3.27789e-002           2.77893e-003           7.78933e-004
                  143.60    367.51739                               17.96449             97.242                                        3.67517e+002           6.75174e+001           7.51739e+000           5.17387e-001           1.73868e-002           7.38676e-003           3.86755e-004
                  143.70    367.47171                               17.96449             97.242                                        3.67472e+002           6.74717e+001           7.47171e+000           4.71712e-001           7.17121e-002           1.71210e-003           7.12101e-004
                  143.80    367.47118                               17.96449             97.242                                        3.67471e+002           6.74712e+001           7.47118e+000           4.71176e-001           7.11762e-002           1.17616e-003           1.76161e-004
                  143.90    367.48333                               17.96449             97.242                                        3.67483e+002           6.74833e+001           7.48333e+000           4.83331e-001           8.33310e-002           3.33098e-003           3.30975e-004
                  144.00    367.49110                               17.96449             97.242                                        3.67491e+002           6.74911e+001           7.49110e+000           4.91098e-001           9.10976e-002           1.09762e-003           9.76241e-005
                  144.10    367.49700                               17.96449             97.242                                        3.67497e+002           6.74970e+001           7.49700e+000           4.97005e-001           9.70046e-002           7.00458e-003           4.58339e-006
                  144.20    367.48212                               17.96449             97.242                                        3.67482e+002           6.74821e+001           7.48212e+000           4.82122e-001           8.21222e-002           2.12219e-003           1.22191e-004
                  144.30    367.47837                               17.96449             97.242                                        3.67478e+002           6.74784e+001           7.47837e+000           4.78370e-001           7.83701e-002           8.37009e-003           3.70091e-004
                  144.40    367.50047                               17.96449             97.242                                        3.67500e+002           6.75005e+001           7.50047e+000           5.00470e-001           4.70051e-004           4.70051e-004           4.70051e-004
                  144.50    367.51420                               17.96449             97.242                                        3.67514e+002           6.75142e+001           7.51420e+000           5.14197e-001           1.41971e-002           4.19715e-003           1.97147e-004
                  144.60    367.51190                               17.96449             97.242                                        3.67512e+002           6.75119e+001           7.51190e+000           5.11898e-001           1.18981e-002           1.89813e-003           8.98132e-004
                  144.70    367.47892                               17.96449             97.242                                        3.67479e+002           6.74789e+001           7.47892e+000           4.78924e-001           7.89238e-002           8.92383e-003           9.23833e-004
                  144.80    367.46077                               17.96449             97.242                                        3.67461e+002           6.74608e+001           7.46077e+000           4.60775e-001           6.07748e-002           7.74762e-004           7.74762e-004
