~VERSION INFORMATION
VERS                    .            2.0                                    :CWLS LOG ASCII STANDARD
WRAP                    .            NO                                     :ONE LINE PER TIME STEP


~WELL INFORMATION
#MNEM                   .UNIT        DATA                                    DESCRIPTION
#________________________________________________________________________________________
STRTTIME                .HH/MM/SS    11:44:47                               :START TIME
STOPTIME                .HH/MM/SS    11:47:33                               :STOP TIME
STRT                    .s           2.10                                   :START DATA
STOP                    .s           164.50                                 :STOP DATA
STEP                    .s           0.10                                   :MEASUREMENT TIME INTERVAL
NULL                    .            -999.25                                :NULL VALUE
COMP                    .            Statoil ASA                            :COMPANY
FLD                     .            Volve                                  :FIELD
WELL                    .            15/9-F-11 A                            :WELL
RUN                     .            8                                      :RUN
LOC                     .            Maersk Inspirer                        :LOCATION
PROV                    .            na                                     :PROVINCE
SRVC                    .            Baker Hughes INTEQ                     :SERVICE COMPANY
DATE                    .YY/MM/DD    13/05/21                               :LOG DATE
UWI                     .                                                   :UNIQUE WELL ID
DEPTHMD                 .m           3624.0                                 :MEASURED DEPTH
DEPTHTVD                .m           3020.7                                 :TRUE VERTICAL DEPTH


~CURVE INFORMATION
#MNEM                   .UNIT        API CODES                               DESCRIPTION
#________________________________________________________________________________________
TIME                    .s                                                  :01 TIME
DD_PRESS                .bar                                                :02 DRAW DOWN PRESSURE
DD_VOLUME               .cm3                                                :03 INCREMENTAL DRAW DOWN VOLUME
TEMP                    .degC                                               :04 TRANSDUCER TEMPERATURE
DD_PRESS_MOD_1000       .bar                                                :05 DRAW DOWN PRESSURE MOD 1000
DD_PRESS_MOD_100        .bar                                                :06 DRAW DOWN PRESSURE MOD 100
DD_PRESS_MOD_10         .bar                                                :07 DRAW DOWN PRESSURE MOD 10
DD_PRESS_MOD_1          .bar                                                :08 DRAW DOWN PRESSURE MOD 1
DD_PRESS_MOD_01         .bar                                                :09 DRAW DOWN PRESSURE MOD 01
DD_PRESS_MOD_001        .bar                                                :10 DRAW DOWN PRESSURE MOD 001
DD_PRESS_MOD_0001       .bar                                                :11 DRAW DOWN PRESSURE MOD 0001


~PARAMETER INFORMATION
#MNEM                   .UNIT        VALUE                                   DESCRIPTION
#________________________________________________________________________________________
TOOLFACE                .deg         61.7                                   :01 TOOLFACE
PUMP_CAPACITY           .bar         400                                    :02 NOMINAL DRAW DOWN PUMP CAPACITY
PUMP_LIMIT              .bar         240                                    :03 DOWNLINK PUMP LIMIT
TIME_LIMIT              .min         10                                     :04 DOWNLINK MAX TIME
TEST_TYPE               .            REPEAT                                 :05 DOWNLINK
TEST_TYPE               .            HIGH MOBILITY                          :06 DOWNLINK
DD_PIST_A               .cm2         3.1416                                 :07 DRAW DOWN PISTON AREA
V_SYS                   .cm3         131.0000                               :08 SYSTEM VOLUME
PROBE_ID                .cm          1.2700                                 :09 TTK PROBE ID
G0                      .            4.6700                                 :10 GEOMETRY FACTOR


~A                  TIME     DD_PRESS                              DD_VOLUME               TEMP                                   DD_PRESS_MOD_1000       DD_PRESS_MOD_100        DD_PRESS_MOD_10         DD_PRESS_MOD_1        DD_PRESS_MOD_01       DD_PRESS_MOD_001      DD_PRESS_MOD_0001
# ...
                  139.30    342.35740                                0.00000             81.422                                        3.42357e+002           4.23574e+001           2.35740e+000           3.57400e-001           5.74001e-002           7.40012e-003           4.00123e-004
                  139.40    342.35626                                0.00000             81.422                                        3.42356e+002           4.23563e+001           2.35626e+000           3.56258e-001           5.62579e-002           6.25786e-003           2.57858e-004
                  139.50    342.35493                                0.00000             81.422                                        3.42355e+002           4.23549e+001           2.35493e+000           3.54929e-001           5.49290e-002           4.92904e-003           9.29042e-004
                  139.60    342.35722                                0.00000             81.422                                        3.42357e+002           4.23572e+001           2.35722e+000           3.57224e-001           5.72236e-002           7.22357e-003           2.23568e-004
                  139.70    342.35773                                0.00000             81.422                                        3.42358e+002           4.23577e+001           2.35773e+000           3.57734e-001           5.77336e-002           7.73364e-003           7.33643e-004
                  139.80    342.36909                                0.00000             81.422                                        3.42369e+002           4.23691e+001           2.36909e+000           3.69092e-001           6.90922e-002           9.09218e-003           9.21783e-005
                  139.90    342.37706                                0.00000             81.422                                        3.42377e+002           4.23771e+001           2.37706e+000           3.77057e-001           7.70566e-002           7.05660e-003           5.66042e-005
                  140.00    342.37335                                0.00000             81.422                                        3.42373e+002           4.23733e+001           2.37335e+000           3.73349e-001           7.33489e-002           3.34894e-003           3.48940e-004
                  140.10    342.36508                                0.00000             81.422                                        3.42365e+002           4.23651e+001           2.36508e+000           3.65077e-001           6.50768e-002           5.07685e-003           7.68494e-005
                  140.20    345.35465                                0.00000             81.422                                        3.45355e+002           4.53546e+001           5.35465e+000           3.54646e-001           5.46461e-002           4.64605e-003           6.46053e-004
                  140.30    370.78160                                0.00000             81.422                                        3.70782e+002           7.07816e+001           7.81601e-001           7.81601e-001           8.16008e-002           1.60079e-003           6.00791e-004
                  140.40    402.23099                                0.00000             81.422                                        4.02231e+002           2.23099e+000           2.23099e+000           2.30987e-001           3.09868e-002           9.86808e-004           9.86808e-004
                  140.50    415.13656                                0.00000             81.422                                        4.15137e+002           1.51366e+001           5.13656e+000           1.36560e-001           3.65597e-002           6.55974e-003           5.59736e-004
                  140.60    415.14295                                0.00000             81.422                                        4.15143e+002           1.51429e+001           5.14295e+000           1.42947e-001           4.29468e-002           2.94676e-003           9.46761e-004
                  140.70    415.13100                                0.00000             81.422                                        4.15131e+002           1.51310e+001           5.13100e+000           1.30999e-001           3.09989e-002           9.98939e-004           9.98939e-004
                  140.80    415.12039                                0.00000             81.422                                        4.15120e+002           1.51204e+001           5.12039e+000           1.20392e-001           2.03918e-002           3.91834e-004           3.91834e-004
                  140.90    415.11785                                0.00000             81.422                                        4.15118e+002           1.51178e+001           5.11785e+000           1.17846e-001           1.78459e-002           7.84587e-003           8.45867e-004
                  141.00    415.13472                                0.00000             81.422                                        4.15135e+002           1.51347e+001           5.13472e+000           1.34719e-001           3.47188e-002           4.71882e-003           7.18819e-004
                  141.10    415.14465                                0.00000             81.422                                        4.15145e+002           1.51446e+001           5.14465e+000           1.44645e-001           4.46451e-002           4.64514e-003           6.45137e-004
                  141.20    415.13836                                0.00000             81.422                                        4.15138e+002           1.51384e+001           5.13836e+000           1.38360e-001           3.83595e-002           8.35950e-003           3.59502e-004
                  141.30    415.13362                                0.00000             81.422                                        4.15134e+002           1.51336e+001           5.13362e+000           1.33621e-001           3.36205e-002           3.62054e-003           6.20542e-004
                  141.40    415.16163                                0.00000             81.422                                        4.15162e+002           1.51616e+001           5.16163e+000           1.61626e-001           6.16260e-002           1.62600e-003           6.25997e-004
                  141.50    415.17967                                0.00000             81.422                                        4.15180e+002           1.51797e+001           5.17967e+000           1.79667e-001           7.96673e-002           9.66729e-003           6.67285e-004
                  141.60    415.16696                                0.00000             81.422                                        4.15167e+002           1.51670e+001           5.16696e+000           1.66965e-001           6.69648e-002           6.96484e-003           9.64840e-004
                  141.70    415.14753                                0.00000             81.422                                        4.15148e+002           1.51475e+001           5.14753e+000           1.47528e-001           4.75282e-002           7.52817e-003           5.28166e-004
                  141.80    415.15962                                0.00000             81.422                                        4.15160e+002           1.51596e+001           5.15962e+000           1.59621e-001           5.96209e-002           9.62089e-003           6.20893e-004
                  141.90    415.18818                                0.00000             81.422                                        4.15188e+002           1.51882e+001           5.18818e+000           1.88184e-001           8.81844e-002           8.18437e-003           1.84367e-004
                  142.00    415.18971                                0.00000             81.422                                        4.15190e+002           1.51897e+001           5.18971e+000           1.89711e-001           8.97110e-002           9.71102e-003           7.11020e-004
