~VERSION INFORMATION
VERS                    .            2.0                                    :CWLS LOG ASCII STANDARD
WRAP                    .            NO                                     :ONE LINE PER TIME STEP


~WELL INFORMATION
#MNEM                   .UNIT        DATA                                    DESCRIPTION
#________________________________________________________________________________________
STRTTIME                .HH/MM/SS    14:04:48                               :START TIME
STOPTIME                .HH/MM/SS    14:07:57                               :STOP TIME
STRT                    .s           2.10                                   :START DATA
STOP                    .s           187.50                                 :STOP DATA
STEP                    .s           0.10                                   :MEASUREMENT TIME INTERVAL
NULL                    .            -999.25                                :NULL VALUE
COMP                    .            Statoil ASA                            :COMPANY
FLD                     .            Volve                                  :FIELD
WELL                    .            15/9-F-1 B                             :WELL
RUN                     .            7                                      :RUN
LOC                     .            Maersk Inspirer                        :LOCATION
PROV                    .            na                                     :PROVINCE
SRVC                    .            Baker Hughes INTEQ                     :SERVICE COMPANY
DATE                    .YY/MM/DD    13/09/06                               :LOG DATE
UWI                     .                                                   :UNIQUE WELL ID
DEPTHMD                 .m           3296.0                                 :MEASURED DEPTH
DEPTHTVD                .m           3091.5                                 :TRUE VERTICAL DEPTH


~CURVE INFORMATION
#MNEM                   .UNIT        API CODES                               DESCRIPTION
#________________________________________________________________________________________
TIME                    .s                                                  :01 TIME
DD_PRESS                .bar                                                :02 DRAW DOWN PRESSURE
DD_VOLUME               .cm3                                                :03 INCREMENTAL DRAW DOWN VOLUME
TEMP                    .degC                                               :04 TRANSDUCER TEMPERATURE
DD_PRESS_MOD_1000       .bar                                                :05 DRAW DOWN PRESSURE MOD 1000
DD_PRESS_MOD_100        .bar                                                :06 DRAW DOWN PRESSURE MOD 100
DD_PRESS_MOD_10         .bar                                                :07 DRAW DOWN PRESSURE MOD 10
DD_PRESS_MOD_1          .bar                                                :08 DRAW DOWN PRESSURE MOD 1
DD_PRESS_MOD_01         .bar                                                :09 DRAW DOWN PRESSURE MOD 01
DD_PRESS_MOD_001        .bar                                                :10 DRAW DOWN PRESSURE MOD 001
DD_PRESS_MOD_0001       .bar                                                :11 DRAW DOWN PRESSURE MOD 0001


~PARAMETER INFORMATION
#MNEM                   .UNIT        VALUE                                   DESCRIPTION
#________________________________________________________________________________________
TOOLFACE                .deg         na                                     :01 TOOLFACE
PUMP_CAPACITY           .bar         400                                    :02 NOMINAL DRAW DOWN PUMP CAPACITY
PUMP_LIMIT              .bar         400                                    :03 DOWNLINK PUMP LIMIT
TIME_LIMIT              .min         10                                     :04 DOWNLINK MAX TIME
TEST_TYPE               .            LOW MOBILITY                           :05 DOWNLINK
DD_PIST_A               .cm2         3.1416                                 :06 DRAW DOWN PISTON AREA
V_SYS                   .cm3         131.0000                               :07 SYSTEM VOLUME
PROBE_ID                .cm          1.2700                                 :08 TTK PROBE ID
G0                      .            4.6700                                 :09 GEOMETRY FACTOR


~A                  TIME     DD_PRESS                              DD_VOLUME               TEMP                                   DD_PRESS_MOD_1000       DD_PRESS_MOD_100        DD_PRESS_MOD_10         DD_PRESS_MOD_1        DD_PRESS_MOD_01       DD_PRESS_MOD_001      DD_PRESS_MOD_0001
# ...
                  184.10    441.89148                                0.00000             83.250                                        4.41891e+002           4.18915e+001           1.89148e+000           8.91477e-001           9.14772e-002           1.47724e-003           4.77240e-004
                  184.20    441.88840                                0.00000             83.250                                        4.41888e+002           4.18884e+001           1.88840e+000           8.88398e-001           8.83981e-002           8.39806e-003           3.98061e-004
                  184.30    441.88843                                0.00000             83.250                                        4.41888e+002           4.18884e+001           1.88843e+000           8.88425e-001           8.84250e-002           8.42502e-003           4.25022e-004
                  184.40    441.88946                                0.00000             83.250                                        4.41889e+002           4.18895e+001           1.88946e+000           8.89460e-001           8.94602e-002           9.46024e-003           4.60245e-004
                  184.50    441.89889                                0.00000             83.250                                        4.41899e+002           4.18989e+001           1.89889e+000           8.98886e-001           9.88864e-002           8.88642e-003           8.86422e-004
                  184.60    441.90193                                0.00000             83.250                                        4.41902e+002           4.19019e+001           1.90193e+000           9.01925e-001           1.92511e-003           1.92511e-003           9.25110e-004
                  184.70    441.89936                                0.00000             83.250                                        4.41899e+002           4.18994e+001           1.89936e+000           8.99357e-001           9.93573e-002           9.35728e-003           3.57276e-004
                  184.80    441.89331                                0.00000             83.250                                        4.41893e+002           4.18933e+001           1.89331e+000           8.93309e-001           9.33087e-002           3.30869e-003           3.08689e-004
                  184.90    441.89988                                0.00000             83.250                                        4.41900e+002           4.18999e+001           1.89988e+000           8.99880e-001           9.98797e-002           9.87970e-003           8.79697e-004
                  185.00    441.89384                                0.00000             83.248                                        4.41894e+002           4.18938e+001           1.89384e+000           8.93842e-001           9.38420e-002           3.84198e-003           8.41984e-004
                  185.10    441.89088                                0.00000             83.244                                        4.41891e+002           4.18909e+001           1.89088e+000           8.90876e-001           9.08755e-002           8.75545e-004           8.75545e-004
                  185.20    441.88987                                0.00000             83.242                                        4.41890e+002           4.18899e+001           1.88987e+000           8.89873e-001           8.98729e-002           9.87289e-003           8.72891e-004
                  185.30    441.89565                                0.00000             83.242                                        4.41896e+002           4.18956e+001           1.89565e+000           8.95648e-001           9.56476e-002           5.64764e-003           6.47638e-004
                  185.40    441.88351                                0.00000             83.242                                        4.41884e+002           4.18835e+001           1.88351e+000           8.83510e-001           8.35101e-002           3.51007e-003           5.10065e-004
                  185.50    441.87995                                0.00000             83.242                                        4.41880e+002           4.18800e+001           1.87995e+000           8.79950e-001           7.99503e-002           9.95032e-003           9.50317e-004
                  185.60    441.87613                                0.00000             83.242                                        4.41876e+002           4.18761e+001           1.87613e+000           8.76128e-001           7.61280e-002           6.12802e-003           1.28021e-004
                  185.70    441.88496                                0.00000             83.242                                        4.41885e+002           4.18850e+001           1.88496e+000           8.84959e-001           8.49590e-002           4.95897e-003           9.58967e-004
                  185.80    441.88956                                0.00000             83.242                                        4.41890e+002           4.18896e+001           1.88956e+000           8.89559e-001           8.95586e-002           9.55862e-003           5.58617e-004
                  185.90    441.89064                                0.00000             83.242                                        4.41891e+002           4.18906e+001           1.89064e+000           8.90644e-001           9.06435e-002           6.43548e-004           6.43548e-004
                  186.00    441.88705                                0.00000             83.242                                        4.41887e+002           4.18870e+001           1.88705e+000           8.87048e-001           8.70483e-002           7.04834e-003           4.83448e-005
                  186.10    441.89647                                0.00000             83.242                                        4.41896e+002           4.18965e+001           1.89647e+000           8.96473e-001           9.64732e-002           6.47321e-003           4.73209e-004
                  186.20    441.88608                                0.00000             83.242                                        4.41886e+002           4.18861e+001           1.88608e+000           8.86082e-001           8.60823e-002           6.08230e-003           8.22989e-005
                  186.30    441.87340                                0.00000             83.242                                        4.41873e+002           4.18734e+001           1.87340e+000           8.73396e-001           7.33961e-002           3.39614e-003           3.96144e-004
                  186.40    441.87261                                0.00000             83.242                                        4.41873e+002           4.18726e+001           1.87261e+000           8.72606e-001           7.26058e-002           2.60584e-003           6.05839e-004
                  186.50    441.88300                                0.00000             83.242                                        4.41883e+002           4.18830e+001           1.88300e+000           8.82999e-001           8.29987e-002           2.99870e-003           9.98704e-004
                  186.60    441.87511                                0.00000             83.242                                        4.41875e+002           4.18751e+001           1.87511e+000           8.75108e-001           7.51080e-002           5.10804e-003           1.08036e-004
                  186.70    441.87344                                0.00000             83.242                                        4.41873e+002           4.18734e+001           1.87344e+000           8.73439e-001           7.34386e-002           3.43862e-003           4.38618e-004
                  186.80    441.87915                                0.00000             83.242                                        4.41879e+002           4.18791e+001           1.87915e+000           8.79150e-001           7.91496e-002           9.14958e-003           1.49582e-004
