~VERSION INFORMATION
VERS                    .            2.0                                    :CWLS LOG ASCII STANDARD
WRAP                    .            NO                                     :ONE LINE PER TIME STEP


~WELL INFORMATION
#MNEM                   .UNIT        DATA                                    DESCRIPTION
#________________________________________________________________________________________
STRTTIME                .HH/MM/SS    18:50:18                               :START TIME
STOPTIME                .HH/MM/SS    18:53:14                               :STOP TIME
STRT                    .s           2.10                                   :START DATA
STOP                    .s           174.80                                 :STOP DATA
STEP                    .s           0.10                                   :MEASUREMENT TIME INTERVAL
NULL                    .            -999.25                                :NULL VALUE
COMP                    .            Statoil ASA                            :COMPANY
FLD                     .            Volve                                  :FIELD
WELL                    .            15/9-F-11 A                            :WELL
RUN                     .            8                                      :RUN
LOC                     .            Maersk Inspirer                        :LOCATION
PROV                    .            na                                     :PROVINCE
SRVC                    .            Baker Hughes INTEQ                     :SERVICE COMPANY
DATE                    .YY/MM/DD    13/05/23                               :LOG DATE
UWI                     .                                                   :UNIQUE WELL ID
DEPTHMD                 .m           3651.0                                 :MEASURED DEPTH
DEPTHTVD                .m           3041.4                                 :TRUE VERTICAL DEPTH


~CURVE INFORMATION
#MNEM                   .UNIT        API CODES                               DESCRIPTION
#________________________________________________________________________________________
TIME                    .s                                                  :01 TIME
DD_PRESS                .bar                                                :02 DRAW DOWN PRESSURE
DD_VOLUME               .cm3                                                :03 INCREMENTAL DRAW DOWN VOLUME
TEMP                    .degC                                               :04 TRANSDUCER TEMPERATURE
DD_PRESS_MOD_1000       .bar                                                :05 DRAW DOWN PRESSURE MOD 1000
DD_PRESS_MOD_100        .bar                                                :06 DRAW DOWN PRESSURE MOD 100
DD_PRESS_MOD_10         .bar                                                :07 DRAW DOWN PRESSURE MOD 10
DD_PRESS_MOD_1          .bar                                                :08 DRAW DOWN PRESSURE MOD 1
DD_PRESS_MOD_01         .bar                                                :09 DRAW DOWN PRESSURE MOD 01
DD_PRESS_MOD_001        .bar                                                :10 DRAW DOWN PRESSURE MOD 001
DD_PRESS_MOD_0001       .bar                                                :11 DRAW DOWN PRESSURE MOD 0001


~PARAMETER INFORMATION
#MNEM                   .UNIT        VALUE                                   DESCRIPTION
#________________________________________________________________________________________
TOOLFACE                .deg         -39.7                                  :01 TOOLFACE
PUMP_CAPACITY           .bar         400                                    :02 NOMINAL DRAW DOWN PUMP CAPACITY
PUMP_LIMIT              .bar         240                                    :03 DOWNLINK PUMP LIMIT
TIME_LIMIT              .min         10                                     :04 DOWNLINK MAX TIME
TEST_TYPE               .            REPEAT                                 :05 DOWNLINK
TEST_TYPE               .            HIGH MOBILITY                          :06 DOWNLINK
DD_PIST_A               .cm2         3.1416                                 :07 DRAW DOWN PISTON AREA
V_SYS                   .cm3         131.0000                               :08 SYSTEM VOLUME
PROBE_ID                .cm          1.2700                                 :09 TTK PROBE ID
G0                      .            4.6700                                 :10 GEOMETRY FACTOR


~A                  TIME     DD_PRESS                              DD_VOLUME               TEMP                                   DD_PRESS_MOD_1000       DD_PRESS_MOD_100        DD_PRESS_MOD_10         DD_PRESS_MOD_1        DD_PRESS_MOD_01       DD_PRESS_MOD_001      DD_PRESS_MOD_0001
# ...
                  116.90    343.38654                               19.79906             73.336                                        3.43387e+002           4.33865e+001           3.38654e+000           3.86535e-001           8.65351e-002           6.53509e-003           5.35091e-004
                  117.00    343.38650                               19.79906             73.336                                        3.43387e+002           4.33865e+001           3.38650e+000           3.86503e-001           8.65032e-002           6.50315e-003           5.03151e-004
                  117.10    343.38648                               19.79906             73.336                                        3.43386e+002           4.33865e+001           3.38648e+000           3.86478e-001           8.64781e-002           6.47814e-003           4.78142e-004
                  117.20    343.38650                               19.79906             73.336                                        3.43387e+002           4.33865e+001           3.38650e+000           3.86501e-001           8.65013e-002           6.50134e-003           5.01341e-004
                  117.30    343.38657                               19.79906             73.336                                        3.43387e+002           4.33866e+001           3.38657e+000           3.86569e-001           8.65693e-002           6.56933e-003           5.69331e-004
                  117.40    343.38693                               19.79906             73.336                                        3.43387e+002           4.33869e+001           3.38693e+000           3.86933e-001           8.69329e-002           6.93295e-003           9.32949e-004
                  117.50    343.38693                               19.79906             73.334                                        3.43387e+002           4.33869e+001           3.38693e+000           3.86927e-001           8.69273e-002           6.92729e-003           9.27290e-004
                  117.60    343.38675                               19.79906             73.330                                        3.43387e+002           4.33868e+001           3.38675e+000           3.86752e-001           8.67524e-002           6.75239e-003           7.52391e-004
                  117.70    343.38668                               19.79906             73.330                                        3.43387e+002           4.33867e+001           3.38668e+000           3.86684e-001           8.66837e-002           6.68366e-003           6.83656e-004
                  117.80    343.38660                               19.79906             73.334                                        3.43387e+002           4.33866e+001           3.38660e+000           3.86596e-001           8.65958e-002           6.59582e-003           5.95818e-004
                  117.90    343.38657                               19.79906             73.336                                        3.43387e+002           4.33866e+001           3.38657e+000           3.86570e-001           8.65702e-002           6.57017e-003           5.70165e-004
                  118.00    343.38671                               19.79906             73.336                                        3.43387e+002           4.33867e+001           3.38671e+000           3.86710e-001           8.67097e-002           6.70965e-003           7.09653e-004
                  118.10    343.38673                               19.79906             73.336                                        3.43387e+002           4.33867e+001           3.38673e+000           3.86733e-001           8.67331e-002           6.73309e-003           7.33089e-004
                  118.20    343.38671                               19.79906             73.334                                        3.43387e+002           4.33867e+001           3.38671e+000           3.86710e-001           8.67099e-002           6.70993e-003           7.09929e-004
                  118.30    343.38677                               19.79906             73.330                                        3.43387e+002           4.33868e+001           3.38677e+000           3.86768e-001           8.67680e-002           6.76805e-003           7.68046e-004
                  118.40    343.38689                               19.79906             73.328                                        3.43387e+002           4.33869e+001           3.38689e+000           3.86892e-001           8.68918e-002           6.89185e-003           8.91849e-004
                  118.50    343.38692                               19.79906             73.328                                        3.43387e+002           4.33869e+001           3.38692e+000           3.86923e-001           8.69233e-002           6.92333e-003           9.23333e-004
                  118.60    343.38685                               19.79906             73.328                                        3.43387e+002           4.33869e+001           3.38685e+000           3.86852e-001           8.68517e-002           6.85171e-003           8.51710e-004
                  118.70    343.38681                               19.79906             73.328                                        3.43387e+002           4.33868e+001           3.38681e+000           3.86811e-001           8.68113e-002           6.81133e-003           8.11335e-004
                  118.80    343.38684                               19.79906             73.328                                        3.43387e+002           4.33868e+001           3.38684e+000           3.86845e-001           8.68446e-002           6.84464e-003           8.44645e-004
                  118.90    343.38688                               19.79906             73.328                                        3.43387e+002           4.33869e+001           3.38688e+000           3.86882e-001           8.68817e-002           6.88168e-003           8.81681e-004
                  119.00    343.38690                               19.79906             73.328                                        3.43387e+002           4.33869e+001           3.38690e+000           3.86899e-001           8.68992e-002           6.89920e-003           8.99203e-004
                  119.10    343.38687                               19.79906             73.328                                        3.43387e+002           4.33869e+001           3.38687e+000           3.86870e-001           8.68697e-002           6.86974e-003           8.69742e-004
                  119.20    343.38699                               19.79906             73.328                                        3.43387e+002           4.33870e+001           3.38699e+000           3.86994e-001           8.69941e-002           6.99408e-003           9.94084e-004
                  119.30    343.38834                               19.79906             73.328                                        3.43388e+002           4.33883e+001           3.38834e+000           3.88343e-001           8.83429e-002           8.34287e-003           3.42867e-004
                  119.40    343.38847                               19.79906             73.328                                        3.43388e+002           4.33885e+001           3.38847e+000           3.88471e-001           8.84708e-002           8.47080e-003           4.70804e-004
                  119.50    343.38696                               19.79906             73.328                                        3.43387e+002           4.33870e+001           3.38696e+000           3.86962e-001           8.69624e-002           6.96236e-003           9.62357e-004
                  119.60    343.38656                               19.79906             73.328                                        3.43387e+002           4.33866e+001           3.38656e+000           3.86556e-001           8.65556e-002           6.55562e-003           5.55620e-004
