~VERSION INFORMATION
VERS                    .            2.0                                    :CWLS LOG ASCII STANDARD
WRAP                    .            NO                                     :ONE LINE PER TIME STEP


~WELL INFORMATION
#MNEM                   .UNIT        DATA                                    DESCRIPTION
#________________________________________________________________________________________
STRTTIME                .HH/MM/SS    11:44:47                               :START TIME
STOPTIME                .HH/MM/SS    11:47:33                               :STOP TIME
STRT                    .s           2.10                                   :START DATA
STOP                    .s           164.50                                 :STOP DATA
STEP                    .s           0.10                                   :MEASUREMENT TIME INTERVAL
NULL                    .            -999.25                                :NULL VALUE
COMP                    .            Statoil ASA                            :COMPANY
FLD                     .            Volve                                  :FIELD
WELL                    .            15/9-F-11 A                            :WELL
RUN                     .            8                                      :RUN
LOC                     .            Maersk Inspirer                        :LOCATION
PROV                    .            na                                     :PROVINCE
SRVC                    .            Baker Hughes INTEQ                     :SERVICE COMPANY
DATE                    .YY/MM/DD    13/05/21                               :LOG DATE
UWI                     .                                                   :UNIQUE WELL ID
DEPTHMD                 .m           3624.0                                 :MEASURED DEPTH
DEPTHTVD                .m           3020.7                                 :TRUE VERTICAL DEPTH


~CURVE INFORMATION
#MNEM                   .UNIT        API CODES                               DESCRIPTION
#________________________________________________________________________________________
TIME                    .s                                                  :01 TIME
DD_PRESS                .bar                                                :02 DRAW DOWN PRESSURE
DD_VOLUME               .cm3                                                :03 INCREMENTAL DRAW DOWN VOLUME
TEMP                    .degC                                               :04 TRANSDUCER TEMPERATURE
DD_PRESS_MOD_1000       .bar                                                :05 DRAW DOWN PRESSURE MOD 1000
DD_PRESS_MOD_100        .bar                                                :06 DRAW DOWN PRESSURE MOD 100
DD_PRESS_MOD_10         .bar                                                :07 DRAW DOWN PRESSURE MOD 10
DD_PRESS_MOD_1          .bar                                                :08 DRAW DOWN PRESSURE MOD 1
DD_PRESS_MOD_01         .bar                                                :09 DRAW DOWN PRESSURE MOD 01
DD_PRESS_MOD_001        .bar                                                :10 DRAW DOWN PRESSURE MOD 001
DD_PRESS_MOD_0001       .bar                                                :11 DRAW DOWN PRESSURE MOD 0001


~PARAMETER INFORMATION
#MNEM                   .UNIT        VALUE                                   DESCRIPTION
#________________________________________________________________________________________
TOOLFACE                .deg         61.7                                   :01 TOOLFACE
PUMP_CAPACITY           .bar         400                                    :02 NOMINAL DRAW DOWN PUMP CAPACITY
PUMP_LIMIT              .bar         240                                    :03 DOWNLINK PUMP LIMIT
TIME_LIMIT              .min         10                                     :04 DOWNLINK MAX TIME
TEST_TYPE               .            REPEAT                                 :05 DOWNLINK
TEST_TYPE               .            HIGH MOBILITY                          :06 DOWNLINK
DD_PIST_A               .cm2         3.1416                                 :07 DRAW DOWN PISTON AREA
V_SYS                   .cm3         131.0000                               :08 SYSTEM VOLUME
PROBE_ID                .cm          1.2700                                 :09 TTK PROBE ID
G0                      .            4.6700                                 :10 GEOMETRY FACTOR


~A                  TIME     DD_PRESS                              DD_VOLUME               TEMP                                   DD_PRESS_MOD_1000       DD_PRESS_MOD_100        DD_PRESS_MOD_10         DD_PRESS_MOD_1        DD_PRESS_MOD_01       DD_PRESS_MOD_001      DD_PRESS_MOD_0001
# ...
                   24.50    414.90769                                0.00000             81.508                                        4.14908e+002           1.49077e+001           4.90769e+000           9.07687e-001           7.68663e-003           7.68663e-003           6.86627e-004
                   24.60    414.93311                                0.00000             81.508                                        4.14933e+002           1.49331e+001           4.93311e+000           9.33110e-001           3.31097e-002           3.10968e-003           1.09676e-004
                   24.70    414.95309                                0.00000             81.508                                        4.14953e+002           1.49531e+001           4.95309e+000           9.53090e-001           5.30903e-002           3.09031e-003           9.03143e-005
                   24.80    414.97683                                0.00000             81.508                                        4.14977e+002           1.49768e+001           4.97683e+000           9.76831e-001           7.68307e-002           6.83069e-003           8.30689e-004
                   24.90    415.00421                                0.00000             81.508                                        4.15004e+002           1.50042e+001           5.00421e+000           4.20993e-003           4.20993e-003           4.20993e-003           2.09931e-004
                   25.00    415.02434                                0.94353             81.505                                        4.15024e+002           1.50243e+001           5.02434e+000           2.43362e-002           2.43362e-002           4.33624e-003           3.36240e-004
                   25.10    415.03632                                0.94443             81.502                                        4.15036e+002           1.50363e+001           5.03632e+000           3.63200e-002           3.63200e-002           6.32001e-003           3.20007e-004
                   25.20    415.01664                                0.94585             81.502                                        4.15017e+002           1.50166e+001           5.01664e+000           1.66388e-002           1.66388e-002           6.63880e-003           6.38803e-004
                   25.30    414.92034                                0.94868             81.506                                        4.14920e+002           1.49203e+001           4.92034e+000           9.20337e-001           2.03372e-002           3.37245e-004           3.37245e-004
                   25.40    414.71094                                0.95349             81.505                                        4.14711e+002           1.47109e+001           4.71094e+000           7.10943e-001           1.09427e-002           9.42716e-004           9.42716e-004
                   25.50    414.37545                                0.96031             81.502                                        4.14375e+002           1.43755e+001           4.37545e+000           3.75455e-001           7.54550e-002           5.45496e-003           4.54960e-004
                   25.60    413.92951                                0.96922             81.500                                        4.13930e+002           1.39295e+001           3.92951e+000           9.29513e-001           2.95126e-002           9.51265e-003           5.12646e-004
                   25.70    413.38818                                0.98005             81.502                                        4.13388e+002           1.33882e+001           3.38818e+000           3.88182e-001           8.81819e-002           8.18192e-003           1.81920e-004
                   25.80    412.74017                                0.99281             81.506                                        4.12740e+002           1.27402e+001           2.74017e+000           7.40165e-001           4.01654e-002           1.65372e-004           1.65372e-004
                   25.90    411.93839                                1.00745             81.508                                        4.11938e+002           1.19384e+001           1.93839e+000           9.38390e-001           3.83904e-002           8.39044e-003           3.90436e-004
                   26.00    410.95472                                1.02415             81.508                                        4.10955e+002           1.09547e+001           9.54716e-001           9.54716e-001           5.47159e-002           4.71588e-003           7.15876e-004
                   26.10    409.80613                                1.04277             81.508                                        4.09806e+002           9.80613e+000           9.80613e+000           8.06131e-001           6.13140e-003           6.13140e-003           1.31396e-004
                   26.20    408.52226                                1.06337             81.508                                        4.08522e+002           8.52226e+000           8.52226e+000           5.22258e-001           2.22583e-002           2.25826e-003           2.58260e-004
                   26.30    407.10768                                1.08595             81.508                                        4.07108e+002           7.10768e+000           7.10768e+000           1.07681e-001           7.68124e-003           7.68124e-003           6.81242e-004
                   26.40    405.57085                                1.11041             81.508                                        4.05571e+002           5.57085e+000           5.57085e+000           5.70846e-001           7.08457e-002           8.45668e-004           8.45668e-004
                   26.50    403.90628                                1.13677             81.505                                        4.03906e+002           3.90628e+000           3.90628e+000           9.06275e-001           6.27505e-003           6.27505e-003           2.75049e-004
                   26.60    402.08781                                1.16510             81.502                                        4.02088e+002           2.08781e+000           2.08781e+000           8.78089e-002           8.78089e-002           7.80890e-003           8.08897e-004
                   26.70    400.09678                                1.19542             81.500                                        4.00097e+002           9.67817e-002           9.67817e-002           9.67817e-002           9.67817e-002           6.78172e-003           7.81717e-004
                   26.80    397.94570                                1.22756             81.500                                        3.97946e+002           9.79457e+001           7.94570e+000           9.45701e-001           4.57007e-002           5.70074e-003           7.00736e-004
                   26.90    395.65357                                1.26146             81.500                                        3.95654e+002           9.56536e+001           5.65357e+000           6.53567e-001           5.35668e-002           3.56680e-003           5.66797e-004
                   27.00    393.19856                                1.29726             81.500                                        3.93199e+002           9.31986e+001           3.19856e+000           1.98563e-001           9.85625e-002           8.56253e-003           5.62526e-004
                   27.10    390.59318                                1.33495             81.500                                        3.90593e+002           9.05932e+001           5.93184e-001           5.93184e-001           9.31836e-002           3.18361e-003           1.83611e-004
                   27.20    387.86880                                1.37447             81.500                                        3.87869e+002           8.78688e+001           7.86880e+000           8.68797e-001           6.87973e-002           8.79727e-003           7.97266e-004
