~VERSION INFORMATION
VERS                    .            2.0                                    :CWLS LOG ASCII STANDARD
WRAP                    .            NO                                     :ONE LINE PER TIME STEP


~WELL INFORMATION
#MNEM                   .UNIT        DATA                                    DESCRIPTION
#________________________________________________________________________________________
STRTTIME                .HH/MM/SS    01:04:55                               :START TIME
STOPTIME                .HH/MM/SS    01:07:44                               :STOP TIME
STRT                    .s           2.10                                   :START DATA
STOP                    .s           167.40                                 :STOP DATA
STEP                    .s           0.10                                   :MEASUREMENT TIME INTERVAL
NULL                    .            -999.25                                :NULL VALUE
COMP                    .            Statoil ASA                            :COMPANY
FLD                     .            Volve                                  :FIELD
WELL                    .            15/9-F-1 C                             :WELL
RUN                     .            4                                      :RUN
LOC                     .                                                   :LOCATION
PROV                    .            na                                     :PROVINCE
SRVC                    .            Baker Hughes INTEQ                     :SERVICE COMPANY
DATE                    .YY/MM/DD    14/03/15                               :LOG DATE
UWI                     .                                                   :UNIQUE WELL ID
DEPTHMD                 .m           3720.1                                 :MEASURED DEPTH
DEPTHTVD                .m           3050.6                                 :TRUE VERTICAL DEPTH


~CURVE INFORMATION
#MNEM                   .UNIT        API CODES                               DESCRIPTION
#________________________________________________________________________________________
TIME                    .s                                                  :01 TIME
DD_PRESS                .bar                                                :02 DRAW DOWN PRESSURE
DD_VOLUME               .cm3                                                :03 INCREMENTAL DRAW DOWN VOLUME
TEMP                    .degC                                               :04 TRANSDUCER TEMPERATURE
DD_PRESS_MOD_1000       .bar                                                :05 DRAW DOWN PRESSURE MOD 1000
DD_PRESS_MOD_100        .bar                                                :06 DRAW DOWN PRESSURE MOD 100
DD_PRESS_MOD_10         .bar                                                :07 DRAW DOWN PRESSURE MOD 10
DD_PRESS_MOD_1          .bar                                                :08 DRAW DOWN PRESSURE MOD 1
DD_PRESS_MOD_01         .bar                                                :09 DRAW DOWN PRESSURE MOD 01
DD_PRESS_MOD_001        .bar                                                :10 DRAW DOWN PRESSURE MOD 001
DD_PRESS_MOD_0001       .bar                                                :11 DRAW DOWN PRESSURE MOD 0001


~PARAMETER INFORMATION
#MNEM                   .UNIT        VALUE                                   DESCRIPTION
#________________________________________________________________________________________
TOOLFACE                .deg         134.6                                  :01 TOOLFACE
PUMP_CAPACITY           .bar         400                                    :02 NOMINAL DRAW DOWN PUMP CAPACITY
PUMP_LIMIT              .bar         240                                    :03 DOWNLINK PUMP LIMIT
TIME_LIMIT              .min         10                                     :04 DOWNLINK MAX TIME
TEST_TYPE               .            REPEAT                                 :05 DOWNLINK
TEST_TYPE               .            HIGH MOBILITY                          :06 DOWNLINK
DD_PIST_A               .cm2         3.1416                                 :07 DRAW DOWN PISTON AREA
V_SYS                   .cm3         131.0000                               :08 SYSTEM VOLUME
PROBE_ID                .cm          1.2700                                 :09 TTK PROBE ID
G0                      .            4.6700                                 :10 GEOMETRY FACTOR


~A                  TIME     DD_PRESS                              DD_VOLUME               TEMP                                   DD_PRESS_MOD_1000       DD_PRESS_MOD_100        DD_PRESS_MOD_10         DD_PRESS_MOD_1        DD_PRESS_MOD_01       DD_PRESS_MOD_001      DD_PRESS_MOD_0001
# ...
                   44.10    348.27176                               10.92852             87.281                                        3.48272e+002           4.82718e+001           8.27176e+000           2.71759e-001           7.17586e-002           1.75861e-003           7.58612e-004
                   44.20    348.27336                               10.92852             87.281                                        3.48273e+002           4.82734e+001           8.27336e+000           2.73365e-001           7.33650e-002           3.36495e-003           3.64951e-004
                   44.30    348.27181                               10.92852             87.281                                        3.48272e+002           4.82718e+001           8.27181e+000           2.71812e-001           7.18120e-002           1.81195e-003           8.11950e-004
                   44.40    348.26994                               10.92852             87.281                                        3.48270e+002           4.82699e+001           8.26994e+000           2.69944e-001           6.99442e-002           9.94419e-003           9.44193e-004
                   44.50    348.27157                               10.92852             87.281                                        3.48272e+002           4.82716e+001           8.27157e+000           2.71569e-001           7.15694e-002           1.56944e-003           5.69441e-004
                   44.60    348.27347                               10.92852             87.281                                        3.48273e+002           4.82735e+001           8.27347e+000           2.73472e-001           7.34719e-002           3.47189e-003           4.71887e-004
                   44.70    348.27326                               10.92852             87.279                                        3.48273e+002           4.82733e+001           8.27326e+000           2.73262e-001           7.32625e-002           3.26247e-003           2.62468e-004
                   44.80    348.27198                               10.92852             87.275                                        3.48272e+002           4.82720e+001           8.27198e+000           2.71984e-001           7.19836e-002           1.98359e-003           9.83587e-004
                   44.90    348.26945                               10.92852             87.273                                        3.48269e+002           4.82695e+001           8.26945e+000           2.69452e-001           6.94519e-002           9.45186e-003           4.51861e-004
                   45.00    348.26897                               10.92852             87.273                                        3.48269e+002           4.82690e+001           8.26897e+000           2.68966e-001           6.89658e-002           8.96583e-003           9.65826e-004
                   45.10    348.26989                               10.92852             87.276                                        3.48270e+002           4.82699e+001           8.26989e+000           2.69888e-001           6.98884e-002           9.88841e-003           8.88406e-004
                   45.20    348.27080                               10.92852             87.279                                        3.48271e+002           4.82708e+001           8.27080e+000           2.70804e-001           7.08038e-002           8.03772e-004           8.03772e-004
                   45.30    348.27237                               10.92852             87.279                                        3.48272e+002           4.82724e+001           8.27237e+000           2.72367e-001           7.23672e-002           2.36719e-003           3.67188e-004
                   45.40    348.27285                               10.92852             87.275                                        3.48273e+002           4.82729e+001           8.27285e+000           2.72851e-001           7.28511e-002           2.85106e-003           8.51064e-004
                   45.50    348.27246                               10.92852             87.276                                        3.48272e+002           4.82725e+001           8.27246e+000           2.72456e-001           7.24565e-002           2.45646e-003           4.56463e-004
                   45.60    348.27248                               10.92852             87.279                                        3.48272e+002           4.82725e+001           8.27248e+000           2.72483e-001           7.24831e-002           2.48308e-003           4.83078e-004
                   45.70    348.27280                               10.92852             87.281                                        3.48273e+002           4.82728e+001           8.27280e+000           2.72803e-001           7.28030e-002           2.80297e-003           8.02970e-004
                   45.80    348.27177                               10.92852             87.279                                        3.48272e+002           4.82718e+001           8.27177e+000           2.71774e-001           7.17744e-002           1.77438e-003           7.74378e-004
                   45.90    348.27007                               10.92852             87.275                                        3.48270e+002           4.82701e+001           8.27007e+000           2.70067e-001           7.00671e-002           6.71066e-005           6.71066e-005
                   46.00    348.27087                               10.92852             87.273                                        3.48271e+002           4.82709e+001           8.27087e+000           2.70874e-001           7.08742e-002           8.74172e-004           8.74172e-004
                   46.10    348.27368                               10.92852             87.273                                        3.48274e+002           4.82737e+001           8.27368e+000           2.73676e-001           7.36760e-002           3.67602e-003           6.76022e-004
                   46.20    348.27354                               10.92852             87.276                                        3.48274e+002           4.82735e+001           8.27354e+000           2.73537e-001           7.35369e-002           3.53694e-003           5.36944e-004
                   46.30    348.27149                               10.92852             87.279                                        3.48271e+002           4.82715e+001           8.27149e+000           2.71489e-001           7.14892e-002           1.48923e-003           4.89226e-004
                   46.40    348.27131                               10.92852             87.279                                        3.48271e+002           4.82713e+001           8.27131e+000           2.71314e-001           7.13141e-002           1.31410e-003           3.14103e-004
                   46.50    348.27291                               10.92852             87.275                                        3.48273e+002           4.82729e+001           8.27291e+000           2.72912e-001           7.29117e-002           2.91172e-003           9.11718e-004
                   46.60    348.27277                               10.92852             87.273                                        3.48273e+002           4.82728e+001           8.27277e+000           2.72769e-001           7.27692e-002           2.76919e-003           7.69185e-004
                   46.70    348.27180                               10.92852             87.273                                        3.48272e+002           4.82718e+001           8.27180e+000           2.71799e-001           7.17990e-002           1.79901e-003           7.99011e-004
                   46.80    348.27260                               10.92852             87.273                                        3.48273e+002           4.82726e+001           8.27260e+000           2.72605e-001           7.26045e-002           2.60452e-003           6.04516e-004
