~VERSION INFORMATION
VERS                    .            2.0                                    :CWLS LOG ASCII STANDARD
WRAP                    .            NO                                     :ONE LINE PER TIME STEP


~WELL INFORMATION
#MNEM                   .UNIT        DATA                                    DESCRIPTION
#________________________________________________________________________________________
STRTTIME                .HH/MM/SS    09:43:23                               :START TIME
STOPTIME                .HH/MM/SS    09:46:50                               :STOP TIME
STRT                    .s           2.10                                   :START DATA
STOP                    .s           205.20                                 :STOP DATA
STEP                    .s           0.10                                   :MEASUREMENT TIME INTERVAL
NULL                    .            -999.25                                :NULL VALUE
COMP                    .            Statoil ASA                            :COMPANY
FLD                     .            Volve                                  :FIELD
WELL                    .            15/9-F-11 A                            :WELL
RUN                     .            8                                      :RUN
LOC                     .            Maersk Inspirer                        :LOCATION
PROV                    .            na                                     :PROVINCE
SRVC                    .            Baker Hughes INTEQ                     :SERVICE COMPANY
DATE                    .YY/MM/DD    13/05/21                               :LOG DATE
UWI                     .                                                   :UNIQUE WELL ID
DEPTHMD                 .m           3665.9                                 :MEASURED DEPTH
DEPTHTVD                .m           3052.8                                 :TRUE VERTICAL DEPTH


~CURVE INFORMATION
#MNEM                   .UNIT        API CODES                               DESCRIPTION
#________________________________________________________________________________________
TIME                    .s                                                  :01 TIME
DD_PRESS                .bar                                                :02 DRAW DOWN PRESSURE
DD_VOLUME               .cm3                                                :03 INCREMENTAL DRAW DOWN VOLUME
TEMP                    .degC                                               :04 TRANSDUCER TEMPERATURE
DD_PRESS_MOD_1000       .bar                                                :05 DRAW DOWN PRESSURE MOD 1000
DD_PRESS_MOD_100        .bar                                                :06 DRAW DOWN PRESSURE MOD 100
DD_PRESS_MOD_10         .bar                                                :07 DRAW DOWN PRESSURE MOD 10
DD_PRESS_MOD_1          .bar                                                :08 DRAW DOWN PRESSURE MOD 1
DD_PRESS_MOD_01         .bar                                                :09 DRAW DOWN PRESSURE MOD 01
DD_PRESS_MOD_001        .bar                                                :10 DRAW DOWN PRESSURE MOD 001
DD_PRESS_MOD_0001       .bar                                                :11 DRAW DOWN PRESSURE MOD 0001


~PARAMETER INFORMATION
#MNEM                   .UNIT        VALUE                                   DESCRIPTION
#________________________________________________________________________________________
TOOLFACE                .deg         60.0                                   :01 TOOLFACE
PUMP_CAPACITY           .bar         400                                    :02 NOMINAL DRAW DOWN PUMP CAPACITY
PUMP_LIMIT              .bar         240                                    :03 DOWNLINK PUMP LIMIT
TIME_LIMIT              .min         10                                     :04 DOWNLINK MAX TIME
TEST_TYPE               .            REPEAT                                 :05 DOWNLINK
TEST_TYPE               .            HIGH MOBILITY                          :06 DOWNLINK
DD_PIST_A               .cm2         3.1416                                 :07 DRAW DOWN PISTON AREA
V_SYS                   .cm3         131.0000                               :08 SYSTEM VOLUME
PROBE_ID                .cm          1.2700                                 :09 TTK PROBE ID
G0                      .            4.6700                                 :10 GEOMETRY FACTOR


~A                  TIME     DD_PRESS                              DD_VOLUME               TEMP                                   DD_PRESS_MOD_1000       DD_PRESS_MOD_100        DD_PRESS_MOD_10         DD_PRESS_MOD_1        DD_PRESS_MOD_01       DD_PRESS_MOD_001      DD_PRESS_MOD_0001
# ...
                   83.30    344.73240                               10.66748             83.156                                        3.44732e+002           4.47324e+001           4.73240e+000           7.32400e-001           3.23996e-002           2.39959e-003           3.99592e-004
                   83.40    344.72723                               10.66748             83.156                                        3.44727e+002           4.47272e+001           4.72723e+000           7.27232e-001           2.72321e-002           7.23213e-003           2.32126e-004
                   83.50    344.72451                               10.66748             83.156                                        3.44725e+002           4.47245e+001           4.72451e+000           7.24511e-001           2.45114e-002           4.51137e-003           5.11371e-004
                   83.60    344.72623                               10.66748             83.156                                        3.44726e+002           4.47262e+001           4.72623e+000           7.26226e-001           2.62264e-002           6.22641e-003           2.26415e-004
                   83.70    344.72833                               10.66748             83.156                                        3.44728e+002           4.47283e+001           4.72833e+000           7.28327e-001           2.83265e-002           8.32655e-003           3.26548e-004
                   83.80    344.72370                               10.66748             83.156                                        3.44724e+002           4.47237e+001           4.72370e+000           7.23702e-001           2.37018e-002           3.70182e-003           7.01820e-004
                   83.90    344.71297                               10.66748             83.156                                        3.44713e+002           4.47130e+001           4.71297e+000           7.12968e-001           1.29676e-002           2.96757e-003           9.67574e-004
                   84.00    344.71665                               10.66748             83.156                                        3.44717e+002           4.47167e+001           4.71665e+000           7.16652e-001           1.66521e-002           6.65207e-003           6.52068e-004
                   84.10    344.73102                               10.66748             83.156                                        3.44731e+002           4.47310e+001           4.73102e+000           7.31015e-001           3.10152e-002           1.01525e-003           1.52499e-005
                   84.20    344.72799                               10.66748             83.156                                        3.44728e+002           4.47280e+001           4.72799e+000           7.27995e-001           2.79950e-002           7.99496e-003           9.94961e-004
                   84.30    344.71624                               10.66748             83.156                                        3.44716e+002           4.47162e+001           4.71624e+000           7.16237e-001           1.62375e-002           6.23746e-003           2.37455e-004
                   84.40    344.72077                               10.66748             83.156                                        3.44721e+002           4.47208e+001           4.72077e+000           7.20772e-001           2.07720e-002           7.72009e-004           7.72009e-004
                   84.50    344.73930                               10.66748             83.156                                        3.44739e+002           4.47393e+001           4.73930e+000           7.39302e-001           3.93017e-002           9.30174e-003           3.01736e-004
                   84.60    344.74178                               10.66748             83.156                                        3.44742e+002           4.47418e+001           4.74178e+000           7.41777e-001           4.17770e-002           1.77701e-003           7.77009e-004
                   84.70    344.72431                               10.66748             83.156                                        3.44724e+002           4.47243e+001           4.72431e+000           7.24314e-001           2.43140e-002           4.31400e-003           3.13998e-004
                   84.80    344.71883                               10.66748             83.156                                        3.44719e+002           4.47188e+001           4.71883e+000           7.18833e-001           1.88327e-002           8.83273e-003           8.32727e-004
                   84.90    344.72821                               10.66748             83.156                                        3.44728e+002           4.47282e+001           4.72821e+000           7.28214e-001           2.82145e-002           8.21446e-003           2.14457e-004
                   85.00    344.71915                               10.66748             83.156                                        3.44719e+002           4.47191e+001           4.71915e+000           7.19149e-001           1.91485e-002           9.14851e-003           1.48511e-004
                   85.10    344.70651                               10.66686             83.156                                        3.44707e+002           4.47065e+001           4.70651e+000           7.06505e-001           6.50537e-003           6.50537e-003           5.05371e-004
                   85.20    344.73616                               10.66608             83.156                                        3.44736e+002           4.47362e+001           4.73616e+000           7.36159e-001           3.61592e-002           6.15922e-003           1.59224e-004
                   85.30    344.75107                               10.66626             83.156                                        3.44751e+002           4.47511e+001           4.75107e+000           7.51073e-001           5.10729e-002           1.07285e-003           7.28524e-005
                   85.40    344.70362                               10.66717             83.156                                        3.44704e+002           4.47036e+001           4.70362e+000           7.03624e-001           3.62421e-003           3.62421e-003           6.24209e-004
                   85.50    344.66536                               10.66769             83.156                                        3.44665e+002           4.46654e+001           4.66536e+000           6.65357e-001           6.53571e-002           5.35715e-003           3.57146e-004
                   85.60    344.62570                               10.66824             83.156                                        3.44626e+002           4.46257e+001           4.62570e+000           6.25698e-001           2.56981e-002           5.69808e-003           6.98083e-004
                   85.70    344.57878                               10.66906             83.156                                        3.44579e+002           4.45788e+001           4.57878e+000           5.78783e-001           7.87829e-002           8.78289e-003           7.82887e-004
                   85.80    344.53164                               10.66995             83.156                                        3.44532e+002           4.45316e+001           4.53164e+000           5.31641e-001           3.16412e-002           1.64124e-003           6.41242e-004
                   85.90    344.46980                               10.67104             83.156                                        3.44470e+002           4.44698e+001           4.46980e+000           4.69796e-001           6.97959e-002           9.79590e-003           7.95900e-004
                   86.00    344.38765                               10.67251             83.156                                        3.44388e+002           4.43877e+001           4.38765e+000           3.87654e-001           8.76544e-002           7.65443e-003           6.54427e-004
