~VERSION INFORMATION
VERS                    .            2.0                                    :CWLS LOG ASCII STANDARD
WRAP                    .            NO                                     :ONE LINE PER TIME STEP


~WELL INFORMATION
#MNEM                   .UNIT        DATA                                    DESCRIPTION
#________________________________________________________________________________________
STRTTIME                .HH/MM/SS    19:37:02                               :START TIME
STOPTIME                .HH/MM/SS    19:40:38                               :STOP TIME
STRT                    .s           2.10                                   :START DATA
STOP                    .s           214.10                                 :STOP DATA
STEP                    .s           0.10                                   :MEASUREMENT TIME INTERVAL
NULL                    .            -999.25                                :NULL VALUE
COMP                    .            Statoil ASA                            :COMPANY
FLD                     .            Volve                                  :FIELD
WELL                    .            15/9-F-11 A                            :WELL
RUN                     .            8                                      :RUN
LOC                     .            Maersk Inspirer                        :LOCATION
PROV                    .            na                                     :PROVINCE
SRVC                    .            Baker Hughes INTEQ                     :SERVICE COMPANY
DATE                    .YY/MM/DD    13/05/23                               :LOG DATE
UWI                     .                                                   :UNIQUE WELL ID
DEPTHMD                 .m           3607.9                                 :MEASURED DEPTH
DEPTHTVD                .m           3008.4                                 :TRUE VERTICAL DEPTH


~CURVE INFORMATION
#MNEM                   .UNIT        API CODES                               DESCRIPTION
#________________________________________________________________________________________
TIME                    .s                                                  :01 TIME
DD_PRESS                .bar                                                :02 DRAW DOWN PRESSURE
DD_VOLUME               .cm3                                                :03 INCREMENTAL DRAW DOWN VOLUME
TEMP                    .degC                                               :04 TRANSDUCER TEMPERATURE
DD_PRESS_MOD_1000       .bar                                                :05 DRAW DOWN PRESSURE MOD 1000
DD_PRESS_MOD_100        .bar                                                :06 DRAW DOWN PRESSURE MOD 100
DD_PRESS_MOD_10         .bar                                                :07 DRAW DOWN PRESSURE MOD 10
DD_PRESS_MOD_1          .bar                                                :08 DRAW DOWN PRESSURE MOD 1
DD_PRESS_MOD_01         .bar                                                :09 DRAW DOWN PRESSURE MOD 01
DD_PRESS_MOD_001        .bar                                                :10 DRAW DOWN PRESSURE MOD 001
DD_PRESS_MOD_0001       .bar                                                :11 DRAW DOWN PRESSURE MOD 0001


~PARAMETER INFORMATION
#MNEM                   .UNIT        VALUE                                   DESCRIPTION
#________________________________________________________________________________________
TOOLFACE                .deg         -38.9                                  :01 TOOLFACE
PUMP_CAPACITY           .bar         400                                    :02 NOMINAL DRAW DOWN PUMP CAPACITY
PUMP_LIMIT              .bar         240                                    :03 DOWNLINK PUMP LIMIT
TIME_LIMIT              .min         10                                     :04 DOWNLINK MAX TIME
TEST_TYPE               .            REPEAT                                 :05 DOWNLINK
TEST_TYPE               .            HIGH MOBILITY                          :06 DOWNLINK
DD_PIST_A               .cm2         3.1416                                 :07 DRAW DOWN PISTON AREA
V_SYS                   .cm3         131.0000                               :08 SYSTEM VOLUME
PROBE_ID                .cm          1.2700                                 :09 TTK PROBE ID
G0                      .            4.6700                                 :10 GEOMETRY FACTOR


~A                  TIME     DD_PRESS                              DD_VOLUME               TEMP                                   DD_PRESS_MOD_1000       DD_PRESS_MOD_100        DD_PRESS_MOD_10         DD_PRESS_MOD_1        DD_PRESS_MOD_01       DD_PRESS_MOD_001      DD_PRESS_MOD_0001
                    2.10    418.69124                                0.00000             71.313                                        4.18691e+002           1.86912e+001           8.69124e+000           6.91241e-001           9.12406e-002           1.24064e-003           2.40641e-004
                    2.20    418.73645                                0.00000             71.313                                        4.18736e+002           1.87365e+001           8.73645e+000           7.36453e-001           3.64535e-002           6.45348e-003           4.53485e-004
                    2.30    418.74748                                0.00000             71.313                                        4.18747e+002           1.87475e+001           8.74748e+000           7.47482e-001           4.74823e-002           7.48234e-003           4.82337e-004
                    2.40    418.74282                                0.00000             71.313                                        4.18743e+002           1.87428e+001           8.74282e+000           7.42819e-001           4.28194e-002           2.81943e-003           8.19433e-004
                    2.50    418.72697                                0.00000             71.313                                        4.18727e+002           1.87270e+001           8.72697e+000           7.26968e-001           2.69675e-002           6.96754e-003           9.67535e-004
                    2.60    418.68511                                0.00000             71.313                                        4.18685e+002           1.86851e+001           8.68511e+000           6.85113e-001           8.51127e-002           5.11271e-003           1.12708e-004
                    2.70    418.65780                                0.00000             71.313                                        4.18658e+002           1.86578e+001           8.65780e+000           6.57796e-001           5.77959e-002           7.79593e-003           7.95930e-004
                    2.80    418.66081                                0.00000             71.313                                        4.18661e+002           1.86608e+001           8.66081e+000           6.60812e-001           6.08115e-002           8.11508e-004           8.11508e-004
                    2.90    418.66031                                0.00000             71.313                                        4.18660e+002           1.86603e+001           8.66031e+000           6.60311e-001           6.03114e-002           3.11431e-004           3.11431e-004
                    3.00    418.65339                                0.00000             71.313                                        4.18653e+002           1.86534e+001           8.65339e+000           6.53390e-001           5.33900e-002           3.39001e-003           3.90014e-004
                    3.10    418.66951                                0.00000             71.313                                        4.18670e+002           1.86695e+001           8.66951e+000           6.69511e-001           6.95114e-002           9.51142e-003           5.11415e-004
                    3.20    418.70928                                0.00000             71.313                                        4.18709e+002           1.87093e+001           8.70928e+000           7.09276e-001           9.27610e-003           9.27610e-003           2.76097e-004
                    3.30    418.73075                                0.00000             71.313                                        4.18731e+002           1.87307e+001           8.73075e+000           7.30749e-001           3.07488e-002           7.48802e-004           7.48802e-004
                    3.40    418.74536                                0.00000             71.313                                        4.18745e+002           1.87454e+001           8.74536e+000           7.45355e-001           4.53553e-002           5.35526e-003           3.55264e-004
                    3.50    418.79153                                0.00000             71.313                                        4.18792e+002           1.87915e+001           8.79153e+000           7.91525e-001           9.15253e-002           1.52526e-003           5.25262e-004
                    3.60    418.85540                                0.00000             71.313                                        4.18855e+002           1.88554e+001           8.85540e+000           8.55403e-001           5.54029e-002           5.40291e-003           4.02911e-004
                    3.70    418.86792                                0.00000             71.313                                        4.18868e+002           1.88679e+001           8.86792e+000           8.67920e-001           6.79198e-002           7.91976e-003           9.19758e-004
                    3.80    418.85326                                0.00000             71.313                                        4.18853e+002           1.88533e+001           8.85326e+000           8.53255e-001           5.32551e-002           3.25515e-003           2.55148e-004
                    3.90    418.86278                                0.00000             71.313                                        4.18863e+002           1.88628e+001           8.86278e+000           8.62778e-001           6.27785e-002           2.77846e-003           7.78460e-004
                    4.00    418.85186                                0.00000             71.313                                        4.18852e+002           1.88519e+001           8.85186e+000           8.51864e-001           5.18636e-002           1.86358e-003           8.63581e-004
                    4.10    418.78960                                0.00000             71.313                                        4.18790e+002           1.87896e+001           8.78960e+000           7.89601e-001           8.96005e-002           9.60051e-003           6.00508e-004
                    4.20    418.72520                                0.00000             71.313                                        4.18725e+002           1.87252e+001           8.72520e+000           7.25198e-001           2.51982e-002           5.19817e-003           1.98167e-004
                    4.30    418.71904                                0.00000             71.313                                        4.18719e+002           1.87190e+001           8.71904e+000           7.19045e-001           1.90446e-002           9.04456e-003           4.45606e-005
                    4.40    418.69890                                0.00000             71.313                                        4.18699e+002           1.86989e+001           8.69890e+000           6.98903e-001           9.89033e-002           8.90328e-003           9.03277e-004
                    4.50    418.64375                                0.00000             71.313                                        4.18644e+002           1.86437e+001           8.64375e+000           6.43745e-001           4.37452e-002           3.74520e-003           7.45201e-004
                    4.60    418.61557                                0.00000             71.313                                        4.18616e+002           1.86156e+001           8.61557e+000           6.15573e-001           1.55733e-002           5.57335e-003           5.73345e-004
                    4.70    418.64985                                0.00000             71.313                                        4.18650e+002           1.86498e+001           8.64985e+000           6.49846e-001           4.98461e-002           9.84613e-003           8.46131e-004
                    4.80    418.65145                                0.00000             71.313                                        4.18651e+002           1.86514e+001           8.65145e+000           6.51450e-001           5.14499e-002           1.44988e-003           4.49878e-004
