~VERSION INFORMATION
VERS                    .            2.0                                    :CWLS LOG ASCII STANDARD
WRAP                    .            NO                                     :ONE LINE PER TIME STEP


~WELL INFORMATION
#MNEM                   .UNIT        DATA                                    DESCRIPTION
#________________________________________________________________________________________
STRTTIME                .HH/MM/SS    08:08:34                               :START TIME
STOPTIME                .HH/MM/SS    08:11:25                               :STOP TIME
STRT                    .s           2.10                                   :START DATA
STOP                    .s           169.10                                 :STOP DATA
STEP                    .s           0.10                                   :MEASUREMENT TIME INTERVAL
NULL                    .            -999.25                                :NULL VALUE
COMP                    .            Statoil ASA                            :COMPANY
FLD                     .            Volve                                  :FIELD
WELL                    .            15/9-F-11 A                            :WELL
RUN                     .            8                                      :RUN
LOC                     .            Maersk Inspirer                        :LOCATION
PROV                    .            na                                     :PROVINCE
SRVC                    .            Baker Hughes INTEQ                     :SERVICE COMPANY
DATE                    .YY/MM/DD    13/05/21                               :LOG DATE
UWI                     .                                                   :UNIQUE WELL ID
DEPTHMD                 .m           3694.5                                 :MEASURED DEPTH
DEPTHTVD                .m           3074.7                                 :TRUE VERTICAL DEPTH


~CURVE INFORMATION
#MNEM                   .UNIT        API CODES                               DESCRIPTION
#________________________________________________________________________________________
TIME                    .s                                                  :01 TIME
DD_PRESS                .bar                                                :02 DRAW DOWN PRESSURE
DD_VOLUME               .cm3                                                :03 INCREMENTAL DRAW DOWN VOLUME
TEMP                    .degC                                               :04 TRANSDUCER TEMPERATURE
DD_PRESS_MOD_1000       .bar                                                :05 DRAW DOWN PRESSURE MOD 1000
DD_PRESS_MOD_100        .bar                                                :06 DRAW DOWN PRESSURE MOD 100
DD_PRESS_MOD_10         .bar                                                :07 DRAW DOWN PRESSURE MOD 10
DD_PRESS_MOD_1          .bar                                                :08 DRAW DOWN PRESSURE MOD 1
DD_PRESS_MOD_01         .bar                                                :09 DRAW DOWN PRESSURE MOD 01
DD_PRESS_MOD_001        .bar                                                :10 DRAW DOWN PRESSURE MOD 001
DD_PRESS_MOD_0001       .bar                                                :11 DRAW DOWN PRESSURE MOD 0001


~PARAMETER INFORMATION
#MNEM                   .UNIT        VALUE                                   DESCRIPTION
#________________________________________________________________________________________
TOOLFACE                .deg         -107.9                                 :01 TOOLFACE
PUMP_CAPACITY           .bar         400                                    :02 NOMINAL DRAW DOWN PUMP CAPACITY
PUMP_LIMIT              .bar         240                                    :03 DOWNLINK PUMP LIMIT
TIME_LIMIT              .min         10                                     :04 DOWNLINK MAX TIME
TEST_TYPE               .            HIGH MOBILITY                          :05 DOWNLINK
DD_PIST_A               .cm2         3.1416                                 :06 DRAW DOWN PISTON AREA
V_SYS                   .cm3         131.0000                               :07 SYSTEM VOLUME
PROBE_ID                .cm          1.2700                                 :08 TTK PROBE ID
G0                      .            4.6700                                 :09 GEOMETRY FACTOR


~A                  TIME     DD_PRESS                              DD_VOLUME               TEMP                                   DD_PRESS_MOD_1000       DD_PRESS_MOD_100        DD_PRESS_MOD_10         DD_PRESS_MOD_1        DD_PRESS_MOD_01       DD_PRESS_MOD_001      DD_PRESS_MOD_0001
# ...
                   69.30    346.41531                               10.52664             84.867                                        3.46415e+002           4.64153e+001           6.41531e+000           4.15315e-001           1.53149e-002           5.31487e-003           3.14869e-004
                   69.40    346.41112                               10.52664             84.867                                        3.46411e+002           4.64111e+001           6.41112e+000           4.11117e-001           1.11166e-002           1.11660e-003           1.16597e-004
                   69.50    346.41347                               10.52664             84.867                                        3.46413e+002           4.64135e+001           6.41347e+000           4.13469e-001           1.34687e-002           3.46866e-003           4.68663e-004
                   69.60    346.41874                               10.52664             84.867                                        3.46419e+002           4.64187e+001           6.41874e+000           4.18742e-001           1.87417e-002           8.74165e-003           7.41654e-004
                   69.70    346.41773                               10.52664             84.867                                        3.46418e+002           4.64177e+001           6.41773e+000           4.17726e-001           1.77255e-002           7.72553e-003           7.25527e-004
                   69.80    346.41189                               10.52664             84.867                                        3.46412e+002           4.64119e+001           6.41189e+000           4.11892e-001           1.18921e-002           1.89208e-003           8.92082e-004
                   69.90    346.40922                               10.52664             84.867                                        3.46409e+002           4.64092e+001           6.40922e+000           4.09222e-001           9.22230e-003           9.22230e-003           2.22296e-004
                   70.00    346.41652                               10.52664             84.867                                        3.46417e+002           4.64165e+001           6.41652e+000           4.16516e-001           1.65159e-002           6.51589e-003           5.15887e-004
                   70.10    346.42198                               10.52664             84.867                                        3.46422e+002           4.64220e+001           6.42198e+000           4.21977e-001           2.19769e-002           1.97689e-003           9.76891e-004
                   70.20    346.41675                               10.52664             84.867                                        3.46417e+002           4.64167e+001           6.41675e+000           4.16745e-001           1.67451e-002           6.74506e-003           7.45061e-004
                   70.30    346.41399                               10.52664             84.867                                        3.46414e+002           4.64140e+001           6.41399e+000           4.13995e-001           1.39949e-002           3.99495e-003           9.94947e-004
                   70.40    346.41871                               10.52664             84.867                                        3.46419e+002           4.64187e+001           6.41871e+000           4.18710e-001           1.87103e-002           8.71030e-003           7.10303e-004
                   70.50    346.42600                               10.52664             84.867                                        3.46426e+002           4.64260e+001           6.42600e+000           4.26003e-001           2.60032e-002           6.00323e-003           3.22559e-006
                   70.60    346.42138                               10.52664             84.867                                        3.46421e+002           4.64214e+001           6.42138e+000           4.21377e-001           2.13775e-002           1.37746e-003           3.77464e-004
                   70.70    346.41400                               10.52664             84.867                                        3.46414e+002           4.64140e+001           6.41400e+000           4.14001e-001           1.40011e-002           4.00112e-003           1.12170e-006
                   70.80    346.41621                               10.52664             84.867                                        3.46416e+002           4.64162e+001           6.41621e+000           4.16205e-001           1.62051e-002           6.20510e-003           2.05098e-004
                   70.90    346.42387                               10.52664             84.867                                        3.46424e+002           4.64239e+001           6.42387e+000           4.23869e-001           2.38686e-002           3.86861e-003           8.68610e-004
                   71.00    346.42068                               10.52664             84.867                                        3.46421e+002           4.64207e+001           6.42068e+000           4.20676e-001           2.06762e-002           6.76156e-004           6.76156e-004
                   71.10    346.41247                               10.52664             84.867                                        3.46412e+002           4.64125e+001           6.41247e+000           4.12472e-001           1.24720e-002           2.47201e-003           4.72005e-004
                   71.20    346.41199                               10.52664             84.867                                        3.46412e+002           4.64120e+001           6.41199e+000           4.11987e-001           1.19867e-002           1.98672e-003           9.86724e-004
                   71.30    346.41706                               10.52664             84.867                                        3.46417e+002           4.64171e+001           6.41706e+000           4.17060e-001           1.70602e-002           7.06023e-003           6.02266e-005
                   71.40    346.41882                               10.52664             84.867                                        3.46419e+002           4.64188e+001           6.41882e+000           4.18821e-001           1.88213e-002           8.82133e-003           8.21334e-004
                   71.50    346.41700                               10.52664             84.867                                        3.46417e+002           4.64170e+001           6.41700e+000           4.17001e-001           1.70008e-002           7.00085e-003           8.49750e-007
                   71.60    346.41846                               10.52664             84.867                                        3.46418e+002           4.64185e+001           6.41846e+000           4.18459e-001           1.84589e-002           8.45893e-003           4.58931e-004
                   71.70    346.42072                               10.52664             84.867                                        3.46421e+002           4.64207e+001           6.42072e+000           4.20720e-001           2.07195e-002           7.19522e-004           7.19522e-004
                   71.80    346.41805                               10.52664             84.867                                        3.46418e+002           4.64181e+001           6.41805e+000           4.18050e-001           1.80504e-002           8.05041e-003           5.04054e-005
                   71.90    346.41485                               10.52664             84.867                                        3.46415e+002           4.64148e+001           6.41485e+000           4.14850e-001           1.48500e-002           4.84996e-003           8.49957e-004
                   72.00    346.41553                               10.52664             84.867                                        3.46416e+002           4.64155e+001           6.41553e+000           4.15527e-001           1.55272e-002           5.52717e-003           5.27167e-004
