~VERSION INFORMATION
VERS                    .            2.0                                    :CWLS LOG ASCII STANDARD
WRAP                    .            NO                                     :ONE LINE PER TIME STEP


~WELL INFORMATION
#MNEM                   .UNIT        DATA                                    DESCRIPTION
#________________________________________________________________________________________
STRTTIME                .HH/MM/SS    19:37:02                               :START TIME
STOPTIME                .HH/MM/SS    19:40:38                               :STOP TIME
STRT                    .s           2.10                                   :START DATA
STOP                    .s           214.10                                 :STOP DATA
STEP                    .s           0.10                                   :MEASUREMENT TIME INTERVAL
NULL                    .            -999.25                                :NULL VALUE
COMP                    .            Statoil ASA                            :COMPANY
FLD                     .            Volve                                  :FIELD
WELL                    .            15/9-F-11 A                            :WELL
RUN                     .            8                                      :RUN
LOC                     .            Maersk Inspirer                        :LOCATION
PROV                    .            na                                     :PROVINCE
SRVC                    .            Baker Hughes INTEQ                     :SERVICE COMPANY
DATE                    .YY/MM/DD    13/05/23                               :LOG DATE
UWI                     .                                                   :UNIQUE WELL ID
DEPTHMD                 .m           3607.9                                 :MEASURED DEPTH
DEPTHTVD                .m           3008.4                                 :TRUE VERTICAL DEPTH


~CURVE INFORMATION
#MNEM                   .UNIT        API CODES                               DESCRIPTION
#________________________________________________________________________________________
TIME                    .s                                                  :01 TIME
DD_PRESS                .bar                                                :02 DRAW DOWN PRESSURE
DD_VOLUME               .cm3                                                :03 INCREMENTAL DRAW DOWN VOLUME
TEMP                    .degC                                               :04 TRANSDUCER TEMPERATURE
DD_PRESS_MOD_1000       .bar                                                :05 DRAW DOWN PRESSURE MOD 1000
DD_PRESS_MOD_100        .bar                                                :06 DRAW DOWN PRESSURE MOD 100
DD_PRESS_MOD_10         .bar                                                :07 DRAW DOWN PRESSURE MOD 10
DD_PRESS_MOD_1          .bar                                                :08 DRAW DOWN PRESSURE MOD 1
DD_PRESS_MOD_01         .bar                                                :09 DRAW DOWN PRESSURE MOD 01
DD_PRESS_MOD_001        .bar                                                :10 DRAW DOWN PRESSURE MOD 001
DD_PRESS_MOD_0001       .bar                                                :11 DRAW DOWN PRESSURE MOD 0001


~PARAMETER INFORMATION
#MNEM                   .UNIT        VALUE                                   DESCRIPTION
#________________________________________________________________________________________
TOOLFACE                .deg         -38.9                                  :01 TOOLFACE
PUMP_CAPACITY           .bar         400                                    :02 NOMINAL DRAW DOWN PUMP CAPACITY
PUMP_LIMIT              .bar         240                                    :03 DOWNLINK PUMP LIMIT
TIME_LIMIT              .min         10                                     :04 DOWNLINK MAX TIME
TEST_TYPE               .            REPEAT                                 :05 DOWNLINK
TEST_TYPE               .            HIGH MOBILITY                          :06 DOWNLINK
DD_PIST_A               .cm2         3.1416                                 :07 DRAW DOWN PISTON AREA
V_SYS                   .cm3         131.0000                               :08 SYSTEM VOLUME
PROBE_ID                .cm          1.2700                                 :09 TTK PROBE ID
G0                      .            4.6700                                 :10 GEOMETRY FACTOR


~A                  TIME     DD_PRESS                              DD_VOLUME               TEMP                                   DD_PRESS_MOD_1000       DD_PRESS_MOD_100        DD_PRESS_MOD_10         DD_PRESS_MOD_1        DD_PRESS_MOD_01       DD_PRESS_MOD_001      DD_PRESS_MOD_0001
# ...
                   44.10    340.28669                               10.63955             71.227                                        3.40287e+002           4.02867e+001           2.86686e-001           2.86686e-001           8.66857e-002           6.68566e-003           6.85663e-004
                   44.20    340.28368                               10.63955             71.227                                        3.40284e+002           4.02837e+001           2.83680e-001           2.83680e-001           8.36798e-002           3.67977e-003           6.79773e-004
                   44.30    340.28407                               10.63955             71.227                                        3.40284e+002           4.02841e+001           2.84072e-001           2.84072e-001           8.40724e-002           4.07239e-003           7.23891e-005
                   44.40    340.28624                               10.63955             71.227                                        3.40286e+002           4.02862e+001           2.86237e-001           2.86237e-001           8.62373e-002           6.23731e-003           2.37313e-004
                   44.50    340.28626                               10.63955             71.227                                        3.40286e+002           4.02863e+001           2.86261e-001           2.86261e-001           8.62610e-002           6.26104e-003           2.61038e-004
                   44.60    340.28737                               10.63955             71.227                                        3.40287e+002           4.02874e+001           2.87372e-001           2.87372e-001           8.73718e-002           7.37185e-003           3.71849e-004
                   44.70    340.29316                               10.63955             71.227                                        3.40293e+002           4.02932e+001           2.93161e-001           2.93161e-001           9.31614e-002           3.16145e-003           1.61449e-004
                   44.80    340.29456                               10.63955             71.227                                        3.40295e+002           4.02946e+001           2.94560e-001           2.94560e-001           9.45602e-002           4.56017e-003           5.60173e-004
                   44.90    340.29718                               10.63955             71.227                                        3.40297e+002           4.02972e+001           2.97178e-001           2.97178e-001           9.71778e-002           7.17781e-003           1.77815e-004
                   45.00    340.30239                               10.63955             71.227                                        3.40302e+002           4.03024e+001           3.02389e-001           3.02389e-001           2.38866e-003           2.38866e-003           3.88659e-004
                   45.10    340.31042                               10.63955             71.227                                        3.40310e+002           4.03104e+001           3.10424e-001           3.10424e-001           1.04238e-002           4.23834e-004           4.23834e-004
                   45.20    340.31388                               10.63955             71.227                                        3.40314e+002           4.03139e+001           3.13885e-001           3.13885e-001           1.38847e-002           3.88472e-003           8.84718e-004
                   45.30    340.31305                               10.63955             71.227                                        3.40313e+002           4.03130e+001           3.13047e-001           3.13047e-001           1.30471e-002           3.04714e-003           4.71357e-005
                   45.40    340.30744                               10.63955             71.227                                        3.40307e+002           4.03074e+001           3.07444e-001           3.07444e-001           7.44427e-003           7.44427e-003           4.44267e-004
                   45.50    340.30597                               10.63955             71.227                                        3.40306e+002           4.03060e+001           3.05973e-001           3.05973e-001           5.97304e-003           5.97304e-003           9.73043e-004
                   45.60    340.30758                               10.63955             71.227                                        3.40308e+002           4.03076e+001           3.07577e-001           3.07577e-001           7.57749e-003           7.57749e-003           5.77487e-004
                   45.70    340.30480                               10.63955             71.227                                        3.40305e+002           4.03048e+001           3.04798e-001           3.04798e-001           4.79843e-003           4.79843e-003           7.98433e-004
                   45.80    340.31428                               10.63955             71.227                                        3.40314e+002           4.03143e+001           3.14280e-001           3.14280e-001           1.42800e-002           4.27998e-003           2.79977e-004
                   45.90    340.33424                               10.63955             71.227                                        3.40334e+002           4.03342e+001           3.34240e-001           3.34240e-001           3.42398e-002           4.23978e-003           2.39782e-004
                   46.00    340.32433                               10.63955             71.227                                        3.40324e+002           4.03243e+001           3.24325e-001           3.24325e-001           2.43254e-002           4.32543e-003           3.25428e-004
                   46.10    340.30870                               10.63955             71.227                                        3.40309e+002           4.03087e+001           3.08699e-001           3.08699e-001           8.69910e-003           8.69910e-003           6.99097e-004
                   46.20    340.31428                               10.63955             71.227                                        3.40314e+002           4.03143e+001           3.14285e-001           3.14285e-001           1.42848e-002           4.28485e-003           2.84849e-004
                   46.30    340.31867                               10.63955             71.227                                        3.40319e+002           4.03187e+001           3.18666e-001           3.18666e-001           1.86659e-002           8.66591e-003           6.65909e-004
                   46.40    340.31043                               10.63955             71.227                                        3.40310e+002           4.03104e+001           3.10427e-001           3.10427e-001           1.04265e-002           4.26529e-004           4.26529e-004
                   46.50    340.30705                               10.63955             71.227                                        3.40307e+002           4.03070e+001           3.07050e-001           3.07050e-001           7.04965e-003           7.04965e-003           4.96450e-005
                   46.60    340.31228                               10.63955             71.227                                        3.40312e+002           4.03123e+001           3.12285e-001           3.12285e-001           1.22846e-002           2.28457e-003           2.84569e-004
                   46.70    340.32018                               10.63955             71.229                                        3.40320e+002           4.03202e+001           3.20178e-001           3.20178e-001           2.01781e-002           1.78117e-004           1.78117e-004
                   46.80    340.32295                               10.63955             71.232                                        3.40323e+002           4.03229e+001           3.22949e-001           3.22949e-001           2.29494e-002           2.94943e-003           9.49427e-004
