~VERSION INFORMATION
VERS                    .            2.0                                    :CWLS LOG ASCII STANDARD
WRAP                    .            NO                                     :ONE LINE PER TIME STEP


~WELL INFORMATION
#MNEM                   .UNIT        DATA                                    DESCRIPTION
#________________________________________________________________________________________
STRTTIME                .HH/MM/SS    01:04:55                               :START TIME
STOPTIME                .HH/MM/SS    01:07:44                               :STOP TIME
STRT                    .s           2.10                                   :START DATA
STOP                    .s           167.40                                 :STOP DATA
STEP                    .s           0.10                                   :MEASUREMENT TIME INTERVAL
NULL                    .            -999.25                                :NULL VALUE
COMP                    .            Statoil ASA                            :COMPANY
FLD                     .            Volve                                  :FIELD
WELL                    .            15/9-F-1 C                             :WELL
RUN                     .            4                                      :RUN
LOC                     .                                                   :LOCATION
PROV                    .            na                                     :PROVINCE
SRVC                    .            Baker Hughes INTEQ                     :SERVICE COMPANY
DATE                    .YY/MM/DD    14/03/15                               :LOG DATE
UWI                     .                                                   :UNIQUE WELL ID
DEPTHMD                 .m           3720.1                                 :MEASURED DEPTH
DEPTHTVD                .m           3050.6                                 :TRUE VERTICAL DEPTH


~CURVE INFORMATION
#MNEM                   .UNIT        API CODES                               DESCRIPTION
#________________________________________________________________________________________
TIME                    .s                                                  :01 TIME
DD_PRESS                .bar                                                :02 DRAW DOWN PRESSURE
DD_VOLUME               .cm3                                                :03 INCREMENTAL DRAW DOWN VOLUME
TEMP                    .degC                                               :04 TRANSDUCER TEMPERATURE
DD_PRESS_MOD_1000       .bar                                                :05 DRAW DOWN PRESSURE MOD 1000
DD_PRESS_MOD_100        .bar                                                :06 DRAW DOWN PRESSURE MOD 100
DD_PRESS_MOD_10         .bar                                                :07 DRAW DOWN PRESSURE MOD 10
DD_PRESS_MOD_1          .bar                                                :08 DRAW DOWN PRESSURE MOD 1
DD_PRESS_MOD_01         .bar                                                :09 DRAW DOWN PRESSURE MOD 01
DD_PRESS_MOD_001        .bar                                                :10 DRAW DOWN PRESSURE MOD 001
DD_PRESS_MOD_0001       .bar                                                :11 DRAW DOWN PRESSURE MOD 0001


~PARAMETER INFORMATION
#MNEM                   .UNIT        VALUE                                   DESCRIPTION
#________________________________________________________________________________________
TOOLFACE                .deg         134.6                                  :01 TOOLFACE
PUMP_CAPACITY           .bar         400                                    :02 NOMINAL DRAW DOWN PUMP CAPACITY
PUMP_LIMIT              .bar         240                                    :03 DOWNLINK PUMP LIMIT
TIME_LIMIT              .min         10                                     :04 DOWNLINK MAX TIME
TEST_TYPE               .            REPEAT                                 :05 DOWNLINK
TEST_TYPE               .            HIGH MOBILITY                          :06 DOWNLINK
DD_PIST_A               .cm2         3.1416                                 :07 DRAW DOWN PISTON AREA
V_SYS                   .cm3         131.0000                               :08 SYSTEM VOLUME
PROBE_ID                .cm          1.2700                                 :09 TTK PROBE ID
G0                      .            4.6700                                 :10 GEOMETRY FACTOR


~A                  TIME     DD_PRESS                              DD_VOLUME               TEMP                                   DD_PRESS_MOD_1000       DD_PRESS_MOD_100        DD_PRESS_MOD_10         DD_PRESS_MOD_1        DD_PRESS_MOD_01       DD_PRESS_MOD_001      DD_PRESS_MOD_0001
# ...
                  100.10    348.27495                               19.92776             87.242                                        3.48275e+002           4.82749e+001           8.27495e+000           2.74947e-001           7.49471e-002           4.94714e-003           9.47136e-004
                  100.20    348.27693                               19.92776             87.242                                        3.48277e+002           4.82769e+001           8.27693e+000           2.76933e-001           7.69329e-002           6.93288e-003           9.32876e-004
                  100.30    348.27659                               19.92776             87.242                                        3.48277e+002           4.82766e+001           8.27659e+000           2.76588e-001           7.65881e-002           6.58812e-003           5.88116e-004
                  100.40    348.27450                               19.92776             87.242                                        3.48275e+002           4.82745e+001           8.27450e+000           2.74504e-001           7.45042e-002           4.50420e-003           5.04202e-004
                  100.50    348.27482                               19.92776             87.242                                        3.48275e+002           4.82748e+001           8.27482e+000           2.74824e-001           7.48239e-002           4.82393e-003           8.23926e-004
                  100.60    348.27503                               19.92776             87.242                                        3.48275e+002           4.82750e+001           8.27503e+000           2.75029e-001           7.50294e-002           5.02939e-003           2.93944e-005
                  100.70    348.27446                               19.92776             87.242                                        3.48274e+002           4.82745e+001           8.27446e+000           2.74463e-001           7.44632e-002           4.46316e-003           4.63163e-004
                  100.80    348.27432                               19.92776             87.242                                        3.48274e+002           4.82743e+001           8.27432e+000           2.74315e-001           7.43154e-002           4.31541e-003           3.15407e-004
                  100.90    348.27394                               19.92776             87.242                                        3.48274e+002           4.82739e+001           8.27394e+000           2.73942e-001           7.39416e-002           3.94159e-003           9.41589e-004
                  101.00    348.27386                               19.92776             87.242                                        3.48274e+002           4.82739e+001           8.27386e+000           2.73859e-001           7.38585e-002           3.85851e-003           8.58514e-004
                  101.10    348.27517                               19.92776             87.242                                        3.48275e+002           4.82752e+001           8.27517e+000           2.75170e-001           7.51695e-002           5.16954e-003           1.69535e-004
                  101.20    348.27550                               19.92776             87.242                                        3.48276e+002           4.82755e+001           8.27550e+000           2.75504e-001           7.55038e-002           5.50379e-003           5.03794e-004
                  101.30    348.27471                               19.92776             87.242                                        3.48275e+002           4.82747e+001           8.27471e+000           2.74707e-001           7.47067e-002           4.70671e-003           7.06706e-004
                  101.40    348.27448                               19.92776             87.242                                        3.48274e+002           4.82745e+001           8.27448e+000           2.74480e-001           7.44798e-002           4.47984e-003           4.79843e-004
                  101.50    348.27539                               19.92776             87.242                                        3.48275e+002           4.82754e+001           8.27539e+000           2.75395e-001           7.53945e-002           5.39451e-003           3.94505e-004
                  101.60    348.27618                               19.92776             87.242                                        3.48276e+002           4.82762e+001           8.27618e+000           2.76181e-001           7.61813e-002           6.18134e-003           1.81344e-004
                  101.70    348.27630                               19.92776             87.242                                        3.48276e+002           4.82763e+001           8.27630e+000           2.76304e-001           7.63040e-002           6.30398e-003           3.03981e-004
                  101.80    348.27630                               19.92776             87.242                                        3.48276e+002           4.82763e+001           8.27630e+000           2.76304e-001           7.63042e-002           6.30419e-003           3.04186e-004
                  101.90    348.27622                               19.92776             87.242                                        3.48276e+002           4.82762e+001           8.27622e+000           2.76219e-001           7.62190e-002           6.21896e-003           2.18960e-004
                  102.00    348.27609                               19.92776             87.242                                        3.48276e+002           4.82761e+001           8.27609e+000           2.76091e-001           7.60905e-002           6.09053e-003           9.05254e-005
                  102.10    348.27605                               19.92776             87.242                                        3.48276e+002           4.82761e+001           8.27605e+000           2.76050e-001           7.60504e-002           6.05037e-003           5.03654e-005
                  102.20    348.27577                               19.92776             87.242                                        3.48276e+002           4.82758e+001           8.27577e+000           2.75765e-001           7.57655e-002           5.76549e-003           7.65495e-004
                  102.30    348.27591                               19.92776             87.242                                        3.48276e+002           4.82759e+001           8.27591e+000           2.75909e-001           7.59090e-002           5.90902e-003           9.09018e-004
                  102.40    348.27731                               19.92776             87.242                                        3.48277e+002           4.82773e+001           8.27731e+000           2.77311e-001           7.73108e-002           7.31077e-003           3.10765e-004
                  102.50    348.27643                               19.92776             87.242                                        3.48276e+002           4.82764e+001           8.27643e+000           2.76431e-001           7.64314e-002           6.43139e-003           4.31392e-004
                  102.60    348.27620                               19.92776             87.242                                        3.48276e+002           4.82762e+001           8.27620e+000           2.76200e-001           7.61998e-002           6.19982e-003           1.99815e-004
                  102.70    348.27701                               19.92776             87.242                                        3.48277e+002           4.82770e+001           8.27701e+000           2.77011e-001           7.70110e-002           7.01096e-003           1.09606e-005
                  102.80    348.27577                               19.92776             87.242                                        3.48276e+002           4.82758e+001           8.27577e+000           2.75773e-001           7.57733e-002           5.77332e-003           7.73321e-004
