~VERSION INFORMATION
VERS                    .            2.0                                    :CWLS LOG ASCII STANDARD
WRAP                    .            NO                                     :ONE LINE PER TIME STEP


~WELL INFORMATION
#MNEM                   .UNIT        DATA                                    DESCRIPTION
#________________________________________________________________________________________
STRTTIME                .HH/MM/SS    00:10:18                               :START TIME
STOPTIME                .HH/MM/SS    00:13:47                               :STOP TIME
STRT                    .s           2.10                                   :START DATA
STOP                    .s           207.40                                 :STOP DATA
STEP                    .s           0.10                                   :MEASUREMENT TIME INTERVAL
NULL                    .            -999.25                                :NULL VALUE
COMP                    .            Statoil ASA                            :COMPANY
FLD                     .            Volve                                  :FIELD
WELL                    .            15/9-F-1                               :WELL
RUN                     .            4                                      :RUN
LOC                     .            Maersk Inspirer                        :LOCATION
PROV                    .            na                                     :PROVINCE
SRVC                    .            Baker Hughes INTEQ                     :SERVICE COMPANY
DATE                    .YY/MM/DD    13/08/19                               :LOG DATE
UWI                     .                                                   :UNIQUE WELL ID
DEPTHMD                 .m           3332.4                                 :MEASURED DEPTH
DEPTHTVD                .m           3056.0                                 :TRUE VERTICAL DEPTH


~CURVE INFORMATION
#MNEM                   .UNIT        API CODES                               DESCRIPTION
#________________________________________________________________________________________
TIME                    .s                                                  :01 TIME
DD_PRESS                .bar                                                :02 DRAW DOWN PRESSURE
DD_VOLUME               .cm3                                                :03 INCREMENTAL DRAW DOWN VOLUME
TEMP                    .degC                                               :04 TRANSDUCER TEMPERATURE
DD_PRESS_MOD_1000       .bar                                                :05 DRAW DOWN PRESSURE MOD 1000
DD_PRESS_MOD_100        .bar                                                :06 DRAW DOWN PRESSURE MOD 100
DD_PRESS_MOD_10         .bar                                                :07 DRAW DOWN PRESSURE MOD 10
DD_PRESS_MOD_1          .bar                                                :08 DRAW DOWN PRESSURE MOD 1
DD_PRESS_MOD_01         .bar                                                :09 DRAW DOWN PRESSURE MOD 01
DD_PRESS_MOD_001        .bar                                                :10 DRAW DOWN PRESSURE MOD 001
DD_PRESS_MOD_0001       .bar                                                :11 DRAW DOWN PRESSURE MOD 0001


~PARAMETER INFORMATION
#MNEM                   .UNIT        VALUE                                   DESCRIPTION
#________________________________________________________________________________________
TOOLFACE                .deg         78.2                                   :01 TOOLFACE
PUMP_CAPACITY           .bar         400                                    :02 NOMINAL DRAW DOWN PUMP CAPACITY
PUMP_LIMIT              .bar         240                                    :03 DOWNLINK PUMP LIMIT
TIME_LIMIT              .min         10                                     :04 DOWNLINK MAX TIME
TEST_TYPE               .            LOW MOBILITY                           :05 DOWNLINK
DD_PIST_A               .cm2         3.1416                                 :06 DRAW DOWN PISTON AREA
V_SYS                   .cm3         131.0000                               :07 SYSTEM VOLUME
PROBE_ID                .cm          1.2700                                 :08 TTK PROBE ID
G0                      .            4.6700                                 :09 GEOMETRY FACTOR


~A                  TIME     DD_PRESS                              DD_VOLUME               TEMP                                   DD_PRESS_MOD_1000       DD_PRESS_MOD_100        DD_PRESS_MOD_10         DD_PRESS_MOD_1        DD_PRESS_MOD_01       DD_PRESS_MOD_001      DD_PRESS_MOD_0001
# ...
                  108.50    340.63344                               19.85276             74.711                                        3.40633e+002           4.06334e+001           6.33443e-001           6.33443e-001           3.34426e-002           3.44262e-003           4.42622e-004
                  108.60    340.63739                               19.85276             74.711                                        3.40637e+002           4.06374e+001           6.37389e-001           6.37389e-001           3.73894e-002           7.38944e-003           3.89439e-004
                  108.70    340.63980                               19.85276             74.711                                        3.40640e+002           4.06398e+001           6.39800e-001           6.39800e-001           3.98000e-002           9.80000e-003           8.00004e-004
                  108.80    340.63538                               19.85276             74.711                                        3.40635e+002           4.06354e+001           6.35381e-001           6.35381e-001           3.53813e-002           5.38126e-003           3.81258e-004
                  108.90    340.63072                               19.85276             74.711                                        3.40631e+002           4.06307e+001           6.30715e-001           6.30715e-001           3.07154e-002           7.15351e-004           7.15351e-004
                  109.00    340.63281                               19.85276             74.711                                        3.40633e+002           4.06328e+001           6.32810e-001           6.32810e-001           3.28100e-002           2.81005e-003           8.10049e-004
                  109.10    340.63411                               19.85276             74.711                                        3.40634e+002           4.06341e+001           6.34114e-001           6.34114e-001           3.41138e-002           4.11378e-003           1.13778e-004
                  109.20    340.63190                               19.85276             74.711                                        3.40632e+002           4.06319e+001           6.31899e-001           6.31899e-001           3.18991e-002           1.89912e-003           8.99123e-004
                  109.30    340.62994                               19.85276             74.711                                        3.40630e+002           4.06299e+001           6.29937e-001           6.29937e-001           2.99370e-002           9.93704e-003           9.37036e-004
                  109.40    340.63309                               19.85276             74.711                                        3.40633e+002           4.06331e+001           6.33092e-001           6.33092e-001           3.30918e-002           3.09185e-003           9.18480e-005
                  109.50    340.63316                               19.85276             74.711                                        3.40633e+002           4.06332e+001           6.33162e-001           6.33162e-001           3.31617e-002           3.16168e-003           1.61684e-004
                  109.60    340.63179                               19.85276             74.711                                        3.40632e+002           4.06318e+001           6.31791e-001           6.31791e-001           3.17909e-002           1.79087e-003           7.90865e-004
                  109.70    340.63246                               19.85276             74.711                                        3.40632e+002           4.06325e+001           6.32456e-001           6.32456e-001           3.24556e-002           2.45559e-003           4.55592e-004
                  109.80    340.63301                               19.85276             74.711                                        3.40633e+002           4.06330e+001           6.33015e-001           6.33015e-001           3.30150e-002           3.01497e-003           1.49668e-005
                  109.90    340.63151                               19.85276             74.711                                        3.40632e+002           4.06315e+001           6.31510e-001           6.31510e-001           3.15105e-002           1.51049e-003           5.10491e-004
                  110.00    340.63356                               19.85276             74.711                                        3.40634e+002           4.06336e+001           6.33562e-001           6.33562e-001           3.35622e-002           3.56217e-003           5.62171e-004
                  110.10    340.63508                               19.85276             74.713                                        3.40635e+002           4.06351e+001           6.35078e-001           6.35078e-001           3.50784e-002           5.07837e-003           7.83733e-005
                  110.20    340.63332                               19.85276             74.714                                        3.40633e+002           4.06333e+001           6.33319e-001           6.33319e-001           3.33192e-002           3.31924e-003           3.19238e-004
                  110.30    340.63227                               19.85276             74.715                                        3.40632e+002           4.06323e+001           6.32269e-001           6.32269e-001           3.22686e-002           2.26856e-003           2.68557e-004
                  110.40    340.63562                               19.85276             74.717                                        3.40636e+002           4.06356e+001           6.35617e-001           6.35617e-001           3.56173e-002           5.61728e-003           6.17284e-004
                  110.50    340.63477                               19.85276             74.719                                        3.40635e+002           4.06348e+001           6.34772e-001           6.34772e-001           3.47723e-002           4.77226e-003           7.72257e-004
                  110.60    340.63269                               19.85276             74.719                                        3.40633e+002           4.06327e+001           6.32695e-001           6.32695e-001           3.26949e-002           2.69492e-003           6.94919e-004
                  110.70    340.63048                               19.85276             74.719                                        3.40630e+002           4.06305e+001           6.30478e-001           6.30478e-001           3.04782e-002           4.78170e-004           4.78170e-004
                  110.80    340.63023                               19.85276             74.719                                        3.40630e+002           4.06302e+001           6.30228e-001           6.30228e-001           3.02283e-002           2.28256e-004           2.28256e-004
                  110.90    340.63139                               19.85276             74.716                                        3.40631e+002           4.06314e+001           6.31390e-001           6.31390e-001           3.13901e-002           1.39009e-003           3.90086e-004
                  111.00    340.63291                               19.85276             74.713                                        3.40633e+002           4.06329e+001           6.32909e-001           6.32909e-001           3.29091e-002           2.90912e-003           9.09121e-004
                  111.10    340.63341                               19.85276             74.713                                        3.40633e+002           4.06334e+001           6.33409e-001           6.33409e-001           3.34092e-002           3.40922e-003           4.09220e-004
                  111.20    340.63558                               19.85276             74.717                                        3.40636e+002           4.06356e+001           6.35577e-001           6.35577e-001           3.55768e-002           5.57679e-003           5.76789e-004
