~VERSION INFORMATION
VERS                    .            2.0                                    :CWLS LOG ASCII STANDARD
WRAP                    .            NO                                     :ONE LINE PER TIME STEP


~WELL INFORMATION
#MNEM                   .UNIT        DATA                                    DESCRIPTION
#________________________________________________________________________________________
STRTTIME                .HH/MM/SS    10:02:47                               :START TIME
STOPTIME                .HH/MM/SS    10:07:04                               :STOP TIME
STRT                    .s           2.10                                   :START DATA
STOP                    .s           255.20                                 :STOP DATA
STEP                    .s           0.10                                   :MEASUREMENT TIME INTERVAL
NULL                    .            -999.25                                :NULL VALUE
COMP                    .            Statoil ASA                            :COMPANY
FLD                     .            Volve                                  :FIELD
WELL                    .            15/9-F-11 A                            :WELL
RUN                     .            8                                      :RUN
LOC                     .            Maersk Inspirer                        :LOCATION
PROV                    .            na                                     :PROVINCE
SRVC                    .            Baker Hughes INTEQ                     :SERVICE COMPANY
DATE                    .YY/MM/DD    13/05/21                               :LOG DATE
UWI                     .                                                   :UNIQUE WELL ID
DEPTHMD                 .m           3657.3                                 :MEASURED DEPTH
DEPTHTVD                .m           3046.2                                 :TRUE VERTICAL DEPTH


~CURVE INFORMATION
#MNEM                   .UNIT        API CODES                               DESCRIPTION
#________________________________________________________________________________________
TIME                    .s                                                  :01 TIME
DD_PRESS                .bar                                                :02 DRAW DOWN PRESSURE
DD_VOLUME               .cm3                                                :03 INCREMENTAL DRAW DOWN VOLUME
TEMP                    .degC                                               :04 TRANSDUCER TEMPERATURE
DD_PRESS_MOD_1000       .bar                                                :05 DRAW DOWN PRESSURE MOD 1000
DD_PRESS_MOD_100        .bar                                                :06 DRAW DOWN PRESSURE MOD 100
DD_PRESS_MOD_10         .bar                                                :07 DRAW DOWN PRESSURE MOD 10
DD_PRESS_MOD_1          .bar                                                :08 DRAW DOWN PRESSURE MOD 1
DD_PRESS_MOD_01         .bar                                                :09 DRAW DOWN PRESSURE MOD 01
DD_PRESS_MOD_001        .bar                                                :10 DRAW DOWN PRESSURE MOD 001
DD_PRESS_MOD_0001       .bar                                                :11 DRAW DOWN PRESSURE MOD 0001


~PARAMETER INFORMATION
#MNEM                   .UNIT        VALUE                                   DESCRIPTION
#________________________________________________________________________________________
TOOLFACE                .deg         60.1                                   :01 TOOLFACE
PUMP_CAPACITY           .bar         400                                    :02 NOMINAL DRAW DOWN PUMP CAPACITY
PUMP_LIMIT              .bar         240                                    :03 DOWNLINK PUMP LIMIT
TIME_LIMIT              .min         10                                     :04 DOWNLINK MAX TIME
TEST_TYPE               .            REPEAT                                 :05 DOWNLINK
TEST_TYPE               .            HIGH MOBILITY                          :06 DOWNLINK
DD_PIST_A               .cm2         3.1416                                 :07 DRAW DOWN PISTON AREA
V_SYS                   .cm3         131.0000                               :08 SYSTEM VOLUME
PROBE_ID                .cm          1.2700                                 :09 TTK PROBE ID
G0                      .            4.6700                                 :10 GEOMETRY FACTOR


~A                  TIME     DD_PRESS                              DD_VOLUME               TEMP                                   DD_PRESS_MOD_1000       DD_PRESS_MOD_100        DD_PRESS_MOD_10         DD_PRESS_MOD_1        DD_PRESS_MOD_01       DD_PRESS_MOD_001      DD_PRESS_MOD_0001
# ...
                  119.70    334.48426                               12.32658             82.117                                        3.34484e+002           3.44843e+001           4.48426e+000           4.84265e-001           8.42648e-002           4.26481e-003           2.64806e-004
                  119.80    334.85232                               12.33294             82.117                                        3.34852e+002           3.48523e+001           4.85232e+000           8.52324e-001           5.23238e-002           2.32382e-003           3.23817e-004
                  119.90    335.20778                               12.33886             82.117                                        3.35208e+002           3.52078e+001           5.20778e+000           2.07782e-001           7.78211e-003           7.78211e-003           7.82109e-004
                  120.00    335.58505                               12.34436             82.117                                        3.35585e+002           3.55851e+001           5.58505e+000           5.85052e-001           8.50516e-002           5.05163e-003           5.16272e-005
                  120.10    335.97646                               12.34940             82.117                                        3.35976e+002           3.59765e+001           5.97646e+000           9.76462e-001           7.64622e-002           6.46215e-003           4.62152e-004
                  120.20    336.34673                               12.35408             82.117                                        3.36347e+002           3.63467e+001           6.34673e+000           3.46728e-001           4.67283e-002           6.72833e-003           7.28331e-004
                  120.30    336.71077                               12.35828             82.117                                        3.36711e+002           3.67108e+001           6.71077e+000           7.10768e-001           1.07680e-002           7.68023e-004           7.68023e-004
                  120.40    337.09212                               12.36200             82.117                                        3.37092e+002           3.70921e+001           7.09212e+000           9.21244e-002           9.21244e-002           2.12437e-003           1.24370e-004
                  120.50    337.48029                               12.36535             82.117                                        3.37480e+002           3.74803e+001           7.48029e+000           4.80294e-001           8.02939e-002           2.93912e-004           2.93912e-004
                  120.60    337.85929                               12.36822             82.117                                        3.37859e+002           3.78593e+001           7.85929e+000           8.59293e-001           5.92934e-002           9.29339e-003           2.93387e-004
                  120.70    338.23136                               12.37065             82.117                                        3.38231e+002           3.82314e+001           8.23136e+000           2.31361e-001           3.13611e-002           1.36113e-003           3.61128e-004
                  120.80    338.61205                               12.37270             82.117                                        3.38612e+002           3.86120e+001           8.61205e+000           6.12046e-001           1.20459e-002           2.04588e-003           4.58776e-005
                  120.90    338.99327                               12.37436             82.117                                        3.38993e+002           3.89933e+001           8.99327e+000           9.93274e-001           9.32739e-002           3.27390e-003           2.73896e-004
                  121.00    339.37139                               12.37540             82.117                                        3.39371e+002           3.93714e+001           9.37139e+000           3.71387e-001           7.13866e-002           1.38659e-003           3.86593e-004
                  121.10    339.74977                               12.37604             82.117                                        3.39750e+002           3.97498e+001           9.74977e+000           7.49771e-001           4.97715e-002           9.77145e-003           7.71451e-004
                  121.20    340.12439                               12.37658             82.117                                        3.40124e+002           4.01244e+001           1.24393e-001           1.24393e-001           2.43929e-002           4.39288e-003           3.92883e-004
                  121.30    340.47784                               12.37698             82.117                                        3.40478e+002           4.04778e+001           4.77835e-001           4.77835e-001           7.78352e-002           7.83521e-003           8.35205e-004
                  121.40    340.80718                               12.37699             82.117                                        3.40807e+002           4.08072e+001           8.07179e-001           8.07179e-001           7.17936e-003           7.17936e-003           1.79357e-004
                  121.50    341.10770                               12.37699             82.117                                        3.41108e+002           4.11077e+001           1.10770e+000           1.07698e-001           7.69762e-003           7.69762e-003           6.97625e-004
                  121.60    341.38488                               12.37699             82.117                                        3.41385e+002           4.13849e+001           1.38488e+000           3.84877e-001           8.48769e-002           4.87690e-003           8.76897e-004
                  121.70    341.64283                               12.37699             82.117                                        3.41643e+002           4.16428e+001           1.64283e+000           6.42832e-001           4.28317e-002           2.83167e-003           8.31668e-004
                  121.80    341.87546                               12.37699             82.117                                        3.41875e+002           4.18755e+001           1.87546e+000           8.75461e-001           7.54614e-002           5.46139e-003           4.61385e-004
                  121.90    342.08186                               12.37699             82.117                                        3.42082e+002           4.20819e+001           2.08186e+000           8.18641e-002           8.18641e-002           1.86412e-003           8.64117e-004
                  122.00    342.27545                               12.37699             82.117                                        3.42275e+002           4.22754e+001           2.27545e+000           2.75449e-001           7.54489e-002           5.44893e-003           4.48928e-004
                  122.10    342.45782                               12.37699             82.117                                        3.42458e+002           4.24578e+001           2.45782e+000           4.57817e-001           5.78174e-002           7.81735e-003           8.17351e-004
                  122.20    342.61719                               12.37699             82.117                                        3.42617e+002           4.26172e+001           2.61719e+000           6.17192e-001           1.71919e-002           7.19194e-003           1.91938e-004
                  122.30    342.76300                               12.37699             82.117                                        3.42763e+002           4.27630e+001           2.76300e+000           7.63001e-001           6.30007e-002           3.00074e-003           7.35069e-007
                  122.40    342.90152                               12.37699             82.117                                        3.42902e+002           4.29015e+001           2.90152e+000           9.01517e-001           1.51658e-003           1.51658e-003           5.16585e-004
