~VERSION INFORMATION
VERS                    .            2.0                                    :CWLS LOG ASCII STANDARD
WRAP                    .            NO                                     :ONE LINE PER TIME STEP


~WELL INFORMATION
#MNEM                   .UNIT        DATA                                    DESCRIPTION
#________________________________________________________________________________________
STRTTIME                .HH/MM/SS    23:13:04                               :START TIME
STOPTIME                .HH/MM/SS    23:16:31                               :STOP TIME
STRT                    .s           2.10                                   :START DATA
STOP                    .s           205.60                                 :STOP DATA
STEP                    .s           0.10                                   :MEASUREMENT TIME INTERVAL
NULL                    .            -999.25                                :NULL VALUE
COMP                    .            Statoil ASA                            :COMPANY
FLD                     .            Volve                                  :FIELD
WELL                    .            15/9-F-1 C                             :WELL
RUN                     .            4                                      :RUN
LOC                     .                                                   :LOCATION
PROV                    .            na                                     :PROVINCE
SRVC                    .            Baker Hughes INTEQ                     :SERVICE COMPANY
DATE                    .YY/MM/DD    14/03/14                               :LOG DATE
UWI                     .                                                   :UNIQUE WELL ID
DEPTHMD                 .m           3858.0                                 :MEASURED DEPTH
DEPTHTVD                .m           3096.5                                 :TRUE VERTICAL DEPTH


~CURVE INFORMATION
#MNEM                   .UNIT        API CODES                               DESCRIPTION
#________________________________________________________________________________________
TIME                    .s                                                  :01 TIME
DD_PRESS                .bar                                                :02 DRAW DOWN PRESSURE
DD_VOLUME               .cm3                                                :03 INCREMENTAL DRAW DOWN VOLUME
TEMP                    .degC                                               :04 TRANSDUCER TEMPERATURE
DD_PRESS_MOD_1000       .bar                                                :05 DRAW DOWN PRESSURE MOD 1000
DD_PRESS_MOD_100        .bar                                                :06 DRAW DOWN PRESSURE MOD 100
DD_PRESS_MOD_10         .bar                                                :07 DRAW DOWN PRESSURE MOD 10
DD_PRESS_MOD_1          .bar                                                :08 DRAW DOWN PRESSURE MOD 1
DD_PRESS_MOD_01         .bar                                                :09 DRAW DOWN PRESSURE MOD 01
DD_PRESS_MOD_001        .bar                                                :10 DRAW DOWN PRESSURE MOD 001
DD_PRESS_MOD_0001       .bar                                                :11 DRAW DOWN PRESSURE MOD 0001


~PARAMETER INFORMATION
#MNEM                   .UNIT        VALUE                                   DESCRIPTION
#________________________________________________________________________________________
TOOLFACE                .deg         88.6                                   :01 TOOLFACE
PUMP_CAPACITY           .bar         400                                    :02 NOMINAL DRAW DOWN PUMP CAPACITY
PUMP_LIMIT              .bar         240                                    :03 DOWNLINK PUMP LIMIT
TIME_LIMIT              .min         10                                     :04 DOWNLINK MAX TIME
TEST_TYPE               .            HIGH MOBILITY                          :05 DOWNLINK
DD_PIST_A               .cm2         3.1416                                 :06 DRAW DOWN PISTON AREA
V_SYS                   .cm3         131.0000                               :07 SYSTEM VOLUME
PROBE_ID                .cm          1.2700                                 :08 TTK PROBE ID
G0                      .            4.6700                                 :09 GEOMETRY FACTOR


~A                  TIME     DD_PRESS                              DD_VOLUME               TEMP                                   DD_PRESS_MOD_1000       DD_PRESS_MOD_100        DD_PRESS_MOD_10         DD_PRESS_MOD_1        DD_PRESS_MOD_01       DD_PRESS_MOD_001      DD_PRESS_MOD_0001
                    2.10    439.67296                                0.00000             90.188                                        4.39673e+002           3.96730e+001           9.67296e+000           6.72962e-001           7.29622e-002           2.96218e-003           9.62180e-004
                    2.20    439.67960                                0.00000             90.188                                        4.39680e+002           3.96796e+001           9.67960e+000           6.79599e-001           7.95990e-002           9.59905e-003           5.99050e-004
                    2.30    439.70941                                0.00000             90.188                                        4.39709e+002           3.97094e+001           9.70941e+000           7.09408e-001           9.40831e-003           9.40831e-003           4.08312e-004
                    2.40    439.73877                                0.00000             90.188                                        4.39739e+002           3.97388e+001           9.73877e+000           7.38774e-001           3.87741e-002           8.77408e-003           7.74083e-004
                    2.50    439.74348                                0.00000             90.188                                        4.39743e+002           3.97435e+001           9.74348e+000           7.43476e-001           4.34760e-002           3.47600e-003           4.76004e-004
                    2.60    439.72652                                0.00000             90.188                                        4.39727e+002           3.97265e+001           9.72652e+000           7.26522e-001           2.65215e-002           6.52151e-003           5.21510e-004
                    2.70    439.71903                                0.00000             90.188                                        4.39719e+002           3.97190e+001           9.71903e+000           7.19032e-001           1.90316e-002           9.03157e-003           3.15743e-005
                    2.80    439.74965                                0.00000             90.188                                        4.39750e+002           3.97497e+001           9.74965e+000           7.49651e-001           4.96515e-002           9.65146e-003           6.51462e-004
                    2.90    439.79225                                0.00000             90.188                                        4.39792e+002           3.97922e+001           9.79225e+000           7.92247e-001           9.22475e-002           2.24747e-003           2.47468e-004
                    3.00    439.82182                                0.00000             90.188                                        4.39822e+002           3.98218e+001           9.82182e+000           8.21822e-001           2.18224e-002           1.82239e-003           8.22394e-004
                    3.10    439.83858                                0.00000             90.188                                        4.39839e+002           3.98386e+001           9.83858e+000           8.38580e-001           3.85800e-002           8.57998e-003           5.79976e-004
                    3.20    439.84447                                0.00000             90.188                                        4.39844e+002           3.98445e+001           9.84447e+000           8.44472e-001           4.44721e-002           4.47208e-003           4.72080e-004
                    3.30    439.86558                                0.00000             90.188                                        4.39866e+002           3.98656e+001           9.86558e+000           8.65576e-001           6.55761e-002           5.57609e-003           5.76095e-004
                    3.40    439.89852                                0.00000             90.188                                        4.39899e+002           3.98985e+001           9.89852e+000           8.98516e-001           9.85155e-002           8.51553e-003           5.15528e-004
                    3.50    439.91478                                0.00000             90.188                                        4.39915e+002           3.99148e+001           9.91478e+000           9.14780e-001           1.47801e-002           4.78012e-003           7.80121e-004
                    3.60    439.92105                                0.00000             90.188                                        4.39921e+002           3.99210e+001           9.92105e+000           9.21049e-001           2.10491e-002           1.04907e-003           4.90687e-005
                    3.70    439.92687                                0.00000             90.188                                        4.39927e+002           3.99269e+001           9.92687e+000           9.26871e-001           2.68711e-002           6.87110e-003           8.71098e-004
                    3.80    439.94235                                0.00000             90.188                                        4.39942e+002           3.99423e+001           9.94235e+000           9.42348e-001           4.23481e-002           2.34811e-003           3.48108e-004
                    3.90    439.95777                                0.00000             90.188                                        4.39958e+002           3.99578e+001           9.95777e+000           9.57774e-001           5.77739e-002           7.77392e-003           7.73924e-004
                    4.00    439.97107                                0.00000             90.185                                        4.39971e+002           3.99711e+001           9.97107e+000           9.71068e-001           7.10679e-002           1.06795e-003           6.79478e-005
                    4.10    439.98022                                0.00000             90.182                                        4.39980e+002           3.99802e+001           9.98022e+000           9.80224e-001           8.02240e-002           2.24028e-004           2.24028e-004
                    4.20    439.98119                                0.00000             90.180                                        4.39981e+002           3.99812e+001           9.98119e+000           9.81186e-001           8.11862e-002           1.18621e-003           1.86214e-004
                    4.30    439.98688                                0.00000             90.180                                        4.39987e+002           3.99869e+001           9.98688e+000           9.86878e-001           8.68785e-002           6.87849e-003           8.78492e-004
                    4.40    440.00509                                0.00000             90.180                                        4.40005e+002           4.00051e+001           5.09377e-003           5.09377e-003           5.09377e-003           5.09377e-003           9.37721e-005
                    4.50    440.03349                                0.00000             90.180                                        4.40033e+002           4.00335e+001           3.34922e-002           3.34922e-002           3.34922e-002           3.49223e-003           4.92229e-004
                    4.60    440.05072                                0.00000             90.180                                        4.40051e+002           4.00507e+001           5.07175e-002           5.07175e-002           5.07175e-002           7.17470e-004           7.17470e-004
                    4.70    440.05621                                0.00000             90.180                                        4.40056e+002           4.00562e+001           5.62121e-002           5.62121e-002           5.62121e-002           6.21211e-003           2.12107e-004
                    4.80    440.07863                                0.00000             90.180                                        4.40079e+002           4.00786e+001           7.86269e-002           7.86269e-002           7.86269e-002           8.62691e-003           6.26907e-004
