~VERSION INFORMATION
VERS                    .            2.0                                    :CWLS LOG ASCII STANDARD
WRAP                    .            NO                                     :ONE LINE PER TIME STEP


~WELL INFORMATION
#MNEM                   .UNIT        DATA                                    DESCRIPTION
#________________________________________________________________________________________
STRTTIME                .HH/MM/SS    01:44:52                               :START TIME
STOPTIME                .HH/MM/SS    01:47:47                               :STOP TIME
STRT                    .s           2.10                                   :START DATA
STOP                    .s           173.40                                 :STOP DATA
STEP                    .s           0.10                                   :MEASUREMENT TIME INTERVAL
NULL                    .            -999.25                                :NULL VALUE
COMP                    .            Statoil ASA                            :COMPANY
FLD                     .            Volve                                  :FIELD
WELL                    .            15/9-F-1 C                             :WELL
RUN                     .            4                                      :RUN
LOC                     .                                                   :LOCATION
PROV                    .            na                                     :PROVINCE
SRVC                    .            Baker Hughes INTEQ                     :SERVICE COMPANY
DATE                    .YY/MM/DD    14/03/15                               :LOG DATE
UWI                     .                                                   :UNIQUE WELL ID
DEPTHMD                 .m           3620.2                                 :MEASURED DEPTH
DEPTHTVD                .m           3012.3                                 :TRUE VERTICAL DEPTH


~CURVE INFORMATION
#MNEM                   .UNIT        API CODES                               DESCRIPTION
#________________________________________________________________________________________
TIME                    .s                                                  :01 TIME
DD_PRESS                .bar                                                :02 DRAW DOWN PRESSURE
DD_VOLUME               .cm3                                                :03 INCREMENTAL DRAW DOWN VOLUME
TEMP                    .degC                                               :04 TRANSDUCER TEMPERATURE
DD_PRESS_MOD_1000       .bar                                                :05 DRAW DOWN PRESSURE MOD 1000
DD_PRESS_MOD_100        .bar                                                :06 DRAW DOWN PRESSURE MOD 100
DD_PRESS_MOD_10         .bar                                                :07 DRAW DOWN PRESSURE MOD 10
DD_PRESS_MOD_1          .bar                                                :08 DRAW DOWN PRESSURE MOD 1
DD_PRESS_MOD_01         .bar                                                :09 DRAW DOWN PRESSURE MOD 01
DD_PRESS_MOD_001        .bar                                                :10 DRAW DOWN PRESSURE MOD 001
DD_PRESS_MOD_0001       .bar                                                :11 DRAW DOWN PRESSURE MOD 0001


~PARAMETER INFORMATION
#MNEM                   .UNIT        VALUE                                   DESCRIPTION
#________________________________________________________________________________________
TOOLFACE                .deg         108.7                                  :01 TOOLFACE
PUMP_CAPACITY           .bar         400                                    :02 NOMINAL DRAW DOWN PUMP CAPACITY
PUMP_LIMIT              .bar         240                                    :03 DOWNLINK PUMP LIMIT
TIME_LIMIT              .min         10                                     :04 DOWNLINK MAX TIME
TEST_TYPE               .            REPEAT                                 :05 DOWNLINK
TEST_TYPE               .            HIGH MOBILITY                          :06 DOWNLINK
DD_PIST_A               .cm2         3.1416                                 :07 DRAW DOWN PISTON AREA
V_SYS                   .cm3         131.0000                               :08 SYSTEM VOLUME
PROBE_ID                .cm          1.2700                                 :09 TTK PROBE ID
G0                      .            4.6700                                 :10 GEOMETRY FACTOR


~A                  TIME     DD_PRESS                              DD_VOLUME               TEMP                                   DD_PRESS_MOD_1000       DD_PRESS_MOD_100        DD_PRESS_MOD_10         DD_PRESS_MOD_1        DD_PRESS_MOD_01       DD_PRESS_MOD_001      DD_PRESS_MOD_0001
# ...
                  158.90    429.11259                                0.00000             87.094                                        4.29113e+002           2.91126e+001           9.11259e+000           1.12591e-001           1.25908e-002           2.59077e-003           5.90772e-004
                  159.00    429.11458                                0.00000             87.094                                        4.29115e+002           2.91146e+001           9.11458e+000           1.14578e-001           1.45782e-002           4.57818e-003           5.78179e-004
                  159.10    429.11421                                0.00000             87.094                                        4.29114e+002           2.91142e+001           9.11421e+000           1.14214e-001           1.42142e-002           4.21421e-003           2.14210e-004
                  159.20    429.12471                                0.00000             87.094                                        4.29125e+002           2.91247e+001           9.12471e+000           1.24712e-001           2.47117e-002           4.71165e-003           7.11654e-004
                  159.30    429.13581                                0.00000             87.094                                        4.29136e+002           2.91358e+001           9.13581e+000           1.35815e-001           3.58147e-002           5.81474e-003           8.14737e-004
                  159.40    429.13199                                0.00000             87.094                                        4.29132e+002           2.91320e+001           9.13199e+000           1.31987e-001           3.19874e-002           1.98740e-003           9.87396e-004
                  159.50    429.11838                                0.00000             87.094                                        4.29118e+002           2.91184e+001           9.11838e+000           1.18378e-001           1.83783e-002           8.37833e-003           3.78333e-004
                  159.60    429.11229                                0.00000             87.094                                        4.29112e+002           2.91123e+001           9.11229e+000           1.12286e-001           1.22857e-002           2.28571e-003           2.85712e-004
                  159.70    429.11961                                0.00000             87.094                                        4.29120e+002           2.91196e+001           9.11961e+000           1.19611e-001           1.96108e-002           9.61081e-003           6.10812e-004
                  159.80    429.12327                                0.00000             87.094                                        4.29123e+002           2.91233e+001           9.12327e+000           1.23269e-001           2.32693e-002           3.26927e-003           2.69269e-004
                  159.90    429.12178                                0.00000             87.094                                        4.29122e+002           2.91218e+001           9.12178e+000           1.21778e-001           2.17782e-002           1.77822e-003           7.78219e-004
                  160.00    429.11178                                0.00000             87.094                                        4.29112e+002           2.91118e+001           9.11178e+000           1.11780e-001           1.17800e-002           1.77998e-003           7.79981e-004
                  160.10    429.10961                                0.00000             87.094                                        4.29110e+002           2.91096e+001           9.10961e+000           1.09609e-001           9.60902e-003           9.60902e-003           6.09021e-004
                  160.20    429.12096                                0.00000             87.094                                        4.29121e+002           2.91210e+001           9.12096e+000           1.20958e-001           2.09584e-002           9.58441e-004           9.58441e-004
                  160.30    429.12383                                0.00000             87.094                                        4.29124e+002           2.91238e+001           9.12383e+000           1.23833e-001           2.38333e-002           3.83332e-003           8.33321e-004
                  160.40    429.10617                                0.00000             87.094                                        4.29106e+002           2.91062e+001           9.10617e+000           1.06171e-001           6.17052e-003           6.17052e-003           1.70522e-004
                  160.50    429.08805                                0.00000             87.094                                        4.29088e+002           2.90880e+001           9.08805e+000           8.80471e-002           8.80471e-002           8.04712e-003           4.71236e-005
                  160.60    429.10566                                0.00000             87.094                                        4.29106e+002           2.91057e+001           9.10566e+000           1.05657e-001           5.65658e-003           5.65658e-003           6.56579e-004
                  160.70    429.12673                                0.00000             87.094                                        4.29127e+002           2.91267e+001           9.12673e+000           1.26727e-001           2.67275e-002           6.72747e-003           7.27467e-004
                  160.80    429.13066                                0.00000             87.094                                        4.29131e+002           2.91307e+001           9.13066e+000           1.30664e-001           3.06642e-002           6.64203e-004           6.64203e-004
                  160.90    429.11965                                0.00000             87.094                                        4.29120e+002           2.91196e+001           9.11965e+000           1.19648e-001           1.96475e-002           9.64751e-003           6.47514e-004
                  161.00    429.10843                                0.00000             87.094                                        4.29108e+002           2.91084e+001           9.10843e+000           1.08426e-001           8.42590e-003           8.42590e-003           4.25900e-004
                  161.10    429.10922                                0.00000             87.094                                        4.29109e+002           2.91092e+001           9.10922e+000           1.09219e-001           9.21877e-003           9.21877e-003           2.18774e-004
                  161.20    429.11366                                0.00000             87.094                                        4.29114e+002           2.91137e+001           9.11366e+000           1.13657e-001           1.36566e-002           3.65660e-003           6.56602e-004
                  161.30    429.10542                                0.00000             87.094                                        4.29105e+002           2.91054e+001           9.10542e+000           1.05421e-001           5.42075e-003           5.42075e-003           4.20751e-004
                  161.40    429.09944                                0.00000             87.094                                        4.29099e+002           2.90994e+001           9.09944e+000           9.94352e-002           9.94352e-002           9.43519e-003           4.35195e-004
                  161.50    429.11511                                0.00000             87.094                                        4.29115e+002           2.91151e+001           9.11511e+000           1.15111e-001           1.51106e-002           5.11057e-003           1.10567e-004
                  161.60    429.13597                                0.00000             87.094                                        4.29136e+002           2.91360e+001           9.13597e+000           1.35970e-001           3.59696e-002           5.96964e-003           9.69641e-004
