~VERSION INFORMATION
VERS                    .            2.0                                    :CWLS LOG ASCII STANDARD
WRAP                    .            NO                                     :ONE LINE PER TIME STEP


~WELL INFORMATION
#MNEM                   .UNIT        DATA                                    DESCRIPTION
#________________________________________________________________________________________
STRTTIME                .HH/MM/SS    14:50:05                               :START TIME
STOPTIME                .HH/MM/SS    14:53:18                               :STOP TIME
STRT                    .s           2.10                                   :START DATA
STOP                    .s           191.60                                 :STOP DATA
STEP                    .s           0.10                                   :MEASUREMENT TIME INTERVAL
NULL                    .            -999.25                                :NULL VALUE
COMP                    .            Statoil ASA                            :COMPANY
FLD                     .            Volve                                  :FIELD
WELL                    .            15/9-F-1 B                             :WELL
RUN                     .            7                                      :RUN
LOC                     .            Maersk Inspirer                        :LOCATION
PROV                    .            na                                     :PROVINCE
SRVC                    .            Baker Hughes INTEQ                     :SERVICE COMPANY
DATE                    .YY/MM/DD    13/09/06                               :LOG DATE
UWI                     .                                                   :UNIQUE WELL ID
DEPTHMD                 .m           3280.5                                 :MEASURED DEPTH
DEPTHTVD                .m           3076.1                                 :TRUE VERTICAL DEPTH


~CURVE INFORMATION
#MNEM                   .UNIT        API CODES                               DESCRIPTION
#________________________________________________________________________________________
TIME                    .s                                                  :01 TIME
DD_PRESS                .bar                                                :02 DRAW DOWN PRESSURE
DD_VOLUME               .cm3                                                :03 INCREMENTAL DRAW DOWN VOLUME
TEMP                    .degC                                               :04 TRANSDUCER TEMPERATURE
DD_PRESS_MOD_1000       .bar                                                :05 DRAW DOWN PRESSURE MOD 1000
DD_PRESS_MOD_100        .bar                                                :06 DRAW DOWN PRESSURE MOD 100
DD_PRESS_MOD_10         .bar                                                :07 DRAW DOWN PRESSURE MOD 10
DD_PRESS_MOD_1          .bar                                                :08 DRAW DOWN PRESSURE MOD 1
DD_PRESS_MOD_01         .bar                                                :09 DRAW DOWN PRESSURE MOD 01
DD_PRESS_MOD_001        .bar                                                :10 DRAW DOWN PRESSURE MOD 001
DD_PRESS_MOD_0001       .bar                                                :11 DRAW DOWN PRESSURE MOD 0001


~PARAMETER INFORMATION
#MNEM                   .UNIT        VALUE                                   DESCRIPTION
#________________________________________________________________________________________
TOOLFACE                .deg         na                                     :01 TOOLFACE
PUMP_CAPACITY           .bar         400                                    :02 NOMINAL DRAW DOWN PUMP CAPACITY
PUMP_LIMIT              .bar         400                                    :03 DOWNLINK PUMP LIMIT
TIME_LIMIT              .min         10                                     :04 DOWNLINK MAX TIME
TEST_TYPE               .            LOW MOBILITY                           :05 DOWNLINK
DD_PIST_A               .cm2         3.1416                                 :06 DRAW DOWN PISTON AREA
V_SYS                   .cm3         131.0000                               :07 SYSTEM VOLUME
PROBE_ID                .cm          1.2700                                 :08 TTK PROBE ID
G0                      .            4.6700                                 :09 GEOMETRY FACTOR


~A                  TIME     DD_PRESS                              DD_VOLUME               TEMP                                   DD_PRESS_MOD_1000       DD_PRESS_MOD_100        DD_PRESS_MOD_10         DD_PRESS_MOD_1        DD_PRESS_MOD_01       DD_PRESS_MOD_001      DD_PRESS_MOD_0001
# ...
                   77.70    347.58166                               10.93095             82.492                                        3.47582e+002           4.75817e+001           7.58166e+000           5.81661e-001           8.16610e-002           1.66103e-003           6.61032e-004
                   77.80    347.58115                               10.93095             82.492                                        3.47581e+002           4.75811e+001           7.58115e+000           5.81145e-001           8.11453e-002           1.14527e-003           1.45272e-004
                   77.90    347.58441                               10.93095             82.495                                        3.47584e+002           4.75844e+001           7.58441e+000           5.84411e-001           8.44105e-002           4.41053e-003           4.10533e-004
                   78.00    347.58659                               10.93095             82.496                                        3.47587e+002           4.75866e+001           7.58659e+000           5.86588e-001           8.65884e-002           6.58836e-003           5.88362e-004
                   78.10    347.58398                               10.93095             82.494                                        3.47584e+002           4.75840e+001           7.58398e+000           5.83977e-001           8.39771e-002           3.97708e-003           9.77078e-004
                   78.20    347.58353                               10.93095             82.492                                        3.47584e+002           4.75835e+001           7.58353e+000           5.83529e-001           8.35287e-002           3.52867e-003           5.28669e-004
                   78.30    347.58736                               10.93095             82.492                                        3.47587e+002           4.75874e+001           7.58736e+000           5.87360e-001           8.73602e-002           7.36018e-003           3.60176e-004
                   78.40    347.59578                               10.93095             82.492                                        3.47596e+002           4.75958e+001           7.59578e+000           5.95785e-001           9.57847e-002           5.78467e-003           7.84667e-004
                   78.50    347.59152                               10.93095             82.492                                        3.47592e+002           4.75915e+001           7.59152e+000           5.91516e-001           9.15163e-002           1.51629e-003           5.16289e-004
                   78.60    347.58112                               10.93095             82.492                                        3.47581e+002           4.75811e+001           7.58112e+000           5.81125e-001           8.11249e-002           1.12486e-003           1.24860e-004
                   78.70    347.57990                               10.93095             82.492                                        3.47580e+002           4.75799e+001           7.57990e+000           5.79902e-001           7.99017e-002           9.90172e-003           9.01721e-004
                   78.80    347.58387                               10.93095             82.492                                        3.47584e+002           4.75839e+001           7.58387e+000           5.83866e-001           8.38662e-002           3.86625e-003           8.66245e-004
                   78.90    347.58617                               10.93095             82.492                                        3.47586e+002           4.75862e+001           7.58617e+000           5.86171e-001           8.61713e-002           6.17128e-003           1.71285e-004
                   79.00    347.58535                               10.93095             82.492                                        3.47585e+002           4.75853e+001           7.58535e+000           5.85345e-001           8.53454e-002           5.34542e-003           3.45421e-004
                   79.10    347.58689                               10.93095             82.492                                        3.47587e+002           4.75869e+001           7.58689e+000           5.86893e-001           8.68934e-002           6.89341e-003           8.93410e-004
                   79.20    347.58668                               10.93095             82.492                                        3.47587e+002           4.75867e+001           7.58668e+000           5.86678e-001           8.66778e-002           6.67781e-003           6.77806e-004
                   79.30    347.58632                               10.93095             82.492                                        3.47586e+002           4.75863e+001           7.58632e+000           5.86319e-001           8.63192e-002           6.31924e-003           3.19236e-004
                   79.40    347.58274                               10.93095             82.492                                        3.47583e+002           4.75827e+001           7.58274e+000           5.82742e-001           8.27420e-002           2.74197e-003           7.41969e-004
                   79.50    347.58418                               10.93095             82.492                                        3.47584e+002           4.75842e+001           7.58418e+000           5.84183e-001           8.41828e-002           4.18283e-003           1.82828e-004
                   79.60    347.58548                               10.93095             82.492                                        3.47585e+002           4.75855e+001           7.58548e+000           5.85477e-001           8.54766e-002           5.47659e-003           4.76585e-004
                   79.70    347.58779                               10.93095             82.492                                        3.47588e+002           4.75878e+001           7.58779e+000           5.87787e-001           8.77874e-002           7.78738e-003           7.87383e-004
                   79.80    347.58538                               10.93095             82.492                                        3.47585e+002           4.75854e+001           7.58538e+000           5.85381e-001           8.53807e-002           5.38068e-003           3.80684e-004
                   79.90    347.58772                               10.93095             82.492                                        3.47588e+002           4.75877e+001           7.58772e+000           5.87717e-001           8.77174e-002           7.71738e-003           7.17383e-004
                   80.00    347.58946                               10.93095             82.492                                        3.47589e+002           4.75895e+001           7.58946e+000           5.89457e-001           8.94567e-002           9.45668e-003           4.56676e-004
                   80.10    347.58975                               10.93095             82.492                                        3.47590e+002           4.75897e+001           7.58975e+000           5.89749e-001           8.97487e-002           9.74875e-003           7.48746e-004
                   80.20    347.58536                               10.93095             82.492                                        3.47585e+002           4.75854e+001           7.58536e+000           5.85358e-001           8.53579e-002           5.35786e-003           3.57857e-004
                   80.30    347.58106                               10.93095             82.492                                        3.47581e+002           4.75811e+001           7.58106e+000           5.81057e-001           8.10569e-002           1.05689e-003           5.68869e-005
                   80.40    347.58285                               10.93095             82.492                                        3.47583e+002           4.75828e+001           7.58285e+000           5.82845e-001           8.28453e-002           2.84527e-003           8.45267e-004
