~VERSION INFORMATION
VERS                    .            2.0                                    :CWLS LOG ASCII STANDARD
WRAP                    .            NO                                     :ONE LINE PER TIME STEP


~WELL INFORMATION
#MNEM                   .UNIT        DATA                                    DESCRIPTION
#________________________________________________________________________________________
STRTTIME                .HH/MM/SS    10:22:55                               :START TIME
STOPTIME                .HH/MM/SS    10:26:06                               :STOP TIME
STRT                    .s           2.10                                   :START DATA
STOP                    .s           189.80                                 :STOP DATA
STEP                    .s           0.10                                   :MEASUREMENT TIME INTERVAL
NULL                    .            -999.25                                :NULL VALUE
COMP                    .            Statoil ASA                            :COMPANY
FLD                     .            Volve                                  :FIELD
WELL                    .            15/9-F-11 A                            :WELL
RUN                     .            8                                      :RUN
LOC                     .            Maersk Inspirer                        :LOCATION
PROV                    .            na                                     :PROVINCE
SRVC                    .            Baker Hughes INTEQ                     :SERVICE COMPANY
DATE                    .YY/MM/DD    13/05/21                               :LOG DATE
UWI                     .                                                   :UNIQUE WELL ID
DEPTHMD                 .m           3651.0                                 :MEASURED DEPTH
DEPTHTVD                .m           3041.4                                 :TRUE VERTICAL DEPTH


~CURVE INFORMATION
#MNEM                   .UNIT        API CODES                               DESCRIPTION
#________________________________________________________________________________________
TIME                    .s                                                  :01 TIME
DD_PRESS                .bar                                                :02 DRAW DOWN PRESSURE
DD_VOLUME               .cm3                                                :03 INCREMENTAL DRAW DOWN VOLUME
TEMP                    .degC                                               :04 TRANSDUCER TEMPERATURE
DD_PRESS_MOD_1000       .bar                                                :05 DRAW DOWN PRESSURE MOD 1000
DD_PRESS_MOD_100        .bar                                                :06 DRAW DOWN PRESSURE MOD 100
DD_PRESS_MOD_10         .bar                                                :07 DRAW DOWN PRESSURE MOD 10
DD_PRESS_MOD_1          .bar                                                :08 DRAW DOWN PRESSURE MOD 1
DD_PRESS_MOD_01         .bar                                                :09 DRAW DOWN PRESSURE MOD 01
DD_PRESS_MOD_001        .bar                                                :10 DRAW DOWN PRESSURE MOD 001
DD_PRESS_MOD_0001       .bar                                                :11 DRAW DOWN PRESSURE MOD 0001


~PARAMETER INFORMATION
#MNEM                   .UNIT        VALUE                                   DESCRIPTION
#________________________________________________________________________________________
TOOLFACE                .deg         61.5                                   :01 TOOLFACE
PUMP_CAPACITY           .bar         400                                    :02 NOMINAL DRAW DOWN PUMP CAPACITY
PUMP_LIMIT              .bar         240                                    :03 DOWNLINK PUMP LIMIT
TIME_LIMIT              .min         10                                     :04 DOWNLINK MAX TIME
TEST_TYPE               .            REPEAT                                 :05 DOWNLINK
TEST_TYPE               .            HIGH MOBILITY                          :06 DOWNLINK
DD_PIST_A               .cm2         3.1416                                 :07 DRAW DOWN PISTON AREA
V_SYS                   .cm3         131.0000                               :08 SYSTEM VOLUME
PROBE_ID                .cm          1.2700                                 :09 TTK PROBE ID
G0                      .            4.6700                                 :10 GEOMETRY FACTOR


~A                  TIME     DD_PRESS                              DD_VOLUME               TEMP                                   DD_PRESS_MOD_1000       DD_PRESS_MOD_100        DD_PRESS_MOD_10         DD_PRESS_MOD_1        DD_PRESS_MOD_01       DD_PRESS_MOD_001      DD_PRESS_MOD_0001
# ...
                   52.50    343.79973                               10.65291             81.063                                        3.43800e+002           4.37997e+001           3.79973e+000           7.99731e-001           9.97313e-002           9.73134e-003           7.31338e-004
                   52.60    343.79863                               10.65291             81.063                                        3.43799e+002           4.37986e+001           3.79863e+000           7.98628e-001           9.86277e-002           8.62769e-003           6.27690e-004
                   52.70    343.79905                               10.65291             81.063                                        3.43799e+002           4.37991e+001           3.79905e+000           7.99053e-001           9.90531e-002           9.05307e-003           5.30665e-005
                   52.80    343.79979                               10.65291             81.063                                        3.43800e+002           4.37998e+001           3.79979e+000           7.99792e-001           9.97925e-002           9.79246e-003           7.92458e-004
                   52.90    343.79934                               10.65291             81.063                                        3.43799e+002           4.37993e+001           3.79934e+000           7.99340e-001           9.93396e-002           9.33962e-003           3.39620e-004
                   53.00    343.79939                               10.65291             81.063                                        3.43799e+002           4.37994e+001           3.79939e+000           7.99389e-001           9.93890e-002           9.38901e-003           3.89011e-004
                   53.10    343.79853                               10.65291             81.063                                        3.43799e+002           4.37985e+001           3.79853e+000           7.98527e-001           9.85274e-002           8.52744e-003           5.27441e-004
                   53.20    343.79947                               10.65291             81.063                                        3.43799e+002           4.37995e+001           3.79947e+000           7.99468e-001           9.94679e-002           9.46789e-003           4.67889e-004
                   53.30    343.80111                               10.65291             81.063                                        3.43801e+002           4.38011e+001           3.80111e+000           8.01106e-001           1.10601e-003           1.10601e-003           1.06011e-004
                   53.40    343.80039                               10.65291             81.063                                        3.43800e+002           4.38004e+001           3.80039e+000           8.00392e-001           3.91806e-004           3.91806e-004           3.91806e-004
                   53.50    343.79866                               10.65291             81.063                                        3.43799e+002           4.37987e+001           3.79866e+000           7.98659e-001           9.86592e-002           8.65920e-003           6.59198e-004
                   53.60    343.79913                               10.65291             81.063                                        3.43799e+002           4.37991e+001           3.79913e+000           7.99128e-001           9.91279e-002           9.12791e-003           1.27913e-004
                   53.70    343.80111                               10.65291             81.063                                        3.43801e+002           4.38011e+001           3.80111e+000           8.01108e-001           1.10836e-003           1.10836e-003           1.08355e-004
                   53.80    343.80019                               10.65291             81.063                                        3.43800e+002           4.38002e+001           3.80019e+000           8.00186e-001           1.86126e-004           1.86126e-004           1.86126e-004
                   53.90    343.80013                               10.65291             81.063                                        3.43800e+002           4.38001e+001           3.80013e+000           8.00129e-001           1.28942e-004           1.28942e-004           1.28942e-004
                   54.00    343.80112                               10.65291             81.063                                        3.43801e+002           4.38011e+001           3.80112e+000           8.01119e-001           1.11898e-003           1.11898e-003           1.18979e-004
                   54.10    343.80097                               10.65291             81.063                                        3.43801e+002           4.38010e+001           3.80097e+000           8.00975e-001           9.74805e-004           9.74805e-004           9.74805e-004
                   54.20    343.80070                               10.65291             81.063                                        3.43801e+002           4.38007e+001           3.80070e+000           8.00703e-001           7.03194e-004           7.03194e-004           7.03194e-004
                   54.30    343.80097                               10.65291             81.063                                        3.43801e+002           4.38010e+001           3.80097e+000           8.00975e-001           9.74805e-004           9.74805e-004           9.74805e-004
                   54.40    343.80141                               10.65291             81.063                                        3.43801e+002           4.38014e+001           3.80141e+000           8.01413e-001           1.41251e-003           1.41251e-003           4.12514e-004
                   54.50    343.80140                               10.65291             81.063                                        3.43801e+002           4.38014e+001           3.80140e+000           8.01402e-001           1.40221e-003           1.40221e-003           4.02210e-004
                   54.60    343.80138                               10.65291             81.063                                        3.43801e+002           4.38014e+001           3.80138e+000           8.01385e-001           1.38479e-003           1.38479e-003           3.84786e-004
                   54.70    343.80139                               10.65291             81.063                                        3.43801e+002           4.38014e+001           3.80139e+000           8.01387e-001           1.38723e-003           1.38723e-003           3.87229e-004
                   54.80    343.80137                               10.65291             81.063                                        3.43801e+002           4.38014e+001           3.80137e+000           8.01371e-001           1.37142e-003           1.37142e-003           3.71423e-004
                   54.90    343.79971                               10.65291             81.063                                        3.43800e+002           4.37997e+001           3.79971e+000           7.99711e-001           9.97109e-002           9.71091e-003           7.10909e-004
                   55.00    343.79934                               10.65291             81.063                                        3.43799e+002           4.37993e+001           3.79934e+000           7.99344e-001           9.93438e-002           9.34376e-003           3.43762e-004
                   55.10    343.80045                               10.65291             81.063                                        3.43800e+002           4.38005e+001           3.80045e+000           8.00452e-001           4.52083e-004           4.52083e-004           4.52083e-004
                   55.20    343.80126                               10.65291             81.063                                        3.43801e+002           4.38013e+001           3.80126e+000           8.01258e-001           1.25774e-003           1.25774e-003           2.57744e-004
