~VERSION INFORMATION
VERS                    .            2.0                                    :CWLS LOG ASCII STANDARD
WRAP                    .            NO                                     :ONE LINE PER TIME STEP


~WELL INFORMATION
#MNEM                   .UNIT        DATA                                    DESCRIPTION
#________________________________________________________________________________________
STRTTIME                .HH/MM/SS    00:10:18                               :START TIME
STOPTIME                .HH/MM/SS    00:13:47                               :STOP TIME
STRT                    .s           2.10                                   :START DATA
STOP                    .s           207.40                                 :STOP DATA
STEP                    .s           0.10                                   :MEASUREMENT TIME INTERVAL
NULL                    .            -999.25                                :NULL VALUE
COMP                    .            Statoil ASA                            :COMPANY
FLD                     .            Volve                                  :FIELD
WELL                    .            15/9-F-1                               :WELL
RUN                     .            4                                      :RUN
LOC                     .            Maersk Inspirer                        :LOCATION
PROV                    .            na                                     :PROVINCE
SRVC                    .            Baker Hughes INTEQ                     :SERVICE COMPANY
DATE                    .YY/MM/DD    13/08/19                               :LOG DATE
UWI                     .                                                   :UNIQUE WELL ID
DEPTHMD                 .m           3332.4                                 :MEASURED DEPTH
DEPTHTVD                .m           3056.0                                 :TRUE VERTICAL DEPTH


~CURVE INFORMATION
#MNEM                   .UNIT        API CODES                               DESCRIPTION
#________________________________________________________________________________________
TIME                    .s                                                  :01 TIME
DD_PRESS                .bar                                                :02 DRAW DOWN PRESSURE
DD_VOLUME               .cm3                                                :03 INCREMENTAL DRAW DOWN VOLUME
TEMP                    .degC                                               :04 TRANSDUCER TEMPERATURE
DD_PRESS_MOD_1000       .bar                                                :05 DRAW DOWN PRESSURE MOD 1000
DD_PRESS_MOD_100        .bar                                                :06 DRAW DOWN PRESSURE MOD 100
DD_PRESS_MOD_10         .bar                                                :07 DRAW DOWN PRESSURE MOD 10
DD_PRESS_MOD_1          .bar                                                :08 DRAW DOWN PRESSURE MOD 1
DD_PRESS_MOD_01         .bar                                                :09 DRAW DOWN PRESSURE MOD 01
DD_PRESS_MOD_001        .bar                                                :10 DRAW DOWN PRESSURE MOD 001
DD_PRESS_MOD_0001       .bar                                                :11 DRAW DOWN PRESSURE MOD 0001


~PARAMETER INFORMATION
#MNEM                   .UNIT        VALUE                                   DESCRIPTION
#________________________________________________________________________________________
TOOLFACE                .deg         78.2                                   :01 TOOLFACE
PUMP_CAPACITY           .bar         400                                    :02 NOMINAL DRAW DOWN PUMP CAPACITY
PUMP_LIMIT              .bar         240                                    :03 DOWNLINK PUMP LIMIT
TIME_LIMIT              .min         10                                     :04 DOWNLINK MAX TIME
TEST_TYPE               .            LOW MOBILITY                           :05 DOWNLINK
DD_PIST_A               .cm2         3.1416                                 :06 DRAW DOWN PISTON AREA
V_SYS                   .cm3         131.0000                               :07 SYSTEM VOLUME
PROBE_ID                .cm          1.2700                                 :08 TTK PROBE ID
G0                      .            4.6700                                 :09 GEOMETRY FACTOR


~A                  TIME     DD_PRESS                              DD_VOLUME               TEMP                                   DD_PRESS_MOD_1000       DD_PRESS_MOD_100        DD_PRESS_MOD_10         DD_PRESS_MOD_1        DD_PRESS_MOD_01       DD_PRESS_MOD_001      DD_PRESS_MOD_0001
                    2.10    409.78992                                0.00000             74.734                                        4.09790e+002           9.78992e+000           9.78992e+000           7.89920e-001           8.99195e-002           9.91952e-003           9.19521e-004
                    2.20    409.80663                                0.00000             74.734                                        4.09807e+002           9.80663e+000           9.80663e+000           8.06633e-001           6.63265e-003           6.63265e-003           6.32651e-004
                    2.30    409.79145                                0.00000             74.734                                        4.09791e+002           9.79145e+000           9.79145e+000           7.91447e-001           9.14469e-002           1.44689e-003           4.46889e-004
                    2.40    409.79206                                0.00000             74.734                                        4.09792e+002           9.79206e+000           9.79206e+000           7.92058e-001           9.20580e-002           2.05798e-003           5.79836e-005
                    2.50    409.81583                                0.00000             74.734                                        4.09816e+002           9.81583e+000           9.81583e+000           8.15830e-001           1.58298e-002           5.82981e-003           8.29810e-004
                    2.60    409.85704                                0.00000             74.734                                        4.09857e+002           9.85704e+000           9.85704e+000           8.57044e-001           5.70444e-002           7.04437e-003           4.43702e-005
                    2.70    409.90337                                0.00000             74.734                                        4.09903e+002           9.90337e+000           9.90337e+000           9.03366e-001           3.36608e-003           3.36608e-003           3.66082e-004
                    2.80    409.95546                                0.00000             74.734                                        4.09955e+002           9.95546e+000           9.95546e+000           9.55465e-001           5.54647e-002           5.46471e-003           4.64707e-004
                    2.90    410.00520                                0.00000             74.734                                        4.10005e+002           1.00052e+001           5.20097e-003           5.20097e-003           5.20097e-003           5.20097e-003           2.00969e-004
                    3.00    410.02523                                0.00000             74.734                                        4.10025e+002           1.00252e+001           2.52338e-002           2.52338e-002           2.52338e-002           5.23380e-003           2.33803e-004
                    3.10    410.01419                                0.00000             74.734                                        4.10014e+002           1.00142e+001           1.41941e-002           1.41941e-002           1.41941e-002           4.19412e-003           1.94118e-004
                    3.20    410.01601                                0.00000             74.734                                        4.10016e+002           1.00160e+001           1.60105e-002           1.60105e-002           1.60105e-002           6.01045e-003           1.04510e-005
                    3.30    410.02807                                0.00000             74.734                                        4.10028e+002           1.00281e+001           2.80686e-002           2.80686e-002           2.80686e-002           8.06860e-003           6.86020e-005
                    3.40    410.04525                                0.00000             74.734                                        4.10045e+002           1.00453e+001           4.52522e-002           4.52522e-002           4.52522e-002           5.25222e-003           2.52218e-004
                    3.50    410.06125                                0.00000             74.734                                        4.10061e+002           1.00612e+001           6.12463e-002           6.12463e-002           6.12463e-002           1.24631e-003           2.46314e-004
                    3.60    410.05566                                0.00000             74.734                                        4.10056e+002           1.00557e+001           5.56637e-002           5.56637e-002           5.56637e-002           5.66370e-003           6.63698e-004
                    3.70    410.01763                                0.00000             74.734                                        4.10018e+002           1.00176e+001           1.76323e-002           1.76323e-002           1.76323e-002           7.63226e-003           6.32259e-004
                    3.80    410.00036                                0.00000             74.734                                        4.10000e+002           1.00004e+001           3.59771e-004           3.59771e-004           3.59771e-004           3.59771e-004           3.59771e-004
                    3.90    410.02196                                0.00000             74.734                                        4.10022e+002           1.00220e+001           2.19584e-002           2.19584e-002           2.19584e-002           1.95836e-003           9.58356e-004
                    4.00    410.01502                                0.00000             74.734                                        4.10015e+002           1.00150e+001           1.50166e-002           1.50166e-002           1.50166e-002           5.01656e-003           1.65611e-005
                    4.10    409.98909                                0.00000             74.734                                        4.09989e+002           9.98909e+000           9.98909e+000           9.89091e-001           8.90909e-002           9.09086e-003           9.08612e-005
                    4.20    409.96784                                0.00000             74.734                                        4.09968e+002           9.96784e+000           9.96784e+000           9.67842e-001           6.78417e-002           7.84173e-003           8.41725e-004
                    4.30    409.95441                                0.00000             74.734                                        4.09954e+002           9.95441e+000           9.95441e+000           9.54408e-001           5.44077e-002           4.40768e-003           4.07676e-004
                    4.40    409.97036                                0.00000             74.734                                        4.09970e+002           9.97036e+000           9.97036e+000           9.70361e-001           7.03611e-002           3.61123e-004           3.61123e-004
                    4.50    409.98465                                0.00000             74.734                                        4.09985e+002           9.98465e+000           9.98465e+000           9.84651e-001           8.46508e-002           4.65077e-003           6.50772e-004
                    4.60    409.95898                                0.00000             74.734                                        4.09959e+002           9.95898e+000           9.95898e+000           9.58976e-001           5.89759e-002           8.97590e-003           9.75904e-004
                    4.70    409.92711                                0.00000             74.734                                        4.09927e+002           9.92711e+000           9.92711e+000           9.27106e-001           2.71063e-002           7.10628e-003           1.06280e-004
                    4.80    409.93128                                0.00000             74.734                                        4.09931e+002           9.93128e+000           9.93128e+000           9.31285e-001           3.12846e-002           1.28463e-003           2.84634e-004
