~VERSION INFORMATION
VERS                    .            2.0                                    :CWLS LOG ASCII STANDARD
WRAP                    .            NO                                     :ONE LINE PER TIME STEP


~WELL INFORMATION
#MNEM                   .UNIT        DATA                                    DESCRIPTION
#________________________________________________________________________________________
STRTTIME                .HH/MM/SS    23:13:04                               :START TIME
STOPTIME                .HH/MM/SS    23:16:31                               :STOP TIME
STRT                    .s           2.10                                   :START DATA
STOP                    .s           205.60                                 :STOP DATA
STEP                    .s           0.10                                   :MEASUREMENT TIME INTERVAL
NULL                    .            -999.25                                :NULL VALUE
COMP                    .            Statoil ASA                            :COMPANY
FLD                     .            Volve                                  :FIELD
WELL                    .            15/9-F-1 C                             :WELL
RUN                     .            4                                      :RUN
LOC                     .                                                   :LOCATION
PROV                    .            na                                     :PROVINCE
SRVC                    .            Baker Hughes INTEQ                     :SERVICE COMPANY
DATE                    .YY/MM/DD    14/03/14                               :LOG DATE
UWI                     .                                                   :UNIQUE WELL ID
DEPTHMD                 .m           3858.0                                 :MEASURED DEPTH
DEPTHTVD                .m           3096.5                                 :TRUE VERTICAL DEPTH


~CURVE INFORMATION
#MNEM                   .UNIT        API CODES                               DESCRIPTION
#________________________________________________________________________________________
TIME                    .s                                                  :01 TIME
DD_PRESS                .bar                                                :02 DRAW DOWN PRESSURE
DD_VOLUME               .cm3                                                :03 INCREMENTAL DRAW DOWN VOLUME
TEMP                    .degC                                               :04 TRANSDUCER TEMPERATURE
DD_PRESS_MOD_1000       .bar                                                :05 DRAW DOWN PRESSURE MOD 1000
DD_PRESS_MOD_100        .bar                                                :06 DRAW DOWN PRESSURE MOD 100
DD_PRESS_MOD_10         .bar                                                :07 DRAW DOWN PRESSURE MOD 10
DD_PRESS_MOD_1          .bar                                                :08 DRAW DOWN PRESSURE MOD 1
DD_PRESS_MOD_01         .bar                                                :09 DRAW DOWN PRESSURE MOD 01
DD_PRESS_MOD_001        .bar                                                :10 DRAW DOWN PRESSURE MOD 001
DD_PRESS_MOD_0001       .bar                                                :11 DRAW DOWN PRESSURE MOD 0001


~PARAMETER INFORMATION
#MNEM                   .UNIT        VALUE                                   DESCRIPTION
#________________________________________________________________________________________
TOOLFACE                .deg         88.6                                   :01 TOOLFACE
PUMP_CAPACITY           .bar         400                                    :02 NOMINAL DRAW DOWN PUMP CAPACITY
PUMP_LIMIT              .bar         240                                    :03 DOWNLINK PUMP LIMIT
TIME_LIMIT              .min         10                                     :04 DOWNLINK MAX TIME
TEST_TYPE               .            HIGH MOBILITY                          :05 DOWNLINK
DD_PIST_A               .cm2         3.1416                                 :06 DRAW DOWN PISTON AREA
V_SYS                   .cm3         131.0000                               :07 SYSTEM VOLUME
PROBE_ID                .cm          1.2700                                 :08 TTK PROBE ID
G0                      .            4.6700                                 :09 GEOMETRY FACTOR


~A                  TIME     DD_PRESS                              DD_VOLUME               TEMP                                   DD_PRESS_MOD_1000       DD_PRESS_MOD_100        DD_PRESS_MOD_10         DD_PRESS_MOD_1        DD_PRESS_MOD_01       DD_PRESS_MOD_001      DD_PRESS_MOD_0001
# ...
                   30.10    342.27229                                4.65143             90.133                                        3.42272e+002           4.22723e+001           2.27229e+000           2.72293e-001           7.22935e-002           2.29349e-003           2.93485e-004
                   30.20    342.22516                                4.74852             90.133                                        3.42225e+002           4.22252e+001           2.22516e+000           2.25164e-001           2.51639e-002           5.16386e-003           1.63861e-004
                   30.30    342.18268                                4.84579             90.133                                        3.42183e+002           4.21827e+001           2.18268e+000           1.82683e-001           8.26832e-002           2.68318e-003           6.83184e-004
                   30.40    342.14010                                4.94352             90.133                                        3.42140e+002           4.21401e+001           2.14010e+000           1.40105e-001           4.01048e-002           1.04787e-004           1.04787e-004
                   30.50    342.09461                                5.04174             90.133                                        3.42095e+002           4.20946e+001           2.09461e+000           9.46090e-002           9.46090e-002           4.60903e-003           6.09030e-004
                   30.60    342.05199                                5.14021             90.133                                        3.42052e+002           4.20520e+001           2.05199e+000           5.19945e-002           5.19945e-002           1.99449e-003           9.94485e-004
                   30.70    342.01951                                5.23898             90.133                                        3.42020e+002           4.20195e+001           2.01951e+000           1.95103e-002           1.95103e-002           9.51031e-003           5.10306e-004
                   30.80    341.99370                                5.33796             90.130                                        3.41994e+002           4.19937e+001           1.99370e+000           9.93705e-001           9.37050e-002           3.70499e-003           7.04988e-004
                   30.90    341.97845                                5.43719             90.127                                        3.41978e+002           4.19785e+001           1.97845e+000           9.78451e-001           7.84509e-002           8.45092e-003           4.50921e-004
                   31.00    341.96486                                5.53663             90.125                                        3.41965e+002           4.19649e+001           1.96486e+000           9.64855e-001           6.48550e-002           4.85502e-003           8.55015e-004
                   31.10    341.94279                                5.63615             90.125                                        3.41943e+002           4.19428e+001           1.94279e+000           9.42788e-001           4.27879e-002           2.78794e-003           7.87936e-004
                   31.20    341.91893                                5.73575             90.125                                        3.41919e+002           4.19189e+001           1.91893e+000           9.18932e-001           1.89317e-002           8.93175e-003           9.31749e-004
                   31.30    341.89795                                5.83544             90.125                                        3.41898e+002           4.18979e+001           1.89795e+000           8.97947e-001           9.79469e-002           7.94690e-003           9.46901e-004
                   31.40    341.88132                                5.93512             90.125                                        3.41881e+002           4.18813e+001           1.88132e+000           8.81318e-001           8.13181e-002           1.31813e-003           3.18129e-004
                   31.50    341.87498                                6.03470             90.125                                        3.41875e+002           4.18750e+001           1.87498e+000           8.74980e-001           7.49797e-002           4.97973e-003           9.79726e-004
                   31.60    341.88285                                6.13409             90.125                                        3.41883e+002           4.18829e+001           1.88285e+000           8.82855e-001           8.28545e-002           2.85451e-003           8.54512e-004
                   31.70    341.89610                                6.23342             90.125                                        3.41896e+002           4.18961e+001           1.89610e+000           8.96097e-001           9.60974e-002           6.09737e-003           9.73732e-005
                   31.80    341.90381                                6.33275             90.125                                        3.41904e+002           4.19038e+001           1.90381e+000           9.03807e-001           3.80724e-003           3.80724e-003           8.07242e-004
                   31.90    341.91691                                6.43185             90.125                                        3.41917e+002           4.19169e+001           1.91691e+000           9.16908e-001           1.69079e-002           6.90786e-003           9.07863e-004
                   32.00    341.93711                                6.53063             90.125                                        3.41937e+002           4.19371e+001           1.93711e+000           9.37109e-001           3.71094e-002           7.10937e-003           1.09368e-004
                   32.10    341.97021                                6.62909             90.125                                        3.41970e+002           4.19702e+001           1.97021e+000           9.70214e-001           7.02142e-002           2.14242e-004           2.14242e-004
                   32.20    341.99946                                6.72727             90.125                                        3.41999e+002           4.19995e+001           1.99946e+000           9.99458e-001           9.94583e-002           9.45834e-003           4.58344e-004
                   32.30    342.02290                                6.82527             90.123                                        3.42023e+002           4.20229e+001           2.02290e+000           2.29022e-002           2.29022e-002           2.90222e-003           9.02224e-004
                   32.40    342.05494                                6.92292             90.119                                        3.42055e+002           4.20549e+001           2.05494e+000           5.49364e-002           5.49364e-002           4.93639e-003           9.36389e-004
                   32.50    342.10056                                7.02001             90.117                                        3.42101e+002           4.21006e+001           2.10056e+000           1.00565e-001           5.64773e-004           5.64773e-004           5.64773e-004
                   32.60    342.15371                                7.11649             90.117                                        3.42154e+002           4.21537e+001           2.15371e+000           1.53711e-001           5.37106e-002           3.71063e-003           7.10626e-004
                   32.70    342.20639                                7.21243             90.117                                        3.42206e+002           4.22064e+001           2.20639e+000           2.06392e-001           6.39157e-003           6.39157e-003           3.91566e-004
                   32.80    342.26174                                7.30796             90.117                                        3.42262e+002           4.22617e+001           2.26174e+000           2.61745e-001           6.17447e-002           1.74469e-003           7.44688e-004
