~VERSION INFORMATION
VERS                    .            2.0                                    :CWLS LOG ASCII STANDARD
WRAP                    .            NO                                     :ONE LINE PER TIME STEP


~WELL INFORMATION
#MNEM                   .UNIT        DATA                                    DESCRIPTION
#________________________________________________________________________________________
STRTTIME                .HH/MM/SS    01:04:55                               :START TIME
STOPTIME                .HH/MM/SS    01:07:44                               :STOP TIME
STRT                    .s           2.10                                   :START DATA
STOP                    .s           167.40                                 :STOP DATA
STEP                    .s           0.10                                   :MEASUREMENT TIME INTERVAL
NULL                    .            -999.25                                :NULL VALUE
COMP                    .            Statoil ASA                            :COMPANY
FLD                     .            Volve                                  :FIELD
WELL                    .            15/9-F-1 C                             :WELL
RUN                     .            4                                      :RUN
LOC                     .                                                   :LOCATION
PROV                    .            na                                     :PROVINCE
SRVC                    .            Baker Hughes INTEQ                     :SERVICE COMPANY
DATE                    .YY/MM/DD    14/03/15                               :LOG DATE
UWI                     .                                                   :UNIQUE WELL ID
DEPTHMD                 .m           3720.1                                 :MEASURED DEPTH
DEPTHTVD                .m           3050.6                                 :TRUE VERTICAL DEPTH


~CURVE INFORMATION
#MNEM                   .UNIT        API CODES                               DESCRIPTION
#________________________________________________________________________________________
TIME                    .s                                                  :01 TIME
DD_PRESS                .bar                                                :02 DRAW DOWN PRESSURE
DD_VOLUME               .cm3                                                :03 INCREMENTAL DRAW DOWN VOLUME
TEMP                    .degC                                               :04 TRANSDUCER TEMPERATURE
DD_PRESS_MOD_1000       .bar                                                :05 DRAW DOWN PRESSURE MOD 1000
DD_PRESS_MOD_100        .bar                                                :06 DRAW DOWN PRESSURE MOD 100
DD_PRESS_MOD_10         .bar                                                :07 DRAW DOWN PRESSURE MOD 10
DD_PRESS_MOD_1          .bar                                                :08 DRAW DOWN PRESSURE MOD 1
DD_PRESS_MOD_01         .bar                                                :09 DRAW DOWN PRESSURE MOD 01
DD_PRESS_MOD_001        .bar                                                :10 DRAW DOWN PRESSURE MOD 001
DD_PRESS_MOD_0001       .bar                                                :11 DRAW DOWN PRESSURE MOD 0001


~PARAMETER INFORMATION
#MNEM                   .UNIT        VALUE                                   DESCRIPTION
#________________________________________________________________________________________
TOOLFACE                .deg         134.6                                  :01 TOOLFACE
PUMP_CAPACITY           .bar         400                                    :02 NOMINAL DRAW DOWN PUMP CAPACITY
PUMP_LIMIT              .bar         240                                    :03 DOWNLINK PUMP LIMIT
TIME_LIMIT              .min         10                                     :04 DOWNLINK MAX TIME
TEST_TYPE               .            REPEAT                                 :05 DOWNLINK
TEST_TYPE               .            HIGH MOBILITY                          :06 DOWNLINK
DD_PIST_A               .cm2         3.1416                                 :07 DRAW DOWN PISTON AREA
V_SYS                   .cm3         131.0000                               :08 SYSTEM VOLUME
PROBE_ID                .cm          1.2700                                 :09 TTK PROBE ID
G0                      .            4.6700                                 :10 GEOMETRY FACTOR


~A                  TIME     DD_PRESS                              DD_VOLUME               TEMP                                   DD_PRESS_MOD_1000       DD_PRESS_MOD_100        DD_PRESS_MOD_10         DD_PRESS_MOD_1        DD_PRESS_MOD_01       DD_PRESS_MOD_001      DD_PRESS_MOD_0001
# ...
                  111.30    345.11454                               25.13286             87.234                                        3.45115e+002           4.51145e+001           5.11454e+000           1.14540e-001           1.45404e-002           4.54037e-003           5.40367e-004
                  111.40    345.10868                               25.42784             87.234                                        3.45109e+002           4.51087e+001           5.10868e+000           1.08684e-001           8.68368e-003           8.68368e-003           6.83675e-004
                  111.50    345.08976                               25.72280             87.234                                        3.45090e+002           4.50898e+001           5.08976e+000           8.97630e-002           8.97630e-002           9.76296e-003           7.62964e-004
                  111.60    345.06634                               26.01783             87.234                                        3.45066e+002           4.50663e+001           5.06634e+000           6.63438e-002           6.63438e-002           6.34381e-003           3.43812e-004
                  111.70    345.05441                               26.31278             87.234                                        3.45054e+002           4.50544e+001           5.05441e+000           5.44063e-002           5.44063e-002           4.40625e-003           4.06253e-004
                  111.80    345.04212                               26.60767             87.234                                        3.45042e+002           4.50421e+001           5.04212e+000           4.21174e-002           4.21174e-002           2.11744e-003           1.17437e-004
                  111.90    345.03372                               26.90268             87.234                                        3.45034e+002           4.50337e+001           5.03372e+000           3.37233e-002           3.37233e-002           3.72325e-003           7.23250e-004
                  112.00    345.05351                               27.19767             87.234                                        3.45054e+002           4.50535e+001           5.05351e+000           5.35146e-002           5.35146e-002           3.51458e-003           5.14576e-004
                  112.10    345.07533                               27.49260             87.234                                        3.45075e+002           4.50753e+001           5.07533e+000           7.53269e-002           7.53269e-002           5.32689e-003           3.26891e-004
                  112.20    345.06150                               27.78750             87.234                                        3.45061e+002           4.50615e+001           5.06150e+000           6.14960e-002           6.14960e-002           1.49597e-003           4.95969e-004
                  112.30    345.03863                               28.08244             87.234                                        3.45039e+002           4.50386e+001           5.03863e+000           3.86310e-002           3.86310e-002           8.63098e-003           6.30983e-004
                  112.40    345.03494                               28.37742             87.234                                        3.45035e+002           4.50349e+001           5.03494e+000           3.49363e-002           3.49363e-002           4.93633e-003           9.36329e-004
                  112.50    345.03467                               28.67235             87.234                                        3.45035e+002           4.50347e+001           5.03467e+000           3.46675e-002           3.46675e-002           4.66753e-003           6.67526e-004
                  112.60    345.03387                               28.96725             87.234                                        3.45034e+002           4.50339e+001           5.03387e+000           3.38663e-002           3.38663e-002           3.86625e-003           8.66251e-004
                  112.70    345.68149                               29.23550             87.234                                        3.45681e+002           4.56815e+001           5.68149e+000           6.81493e-001           8.14929e-002           1.49286e-003           4.92859e-004
                  112.80    347.09928                               29.39355             87.234                                        3.47099e+002           4.70993e+001           7.09928e+000           9.92846e-002           9.92846e-002           9.28458e-003           2.84579e-004
                  112.90    348.17449                               29.43320             87.234                                        3.48174e+002           4.81745e+001           8.17449e+000           1.74487e-001           7.44874e-002           4.48736e-003           4.87363e-004
                  113.00    348.26057                               29.43330             87.234                                        3.48261e+002           4.82606e+001           8.26057e+000           2.60570e-001           6.05702e-002           5.70178e-004           5.70178e-004
                  113.10    348.25975                               29.43330             87.234                                        3.48260e+002           4.82597e+001           8.25975e+000           2.59749e-001           5.97489e-002           9.74890e-003           7.48902e-004
                  113.20    348.25990                               29.43330             87.234                                        3.48260e+002           4.82599e+001           8.25990e+000           2.59901e-001           5.99013e-002           9.90128e-003           9.01282e-004
                  113.30    348.26403                               29.43330             87.234                                        3.48264e+002           4.82640e+001           8.26403e+000           2.64035e-001           6.40348e-002           4.03484e-003           3.48377e-005
                  113.40    348.26466                               29.43330             87.234                                        3.48265e+002           4.82647e+001           8.26466e+000           2.64662e-001           6.46619e-002           4.66194e-003           6.61942e-004
                  113.50    348.26121                               29.43330             87.234                                        3.48261e+002           4.82612e+001           8.26121e+000           2.61211e-001           6.12111e-002           1.21105e-003           2.11054e-004
                  113.60    348.26051                               29.43330             87.234                                        3.48261e+002           4.82605e+001           8.26051e+000           2.60506e-001           6.05063e-002           5.06259e-004           5.06259e-004
                  113.70    348.26219                               29.43330             87.234                                        3.48262e+002           4.82622e+001           8.26219e+000           2.62186e-001           6.21857e-002           2.18571e-003           1.85705e-004
                  113.80    348.26534                               29.43330             87.234                                        3.48265e+002           4.82653e+001           8.26534e+000           2.65344e-001           6.53443e-002           5.34434e-003           3.44341e-004
                  113.90    348.26819                               29.43330             87.234                                        3.48268e+002           4.82682e+001           8.26819e+000           2.68191e-001           6.81912e-002           8.19121e-003           1.91207e-004
                  114.00    348.26660                               29.43330             87.234                                        3.48267e+002           4.82666e+001           8.26660e+000           2.66600e-001           6.66000e-002           6.60001e-003           6.00011e-004
