~VERSION INFORMATION
VERS                    .            2.0                                    :CWLS LOG ASCII STANDARD
WRAP                    .            NO                                     :ONE LINE PER TIME STEP


~WELL INFORMATION
#MNEM                   .UNIT        DATA                                    DESCRIPTION
#________________________________________________________________________________________
STRTTIME                .HH/MM/SS    09:08:53                               :START TIME
STOPTIME                .HH/MM/SS    09:11:57                               :STOP TIME
STRT                    .s           2.10                                   :START DATA
STOP                    .s           182.80                                 :STOP DATA
STEP                    .s           0.10                                   :MEASUREMENT TIME INTERVAL
NULL                    .            -999.25                                :NULL VALUE
COMP                    .            Statoil ASA                            :COMPANY
FLD                     .            Volve                                  :FIELD
WELL                    .            15/9-F-11 A                            :WELL
RUN                     .            8                                      :RUN
LOC                     .            Maersk Inspirer                        :LOCATION
PROV                    .            na                                     :PROVINCE
SRVC                    .            Baker Hughes INTEQ                     :SERVICE COMPANY
DATE                    .YY/MM/DD    13/05/21                               :LOG DATE
UWI                     .                                                   :UNIQUE WELL ID
DEPTHMD                 .m           3671.1                                 :MEASURED DEPTH
DEPTHTVD                .m           3056.7                                 :TRUE VERTICAL DEPTH


~CURVE INFORMATION
#MNEM                   .UNIT        API CODES                               DESCRIPTION
#________________________________________________________________________________________
TIME                    .s                                                  :01 TIME
DD_PRESS                .bar                                                :02 DRAW DOWN PRESSURE
DD_VOLUME               .cm3                                                :03 INCREMENTAL DRAW DOWN VOLUME
TEMP                    .degC                                               :04 TRANSDUCER TEMPERATURE
DD_PRESS_MOD_1000       .bar                                                :05 DRAW DOWN PRESSURE MOD 1000
DD_PRESS_MOD_100        .bar                                                :06 DRAW DOWN PRESSURE MOD 100
DD_PRESS_MOD_10         .bar                                                :07 DRAW DOWN PRESSURE MOD 10
DD_PRESS_MOD_1          .bar                                                :08 DRAW DOWN PRESSURE MOD 1
DD_PRESS_MOD_01         .bar                                                :09 DRAW DOWN PRESSURE MOD 01
DD_PRESS_MOD_001        .bar                                                :10 DRAW DOWN PRESSURE MOD 001
DD_PRESS_MOD_0001       .bar                                                :11 DRAW DOWN PRESSURE MOD 0001


~PARAMETER INFORMATION
#MNEM                   .UNIT        VALUE                                   DESCRIPTION
#________________________________________________________________________________________
TOOLFACE                .deg         -56.2                                  :01 TOOLFACE
PUMP_CAPACITY           .bar         400                                    :02 NOMINAL DRAW DOWN PUMP CAPACITY
PUMP_LIMIT              .bar         240                                    :03 DOWNLINK PUMP LIMIT
TIME_LIMIT              .min         10                                     :04 DOWNLINK MAX TIME
TEST_TYPE               .            REPEAT                                 :05 DOWNLINK
TEST_TYPE               .            HIGH MOBILITY                          :06 DOWNLINK
DD_PIST_A               .cm2         3.1416                                 :07 DRAW DOWN PISTON AREA
V_SYS                   .cm3         131.0000                               :08 SYSTEM VOLUME
PROBE_ID                .cm          1.2700                                 :09 TTK PROBE ID
G0                      .            4.6700                                 :10 GEOMETRY FACTOR


~A                  TIME     DD_PRESS                              DD_VOLUME               TEMP                                   DD_PRESS_MOD_1000       DD_PRESS_MOD_100        DD_PRESS_MOD_10         DD_PRESS_MOD_1        DD_PRESS_MOD_01       DD_PRESS_MOD_001      DD_PRESS_MOD_0001
# ...
                  144.90    345.04450                               26.33602             82.414                                        3.45044e+002           4.50445e+001           5.04450e+000           4.44975e-002           4.44975e-002           4.49750e-003           4.97498e-004
                  145.00    345.02643                               26.33602             82.414                                        3.45026e+002           4.50264e+001           5.02643e+000           2.64296e-002           2.64296e-002           6.42961e-003           4.29612e-004
                  145.10    345.02464                               26.33602             82.414                                        3.45025e+002           4.50246e+001           5.02464e+000           2.46373e-002           2.46373e-002           4.63732e-003           6.37323e-004
                  145.20    345.03505                               26.33602             82.414                                        3.45035e+002           4.50351e+001           5.03505e+000           3.50529e-002           3.50529e-002           5.05293e-003           5.29263e-005
                  145.30    345.04508                               26.33602             82.414                                        3.45045e+002           4.50451e+001           5.04508e+000           4.50834e-002           4.50834e-002           5.08336e-003           8.33580e-005
                  145.40    345.04899                               26.33602             82.414                                        3.45049e+002           4.50490e+001           5.04899e+000           4.89922e-002           4.89922e-002           8.99216e-003           9.92163e-004
                  145.50    345.04770                               26.33602             82.414                                        3.45048e+002           4.50477e+001           5.04770e+000           4.76992e-002           4.76992e-002           7.69915e-003           6.99154e-004
                  145.60    345.03486                               26.33602             82.414                                        3.45035e+002           4.50349e+001           5.03486e+000           3.48561e-002           3.48561e-002           4.85606e-003           8.56055e-004
                  145.70    345.02745                               26.33602             82.414                                        3.45027e+002           4.50275e+001           5.02745e+000           2.74530e-002           2.74530e-002           7.45304e-003           4.53036e-004
                  145.80    345.03800                               26.33602             82.414                                        3.45038e+002           4.50380e+001           5.03800e+000           3.80046e-002           3.80046e-002           8.00459e-003           4.59226e-006
                  145.90    345.04524                               26.33602             82.414                                        3.45045e+002           4.50452e+001           5.04524e+000           4.52421e-002           4.52421e-002           5.24214e-003           2.42137e-004
                  146.00    345.03365                               26.33602             82.414                                        3.45034e+002           4.50336e+001           5.03365e+000           3.36478e-002           3.36478e-002           3.64775e-003           6.47754e-004
                  146.10    345.03137                               26.33602             82.414                                        3.45031e+002           4.50314e+001           5.03137e+000           3.13715e-002           3.13715e-002           1.37147e-003           3.71469e-004
                  146.20    345.04340                               26.33602             82.414                                        3.45043e+002           4.50434e+001           5.04340e+000           4.33989e-002           4.33989e-002           3.39892e-003           3.98924e-004
                  146.30    345.04514                               26.33602             82.414                                        3.45045e+002           4.50451e+001           5.04514e+000           4.51430e-002           4.51430e-002           5.14295e-003           1.42953e-004
                  146.40    345.03355                               26.33602             82.414                                        3.45034e+002           4.50335e+001           5.03355e+000           3.35461e-002           3.35461e-002           3.54609e-003           5.46092e-004
                  146.50    345.03378                               26.33602             82.414                                        3.45034e+002           4.50338e+001           5.03378e+000           3.37836e-002           3.37836e-002           3.78360e-003           7.83600e-004
                  146.60    345.04631                               26.33602             82.414                                        3.45046e+002           4.50463e+001           5.04631e+000           4.63097e-002           4.63097e-002           6.30969e-003           3.09688e-004
                  146.70    345.05071                               26.33602             82.414                                        3.45051e+002           4.50507e+001           5.05071e+000           5.07092e-002           5.07092e-002           7.09235e-004           7.09235e-004
                  146.80    345.04451                               26.33602             82.414                                        3.45045e+002           4.50445e+001           5.04451e+000           4.45139e-002           4.45139e-002           4.51390e-003           5.13897e-004
                  146.90    345.04192                               26.33602             82.414                                        3.45042e+002           4.50419e+001           5.04192e+000           4.19157e-002           4.19157e-002           1.91575e-003           9.15746e-004
                  147.00    345.04614                               26.33602             82.414                                        3.45046e+002           4.50461e+001           5.04614e+000           4.61424e-002           4.61424e-002           6.14239e-003           1.42390e-004
                  147.10    345.04980                               26.33602             82.414                                        3.45050e+002           4.50498e+001           5.04980e+000           4.97998e-002           4.97998e-002           9.79975e-003           7.99752e-004
                  147.20    345.04602                               26.33602             82.414                                        3.45046e+002           4.50460e+001           5.04602e+000           4.60204e-002           4.60204e-002           6.02042e-003           2.04153e-005
                  147.30    345.04231                               26.33602             82.414                                        3.45042e+002           4.50423e+001           5.04231e+000           4.23065e-002           4.23065e-002           2.30647e-003           3.06475e-004
                  147.40    345.04807                               26.33602             82.414                                        3.45048e+002           4.50481e+001           5.04807e+000           4.80738e-002           4.80738e-002           8.07383e-003           7.38259e-005
                  147.50    345.04722                               26.33602             82.414                                        3.45047e+002           4.50472e+001           5.04722e+000           4.72205e-002           4.72205e-002           7.22052e-003           2.20524e-004
                  147.60    345.03550                               26.33602             82.414                                        3.45035e+002           4.50355e+001           5.03550e+000           3.54969e-002           3.54969e-002           5.49695e-003           4.96949e-004
