~VERSION INFORMATION
VERS                    .            2.0                                    :CWLS LOG ASCII STANDARD
WRAP                    .            NO                                     :ONE LINE PER TIME STEP


~WELL INFORMATION
#MNEM                   .UNIT        DATA                                    DESCRIPTION
#________________________________________________________________________________________
STRTTIME                .HH/MM/SS    22:05:32                               :START TIME
STOPTIME                .HH/MM/SS    22:09:32                               :STOP TIME
STRT                    .s           2.10                                   :START DATA
STOP                    .s           238.90                                 :STOP DATA
STEP                    .s           0.10                                   :MEASUREMENT TIME INTERVAL
NULL                    .            -999.25                                :NULL VALUE
COMP                    .            Statoil                                :COMPANY
FLD                     .            Volve                                  :FIELD
WELL                    .            15/9-F-11 T2                           :WELL
RUN                     .            7                                      :RUN
LOC                     .            Maersk Inspirer                        :LOCATION
PROV                    .            na                                     :PROVINCE
SRVC                    .            Baker Hughes INTEQ                     :SERVICE COMPANY
DATE                    .YY/MM/DD    13/05/04                               :LOG DATE
UWI                     .                                                   :UNIQUE WELL ID
DEPTHMD                 .m           4490.1                                 :MEASURED DEPTH
DEPTHTVD                .m           3328.5                                 :TRUE VERTICAL DEPTH


~CURVE INFORMATION
#MNEM                   .UNIT        API CODES                               DESCRIPTION
#________________________________________________________________________________________
TIME                    .s                                                  :01 TIME
DD_PRESS                .bar                                                :02 DRAW DOWN PRESSURE
DD_VOLUME               .cm3                                                :03 INCREMENTAL DRAW DOWN VOLUME
TEMP                    .degC                                               :04 TRANSDUCER TEMPERATURE
DD_PRESS_MOD_1000       .bar                                                :05 DRAW DOWN PRESSURE MOD 1000
DD_PRESS_MOD_100        .bar                                                :06 DRAW DOWN PRESSURE MOD 100
DD_PRESS_MOD_10         .bar                                                :07 DRAW DOWN PRESSURE MOD 10
DD_PRESS_MOD_1          .bar                                                :08 DRAW DOWN PRESSURE MOD 1
DD_PRESS_MOD_01         .bar                                                :09 DRAW DOWN PRESSURE MOD 01
DD_PRESS_MOD_001        .bar                                                :10 DRAW DOWN PRESSURE MOD 001
DD_PRESS_MOD_0001       .bar                                                :11 DRAW DOWN PRESSURE MOD 0001


~PARAMETER INFORMATION
#MNEM                   .UNIT        VALUE                                   DESCRIPTION
#________________________________________________________________________________________
TOOLFACE                .deg         na                                     :01 TOOLFACE
PUMP_CAPACITY           .bar         400                                    :02 NOMINAL DRAW DOWN PUMP CAPACITY
PUMP_LIMIT              .bar         240                                    :03 DOWNLINK PUMP LIMIT
TIME_LIMIT              .min         10                                     :04 DOWNLINK MAX TIME
TEST_TYPE               .            HIGH MOBILITY                          :05 DOWNLINK
DD_PIST_A               .cm2         3.1416                                 :06 DRAW DOWN PISTON AREA
V_SYS                   .cm3         131.0000                               :07 SYSTEM VOLUME
PROBE_ID                .cm          1.2700                                 :08 TTK PROBE ID
G0                      .            4.6700                                 :09 GEOMETRY FACTOR


~A                  TIME     DD_PRESS                              DD_VOLUME               TEMP                                   DD_PRESS_MOD_1000       DD_PRESS_MOD_100        DD_PRESS_MOD_10         DD_PRESS_MOD_1        DD_PRESS_MOD_01       DD_PRESS_MOD_001      DD_PRESS_MOD_0001
# ...
                   80.50    367.53002                               11.09486             97.258                                        3.67530e+002           6.75300e+001           7.53002e+000           5.30015e-001           3.00154e-002           1.53923e-005           1.53923e-005
                   80.60    367.53702                               11.09486             97.258                                        3.67537e+002           6.75370e+001           7.53702e+000           5.37023e-001           3.70233e-002           7.02330e-003           2.33013e-005
                   80.70    367.52410                               11.09486             97.258                                        3.67524e+002           6.75241e+001           7.52410e+000           5.24101e-001           2.41005e-002           4.10053e-003           1.00529e-004
                   80.80    367.51086                               11.09486             97.258                                        3.67511e+002           6.75109e+001           7.51086e+000           5.10863e-001           1.08626e-002           8.62575e-004           8.62575e-004
                   80.90    367.51638                               11.09486             97.258                                        3.67516e+002           6.75164e+001           7.51638e+000           5.16377e-001           1.63775e-002           6.37746e-003           3.77463e-004
                   81.00    367.50455                               11.09486             97.258                                        3.67505e+002           6.75045e+001           7.50455e+000           5.04546e-001           4.54570e-003           4.54570e-003           5.45704e-004
                   81.10    367.48794                               11.09486             97.258                                        3.67488e+002           6.74879e+001           7.48794e+000           4.87938e-001           8.79383e-002           7.93829e-003           9.38287e-004
                   81.20    367.49793                               11.09486             97.258                                        3.67498e+002           6.74979e+001           7.49793e+000           4.97929e-001           9.79286e-002           7.92858e-003           9.28582e-004
                   81.30    367.51513                               11.09486             97.258                                        3.67515e+002           6.75151e+001           7.51513e+000           5.15129e-001           1.51289e-002           5.12891e-003           1.28910e-004
                   81.40    367.49410                               11.09486             97.258                                        3.67494e+002           6.74941e+001           7.49410e+000           4.94097e-001           9.40969e-002           4.09687e-003           9.68661e-005
                   81.50    367.44479                               11.09486             97.258                                        3.67445e+002           6.74448e+001           7.44479e+000           4.44791e-001           4.47915e-002           4.79149e-003           7.91492e-004
                   81.60    367.44364                               11.09486             97.258                                        3.67444e+002           6.74436e+001           7.44364e+000           4.43635e-001           4.36354e-002           3.63541e-003           6.35412e-004
                   81.70    367.48800                               11.09486             97.258                                        3.67488e+002           6.74880e+001           7.48800e+000           4.87997e-001           8.79972e-002           7.99718e-003           9.97183e-004
                   81.80    367.51161                               11.09486             97.258                                        3.67512e+002           6.75116e+001           7.51161e+000           5.11613e-001           1.16128e-002           1.61283e-003           6.12830e-004
                   81.90    367.50353                               11.09486             97.258                                        3.67504e+002           6.75035e+001           7.50353e+000           5.03534e-001           3.53374e-003           3.53374e-003           5.33743e-004
                   82.00    367.49264                               11.09486             97.258                                        3.67493e+002           6.74926e+001           7.49264e+000           4.92638e-001           9.26384e-002           2.63843e-003           6.38432e-004
                   82.10    367.50226                               11.09486             97.258                                        3.67502e+002           6.75023e+001           7.50226e+000           5.02258e-001           2.25825e-003           2.25825e-003           2.58255e-004
                   82.20    367.50802                               11.09486             97.258                                        3.67508e+002           6.75080e+001           7.50802e+000           5.08024e-001           8.02363e-003           8.02363e-003           2.36315e-005
                   82.30    367.48221                               11.09486             97.258                                        3.67482e+002           6.74822e+001           7.48221e+000           4.82209e-001           8.22089e-002           2.20894e-003           2.08937e-004
                   82.40    367.46886                               11.09486             97.258                                        3.67469e+002           6.74689e+001           7.46886e+000           4.68859e-001           6.88589e-002           8.85890e-003           8.58898e-004
                   82.50    367.50638                               11.09486             97.258                                        3.67506e+002           6.75064e+001           7.50638e+000           5.06377e-001           6.37728e-003           6.37728e-003           3.77279e-004
                   82.60    367.52941                               11.09486             97.258                                        3.67529e+002           6.75294e+001           7.52941e+000           5.29405e-001           2.94055e-002           9.40545e-003           4.05453e-004
                   82.70    367.52013                               11.09486             97.258                                        3.67520e+002           6.75201e+001           7.52013e+000           5.20134e-001           2.01338e-002           1.33820e-004           1.33820e-004
                   82.80    367.49965                               11.09486             97.258                                        3.67500e+002           6.74996e+001           7.49965e+000           4.99647e-001           9.96466e-002           9.64658e-003           6.46580e-004
                   82.90    367.51565                               11.09486             97.258                                        3.67516e+002           6.75157e+001           7.51565e+000           5.15651e-001           1.56507e-002           5.65065e-003           6.50654e-004
                   83.00    367.52468                               11.09486             97.258                                        3.67525e+002           6.75247e+001           7.52468e+000           5.24683e-001           2.46828e-002           4.68277e-003           6.82768e-004
                   83.10    367.51031                               11.09486             97.258                                        3.67510e+002           6.75103e+001           7.51031e+000           5.10309e-001           1.03092e-002           3.09154e-004           3.09154e-004
                   83.20    367.50579                               11.09486             97.258                                        3.67506e+002           6.75058e+001           7.50579e+000           5.05792e-001           5.79235e-003           5.79235e-003           7.92352e-004
