~VERSION INFORMATION
VERS                    .            2.0                                    :CWLS LOG ASCII STANDARD
WRAP                    .            NO                                     :ONE LINE PER TIME STEP


~WELL INFORMATION
#MNEM                   .UNIT        DATA                                    DESCRIPTION
#________________________________________________________________________________________
STRTTIME                .HH/MM/SS    02:42:03                               :START TIME
STOPTIME                .HH/MM/SS    02:44:56                               :STOP TIME
STRT                    .s           2.10                                   :START DATA
STOP                    .s           171.40                                 :STOP DATA
STEP                    .s           0.10                                   :MEASUREMENT TIME INTERVAL
NULL                    .            -999.25                                :NULL VALUE
COMP                    .            Statoil ASA                            :COMPANY
FLD                     .            Volve                                  :FIELD
WELL                    .            15/9-F-1 C                             :WELL
RUN                     .            4                                      :RUN
LOC                     .                                                   :LOCATION
PROV                    .            na                                     :PROVINCE
SRVC                    .            Baker Hughes INTEQ                     :SERVICE COMPANY
DATE                    .YY/MM/DD    14/03/15                               :LOG DATE
UWI                     .                                                   :UNIQUE WELL ID
DEPTHMD                 .m           3551.1                                 :MEASURED DEPTH
DEPTHTVD                .m           2992.9                                 :TRUE VERTICAL DEPTH


~CURVE INFORMATION
#MNEM                   .UNIT        API CODES                               DESCRIPTION
#________________________________________________________________________________________
TIME                    .s                                                  :01 TIME
DD_PRESS                .bar                                                :02 DRAW DOWN PRESSURE
DD_VOLUME               .cm3                                                :03 INCREMENTAL DRAW DOWN VOLUME
TEMP                    .degC                                               :04 TRANSDUCER TEMPERATURE
DD_PRESS_MOD_1000       .bar                                                :05 DRAW DOWN PRESSURE MOD 1000
DD_PRESS_MOD_100        .bar                                                :06 DRAW DOWN PRESSURE MOD 100
DD_PRESS_MOD_10         .bar                                                :07 DRAW DOWN PRESSURE MOD 10
DD_PRESS_MOD_1          .bar                                                :08 DRAW DOWN PRESSURE MOD 1
DD_PRESS_MOD_01         .bar                                                :09 DRAW DOWN PRESSURE MOD 01
DD_PRESS_MOD_001        .bar                                                :10 DRAW DOWN PRESSURE MOD 001
DD_PRESS_MOD_0001       .bar                                                :11 DRAW DOWN PRESSURE MOD 0001


~PARAMETER INFORMATION
#MNEM                   .UNIT        VALUE                                   DESCRIPTION
#________________________________________________________________________________________
TOOLFACE                .deg         84.6                                   :01 TOOLFACE
PUMP_CAPACITY           .bar         400                                    :02 NOMINAL DRAW DOWN PUMP CAPACITY
PUMP_LIMIT              .bar         240                                    :03 DOWNLINK PUMP LIMIT
TIME_LIMIT              .min         10                                     :04 DOWNLINK MAX TIME
TEST_TYPE               .            REPEAT                                 :05 DOWNLINK
TEST_TYPE               .            HIGH MOBILITY                          :06 DOWNLINK
DD_PIST_A               .cm2         3.1416                                 :07 DRAW DOWN PISTON AREA
V_SYS                   .cm3         131.0000                               :08 SYSTEM VOLUME
PROBE_ID                .cm          1.2700                                 :09 TTK PROBE ID
G0                      .            4.6700                                 :10 GEOMETRY FACTOR


~A                  TIME     DD_PRESS                              DD_VOLUME               TEMP                                   DD_PRESS_MOD_1000       DD_PRESS_MOD_100        DD_PRESS_MOD_10         DD_PRESS_MOD_1        DD_PRESS_MOD_01       DD_PRESS_MOD_001      DD_PRESS_MOD_0001
# ...
                  102.90    341.50817                               19.84156             85.133                                        3.41508e+002           4.15082e+001           1.50817e+000           5.08167e-001           8.16707e-003           8.16707e-003           1.67067e-004
                  103.00    341.50861                               19.84156             85.133                                        3.41509e+002           4.15086e+001           1.50861e+000           5.08615e-001           8.61462e-003           8.61462e-003           6.14621e-004
                  103.10    341.50568                               19.84156             85.133                                        3.41506e+002           4.15057e+001           1.50568e+000           5.05679e-001           5.67905e-003           5.67905e-003           6.79050e-004
                  103.20    341.50826                               19.84156             85.133                                        3.41508e+002           4.15083e+001           1.50826e+000           5.08260e-001           8.26034e-003           8.26034e-003           2.60340e-004
                  103.30    341.51474                               19.84156             85.133                                        3.41515e+002           4.15147e+001           1.51474e+000           5.14736e-001           1.47356e-002           4.73558e-003           7.35583e-004
                  103.40    341.51318                               19.84156             85.133                                        3.41513e+002           4.15132e+001           1.51318e+000           5.13184e-001           1.31835e-002           3.18351e-003           1.83515e-004
                  103.50    341.50698                               19.84156             85.133                                        3.41507e+002           4.15070e+001           1.50698e+000           5.06982e-001           6.98220e-003           6.98220e-003           9.82204e-004
                  103.60    341.50485                               19.84156             85.133                                        3.41505e+002           4.15048e+001           1.50485e+000           5.04846e-001           4.84642e-003           4.84642e-003           8.46416e-004
                  103.70    341.50973                               19.84156             85.133                                        3.41510e+002           4.15097e+001           1.50973e+000           5.09733e-001           9.73308e-003           9.73308e-003           7.33075e-004
                  103.80    341.50923                               19.84156             85.133                                        3.41509e+002           4.15092e+001           1.50923e+000           5.09228e-001           9.22807e-003           9.22807e-003           2.28072e-004
                  103.90    341.50667                               19.84156             85.133                                        3.41507e+002           4.15067e+001           1.50667e+000           5.06674e-001           6.67397e-003           6.67397e-003           6.73966e-004
                  104.00    341.50901                               19.84156             85.133                                        3.41509e+002           4.15090e+001           1.50901e+000           5.09007e-001           9.00657e-003           9.00657e-003           6.57493e-006
                  104.10    341.50921                               19.84156             85.133                                        3.41509e+002           4.15092e+001           1.50921e+000           5.09209e-001           9.20882e-003           9.20882e-003           2.08821e-004
                  104.20    341.50826                               19.84156             85.133                                        3.41508e+002           4.15083e+001           1.50826e+000           5.08260e-001           8.25990e-003           8.25990e-003           2.59901e-004
                  104.30    341.50736                               19.84156             85.133                                        3.41507e+002           4.15074e+001           1.50736e+000           5.07358e-001           7.35771e-003           7.35771e-003           3.57710e-004
                  104.40    341.50527                               19.84156             85.133                                        3.41505e+002           4.15053e+001           1.50527e+000           5.05270e-001           5.26989e-003           5.26989e-003           2.69893e-004
                  104.50    341.50480                               19.84156             85.133                                        3.41505e+002           4.15048e+001           1.50480e+000           5.04797e-001           4.79693e-003           4.79693e-003           7.96930e-004
                  104.60    341.50753                               19.84156             85.133                                        3.41508e+002           4.15075e+001           1.50753e+000           5.07532e-001           7.53182e-003           7.53182e-003           5.31816e-004
                  104.70    341.51612                               19.84156             85.133                                        3.41516e+002           4.15161e+001           1.51612e+000           5.16123e-001           1.61226e-002           6.12258e-003           1.22576e-004
                  104.80    341.51449                               19.84156             85.133                                        3.41514e+002           4.15145e+001           1.51449e+000           5.14489e-001           1.44891e-002           4.48908e-003           4.89084e-004
                  104.90    341.50701                               19.84156             85.133                                        3.41507e+002           4.15070e+001           1.50701e+000           5.07008e-001           7.00761e-003           7.00761e-003           7.61303e-006
                  105.00    341.50624                               19.84156             85.133                                        3.41506e+002           4.15062e+001           1.50624e+000           5.06245e-001           6.24490e-003           6.24490e-003           2.44900e-004
                  105.10    341.51230                               19.84156             85.133                                        3.41512e+002           4.15123e+001           1.51230e+000           5.12304e-001           1.23039e-002           2.30390e-003           3.03904e-004
                  105.20    341.51245                               19.84156             85.133                                        3.41512e+002           4.15125e+001           1.51245e+000           5.12453e-001           1.24531e-002           2.45307e-003           4.53074e-004
                  105.30    341.50622                               19.84156             85.133                                        3.41506e+002           4.15062e+001           1.50622e+000           5.06217e-001           6.21651e-003           6.21651e-003           2.16506e-004
                  105.40    341.50257                               19.84156             85.133                                        3.41503e+002           4.15026e+001           1.50257e+000           5.02571e-001           2.57132e-003           2.57132e-003           5.71322e-004
                  105.50    341.50699                               19.84156             85.133                                        3.41507e+002           4.15070e+001           1.50699e+000           5.06989e-001           6.98875e-003           6.98875e-003           9.88752e-004
                  105.60    341.51284                               19.84156             85.133                                        3.41513e+002           4.15128e+001           1.51284e+000           5.12840e-001           1.28404e-002           2.84039e-003           8.40389e-004
