~VERSION INFORMATION
VERS                    .            2.0                                    :CWLS LOG ASCII STANDARD
WRAP                    .            NO                                     :ONE LINE PER TIME STEP


~WELL INFORMATION
#MNEM                   .UNIT        DATA                                    DESCRIPTION
#________________________________________________________________________________________
STRTTIME                .HH/MM/SS    19:37:02                               :START TIME
STOPTIME                .HH/MM/SS    19:40:38                               :STOP TIME
STRT                    .s           2.10                                   :START DATA
STOP                    .s           214.10                                 :STOP DATA
STEP                    .s           0.10                                   :MEASUREMENT TIME INTERVAL
NULL                    .            -999.25                                :NULL VALUE
COMP                    .            Statoil ASA                            :COMPANY
FLD                     .            Volve                                  :FIELD
WELL                    .            15/9-F-11 A                            :WELL
RUN                     .            8                                      :RUN
LOC                     .            Maersk Inspirer                        :LOCATION
PROV                    .            na                                     :PROVINCE
SRVC                    .            Baker Hughes INTEQ                     :SERVICE COMPANY
DATE                    .YY/MM/DD    13/05/23                               :LOG DATE
UWI                     .                                                   :UNIQUE WELL ID
DEPTHMD                 .m           3607.9                                 :MEASURED DEPTH
DEPTHTVD                .m           3008.4                                 :TRUE VERTICAL DEPTH


~CURVE INFORMATION
#MNEM                   .UNIT        API CODES                               DESCRIPTION
#________________________________________________________________________________________
TIME                    .s                                                  :01 TIME
DD_PRESS                .bar                                                :02 DRAW DOWN PRESSURE
DD_VOLUME               .cm3                                                :03 INCREMENTAL DRAW DOWN VOLUME
TEMP                    .degC                                               :04 TRANSDUCER TEMPERATURE
DD_PRESS_MOD_1000       .bar                                                :05 DRAW DOWN PRESSURE MOD 1000
DD_PRESS_MOD_100        .bar                                                :06 DRAW DOWN PRESSURE MOD 100
DD_PRESS_MOD_10         .bar                                                :07 DRAW DOWN PRESSURE MOD 10
DD_PRESS_MOD_1          .bar                                                :08 DRAW DOWN PRESSURE MOD 1
DD_PRESS_MOD_01         .bar                                                :09 DRAW DOWN PRESSURE MOD 01
DD_PRESS_MOD_001        .bar                                                :10 DRAW DOWN PRESSURE MOD 001
DD_PRESS_MOD_0001       .bar                                                :11 DRAW DOWN PRESSURE MOD 0001


~PARAMETER INFORMATION
#MNEM                   .UNIT        VALUE                                   DESCRIPTION
#________________________________________________________________________________________
TOOLFACE                .deg         -38.9                                  :01 TOOLFACE
PUMP_CAPACITY           .bar         400                                    :02 NOMINAL DRAW DOWN PUMP CAPACITY
PUMP_LIMIT              .bar         240                                    :03 DOWNLINK PUMP LIMIT
TIME_LIMIT              .min         10                                     :04 DOWNLINK MAX TIME
TEST_TYPE               .            REPEAT                                 :05 DOWNLINK
TEST_TYPE               .            HIGH MOBILITY                          :06 DOWNLINK
DD_PIST_A               .cm2         3.1416                                 :07 DRAW DOWN PISTON AREA
V_SYS                   .cm3         131.0000                               :08 SYSTEM VOLUME
PROBE_ID                .cm          1.2700                                 :09 TTK PROBE ID
G0                      .            4.6700                                 :10 GEOMETRY FACTOR


~A                  TIME     DD_PRESS                              DD_VOLUME               TEMP                                   DD_PRESS_MOD_1000       DD_PRESS_MOD_100        DD_PRESS_MOD_10         DD_PRESS_MOD_1        DD_PRESS_MOD_01       DD_PRESS_MOD_001      DD_PRESS_MOD_0001
# ...
                  114.10    340.33498                               18.95888             71.195                                        3.40335e+002           4.03350e+001           3.34976e-001           3.34976e-001           3.49758e-002           4.97584e-003           9.75838e-004
                  114.20    340.32974                               18.95888             71.195                                        3.40330e+002           4.03297e+001           3.29742e-001           3.29742e-001           2.97425e-002           9.74250e-003           7.42498e-004
                  114.30    340.32699                               18.95888             71.195                                        3.40327e+002           4.03270e+001           3.26989e-001           3.26989e-001           2.69890e-002           6.98903e-003           9.89030e-004
                  114.40    340.33579                               18.95888             71.195                                        3.40336e+002           4.03358e+001           3.35793e-001           3.35793e-001           3.57928e-002           5.79280e-003           7.92800e-004
                  114.50    340.33618                               18.95888             71.195                                        3.40336e+002           4.03362e+001           3.36179e-001           3.36179e-001           3.61792e-002           6.17918e-003           1.79183e-004
                  114.60    340.32358                               18.95888             71.195                                        3.40324e+002           4.03236e+001           3.23585e-001           3.23585e-001           2.35845e-002           3.58453e-003           5.84531e-004
                  114.70    340.31850                               18.95888             71.195                                        3.40319e+002           4.03185e+001           3.18505e-001           3.18505e-001           1.85045e-002           8.50454e-003           5.04538e-004
                  114.80    340.32855                               18.95888             71.195                                        3.40329e+002           4.03286e+001           3.28550e-001           3.28550e-001           2.85505e-002           8.55045e-003           5.50450e-004
                  114.90    340.33122                               18.95888             71.195                                        3.40331e+002           4.03312e+001           3.31219e-001           3.31219e-001           3.12187e-002           1.21870e-003           2.18700e-004
                  115.00    340.32944                               18.95888             71.195                                        3.40329e+002           4.03294e+001           3.29436e-001           3.29436e-001           2.94362e-002           9.43624e-003           4.36236e-004
                  115.10    340.33604                               18.95888             71.195                                        3.40336e+002           4.03360e+001           3.36043e-001           3.36043e-001           3.60431e-002           6.04305e-003           4.30534e-005
                  115.20    340.34643                               18.95888             71.195                                        3.40346e+002           4.03464e+001           3.46429e-001           3.46429e-001           4.64287e-002           6.42868e-003           4.28678e-004
                  115.30    340.34491                               18.95888             71.195                                        3.40345e+002           4.03449e+001           3.44915e-001           3.44915e-001           4.49148e-002           4.91482e-003           9.14824e-004
                  115.40    340.33454                               18.95888             71.195                                        3.40335e+002           4.03345e+001           3.34543e-001           3.34543e-001           3.45429e-002           4.54287e-003           5.42865e-004
                  115.50    340.33579                               18.95888             71.195                                        3.40336e+002           4.03358e+001           3.35787e-001           3.35787e-001           3.57867e-002           5.78666e-003           7.86659e-004
                  115.60    340.33841                               18.95888             71.195                                        3.40338e+002           4.03384e+001           3.38413e-001           3.38413e-001           3.84126e-002           8.41258e-003           4.12577e-004
                  115.70    340.33440                               18.95888             71.195                                        3.40334e+002           4.03344e+001           3.34397e-001           3.34397e-001           3.43969e-002           4.39688e-003           3.96880e-004
                  115.80    340.32054                               18.95888             71.195                                        3.40321e+002           4.03205e+001           3.20537e-001           3.20537e-001           2.05372e-002           5.37177e-004           5.37177e-004
                  115.90    340.32273                               18.95888             71.195                                        3.40323e+002           4.03227e+001           3.22727e-001           3.22727e-001           2.27271e-002           2.72713e-003           7.27132e-004
                  116.00    340.33011                               18.95888             71.195                                        3.40330e+002           4.03301e+001           3.30109e-001           3.30109e-001           3.01090e-002           1.09011e-004           1.09011e-004
                  116.10    340.32673                               18.95888             71.195                                        3.40327e+002           4.03267e+001           3.26731e-001           3.26731e-001           2.67308e-002           6.73076e-003           7.30758e-004
                  116.20    340.32800                               18.95888             71.195                                        3.40328e+002           4.03280e+001           3.27998e-001           3.27998e-001           2.79983e-002           7.99834e-003           9.98343e-004
                  116.30    340.34668                               18.95888             71.195                                        3.40347e+002           4.03467e+001           3.46685e-001           3.46685e-001           4.66847e-002           6.68466e-003           6.84660e-004
                  116.40    340.34483                               18.95888             71.195                                        3.40345e+002           4.03448e+001           3.44833e-001           3.44833e-001           4.48332e-002           4.83322e-003           8.33222e-004
                  116.50    340.33010                               18.95888             71.195                                        3.40330e+002           4.03301e+001           3.30095e-001           3.30095e-001           3.00951e-002           9.50632e-005           9.50632e-005
                  116.60    340.32265                               18.95888             71.195                                        3.40323e+002           4.03226e+001           3.22647e-001           3.22647e-001           2.26469e-002           2.64689e-003           6.46894e-004
                  116.70    340.33396                               18.95888             71.195                                        3.40334e+002           4.03340e+001           3.33957e-001           3.33957e-001           3.39571e-002           3.95708e-003           9.57079e-004
                  116.80    340.34227                               18.95888             71.195                                        3.40342e+002           4.03423e+001           3.42273e-001           3.42273e-001           4.22726e-002           2.27261e-003           2.72608e-004
