~VERSION INFORMATION
VERS                    .            2.0                                    :CWLS LOG ASCII STANDARD
WRAP                    .            NO                                     :ONE LINE PER TIME STEP


~WELL INFORMATION
#MNEM                   .UNIT        DATA                                    DESCRIPTION
#________________________________________________________________________________________
STRTTIME                .HH/MM/SS    11:07:04                               :START TIME
STOPTIME                .HH/MM/SS    11:10:49                               :STOP TIME
STRT                    .s           2.10                                   :START DATA
STOP                    .s           223.10                                 :STOP DATA
STEP                    .s           0.10                                   :MEASUREMENT TIME INTERVAL
NULL                    .            -999.25                                :NULL VALUE
COMP                    .            Statoil ASA                            :COMPANY
FLD                     .            Volve                                  :FIELD
WELL                    .            15/9-F-11 A                            :WELL
RUN                     .            8                                      :RUN
LOC                     .            Maersk Inspirer                        :LOCATION
PROV                    .            na                                     :PROVINCE
SRVC                    .            Baker Hughes INTEQ                     :SERVICE COMPANY
DATE                    .YY/MM/DD    13/05/21                               :LOG DATE
UWI                     .                                                   :UNIQUE WELL ID
DEPTHMD                 .m           3632.0                                 :MEASURED DEPTH
DEPTHTVD                .m           3026.9                                 :TRUE VERTICAL DEPTH


~CURVE INFORMATION
#MNEM                   .UNIT        API CODES                               DESCRIPTION
#________________________________________________________________________________________
TIME                    .s                                                  :01 TIME
DD_PRESS                .bar                                                :02 DRAW DOWN PRESSURE
DD_VOLUME               .cm3                                                :03 INCREMENTAL DRAW DOWN VOLUME
TEMP                    .degC                                               :04 TRANSDUCER TEMPERATURE
DD_PRESS_MOD_1000       .bar                                                :05 DRAW DOWN PRESSURE MOD 1000
DD_PRESS_MOD_100        .bar                                                :06 DRAW DOWN PRESSURE MOD 100
DD_PRESS_MOD_10         .bar                                                :07 DRAW DOWN PRESSURE MOD 10
DD_PRESS_MOD_1          .bar                                                :08 DRAW DOWN PRESSURE MOD 1
DD_PRESS_MOD_01         .bar                                                :09 DRAW DOWN PRESSURE MOD 01
DD_PRESS_MOD_001        .bar                                                :10 DRAW DOWN PRESSURE MOD 001
DD_PRESS_MOD_0001       .bar                                                :11 DRAW DOWN PRESSURE MOD 0001


~PARAMETER INFORMATION
#MNEM                   .UNIT        VALUE                                   DESCRIPTION
#________________________________________________________________________________________
TOOLFACE                .deg         66.7                                   :01 TOOLFACE
PUMP_CAPACITY           .bar         400                                    :02 NOMINAL DRAW DOWN PUMP CAPACITY
PUMP_LIMIT              .bar         240                                    :03 DOWNLINK PUMP LIMIT
TIME_LIMIT              .min         10                                     :04 DOWNLINK MAX TIME
TEST_TYPE               .            REPEAT                                 :05 DOWNLINK
TEST_TYPE               .            HIGH MOBILITY                          :06 DOWNLINK
DD_PIST_A               .cm2         3.1416                                 :07 DRAW DOWN PISTON AREA
V_SYS                   .cm3         131.0000                               :08 SYSTEM VOLUME
PROBE_ID                .cm          1.2700                                 :09 TTK PROBE ID
G0                      .            4.6700                                 :10 GEOMETRY FACTOR


~A                  TIME     DD_PRESS                              DD_VOLUME               TEMP                                   DD_PRESS_MOD_1000       DD_PRESS_MOD_100        DD_PRESS_MOD_10         DD_PRESS_MOD_1        DD_PRESS_MOD_01       DD_PRESS_MOD_001      DD_PRESS_MOD_0001
# ...
                  192.50    342.71288                               14.97769             80.602                                        3.42713e+002           4.27129e+001           2.71288e+000           7.12878e-001           1.28784e-002           2.87844e-003           8.78440e-004
                  192.60    342.71253                               14.97769             80.602                                        3.42713e+002           4.27125e+001           2.71253e+000           7.12526e-001           1.25262e-002           2.52619e-003           5.26191e-004
                  192.70    342.71248                               14.97769             80.602                                        3.42712e+002           4.27125e+001           2.71248e+000           7.12478e-001           1.24780e-002           2.47799e-003           4.77991e-004
                  192.80    342.71246                               14.97769             80.602                                        3.42712e+002           4.27125e+001           2.71246e+000           7.12461e-001           1.24610e-002           2.46104e-003           4.61038e-004
                  192.90    342.71626                               14.97769             80.602                                        3.42716e+002           4.27163e+001           2.71626e+000           7.16264e-001           1.62641e-002           6.26412e-003           2.64122e-004
                  193.00    342.72520                               14.97769             80.602                                        3.42725e+002           4.27252e+001           2.72520e+000           7.25200e-001           2.51998e-002           5.19977e-003           1.99773e-004
                  193.10    342.72651                               14.97769             80.602                                        3.42727e+002           4.27265e+001           2.72651e+000           7.26508e-001           2.65080e-002           6.50799e-003           5.07993e-004
                  193.20    342.71337                               14.97769             80.602                                        3.42713e+002           4.27134e+001           2.71337e+000           7.13366e-001           1.33665e-002           3.36650e-003           3.66496e-004
                  193.30    342.70851                               14.97769             80.602                                        3.42709e+002           4.27085e+001           2.70851e+000           7.08511e-001           8.51058e-003           8.51058e-003           5.10577e-004
                  193.40    342.71149                               14.97769             80.602                                        3.42711e+002           4.27115e+001           2.71149e+000           7.11486e-001           1.14857e-002           1.48575e-003           4.85747e-004
                  193.50    342.70841                               14.97769             80.602                                        3.42708e+002           4.27084e+001           2.70841e+000           7.08410e-001           8.41019e-003           8.41019e-003           4.10190e-004
                  193.60    342.70866                               14.97769             80.602                                        3.42709e+002           4.27087e+001           2.70866e+000           7.08659e-001           8.65893e-003           8.65893e-003           6.58925e-004
                  193.70    342.71781                               14.97769             80.602                                        3.42718e+002           4.27178e+001           2.71781e+000           7.17805e-001           1.78052e-002           7.80517e-003           8.05167e-004
                  193.80    342.72095                               14.97769             80.602                                        3.42721e+002           4.27209e+001           2.72095e+000           7.20947e-001           2.09468e-002           9.46775e-004           9.46775e-004
                  193.90    342.71105                               14.97769             80.602                                        3.42711e+002           4.27110e+001           2.71105e+000           7.11049e-001           1.10488e-002           1.04882e-003           4.88227e-005
                  194.00    342.70387                               14.97769             80.604                                        3.42704e+002           4.27039e+001           2.70387e+000           7.03871e-001           3.87094e-003           3.87094e-003           8.70945e-004
                  194.10    342.70620                               14.97769             80.605                                        3.42706e+002           4.27062e+001           2.70620e+000           7.06203e-001           6.20293e-003           6.20293e-003           2.02934e-004
                  194.20    342.70700                               14.97769             80.604                                        3.42707e+002           4.27070e+001           2.70700e+000           7.07000e-001           7.00017e-003           7.00017e-003           1.72595e-007
                  194.30    342.69927                               14.97769             80.602                                        3.42699e+002           4.26993e+001           2.69927e+000           6.99274e-001           9.92738e-002           9.27383e-003           2.73833e-004
                  194.40    342.69701                               14.97769             80.604                                        3.42697e+002           4.26970e+001           2.69701e+000           6.97008e-001           9.70079e-002           7.00792e-003           7.91976e-006
                  194.50    342.70848                               14.97769             80.607                                        3.42708e+002           4.27085e+001           2.70848e+000           7.08477e-001           8.47653e-003           8.47653e-003           4.76529e-004
                  194.60    342.72094                               14.97769             80.609                                        3.42721e+002           4.27209e+001           2.72094e+000           7.20940e-001           2.09401e-002           9.40083e-004           9.40083e-004
                  194.70    342.71740                               14.97769             80.609                                        3.42717e+002           4.27174e+001           2.71740e+000           7.17401e-001           1.74014e-002           7.40141e-003           4.01411e-004
                  194.80    342.70956                               14.97769             80.609                                        3.42710e+002           4.27096e+001           2.70956e+000           7.09560e-001           9.55998e-003           9.55998e-003           5.59977e-004
                  194.90    342.71421                               14.97769             80.609                                        3.42714e+002           4.27142e+001           2.71421e+000           7.14205e-001           1.42055e-002           4.20549e-003           2.05487e-004
                  195.00    342.71783                               14.97769             80.609                                        3.42718e+002           4.27178e+001           2.71783e+000           7.17832e-001           1.78321e-002           7.83212e-003           8.32120e-004
                  195.10    342.70743                               14.97769             80.607                                        3.42707e+002           4.27074e+001           2.70743e+000           7.07435e-001           7.43451e-003           7.43451e-003           4.34512e-004
                  195.20    342.70496                               14.97769             80.604                                        3.42705e+002           4.27050e+001           2.70496e+000           7.04959e-001           4.95899e-003           4.95899e-003           9.58993e-004
