~VERSION INFORMATION
VERS                    .            2.0                                    :CWLS LOG ASCII STANDARD
WRAP                    .            NO                                     :ONE LINE PER TIME STEP


~WELL INFORMATION
#MNEM                   .UNIT        DATA                                    DESCRIPTION
#________________________________________________________________________________________
STRTTIME                .HH/MM/SS    03:28:02                               :START TIME
STOPTIME                .HH/MM/SS    03:30:44                               :STOP TIME
STRT                    .s           2.10                                   :START DATA
STOP                    .s           160.80                                 :STOP DATA
STEP                    .s           0.10                                   :MEASUREMENT TIME INTERVAL
NULL                    .            -999.25                                :NULL VALUE
COMP                    .            Statoil ASA                            :COMPANY
FLD                     .            Volve                                  :FIELD
WELL                    .            15/9-F-1 C                             :WELL
RUN                     .            4                                      :RUN
LOC                     .                                                   :LOCATION
PROV                    .            na                                     :PROVINCE
SRVC                    .            Baker Hughes INTEQ                     :SERVICE COMPANY
DATE                    .YY/MM/DD    14/03/15                               :LOG DATE
UWI                     .                                                   :UNIQUE WELL ID
DEPTHMD                 .m           3493.0                                 :MEASURED DEPTH
DEPTHTVD                .m           2980.2                                 :TRUE VERTICAL DEPTH


~CURVE INFORMATION
#MNEM                   .UNIT        API CODES                               DESCRIPTION
#________________________________________________________________________________________
TIME                    .s                                                  :01 TIME
DD_PRESS                .bar                                                :02 DRAW DOWN PRESSURE
DD_VOLUME               .cm3                                                :03 INCREMENTAL DRAW DOWN VOLUME
TEMP                    .degC                                               :04 TRANSDUCER TEMPERATURE
DD_PRESS_MOD_1000       .bar                                                :05 DRAW DOWN PRESSURE MOD 1000
DD_PRESS_MOD_100        .bar                                                :06 DRAW DOWN PRESSURE MOD 100
DD_PRESS_MOD_10         .bar                                                :07 DRAW DOWN PRESSURE MOD 10
DD_PRESS_MOD_1          .bar                                                :08 DRAW DOWN PRESSURE MOD 1
DD_PRESS_MOD_01         .bar                                                :09 DRAW DOWN PRESSURE MOD 01
DD_PRESS_MOD_001        .bar                                                :10 DRAW DOWN PRESSURE MOD 001
DD_PRESS_MOD_0001       .bar                                                :11 DRAW DOWN PRESSURE MOD 0001


~PARAMETER INFORMATION
#MNEM                   .UNIT        VALUE                                   DESCRIPTION
#________________________________________________________________________________________
TOOLFACE                .deg         89.6                                   :01 TOOLFACE
PUMP_CAPACITY           .bar         400                                    :02 NOMINAL DRAW DOWN PUMP CAPACITY
PUMP_LIMIT              .bar         240                                    :03 DOWNLINK PUMP LIMIT
TIME_LIMIT              .min         10                                     :04 DOWNLINK MAX TIME
TEST_TYPE               .            REPEAT                                 :05 DOWNLINK
TEST_TYPE               .            HIGH MOBILITY                          :06 DOWNLINK
DD_PIST_A               .cm2         3.1416                                 :07 DRAW DOWN PISTON AREA
V_SYS                   .cm3         131.0000                               :08 SYSTEM VOLUME
PROBE_ID                .cm          1.2700                                 :09 TTK PROBE ID
G0                      .            4.6700                                 :10 GEOMETRY FACTOR


~A                  TIME     DD_PRESS                              DD_VOLUME               TEMP                                   DD_PRESS_MOD_1000       DD_PRESS_MOD_100        DD_PRESS_MOD_10         DD_PRESS_MOD_1        DD_PRESS_MOD_01       DD_PRESS_MOD_001      DD_PRESS_MOD_0001
# ...
                   63.70    340.45138                               10.76582             83.742                                        3.40451e+002           4.04514e+001           4.51383e-001           4.51383e-001           5.13825e-002           1.38250e-003           3.82500e-004
                   63.80    340.45304                               10.76582             83.742                                        3.40453e+002           4.04530e+001           4.53036e-001           4.53036e-001           5.30361e-002           3.03615e-003           3.61454e-005
                   63.90    340.45487                               10.76582             83.742                                        3.40455e+002           4.04549e+001           4.54872e-001           4.54872e-001           5.48723e-002           4.87233e-003           8.72333e-004
                   64.00    340.45370                               10.76582             83.742                                        3.40454e+002           4.04537e+001           4.53696e-001           4.53696e-001           5.36962e-002           3.69625e-003           6.96246e-004
                   64.10    340.45192                               10.76582             83.742                                        3.40452e+002           4.04519e+001           4.51924e-001           4.51924e-001           5.19237e-002           1.92371e-003           9.23711e-004
                   64.20    340.45370                               10.76582             83.742                                        3.40454e+002           4.04537e+001           4.53705e-001           4.53705e-001           5.37048e-002           3.70481e-003           7.04808e-004
                   64.30    340.45541                               10.76582             83.742                                        3.40455e+002           4.04554e+001           4.55411e-001           4.55411e-001           5.54105e-002           5.41051e-003           4.10509e-004
                   64.40    340.45499                               10.76582             83.742                                        3.40455e+002           4.04550e+001           4.54987e-001           4.54987e-001           5.49869e-002           4.98688e-003           9.86876e-004
                   64.50    340.45266                               10.76582             83.742                                        3.40453e+002           4.04527e+001           4.52657e-001           4.52657e-001           5.26574e-002           2.65740e-003           6.57396e-004
                   64.60    340.45262                               10.76582             83.742                                        3.40453e+002           4.04526e+001           4.52617e-001           4.52617e-001           5.26166e-002           2.61662e-003           6.16617e-004
                   64.70    340.45304                               10.76582             83.742                                        3.40453e+002           4.04530e+001           4.53040e-001           4.53040e-001           5.30397e-002           3.03972e-003           3.97243e-005
                   64.80    340.45224                               10.76582             83.742                                        3.40452e+002           4.04522e+001           4.52236e-001           4.52236e-001           5.22358e-002           2.23576e-003           2.35760e-004
                   64.90    340.45136                               10.76582             83.742                                        3.40451e+002           4.04514e+001           4.51362e-001           4.51362e-001           5.13618e-002           1.36184e-003           3.61836e-004
                   65.00    340.45132                               10.76582             83.742                                        3.40451e+002           4.04513e+001           4.51321e-001           4.51321e-001           5.13211e-002           1.32110e-003           3.21100e-004
                   65.10    340.45134                               10.76582             83.742                                        3.40451e+002           4.04513e+001           4.51341e-001           4.51341e-001           5.13414e-002           1.34141e-003           3.41408e-004
                   65.20    340.45178                               10.76582             83.742                                        3.40452e+002           4.04518e+001           4.51784e-001           4.51784e-001           5.17840e-002           1.78405e-003           7.84050e-004
                   65.30    340.45294                               10.76582             83.742                                        3.40453e+002           4.04529e+001           4.52937e-001           4.52937e-001           5.29365e-002           2.93652e-003           9.36517e-004
                   65.40    340.45259                               10.76582             83.742                                        3.40453e+002           4.04526e+001           4.52587e-001           4.52587e-001           5.25873e-002           2.58728e-003           5.87285e-004
                   65.50    340.45168                               10.76582             83.742                                        3.40452e+002           4.04517e+001           4.51679e-001           4.51679e-001           5.16792e-002           1.67923e-003           6.79225e-004
                   65.60    340.45233                               10.76582             83.740                                        3.40452e+002           4.04523e+001           4.52331e-001           4.52331e-001           5.23314e-002           2.33143e-003           3.31429e-004
                   65.70    340.45234                               10.76582             83.736                                        3.40452e+002           4.04523e+001           4.52339e-001           4.52339e-001           5.23388e-002           2.33880e-003           3.38804e-004
                   65.80    340.45159                               10.76582             83.734                                        3.40452e+002           4.04516e+001           4.51587e-001           4.51587e-001           5.15872e-002           1.58724e-003           5.87240e-004
                   65.90    340.45240                               10.76582             83.734                                        3.40452e+002           4.04524e+001           4.52405e-001           4.52405e-001           5.24048e-002           2.40483e-003           4.04830e-004
                   66.00    340.45215                               10.76582             83.734                                        3.40452e+002           4.04522e+001           4.52152e-001           4.52152e-001           5.21519e-002           2.15193e-003           1.51927e-004
                   66.10    340.45157                               10.76582             83.734                                        3.40452e+002           4.04516e+001           4.51573e-001           4.51573e-001           5.15731e-002           1.57308e-003           5.73077e-004
                   66.20    340.45128                               10.76582             83.734                                        3.40451e+002           4.04513e+001           4.51277e-001           4.51277e-001           5.12773e-002           1.27725e-003           2.77252e-004
                   66.30    340.45114                               10.76582             83.734                                        3.40451e+002           4.04511e+001           4.51143e-001           4.51143e-001           5.11428e-002           1.14281e-003           1.42814e-004
                   66.40    340.45239                               10.76582             83.734                                        3.40452e+002           4.04524e+001           4.52386e-001           4.52386e-001           5.23865e-002           2.38649e-003           3.86488e-004
