~VERSION INFORMATION
VERS                    .            2.0                                    :CWLS LOG ASCII STANDARD
WRAP                    .            NO                                     :ONE LINE PER TIME STEP


~WELL INFORMATION
#MNEM                   .UNIT        DATA                                    DESCRIPTION
#________________________________________________________________________________________
STRTTIME                .HH/MM/SS    13:32:32                               :START TIME
STOPTIME                .HH/MM/SS    13:36:23                               :STOP TIME
STRT                    .s           2.10                                   :START DATA
STOP                    .s           229.20                                 :STOP DATA
STEP                    .s           0.10                                   :MEASUREMENT TIME INTERVAL
NULL                    .            -999.25                                :NULL VALUE
COMP                    .            Statoil ASA                            :COMPANY
FLD                     .            Volve                                  :FIELD
WELL                    .            15/9-F-1 B                             :WELL
RUN                     .            7                                      :RUN
LOC                     .            Maersk Inspirer                        :LOCATION
PROV                    .            na                                     :PROVINCE
SRVC                    .            Baker Hughes INTEQ                     :SERVICE COMPANY
DATE                    .YY/MM/DD    13/09/06                               :LOG DATE
UWI                     .                                                   :UNIQUE WELL ID
DEPTHMD                 .m           3301.5                                 :MEASURED DEPTH
DEPTHTVD                .m           3096.9                                 :TRUE VERTICAL DEPTH


~CURVE INFORMATION
#MNEM                   .UNIT        API CODES                               DESCRIPTION
#________________________________________________________________________________________
TIME                    .s                                                  :01 TIME
DD_PRESS                .bar                                                :02 DRAW DOWN PRESSURE
DD_VOLUME               .cm3                                                :03 INCREMENTAL DRAW DOWN VOLUME
TEMP                    .degC                                               :04 TRANSDUCER TEMPERATURE
DD_PRESS_MOD_1000       .bar                                                :05 DRAW DOWN PRESSURE MOD 1000
DD_PRESS_MOD_100        .bar                                                :06 DRAW DOWN PRESSURE MOD 100
DD_PRESS_MOD_10         .bar                                                :07 DRAW DOWN PRESSURE MOD 10
DD_PRESS_MOD_1          .bar                                                :08 DRAW DOWN PRESSURE MOD 1
DD_PRESS_MOD_01         .bar                                                :09 DRAW DOWN PRESSURE MOD 01
DD_PRESS_MOD_001        .bar                                                :10 DRAW DOWN PRESSURE MOD 001
DD_PRESS_MOD_0001       .bar                                                :11 DRAW DOWN PRESSURE MOD 0001


~PARAMETER INFORMATION
#MNEM                   .UNIT        VALUE                                   DESCRIPTION
#________________________________________________________________________________________
TOOLFACE                .deg         na                                     :01 TOOLFACE
PUMP_CAPACITY           .bar         400                                    :02 NOMINAL DRAW DOWN PUMP CAPACITY
PUMP_LIMIT              .bar         400                                    :03 DOWNLINK PUMP LIMIT
TIME_LIMIT              .min         10                                     :04 DOWNLINK MAX TIME
TEST_TYPE               .            LOW MOBILITY                           :05 DOWNLINK
DD_PIST_A               .cm2         3.1416                                 :06 DRAW DOWN PISTON AREA
V_SYS                   .cm3         131.0000                               :07 SYSTEM VOLUME
PROBE_ID                .cm          1.2700                                 :08 TTK PROBE ID
G0                      .            4.6700                                 :09 GEOMETRY FACTOR


~A                  TIME     DD_PRESS                              DD_VOLUME               TEMP                                   DD_PRESS_MOD_1000       DD_PRESS_MOD_100        DD_PRESS_MOD_10         DD_PRESS_MOD_1        DD_PRESS_MOD_01       DD_PRESS_MOD_001      DD_PRESS_MOD_0001
# ...
                  195.40    349.44816                               18.16497             85.289                                        3.49448e+002           4.94482e+001           9.44816e+000           4.48157e-001           4.81574e-002           8.15735e-003           1.57352e-004
                  195.50    349.44893                               18.16497             85.289                                        3.49449e+002           4.94489e+001           9.44893e+000           4.48934e-001           4.89342e-002           8.93416e-003           9.34164e-004
                  195.60    349.43354                               18.16497             85.289                                        3.49434e+002           4.94335e+001           9.43354e+000           4.33539e-001           3.35386e-002           3.53861e-003           5.38614e-004
                  195.70    349.41237                               18.16497             85.289                                        3.49412e+002           4.94124e+001           9.41237e+000           4.12372e-001           1.23717e-002           2.37168e-003           3.71676e-004
                  195.80    349.40157                               18.16497             85.289                                        3.49402e+002           4.94016e+001           9.40157e+000           4.01569e-001           1.56892e-003           1.56892e-003           5.68920e-004
                  195.90    349.40401                               18.16497             85.289                                        3.49404e+002           4.94040e+001           9.40401e+000           4.04006e-001           4.00551e-003           4.00551e-003           5.50695e-006
                  196.00    349.41997                               18.16497             85.289                                        3.49420e+002           4.94200e+001           9.41997e+000           4.19971e-001           1.99714e-002           9.97139e-003           9.71395e-004
                  196.10    349.42842                               18.16497             85.289                                        3.49428e+002           4.94284e+001           9.42842e+000           4.28422e-001           2.84221e-002           8.42206e-003           4.22062e-004
                  196.20    349.41822                               18.16497             85.289                                        3.49418e+002           4.94182e+001           9.41822e+000           4.18216e-001           1.82158e-002           8.21585e-003           2.15846e-004
                  196.30    349.41099                               18.16497             85.289                                        3.49411e+002           4.94110e+001           9.41099e+000           4.10994e-001           1.09940e-002           9.93958e-004           9.93958e-004
                  196.40    349.41179                               18.16497             85.289                                        3.49412e+002           4.94118e+001           9.41179e+000           4.11789e-001           1.17892e-002           1.78918e-003           7.89178e-004
                  196.50    349.40795                               18.16497             85.289                                        3.49408e+002           4.94079e+001           9.40795e+000           4.07945e-001           7.94506e-003           7.94506e-003           9.45062e-004
                  196.60    349.39077                               18.16497             85.289                                        3.49391e+002           4.93908e+001           9.39077e+000           3.90767e-001           9.07666e-002           7.66632e-004           7.66632e-004
                  196.70    349.40523                               18.16497             85.289                                        3.49405e+002           4.94052e+001           9.40523e+000           4.05233e-001           5.23277e-003           5.23277e-003           2.32774e-004
                  196.80    349.43251                               18.16497             85.289                                        3.49433e+002           4.94325e+001           9.43251e+000           4.32514e-001           3.25144e-002           2.51443e-003           5.14427e-004
                  196.90    349.42232                               18.16497             85.289                                        3.49422e+002           4.94223e+001           9.42232e+000           4.22325e-001           2.23247e-002           2.32468e-003           3.24679e-004
                  197.00    349.39107                               18.16497             85.289                                        3.49391e+002           4.93911e+001           9.39107e+000           3.91066e-001           9.10657e-002           1.06569e-003           6.56904e-005
                  197.10    349.40887                               18.16497             85.289                                        3.49409e+002           4.94089e+001           9.40887e+000           4.08873e-001           8.87287e-003           8.87287e-003           8.72866e-004
                  197.20    349.43733                               18.16497             85.289                                        3.49437e+002           4.94373e+001           9.43733e+000           4.37329e-001           3.73286e-002           7.32864e-003           3.28639e-004
                  197.30    349.41360                               18.16497             85.289                                        3.49414e+002           4.94136e+001           9.41360e+000           4.13600e-001           1.36004e-002           3.60040e-003           6.00403e-004
                  197.40    349.40335                               18.16497             85.289                                        3.49403e+002           4.94033e+001           9.40335e+000           4.03346e-001           3.34617e-003           3.34617e-003           3.46173e-004
                  197.50    349.41730                               18.16497             85.289                                        3.49417e+002           4.94173e+001           9.41730e+000           4.17296e-001           1.72960e-002           7.29603e-003           2.96030e-004
                  197.60    349.41802                               18.16497             85.289                                        3.49418e+002           4.94180e+001           9.41802e+000           4.18017e-001           1.80169e-002           8.01689e-003           1.68861e-005
                  197.70    349.39882                               18.16497             85.289                                        3.49399e+002           4.93988e+001           9.39882e+000           3.98820e-001           9.88205e-002           8.82047e-003           8.20466e-004
                  197.80    349.39208                               18.16497             85.289                                        3.49392e+002           4.93921e+001           9.39208e+000           3.92083e-001           9.20827e-002           2.08274e-003           8.27378e-005
                  197.90    349.38884                               18.16497             85.289                                        3.49389e+002           4.93888e+001           9.38884e+000           3.88841e-001           8.88405e-002           8.84055e-003           8.40547e-004
                  198.00    349.38316                               18.16497             85.289                                        3.49383e+002           4.93832e+001           9.38316e+000           3.83162e-001           8.31619e-002           3.16190e-003           1.61902e-004
                  198.10    349.39335                               18.16497             85.289                                        3.49393e+002           4.93934e+001           9.39335e+000           3.93354e-001           9.33536e-002           3.35362e-003           3.53619e-004
