~VERSION INFORMATION
VERS                    .            2.0                                    :CWLS LOG ASCII STANDARD
WRAP                    .            NO                                     :ONE LINE PER TIME STEP


~WELL INFORMATION
#MNEM                   .UNIT        DATA                                    DESCRIPTION
#________________________________________________________________________________________
STRTTIME                .HH/MM/SS    18:50:18                               :START TIME
STOPTIME                .HH/MM/SS    18:53:14                               :STOP TIME
STRT                    .s           2.10                                   :START DATA
STOP                    .s           174.80                                 :STOP DATA
STEP                    .s           0.10                                   :MEASUREMENT TIME INTERVAL
NULL                    .            -999.25                                :NULL VALUE
COMP                    .            Statoil ASA                            :COMPANY
FLD                     .            Volve                                  :FIELD
WELL                    .            15/9-F-11 A                            :WELL
RUN                     .            8                                      :RUN
LOC                     .            Maersk Inspirer                        :LOCATION
PROV                    .            na                                     :PROVINCE
SRVC                    .            Baker Hughes INTEQ                     :SERVICE COMPANY
DATE                    .YY/MM/DD    13/05/23                               :LOG DATE
UWI                     .                                                   :UNIQUE WELL ID
DEPTHMD                 .m           3651.0                                 :MEASURED DEPTH
DEPTHTVD                .m           3041.4                                 :TRUE VERTICAL DEPTH


~CURVE INFORMATION
#MNEM                   .UNIT        API CODES                               DESCRIPTION
#________________________________________________________________________________________
TIME                    .s                                                  :01 TIME
DD_PRESS                .bar                                                :02 DRAW DOWN PRESSURE
DD_VOLUME               .cm3                                                :03 INCREMENTAL DRAW DOWN VOLUME
TEMP                    .degC                                               :04 TRANSDUCER TEMPERATURE
DD_PRESS_MOD_1000       .bar                                                :05 DRAW DOWN PRESSURE MOD 1000
DD_PRESS_MOD_100        .bar                                                :06 DRAW DOWN PRESSURE MOD 100
DD_PRESS_MOD_10         .bar                                                :07 DRAW DOWN PRESSURE MOD 10
DD_PRESS_MOD_1          .bar                                                :08 DRAW DOWN PRESSURE MOD 1
DD_PRESS_MOD_01         .bar                                                :09 DRAW DOWN PRESSURE MOD 01
DD_PRESS_MOD_001        .bar                                                :10 DRAW DOWN PRESSURE MOD 001
DD_PRESS_MOD_0001       .bar                                                :11 DRAW DOWN PRESSURE MOD 0001


~PARAMETER INFORMATION
#MNEM                   .UNIT        VALUE                                   DESCRIPTION
#________________________________________________________________________________________
TOOLFACE                .deg         -39.7                                  :01 TOOLFACE
PUMP_CAPACITY           .bar         400                                    :02 NOMINAL DRAW DOWN PUMP CAPACITY
PUMP_LIMIT              .bar         240                                    :03 DOWNLINK PUMP LIMIT
TIME_LIMIT              .min         10                                     :04 DOWNLINK MAX TIME
TEST_TYPE               .            REPEAT                                 :05 DOWNLINK
TEST_TYPE               .            HIGH MOBILITY                          :06 DOWNLINK
DD_PIST_A               .cm2         3.1416                                 :07 DRAW DOWN PISTON AREA
V_SYS                   .cm3         131.0000                               :08 SYSTEM VOLUME
PROBE_ID                .cm          1.2700                                 :09 TTK PROBE ID
G0                      .            4.6700                                 :10 GEOMETRY FACTOR


~A                  TIME     DD_PRESS                              DD_VOLUME               TEMP                                   DD_PRESS_MOD_1000       DD_PRESS_MOD_100        DD_PRESS_MOD_10         DD_PRESS_MOD_1        DD_PRESS_MOD_01       DD_PRESS_MOD_001      DD_PRESS_MOD_0001
# ...
                  172.90    422.99611                                0.00000             73.266                                        4.22996e+002           2.29961e+001           2.99611e+000           9.96112e-001           9.61119e-002           6.11192e-003           1.11923e-004
                  173.00    422.97763                                0.00000             73.266                                        4.22978e+002           2.29776e+001           2.97763e+000           9.77631e-001           7.76307e-002           7.63070e-003           6.30703e-004
                  173.10    422.98162                                0.00000             73.266                                        4.22982e+002           2.29816e+001           2.98162e+000           9.81623e-001           8.16232e-002           1.62324e-003           6.23241e-004
                  173.20    422.98969                                0.00000             73.266                                        4.22990e+002           2.29897e+001           2.98969e+000           9.89685e-001           8.96850e-002           9.68505e-003           6.85050e-004
                  173.30    422.98449                                0.00000             73.266                                        4.22984e+002           2.29845e+001           2.98449e+000           9.84486e-001           8.44859e-002           4.48587e-003           4.85872e-004
                  173.40    422.97886                                0.00000             73.266                                        4.22979e+002           2.29789e+001           2.97886e+000           9.78862e-001           7.88615e-002           8.86150e-003           8.61501e-004
                  173.50    422.99376                                0.00000             73.266                                        4.22994e+002           2.29938e+001           2.99376e+000           9.93756e-001           9.37556e-002           3.75557e-003           7.55570e-004
                  173.60    423.01855                                0.00000             73.266                                        4.23019e+002           2.30186e+001           3.01855e+000           1.85524e-002           1.85524e-002           8.55235e-003           5.52355e-004
                  173.70    423.02482                                0.00000             73.266                                        4.23025e+002           2.30248e+001           3.02482e+000           2.48250e-002           2.48250e-002           4.82498e-003           8.24979e-004
                  173.80    423.01887                                0.00000             73.266                                        4.23019e+002           2.30189e+001           3.01887e+000           1.88683e-002           1.88683e-002           8.86834e-003           8.68344e-004
                  173.90    423.00719                                0.00000             73.266                                        4.23007e+002           2.30072e+001           3.00719e+000           7.18860e-003           7.18860e-003           7.18860e-003           1.88605e-004
                  174.00    423.02555                                0.00000             73.266                                        4.23026e+002           2.30255e+001           3.02555e+000           2.55486e-002           2.55486e-002           5.54859e-003           5.48588e-004
                  174.10    423.02838                                0.00000             73.266                                        4.23028e+002           2.30284e+001           3.02838e+000           2.83788e-002           2.83788e-002           8.37878e-003           3.78785e-004
                  174.20    423.01420                                0.00000             73.266                                        4.23014e+002           2.30142e+001           3.01420e+000           1.41962e-002           1.41962e-002           4.19620e-003           1.96200e-004
                  174.30    423.01311                                0.00000             73.266                                        4.23013e+002           2.30131e+001           3.01311e+000           1.31091e-002           1.31091e-002           3.10908e-003           1.09076e-004
                  174.40    423.02223                                0.00000             73.263                                        4.23022e+002           2.30222e+001           3.02223e+000           2.22302e-002           2.22302e-002           2.23016e-003           2.30157e-004
                  174.50    423.01006                                0.00000             73.260                                        4.23010e+002           2.30101e+001           3.01006e+000           1.00587e-002           1.00587e-002           5.86549e-005           5.86549e-005
                  174.60    422.99715                                0.00000             73.260                                        4.22997e+002           2.29972e+001           2.99715e+000           9.97151e-001           9.71508e-002           7.15084e-003           1.50835e-004
                  174.70    423.01612                                0.00000             73.264                                        4.23016e+002           2.30161e+001           3.01612e+000           1.61195e-002           1.61195e-002           6.11946e-003           1.19460e-004
                  174.80    423.03409                                0.00000             73.263                                        4.23034e+002           2.30341e+001           3.03409e+000           3.40947e-002           3.40947e-002           4.09468e-003           9.46751e-005
