~VERSION INFORMATION
VERS                    .            2.0                                    :CWLS LOG ASCII STANDARD
WRAP                    .            NO                                     :ONE LINE PER TIME STEP


~WELL INFORMATION
#MNEM                   .UNIT        DATA                                    DESCRIPTION
#________________________________________________________________________________________
STRTTIME                .HH/MM/SS    15:44:09                               :START TIME
STOPTIME                .HH/MM/SS    15:46:59                               :STOP TIME
STRT                    .s           2.10                                   :START DATA
STOP                    .s           168.10                                 :STOP DATA
STEP                    .s           0.10                                   :MEASUREMENT TIME INTERVAL
NULL                    .            -999.25                                :NULL VALUE
COMP                    .            Statoil ASA                            :COMPANY
FLD                     .            Volve                                  :FIELD
WELL                    .            15/9-F-1 B                             :WELL
RUN                     .            7                                      :RUN
LOC                     .            Maersk Inspirer                        :LOCATION
PROV                    .            na                                     :PROVINCE
SRVC                    .            Baker Hughes INTEQ                     :SERVICE COMPANY
DATE                    .YY/MM/DD    13/09/06                               :LOG DATE
UWI                     .                                                   :UNIQUE WELL ID
DEPTHMD                 .m           3266.5                                 :MEASURED DEPTH
DEPTHTVD                .m           3062.4                                 :TRUE VERTICAL DEPTH


~CURVE INFORMATION
#MNEM                   .UNIT        API CODES                               DESCRIPTION
#________________________________________________________________________________________
TIME                    .s                                                  :01 TIME
DD_PRESS                .bar                                                :02 DRAW DOWN PRESSURE
DD_VOLUME               .cm3                                                :03 INCREMENTAL DRAW DOWN VOLUME
TEMP                    .degC                                               :04 TRANSDUCER TEMPERATURE
DD_PRESS_MOD_1000       .bar                                                :05 DRAW DOWN PRESSURE MOD 1000
DD_PRESS_MOD_100        .bar                                                :06 DRAW DOWN PRESSURE MOD 100
DD_PRESS_MOD_10         .bar                                                :07 DRAW DOWN PRESSURE MOD 10
DD_PRESS_MOD_1          .bar                                                :08 DRAW DOWN PRESSURE MOD 1
DD_PRESS_MOD_01         .bar                                                :09 DRAW DOWN PRESSURE MOD 01
DD_PRESS_MOD_001        .bar                                                :10 DRAW DOWN PRESSURE MOD 001
DD_PRESS_MOD_0001       .bar                                                :11 DRAW DOWN PRESSURE MOD 0001


~PARAMETER INFORMATION
#MNEM                   .UNIT        VALUE                                   DESCRIPTION
#________________________________________________________________________________________
TOOLFACE                .deg         na                                     :01 TOOLFACE
PUMP_CAPACITY           .bar         400                                    :02 NOMINAL DRAW DOWN PUMP CAPACITY
PUMP_LIMIT              .bar         400                                    :03 DOWNLINK PUMP LIMIT
TIME_LIMIT              .min         10                                     :04 DOWNLINK MAX TIME
TEST_TYPE               .            LOW MOBILITY                           :05 DOWNLINK
DD_PIST_A               .cm2         3.1416                                 :06 DRAW DOWN PISTON AREA
V_SYS                   .cm3         131.0000                               :07 SYSTEM VOLUME
PROBE_ID                .cm          1.2700                                 :08 TTK PROBE ID
G0                      .            4.6700                                 :09 GEOMETRY FACTOR


~A                  TIME     DD_PRESS                              DD_VOLUME               TEMP                                   DD_PRESS_MOD_1000       DD_PRESS_MOD_100        DD_PRESS_MOD_10         DD_PRESS_MOD_1        DD_PRESS_MOD_01       DD_PRESS_MOD_001      DD_PRESS_MOD_0001
# ...
                  153.30    438.30579                                0.00000             82.531                                        4.38306e+002           3.83058e+001           8.30579e+000           3.05790e-001           5.79036e-003           5.79036e-003           7.90365e-004
                  153.40    438.28931                                0.00000             82.531                                        4.38289e+002           3.82893e+001           8.28931e+000           2.89315e-001           8.93149e-002           9.31494e-003           3.14941e-004
                  153.50    438.27713                                0.00000             82.531                                        4.38277e+002           3.82771e+001           8.27713e+000           2.77127e-001           7.71266e-002           7.12663e-003           1.26626e-004
                  153.60    438.28471                                0.00000             82.531                                        4.38285e+002           3.82847e+001           8.28471e+000           2.84709e-001           8.47089e-002           4.70889e-003           7.08893e-004
                  153.70    438.30916                                0.00000             82.531                                        4.38309e+002           3.83092e+001           8.30916e+000           3.09157e-001           9.15730e-003           9.15730e-003           1.57299e-004
                  153.80    438.29666                                0.00000             82.531                                        4.38297e+002           3.82967e+001           8.29666e+000           2.96664e-001           9.66637e-002           6.66375e-003           6.63746e-004
                  153.90    438.28659                                0.00000             82.531                                        4.38287e+002           3.82866e+001           8.28659e+000           2.86586e-001           8.65865e-002           6.58646e-003           5.86463e-004
                  154.00    438.28984                                0.00000             82.531                                        4.38290e+002           3.82898e+001           8.28984e+000           2.89841e-001           8.98413e-002           9.84127e-003           8.41270e-004
                  154.10    438.30516                                0.00000             82.531                                        4.38305e+002           3.83052e+001           8.30516e+000           3.05158e-001           5.15776e-003           5.15776e-003           1.57756e-004
                  154.20    438.28653                                0.00000             82.531                                        4.38287e+002           3.82865e+001           8.28653e+000           2.86529e-001           8.65294e-002           6.52938e-003           5.29379e-004
                  154.30    438.27411                                0.00000             82.531                                        4.38274e+002           3.82741e+001           8.27411e+000           2.74110e-001           7.41105e-002           4.11045e-003           1.10454e-004
                  154.40    438.27433                                0.00000             82.531                                        4.38274e+002           3.82743e+001           8.27433e+000           2.74327e-001           7.43269e-002           4.32693e-003           3.26934e-004
                  154.50    438.29442                                0.00000             82.531                                        4.38294e+002           3.82944e+001           8.29442e+000           2.94420e-001           9.44197e-002           4.41968e-003           4.19677e-004
                  154.60    438.28492                                0.00000             82.531                                        4.38285e+002           3.82849e+001           8.28492e+000           2.84919e-001           8.49186e-002           4.91864e-003           9.18641e-004
                  154.70    438.27406                                0.00000             82.531                                        4.38274e+002           3.82741e+001           8.27406e+000           2.74057e-001           7.40570e-002           4.05697e-003           5.69694e-005
                  154.80    438.28710                                0.00000             82.531                                        4.38287e+002           3.82871e+001           8.28710e+000           2.87101e-001           8.71010e-002           7.10102e-003           1.01016e-004
                  154.90    438.32192                                0.00000             82.531                                        4.38322e+002           3.83219e+001           8.32192e+000           3.21920e-001           2.19197e-002           1.91972e-003           9.19717e-004
                  155.00    438.30748                                0.00000             82.531                                        4.38307e+002           3.83075e+001           8.30748e+000           3.07481e-001           7.48135e-003           7.48135e-003           4.81348e-004
                  155.10    438.27965                                0.00000             82.531                                        4.38280e+002           3.82797e+001           8.27965e+000           2.79653e-001           7.96534e-002           9.65340e-003           6.53400e-004
                  155.20    438.29323                                0.00000             82.531                                        4.38293e+002           3.82932e+001           8.29323e+000           2.93232e-001           9.32316e-002           3.23158e-003           2.31579e-004
                  155.30    438.32586                                0.00000             82.531                                        4.38326e+002           3.83259e+001           8.32586e+000           3.25859e-001           2.58590e-002           5.85902e-003           8.59016e-004
                  155.40    438.30804                                0.00000             82.531                                        4.38308e+002           3.83080e+001           8.30804e+000           3.08044e-001           8.04405e-003           8.04405e-003           4.40518e-005
                  155.50    438.29081                                0.00000             82.531                                        4.38291e+002           3.82908e+001           8.29081e+000           2.90806e-001           9.08055e-002           8.05524e-004           8.05524e-004
                  155.60    438.29711                                0.00000             82.531                                        4.38297e+002           3.82971e+001           8.29711e+000           2.97106e-001           9.71064e-002           7.10645e-003           1.06446e-004
                  155.70    438.31443                                0.00000             82.531                                        4.38314e+002           3.83144e+001           8.31443e+000           3.14431e-001           1.44315e-002           4.43149e-003           4.31487e-004
                  155.80    438.29060                                0.00000             82.531                                        4.38291e+002           3.82906e+001           8.29060e+000           2.90605e-001           9.06046e-002           6.04617e-004           6.04617e-004
                  155.90    438.27393                                0.00000             82.531                                        4.38274e+002           3.82739e+001           8.27393e+000           2.73929e-001           7.39291e-002           3.92909e-003           9.29094e-004
                  156.00    438.29364                                0.00000             82.531                                        4.38294e+002           3.82936e+001           8.29364e+000           2.93638e-001           9.36378e-002           3.63777e-003           6.37771e-004
