~VERSION INFORMATION
VERS                    .            2.0                                    :CWLS LOG ASCII STANDARD
WRAP                    .            NO                                     :ONE LINE PER TIME STEP


~WELL INFORMATION
#MNEM                   .UNIT        DATA                                    DESCRIPTION
#________________________________________________________________________________________
STRTTIME                .HH/MM/SS    00:10:18                               :START TIME
STOPTIME                .HH/MM/SS    00:13:47                               :STOP TIME
STRT                    .s           2.10                                   :START DATA
STOP                    .s           207.40                                 :STOP DATA
STEP                    .s           0.10                                   :MEASUREMENT TIME INTERVAL
NULL                    .            -999.25                                :NULL VALUE
COMP                    .            Statoil ASA                            :COMPANY
FLD                     .            Volve                                  :FIELD
WELL                    .            15/9-F-1                               :WELL
RUN                     .            4                                      :RUN
LOC                     .            Maersk Inspirer                        :LOCATION
PROV                    .            na                                     :PROVINCE
SRVC                    .            Baker Hughes INTEQ                     :SERVICE COMPANY
DATE                    .YY/MM/DD    13/08/19                               :LOG DATE
UWI                     .                                                   :UNIQUE WELL ID
DEPTHMD                 .m           3332.4                                 :MEASURED DEPTH
DEPTHTVD                .m           3056.0                                 :TRUE VERTICAL DEPTH


~CURVE INFORMATION
#MNEM                   .UNIT        API CODES                               DESCRIPTION
#________________________________________________________________________________________
TIME                    .s                                                  :01 TIME
DD_PRESS                .bar                                                :02 DRAW DOWN PRESSURE
DD_VOLUME               .cm3                                                :03 INCREMENTAL DRAW DOWN VOLUME
TEMP                    .degC                                               :04 TRANSDUCER TEMPERATURE
DD_PRESS_MOD_1000       .bar                                                :05 DRAW DOWN PRESSURE MOD 1000
DD_PRESS_MOD_100        .bar                                                :06 DRAW DOWN PRESSURE MOD 100
DD_PRESS_MOD_10         .bar                                                :07 DRAW DOWN PRESSURE MOD 10
DD_PRESS_MOD_1          .bar                                                :08 DRAW DOWN PRESSURE MOD 1
DD_PRESS_MOD_01         .bar                                                :09 DRAW DOWN PRESSURE MOD 01
DD_PRESS_MOD_001        .bar                                                :10 DRAW DOWN PRESSURE MOD 001
DD_PRESS_MOD_0001       .bar                                                :11 DRAW DOWN PRESSURE MOD 0001


~PARAMETER INFORMATION
#MNEM                   .UNIT        VALUE                                   DESCRIPTION
#________________________________________________________________________________________
TOOLFACE                .deg         78.2                                   :01 TOOLFACE
PUMP_CAPACITY           .bar         400                                    :02 NOMINAL DRAW DOWN PUMP CAPACITY
PUMP_LIMIT              .bar         240                                    :03 DOWNLINK PUMP LIMIT
TIME_LIMIT              .min         10                                     :04 DOWNLINK MAX TIME
TEST_TYPE               .            LOW MOBILITY                           :05 DOWNLINK
DD_PIST_A               .cm2         3.1416                                 :06 DRAW DOWN PISTON AREA
V_SYS                   .cm3         131.0000                               :07 SYSTEM VOLUME
PROBE_ID                .cm          1.2700                                 :08 TTK PROBE ID
G0                      .            4.6700                                 :09 GEOMETRY FACTOR


~A                  TIME     DD_PRESS                              DD_VOLUME               TEMP                                   DD_PRESS_MOD_1000       DD_PRESS_MOD_100        DD_PRESS_MOD_10         DD_PRESS_MOD_1        DD_PRESS_MOD_01       DD_PRESS_MOD_001      DD_PRESS_MOD_0001
# ...
                   41.30    340.62556                               10.77702             74.703                                        3.40626e+002           4.06256e+001           6.25564e-001           6.25564e-001           2.55641e-002           5.56415e-003           5.64148e-004
                   41.40    340.62290                               10.77702             74.703                                        3.40623e+002           4.06229e+001           6.22902e-001           6.22902e-001           2.29018e-002           2.90179e-003           9.01789e-004
                   41.50    340.62059                               10.77702             74.703                                        3.40621e+002           4.06206e+001           6.20592e-001           6.20592e-001           2.05924e-002           5.92447e-004           5.92447e-004
                   41.60    340.62194                               10.77702             74.703                                        3.40622e+002           4.06219e+001           6.21944e-001           6.21944e-001           2.19438e-002           1.94384e-003           9.43837e-004
                   41.70    340.62596                               10.77702             74.703                                        3.40626e+002           4.06260e+001           6.25963e-001           6.25963e-001           2.59626e-002           5.96262e-003           9.62624e-004
                   41.80    340.62522                               10.77702             74.703                                        3.40625e+002           4.06252e+001           6.25215e-001           6.25215e-001           2.52154e-002           5.21538e-003           2.15383e-004
                   41.90    340.62605                               10.77702             74.703                                        3.40626e+002           4.06260e+001           6.26045e-001           6.26045e-001           2.60452e-002           6.04523e-003           4.52285e-005
                   42.00    340.62594                               10.77702             74.703                                        3.40626e+002           4.06259e+001           6.25943e-001           6.25943e-001           2.59434e-002           5.94343e-003           9.43434e-004
                   42.10    340.62504                               10.77702             74.703                                        3.40625e+002           4.06250e+001           6.25037e-001           6.25037e-001           2.50365e-002           5.03650e-003           3.65049e-005
                   42.20    340.62616                               10.77702             74.703                                        3.40626e+002           4.06262e+001           6.26155e-001           6.26155e-001           2.61553e-002           6.15528e-003           1.55280e-004
                   42.30    340.62774                               10.77702             74.703                                        3.40628e+002           4.06277e+001           6.27744e-001           6.27744e-001           2.77436e-002           7.74363e-003           7.43627e-004
                   42.40    340.62688                               10.77702             74.703                                        3.40627e+002           4.06269e+001           6.26876e-001           6.26876e-001           2.68758e-002           6.87578e-003           8.75780e-004
                   42.50    340.62726                               10.77702             74.703                                        3.40627e+002           4.06273e+001           6.27258e-001           6.27258e-001           2.72579e-002           7.25787e-003           2.57866e-004
                   42.60    340.62588                               10.77702             74.703                                        3.40626e+002           4.06259e+001           6.25885e-001           6.25885e-001           2.58850e-002           5.88498e-003           8.84984e-004
                   42.70    340.62393                               10.77702             74.703                                        3.40624e+002           4.06239e+001           6.23933e-001           6.23933e-001           2.39335e-002           3.93348e-003           9.33482e-004
                   42.80    340.62302                               10.77702             74.703                                        3.40623e+002           4.06230e+001           6.23018e-001           6.23018e-001           2.30185e-002           3.01849e-003           1.84935e-005
                   42.90    340.62468                               10.77702             74.703                                        3.40625e+002           4.06247e+001           6.24681e-001           6.24681e-001           2.46806e-002           4.68059e-003           6.80590e-004
                   43.00    340.62421                               10.77702             74.703                                        3.40624e+002           4.06242e+001           6.24214e-001           6.24214e-001           2.42142e-002           4.21422e-003           2.14218e-004
                   43.10    340.62310                               10.77702             74.703                                        3.40623e+002           4.06231e+001           6.23097e-001           6.23097e-001           2.30969e-002           3.09688e-003           9.68757e-005
                   43.20    340.62502                               10.77702             74.703                                        3.40625e+002           4.06250e+001           6.25020e-001           6.25020e-001           2.50203e-002           5.02035e-003           2.03456e-005
                   43.30    340.62785                               10.77702             74.703                                        3.40628e+002           4.06278e+001           6.27850e-001           6.27850e-001           2.78499e-002           7.84993e-003           8.49927e-004
                   43.40    340.62613                               10.77702             74.703                                        3.40626e+002           4.06261e+001           6.26127e-001           6.26127e-001           2.61269e-002           6.12692e-003           1.26922e-004
                   43.50    340.62420                               10.77702             74.703                                        3.40624e+002           4.06242e+001           6.24199e-001           6.24199e-001           2.41987e-002           4.19871e-003           1.98709e-004
                   43.60    340.62505                               10.77702             74.703                                        3.40625e+002           4.06250e+001           6.25046e-001           6.25046e-001           2.50456e-002           5.04561e-003           4.56146e-005
                   43.70    340.62664                               10.77702             74.703                                        3.40627e+002           4.06266e+001           6.26643e-001           6.26643e-001           2.66431e-002           6.64308e-003           6.43080e-004
                   43.80    340.62700                               10.77702             74.703                                        3.40627e+002           4.06270e+001           6.26997e-001           6.26997e-001           2.69966e-002           6.99656e-003           9.96555e-004
                   43.90    340.62827                               10.77702             74.703                                        3.40628e+002           4.06283e+001           6.28268e-001           6.28268e-001           2.82681e-002           8.26814e-003           2.68142e-004
                   44.00    340.62757                               10.77702             74.703                                        3.40628e+002           4.06276e+001           6.27573e-001           6.27573e-001           2.75732e-002           7.57315e-003           5.73153e-004
