~VERSION INFORMATION
VERS                    .            2.0                                    :CWLS LOG ASCII STANDARD
WRAP                    .            NO                                     :ONE LINE PER TIME STEP


~WELL INFORMATION
#MNEM                   .UNIT        DATA                                    DESCRIPTION
#________________________________________________________________________________________
STRTTIME                .HH/MM/SS    09:08:53                               :START TIME
STOPTIME                .HH/MM/SS    09:11:57                               :STOP TIME
STRT                    .s           2.10                                   :START DATA
STOP                    .s           182.80                                 :STOP DATA
STEP                    .s           0.10                                   :MEASUREMENT TIME INTERVAL
NULL                    .            -999.25                                :NULL VALUE
COMP                    .            Statoil ASA                            :COMPANY
FLD                     .            Volve                                  :FIELD
WELL                    .            15/9-F-11 A                            :WELL
RUN                     .            8                                      :RUN
LOC                     .            Maersk Inspirer                        :LOCATION
PROV                    .            na                                     :PROVINCE
SRVC                    .            Baker Hughes INTEQ                     :SERVICE COMPANY
DATE                    .YY/MM/DD    13/05/21                               :LOG DATE
UWI                     .                                                   :UNIQUE WELL ID
DEPTHMD                 .m           3671.1                                 :MEASURED DEPTH
DEPTHTVD                .m           3056.7                                 :TRUE VERTICAL DEPTH


~CURVE INFORMATION
#MNEM                   .UNIT        API CODES                               DESCRIPTION
#________________________________________________________________________________________
TIME                    .s                                                  :01 TIME
DD_PRESS                .bar                                                :02 DRAW DOWN PRESSURE
DD_VOLUME               .cm3                                                :03 INCREMENTAL DRAW DOWN VOLUME
TEMP                    .degC                                               :04 TRANSDUCER TEMPERATURE
DD_PRESS_MOD_1000       .bar                                                :05 DRAW DOWN PRESSURE MOD 1000
DD_PRESS_MOD_100        .bar                                                :06 DRAW DOWN PRESSURE MOD 100
DD_PRESS_MOD_10         .bar                                                :07 DRAW DOWN PRESSURE MOD 10
DD_PRESS_MOD_1          .bar                                                :08 DRAW DOWN PRESSURE MOD 1
DD_PRESS_MOD_01         .bar                                                :09 DRAW DOWN PRESSURE MOD 01
DD_PRESS_MOD_001        .bar                                                :10 DRAW DOWN PRESSURE MOD 001
DD_PRESS_MOD_0001       .bar                                                :11 DRAW DOWN PRESSURE MOD 0001


~PARAMETER INFORMATION
#MNEM                   .UNIT        VALUE                                   DESCRIPTION
#________________________________________________________________________________________
TOOLFACE                .deg         -56.2                                  :01 TOOLFACE
PUMP_CAPACITY           .bar         400                                    :02 NOMINAL DRAW DOWN PUMP CAPACITY
PUMP_LIMIT              .bar         240                                    :03 DOWNLINK PUMP LIMIT
TIME_LIMIT              .min         10                                     :04 DOWNLINK MAX TIME
TEST_TYPE               .            REPEAT                                 :05 DOWNLINK
TEST_TYPE               .            HIGH MOBILITY                          :06 DOWNLINK
DD_PIST_A               .cm2         3.1416                                 :07 DRAW DOWN PISTON AREA
V_SYS                   .cm3         131.0000                               :08 SYSTEM VOLUME
PROBE_ID                .cm          1.2700                                 :09 TTK PROBE ID
G0                      .            4.6700                                 :10 GEOMETRY FACTOR


~A                  TIME     DD_PRESS                              DD_VOLUME               TEMP                                   DD_PRESS_MOD_1000       DD_PRESS_MOD_100        DD_PRESS_MOD_10         DD_PRESS_MOD_1        DD_PRESS_MOD_01       DD_PRESS_MOD_001      DD_PRESS_MOD_0001
# ...
                   27.30    419.74860                                1.00745             82.406                                        4.19749e+002           1.97486e+001           9.74860e+000           7.48604e-001           4.86041e-002           8.60411e-003           6.04112e-004
                   27.40    418.74156                                1.02301             82.406                                        4.18742e+002           1.87416e+001           8.74156e+000           7.41563e-001           4.15631e-002           1.56313e-003           5.63131e-004
                   27.50    417.58749                                1.04043             82.406                                        4.17587e+002           1.75875e+001           7.58749e+000           5.87491e-001           8.74905e-002           7.49053e-003           4.90528e-004
                   27.60    416.28177                                1.05982             82.406                                        4.16282e+002           1.62818e+001           6.28177e+000           2.81767e-001           8.17666e-002           1.76657e-003           7.66569e-004
                   27.70    414.85274                                1.08105             82.406                                        4.14853e+002           1.48527e+001           4.85274e+000           8.52744e-001           5.27440e-002           2.74399e-003           7.43993e-004
                   27.80    413.31552                                1.10427             82.406                                        4.13316e+002           1.33155e+001           3.31552e+000           3.15523e-001           1.55231e-002           5.52313e-003           5.23130e-004
                   27.90    411.60754                                1.12955             82.406                                        4.11608e+002           1.16075e+001           1.60754e+000           6.07538e-001           7.53803e-003           7.53803e-003           5.38027e-004
                   28.00    409.72481                                1.15674             82.406                                        4.09725e+002           9.72481e+000           9.72481e+000           7.24808e-001           2.48076e-002           4.80765e-003           8.07649e-004
                   28.10    407.71440                                1.18572             82.406                                        4.07714e+002           7.71440e+000           7.71440e+000           7.14397e-001           1.43971e-002           4.39706e-003           3.97063e-004
                   28.20    405.56468                                1.21663             82.406                                        4.05565e+002           5.56468e+000           5.56468e+000           5.64680e-001           6.46800e-002           4.67998e-003           6.79977e-004
                   28.30    403.22621                                1.24937             82.406                                        4.03226e+002           3.22621e+000           3.22621e+000           2.26211e-001           2.62109e-002           6.21086e-003           2.10855e-004
                   28.40    400.71788                                1.28399             82.406                                        4.00718e+002           7.17882e-001           7.17882e-001           7.17882e-001           1.78822e-002           7.88223e-003           8.82226e-004
                   28.50    398.11132                                1.32054             82.406                                        3.98111e+002           9.81113e+001           8.11132e+000           1.11323e-001           1.13232e-002           1.32318e-003           3.23184e-004
                   28.60    395.40569                                1.35897             82.406                                        3.95406e+002           9.54057e+001           5.40569e+000           4.05693e-001           5.69300e-003           5.69300e-003           6.93002e-004
                   28.70    392.51913                                1.39921             82.406                                        3.92519e+002           9.25191e+001           2.51913e+000           5.19128e-001           1.91282e-002           9.12822e-003           1.28221e-004
                   28.80    389.43856                                1.44121             82.406                                        3.89439e+002           8.94386e+001           9.43856e+000           4.38559e-001           3.85592e-002           8.55925e-003           5.59247e-004
                   28.90    386.21234                                1.48495             82.406                                        3.86212e+002           8.62123e+001           6.21234e+000           2.12341e-001           1.23408e-002           2.34075e-003           3.40754e-004
                   29.00    382.83081                                1.53043             82.406                                        3.82831e+002           8.28308e+001           2.83081e+000           8.30811e-001           3.08106e-002           8.10637e-004           8.10637e-004
                   29.10    379.26748                                1.57773             82.406                                        3.79267e+002           7.92675e+001           9.26748e+000           2.67477e-001           6.74769e-002           7.47693e-003           4.76931e-004
                   29.20    375.54473                                1.62679             82.409                                        3.75545e+002           7.55447e+001           5.54473e+000           5.44731e-001           4.47314e-002           4.73143e-003           7.31432e-004
                   29.30    371.71126                                1.67759             82.410                                        3.71711e+002           7.17113e+001           1.71126e+000           7.11256e-001           1.12565e-002           1.25648e-003           2.56483e-004
                   29.40    367.75367                                1.73005             82.408                                        3.67754e+002           6.77537e+001           7.75367e+000           7.53674e-001           5.36742e-002           3.67424e-003           6.74241e-004
                   29.50    363.63768                                1.78421             82.406                                        3.63638e+002           6.36377e+001           3.63768e+000           6.37680e-001           3.76802e-002           7.68022e-003           6.80217e-004
                   29.60    359.41176                                1.83998             82.406                                        3.59412e+002           5.94118e+001           9.41176e+000           4.11762e-001           1.17621e-002           1.76207e-003           7.62069e-004
                   29.70    355.10482                                1.89734             82.406                                        3.55105e+002           5.51048e+001           5.10482e+000           1.04817e-001           4.81724e-003           4.81724e-003           8.17238e-004
                   29.80    350.65311                                1.95640             82.406                                        3.50653e+002           5.06531e+001           6.53107e-001           6.53107e-001           5.31070e-002           3.10696e-003           1.06956e-004
                   29.90    346.11730                                2.01700             82.406                                        3.46117e+002           4.61173e+001           6.11730e+000           1.17296e-001           1.72960e-002           7.29599e-003           2.95990e-004
                   30.00    342.06005                                2.07905             82.406                                        3.42060e+002           4.20601e+001           2.06005e+000           6.00508e-002           6.00508e-002           5.08484e-005           5.08484e-005
