~VERSION INFORMATION
VERS                    .            2.0                                    :CWLS LOG ASCII STANDARD
WRAP                    .            NO                                     :ONE LINE PER TIME STEP


~WELL INFORMATION
#MNEM                   .UNIT        DATA                                    DESCRIPTION
#________________________________________________________________________________________
STRTTIME                .HH/MM/SS    22:39:37                               :START TIME
STOPTIME                .HH/MM/SS    22:43:03                               :STOP TIME
STRT                    .s           2.10                                   :START DATA
STOP                    .s           204.10                                 :STOP DATA
STEP                    .s           0.10                                   :MEASUREMENT TIME INTERVAL
NULL                    .            -999.25                                :NULL VALUE
COMP                    .            Statoil ASA                            :COMPANY
FLD                     .            Volve                                  :FIELD
WELL                    .            15/9-F-1 C                             :WELL
RUN                     .            4                                      :RUN
LOC                     .                                                   :LOCATION
PROV                    .            na                                     :PROVINCE
SRVC                    .            Baker Hughes INTEQ                     :SERVICE COMPANY
DATE                    .YY/MM/DD    14/03/14                               :LOG DATE
UWI                     .                                                   :UNIQUE WELL ID
DEPTHMD                 .m           3925.1                                 :MEASURED DEPTH
DEPTHTVD                .m           3120.2                                 :TRUE VERTICAL DEPTH


~CURVE INFORMATION
#MNEM                   .UNIT        API CODES                               DESCRIPTION
#________________________________________________________________________________________
TIME                    .s                                                  :01 TIME
DD_PRESS                .bar                                                :02 DRAW DOWN PRESSURE
DD_VOLUME               .cm3                                                :03 INCREMENTAL DRAW DOWN VOLUME
TEMP                    .degC                                               :04 TRANSDUCER TEMPERATURE
DD_PRESS_MOD_1000       .bar                                                :05 DRAW DOWN PRESSURE MOD 1000
DD_PRESS_MOD_100        .bar                                                :06 DRAW DOWN PRESSURE MOD 100
DD_PRESS_MOD_10         .bar                                                :07 DRAW DOWN PRESSURE MOD 10
DD_PRESS_MOD_1          .bar                                                :08 DRAW DOWN PRESSURE MOD 1
DD_PRESS_MOD_01         .bar                                                :09 DRAW DOWN PRESSURE MOD 01
DD_PRESS_MOD_001        .bar                                                :10 DRAW DOWN PRESSURE MOD 001
DD_PRESS_MOD_0001       .bar                                                :11 DRAW DOWN PRESSURE MOD 0001


~PARAMETER INFORMATION
#MNEM                   .UNIT        VALUE                                   DESCRIPTION
#________________________________________________________________________________________
TOOLFACE                .deg         -7.4                                   :01 TOOLFACE
PUMP_CAPACITY           .bar         400                                    :02 NOMINAL DRAW DOWN PUMP CAPACITY
PUMP_LIMIT              .bar         240                                    :03 DOWNLINK PUMP LIMIT
TIME_LIMIT              .min         10                                     :04 DOWNLINK MAX TIME
TEST_TYPE               .            HIGH MOBILITY                          :05 DOWNLINK
DD_PIST_A               .cm2         3.1416                                 :06 DRAW DOWN PISTON AREA
V_SYS                   .cm3         131.0000                               :07 SYSTEM VOLUME
PROBE_ID                .cm          1.2700                                 :08 TTK PROBE ID
G0                      .            4.6700                                 :09 GEOMETRY FACTOR


~A                  TIME     DD_PRESS                              DD_VOLUME               TEMP                                   DD_PRESS_MOD_1000       DD_PRESS_MOD_100        DD_PRESS_MOD_10         DD_PRESS_MOD_1        DD_PRESS_MOD_01       DD_PRESS_MOD_001      DD_PRESS_MOD_0001
# ...
                  108.50    353.16120                               19.86705             91.344                                        3.53161e+002           5.31612e+001           3.16120e+000           1.61205e-001           6.12049e-002           1.20489e-003           2.04886e-004
                  108.60    353.16496                               19.86705             91.344                                        3.53165e+002           5.31650e+001           3.16496e+000           1.64957e-001           6.49568e-002           4.95682e-003           9.56820e-004
                  108.70    353.16458                               19.86705             91.344                                        3.53165e+002           5.31646e+001           3.16458e+000           1.64578e-001           6.45782e-002           4.57821e-003           5.78214e-004
                  108.80    353.15799                               19.86705             91.344                                        3.53158e+002           5.31580e+001           3.15799e+000           1.57986e-001           5.79857e-002           7.98568e-003           9.85678e-004
                  108.90    353.15564                               19.86705             91.344                                        3.53156e+002           5.31556e+001           3.15564e+000           1.55635e-001           5.56354e-002           5.63539e-003           6.35387e-004
                  109.00    353.16116                               19.86705             91.344                                        3.53161e+002           5.31612e+001           3.16116e+000           1.61160e-001           6.11599e-002           1.15985e-003           1.59850e-004
                  109.10    353.16662                               19.86705             91.344                                        3.53167e+002           5.31666e+001           3.16662e+000           1.66617e-001           6.66170e-002           6.61701e-003           6.17014e-004
                  109.20    353.16642                               19.86705             91.344                                        3.53166e+002           5.31664e+001           3.16642e+000           1.66419e-001           6.64189e-002           6.41885e-003           4.18852e-004
                  109.30    353.16254                               19.86705             91.344                                        3.53163e+002           5.31625e+001           3.16254e+000           1.62538e-001           6.25376e-002           2.53759e-003           5.37595e-004
                  109.40    353.16017                               19.86705             91.344                                        3.53160e+002           5.31602e+001           3.16017e+000           1.60169e-001           6.01687e-002           1.68682e-004           1.68682e-004
                  109.50    353.16231                               19.86705             91.344                                        3.53162e+002           5.31623e+001           3.16231e+000           1.62308e-001           6.23084e-002           2.30844e-003           3.08436e-004
                  109.60    353.16690                               19.86705             91.344                                        3.53167e+002           5.31669e+001           3.16690e+000           1.66904e-001           6.69038e-002           6.90378e-003           9.03781e-004
                  109.70    353.16496                               19.86705             91.344                                        3.53165e+002           5.31650e+001           3.16496e+000           1.64962e-001           6.49624e-002           4.96237e-003           9.62365e-004
                  109.80    353.15850                               19.86705             91.344                                        3.53158e+002           5.31585e+001           3.15850e+000           1.58500e-001           5.84996e-002           8.49964e-003           4.99642e-004
                  109.90    353.15743                               19.86705             91.344                                        3.53157e+002           5.31574e+001           3.15743e+000           1.57430e-001           5.74301e-002           7.43013e-003           4.30126e-004
                  110.00    353.16186                               19.86705             91.344                                        3.53162e+002           5.31619e+001           3.16186e+000           1.61859e-001           6.18587e-002           1.85867e-003           8.58674e-004
                  110.10    353.16498                               19.86705             91.344                                        3.53165e+002           5.31650e+001           3.16498e+000           1.64980e-001           6.49803e-002           4.98027e-003           9.80269e-004
                  110.20    353.16211                               19.86705             91.344                                        3.53162e+002           5.31621e+001           3.16211e+000           1.62108e-001           6.21076e-002           2.10759e-003           1.07593e-004
                  110.30    353.15940                               19.86705             91.344                                        3.53159e+002           5.31594e+001           3.15940e+000           1.59404e-001           5.94042e-002           9.40423e-003           4.04234e-004
                  110.40    353.16072                               19.86705             91.344                                        3.53161e+002           5.31607e+001           3.16072e+000           1.60717e-001           6.07171e-002           7.17054e-004           7.17054e-004
                  110.50    353.16480                               19.86705             91.344                                        3.53165e+002           5.31648e+001           3.16480e+000           1.64804e-001           6.48039e-002           4.80388e-003           8.03876e-004
                  110.60    353.16834                               19.86705             91.344                                        3.53168e+002           5.31683e+001           3.16834e+000           1.68337e-001           6.83367e-002           8.33672e-003           3.36718e-004
                  110.70    353.16389                               19.86705             91.344                                        3.53164e+002           5.31639e+001           3.16389e+000           1.63891e-001           6.38912e-002           3.89123e-003           8.91226e-004
                  110.80    353.15866                               19.86705             91.344                                        3.53159e+002           5.31587e+001           3.15866e+000           1.58656e-001           5.86556e-002           8.65558e-003           6.55583e-004
                  110.90    353.15850                               19.86705             91.344                                        3.53159e+002           5.31585e+001           3.15850e+000           1.58501e-001           5.85008e-002           8.50080e-003           5.00798e-004
                  111.00    353.16409                               19.86705             91.344                                        3.53164e+002           5.31641e+001           3.16409e+000           1.64093e-001           6.40926e-002           4.09259e-003           9.25910e-005
                  111.10    353.16624                               19.86705             91.344                                        3.53166e+002           5.31662e+001           3.16624e+000           1.66237e-001           6.62374e-002           6.23739e-003           2.37394e-004
                  111.20    353.16216                               19.86705             91.344                                        3.53162e+002           5.31622e+001           3.16216e+000           1.62163e-001           6.21630e-002           2.16301e-003           1.63014e-004
