~VERSION INFORMATION
VERS                    .            2.0                                    :CWLS LOG ASCII STANDARD
WRAP                    .            NO                                     :ONE LINE PER TIME STEP


~WELL INFORMATION
#MNEM                   .UNIT        DATA                                    DESCRIPTION
#________________________________________________________________________________________
STRTTIME                .HH/MM/SS    15:44:09                               :START TIME
STOPTIME                .HH/MM/SS    15:46:59                               :STOP TIME
STRT                    .s           2.10                                   :START DATA
STOP                    .s           168.10                                 :STOP DATA
STEP                    .s           0.10                                   :MEASUREMENT TIME INTERVAL
NULL                    .            -999.25                                :NULL VALUE
COMP                    .            Statoil ASA                            :COMPANY
FLD                     .            Volve                                  :FIELD
WELL                    .            15/9-F-1 B                             :WELL
RUN                     .            7                                      :RUN
LOC                     .            Maersk Inspirer                        :LOCATION
PROV                    .            na                                     :PROVINCE
SRVC                    .            Baker Hughes INTEQ                     :SERVICE COMPANY
DATE                    .YY/MM/DD    13/09/06                               :LOG DATE
UWI                     .                                                   :UNIQUE WELL ID
DEPTHMD                 .m           3266.5                                 :MEASURED DEPTH
DEPTHTVD                .m           3062.4                                 :TRUE VERTICAL DEPTH


~CURVE INFORMATION
#MNEM                   .UNIT        API CODES                               DESCRIPTION
#________________________________________________________________________________________
TIME                    .s                                                  :01 TIME
DD_PRESS                .bar                                                :02 DRAW DOWN PRESSURE
DD_VOLUME               .cm3                                                :03 INCREMENTAL DRAW DOWN VOLUME
TEMP                    .degC                                               :04 TRANSDUCER TEMPERATURE
DD_PRESS_MOD_1000       .bar                                                :05 DRAW DOWN PRESSURE MOD 1000
DD_PRESS_MOD_100        .bar                                                :06 DRAW DOWN PRESSURE MOD 100
DD_PRESS_MOD_10         .bar                                                :07 DRAW DOWN PRESSURE MOD 10
DD_PRESS_MOD_1          .bar                                                :08 DRAW DOWN PRESSURE MOD 1
DD_PRESS_MOD_01         .bar                                                :09 DRAW DOWN PRESSURE MOD 01
DD_PRESS_MOD_001        .bar                                                :10 DRAW DOWN PRESSURE MOD 001
DD_PRESS_MOD_0001       .bar                                                :11 DRAW DOWN PRESSURE MOD 0001


~PARAMETER INFORMATION
#MNEM                   .UNIT        VALUE                                   DESCRIPTION
#________________________________________________________________________________________
TOOLFACE                .deg         na                                     :01 TOOLFACE
PUMP_CAPACITY           .bar         400                                    :02 NOMINAL DRAW DOWN PUMP CAPACITY
PUMP_LIMIT              .bar         400                                    :03 DOWNLINK PUMP LIMIT
TIME_LIMIT              .min         10                                     :04 DOWNLINK MAX TIME
TEST_TYPE               .            LOW MOBILITY                           :05 DOWNLINK
DD_PIST_A               .cm2         3.1416                                 :06 DRAW DOWN PISTON AREA
V_SYS                   .cm3         131.0000                               :07 SYSTEM VOLUME
PROBE_ID                .cm          1.2700                                 :08 TTK PROBE ID
G0                      .            4.6700                                 :09 GEOMETRY FACTOR


~A                  TIME     DD_PRESS                              DD_VOLUME               TEMP                                   DD_PRESS_MOD_1000       DD_PRESS_MOD_100        DD_PRESS_MOD_10         DD_PRESS_MOD_1        DD_PRESS_MOD_01       DD_PRESS_MOD_001      DD_PRESS_MOD_0001
# ...
                   44.10    346.50427                               10.81939             82.539                                        3.46504e+002           4.65043e+001           6.50427e+000           5.04269e-001           4.26925e-003           4.26925e-003           2.69254e-004
                   44.20    346.50432                               10.81939             82.539                                        3.46504e+002           4.65043e+001           6.50432e+000           5.04321e-001           4.32062e-003           4.32062e-003           3.20616e-004
                   44.30    346.50440                               10.81939             82.539                                        3.46504e+002           4.65044e+001           6.50440e+000           5.04402e-001           4.40208e-003           4.40208e-003           4.02083e-004
                   44.40    346.50437                               10.81939             82.539                                        3.46504e+002           4.65044e+001           6.50437e+000           5.04370e-001           4.36996e-003           4.36996e-003           3.69961e-004
                   44.50    346.50426                               10.81939             82.539                                        3.46504e+002           4.65043e+001           6.50426e+000           5.04263e-001           4.26289e-003           4.26289e-003           2.62892e-004
                   44.60    346.50442                               10.81939             82.539                                        3.46504e+002           4.65044e+001           6.50442e+000           5.04424e-001           4.42370e-003           4.42370e-003           4.23695e-004
                   44.70    346.50454                               10.81939             82.539                                        3.46505e+002           4.65045e+001           6.50454e+000           5.04543e-001           4.54289e-003           4.54289e-003           5.42894e-004
                   44.80    346.50447                               10.81939             82.539                                        3.46504e+002           4.65045e+001           6.50447e+000           5.04472e-001           4.47171e-003           4.47171e-003           4.71709e-004
                   44.90    346.50453                               10.81939             82.539                                        3.46505e+002           4.65045e+001           6.50453e+000           5.04529e-001           4.52878e-003           4.52878e-003           5.28784e-004
                   45.00    346.50460                               10.81939             82.539                                        3.46505e+002           4.65046e+001           6.50460e+000           5.04603e-001           4.60344e-003           4.60344e-003           6.03444e-004
                   45.10    346.50458                               10.81939             82.539                                        3.46505e+002           4.65046e+001           6.50458e+000           5.04578e-001           4.57758e-003           4.57758e-003           5.77584e-004
                   45.20    346.50453                               10.81939             82.539                                        3.46505e+002           4.65045e+001           6.50453e+000           5.04530e-001           4.52953e-003           4.52953e-003           5.29526e-004
                   45.30    346.50438                               10.81939             82.539                                        3.46504e+002           4.65044e+001           6.50438e+000           5.04381e-001           4.38076e-003           4.38076e-003           3.80762e-004
                   45.40    346.50437                               10.81939             82.539                                        3.46504e+002           4.65044e+001           6.50437e+000           5.04373e-001           4.37270e-003           4.37270e-003           3.72697e-004
                   45.50    346.50432                               10.81939             82.539                                        3.46504e+002           4.65043e+001           6.50432e+000           5.04320e-001           4.31971e-003           4.31971e-003           3.19707e-004
                   45.60    346.50624                               10.81939             82.539                                        3.46506e+002           4.65062e+001           6.50624e+000           5.06237e-001           6.23720e-003           6.23720e-003           2.37204e-004
                   45.70    346.50648                               10.81939             82.539                                        3.46506e+002           4.65065e+001           6.50648e+000           5.06479e-001           6.47938e-003           6.47938e-003           4.79381e-004
                   45.80    346.50502                               10.81939             82.539                                        3.46505e+002           4.65050e+001           6.50502e+000           5.05022e-001           5.02186e-003           5.02186e-003           2.18602e-005
                   45.90    346.50435                               10.81939             82.541                                        3.46504e+002           4.65043e+001           6.50435e+000           5.04347e-001           4.34750e-003           4.34750e-003           3.47496e-004
                   46.00    346.50429                               10.81939             82.545                                        3.46504e+002           4.65043e+001           6.50429e+000           5.04294e-001           4.29400e-003           4.29400e-003           2.93998e-004
                   46.10    346.50434                               10.81939             82.547                                        3.46504e+002           4.65043e+001           6.50434e+000           5.04335e-001           4.33523e-003           4.33523e-003           3.35227e-004
                   46.20    346.50443                               10.81939             82.547                                        3.46504e+002           4.65044e+001           6.50443e+000           5.04429e-001           4.42872e-003           4.42872e-003           4.28715e-004
                   46.30    346.50574                               10.81939             82.547                                        3.46506e+002           4.65057e+001           6.50574e+000           5.05742e-001           5.74216e-003           5.74216e-003           7.42155e-004
                   46.40    346.50680                               10.81939             82.545                                        3.46507e+002           4.65068e+001           6.50680e+000           5.06801e-001           6.80092e-003           6.80092e-003           8.00918e-004
                   46.50    346.50603                               10.81939             82.541                                        3.46506e+002           4.65060e+001           6.50603e+000           5.06032e-001           6.03206e-003           6.03206e-003           3.20551e-005
                   46.60    346.50434                               10.81939             82.539                                        3.46504e+002           4.65043e+001           6.50434e+000           5.04338e-001           4.33780e-003           4.33780e-003           3.37804e-004
                   46.70    346.50441                               10.81939             82.539                                        3.46504e+002           4.65044e+001           6.50441e+000           5.04408e-001           4.40815e-003           4.40815e-003           4.08149e-004
                   46.80    346.50464                               10.81939             82.541                                        3.46505e+002           4.65046e+001           6.50464e+000           5.04636e-001           4.63637e-003           4.63637e-003           6.36368e-004
