~VERSION INFORMATION
VERS                    .            2.0                                    :CWLS LOG ASCII STANDARD
WRAP                    .            NO                                     :ONE LINE PER TIME STEP


~WELL INFORMATION
#MNEM                   .UNIT        DATA                                    DESCRIPTION
#________________________________________________________________________________________
STRTTIME                .HH/MM/SS    09:08:53                               :START TIME
STOPTIME                .HH/MM/SS    09:11:57                               :STOP TIME
STRT                    .s           2.10                                   :START DATA
STOP                    .s           182.80                                 :STOP DATA
STEP                    .s           0.10                                   :MEASUREMENT TIME INTERVAL
NULL                    .            -999.25                                :NULL VALUE
COMP                    .            Statoil ASA                            :COMPANY
FLD                     .            Volve                                  :FIELD
WELL                    .            15/9-F-11 A                            :WELL
RUN                     .            8                                      :RUN
LOC                     .            Maersk Inspirer                        :LOCATION
PROV                    .            na                                     :PROVINCE
SRVC                    .            Baker Hughes INTEQ                     :SERVICE COMPANY
DATE                    .YY/MM/DD    13/05/21                               :LOG DATE
UWI                     .                                                   :UNIQUE WELL ID
DEPTHMD                 .m           3671.1                                 :MEASURED DEPTH
DEPTHTVD                .m           3056.7                                 :TRUE VERTICAL DEPTH


~CURVE INFORMATION
#MNEM                   .UNIT        API CODES                               DESCRIPTION
#________________________________________________________________________________________
TIME                    .s                                                  :01 TIME
DD_PRESS                .bar                                                :02 DRAW DOWN PRESSURE
DD_VOLUME               .cm3                                                :03 INCREMENTAL DRAW DOWN VOLUME
TEMP                    .degC                                               :04 TRANSDUCER TEMPERATURE
DD_PRESS_MOD_1000       .bar                                                :05 DRAW DOWN PRESSURE MOD 1000
DD_PRESS_MOD_100        .bar                                                :06 DRAW DOWN PRESSURE MOD 100
DD_PRESS_MOD_10         .bar                                                :07 DRAW DOWN PRESSURE MOD 10
DD_PRESS_MOD_1          .bar                                                :08 DRAW DOWN PRESSURE MOD 1
DD_PRESS_MOD_01         .bar                                                :09 DRAW DOWN PRESSURE MOD 01
DD_PRESS_MOD_001        .bar                                                :10 DRAW DOWN PRESSURE MOD 001
DD_PRESS_MOD_0001       .bar                                                :11 DRAW DOWN PRESSURE MOD 0001


~PARAMETER INFORMATION
#MNEM                   .UNIT        VALUE                                   DESCRIPTION
#________________________________________________________________________________________
TOOLFACE                .deg         -56.2                                  :01 TOOLFACE
PUMP_CAPACITY           .bar         400                                    :02 NOMINAL DRAW DOWN PUMP CAPACITY
PUMP_LIMIT              .bar         240                                    :03 DOWNLINK PUMP LIMIT
TIME_LIMIT              .min         10                                     :04 DOWNLINK MAX TIME
TEST_TYPE               .            REPEAT                                 :05 DOWNLINK
TEST_TYPE               .            HIGH MOBILITY                          :06 DOWNLINK
DD_PIST_A               .cm2         3.1416                                 :07 DRAW DOWN PISTON AREA
V_SYS                   .cm3         131.0000                               :08 SYSTEM VOLUME
PROBE_ID                .cm          1.2700                                 :09 TTK PROBE ID
G0                      .            4.6700                                 :10 GEOMETRY FACTOR


~A                  TIME     DD_PRESS                              DD_VOLUME               TEMP                                   DD_PRESS_MOD_1000       DD_PRESS_MOD_100        DD_PRESS_MOD_10         DD_PRESS_MOD_1        DD_PRESS_MOD_01       DD_PRESS_MOD_001      DD_PRESS_MOD_0001
# ...
                  156.10    345.04602                               26.33602             82.422                                        3.45046e+002           4.50460e+001           5.04602e+000           4.60186e-002           4.60186e-002           6.01857e-003           1.85728e-005
                  156.20    345.04440                               26.33602             82.422                                        3.45044e+002           4.50444e+001           5.04440e+000           4.44035e-002           4.44035e-002           4.40352e-003           4.03523e-004
                  156.30    345.05104                               26.33602             82.422                                        3.45051e+002           4.50510e+001           5.05104e+000           5.10401e-002           5.10401e-002           1.04013e-003           4.01339e-005
                  156.40    345.04709                               26.33602             82.422                                        3.45047e+002           4.50471e+001           5.04709e+000           4.70908e-002           4.70908e-002           7.09085e-003           9.08462e-005
                  156.50    345.04317                               26.33602             82.422                                        3.45043e+002           4.50432e+001           5.04317e+000           4.31685e-002           4.31685e-002           3.16854e-003           1.68539e-004
                  156.60    345.04750                               26.33602             82.422                                        3.45048e+002           4.50475e+001           5.04750e+000           4.75049e-002           4.75049e-002           7.50492e-003           5.04917e-004
                  156.70    345.04417                               26.33602             82.422                                        3.45044e+002           4.50442e+001           5.04417e+000           4.41666e-002           4.41666e-002           4.16660e-003           1.66597e-004
                  156.80    345.03449                               26.33602             82.422                                        3.45034e+002           4.50345e+001           5.03449e+000           3.44880e-002           3.44880e-002           4.48800e-003           4.88003e-004
                  156.90    345.03566                               26.33602             82.422                                        3.45036e+002           4.50357e+001           5.03566e+000           3.56585e-002           3.56585e-002           5.65847e-003           6.58472e-004
                  157.00    345.04763                               26.33602             82.422                                        3.45048e+002           4.50476e+001           5.04763e+000           4.76342e-002           4.76342e-002           7.63423e-003           6.34228e-004
                  157.10    345.04355                               26.33602             82.422                                        3.45044e+002           4.50436e+001           5.04355e+000           4.35526e-002           4.35526e-002           3.55255e-003           5.52552e-004
                  157.20    345.03762                               26.33602             82.422                                        3.45038e+002           4.50376e+001           5.03762e+000           3.76210e-002           3.76210e-002           7.62099e-003           6.20990e-004
                  157.30    345.04091                               26.33602             82.422                                        3.45041e+002           4.50409e+001           5.04091e+000           4.09132e-002           4.09132e-002           9.13220e-004           9.13220e-004
                  157.40    345.03827                               26.33602             82.422                                        3.45038e+002           4.50383e+001           5.03827e+000           3.82709e-002           3.82709e-002           8.27089e-003           2.70893e-004
                  157.50    345.02708                               26.33602             82.422                                        3.45027e+002           4.50271e+001           5.02708e+000           2.70847e-002           2.70847e-002           7.08468e-003           8.46789e-005
                  157.60    345.02571                               26.33602             82.422                                        3.45026e+002           4.50257e+001           5.02571e+000           2.57070e-002           2.57070e-002           5.70696e-003           7.06965e-004
                  157.70    345.03619                               26.33602             82.422                                        3.45036e+002           4.50362e+001           5.03619e+000           3.61938e-002           3.61938e-002           6.19381e-003           1.93806e-004
                  157.80    345.05326                               26.33602             82.422                                        3.45053e+002           4.50533e+001           5.05326e+000           5.32604e-002           5.32604e-002           3.26037e-003           2.60371e-004
                  157.90    345.06488                               26.33602             82.422                                        3.45065e+002           4.50649e+001           5.06488e+000           6.48845e-002           6.48845e-002           4.88450e-003           8.84501e-004
                  158.00    345.06286                               26.33602             82.422                                        3.45063e+002           4.50629e+001           5.06286e+000           6.28647e-002           6.28647e-002           2.86466e-003           8.64663e-004
                  158.10    345.05028                               26.33602             82.422                                        3.45050e+002           4.50503e+001           5.05028e+000           5.02772e-002           5.02772e-002           2.77234e-004           2.77234e-004
                  158.20    345.04084                               26.33602             82.422                                        3.45041e+002           4.50408e+001           5.04084e+000           4.08391e-002           4.08391e-002           8.39083e-004           8.39083e-004
                  158.30    345.04393                               26.33602             82.422                                        3.45044e+002           4.50439e+001           5.04393e+000           4.39340e-002           4.39340e-002           3.93399e-003           9.33987e-004
                  158.40    345.04113                               26.33602             82.422                                        3.45041e+002           4.50411e+001           5.04113e+000           4.11313e-002           4.11313e-002           1.13126e-003           1.31255e-004
                  158.50    345.03686                               26.33602             82.422                                        3.45037e+002           4.50369e+001           5.03686e+000           3.68614e-002           3.68614e-002           6.86139e-003           8.61388e-004
                  158.60    345.04345                               26.33602             82.422                                        3.45043e+002           4.50435e+001           5.04345e+000           4.34502e-002           4.34502e-002           3.45021e-003           4.50206e-004
                  158.70    345.05161                               26.33602             82.422                                        3.45052e+002           4.50516e+001           5.05161e+000           5.16148e-002           5.16148e-002           1.61483e-003           6.14834e-004
                  158.80    345.04152                               26.33602             82.422                                        3.45042e+002           4.50415e+001           5.04152e+000           4.15166e-002           4.15166e-002           1.51660e-003           5.16597e-004
