~VERSION INFORMATION
VERS                    .            2.0                                    :CWLS LOG ASCII STANDARD
WRAP                    .            NO                                     :ONE LINE PER TIME STEP


~WELL INFORMATION
#MNEM                   .UNIT        DATA                                    DESCRIPTION
#________________________________________________________________________________________
STRTTIME                .HH/MM/SS    13:32:32                               :START TIME
STOPTIME                .HH/MM/SS    13:36:23                               :STOP TIME
STRT                    .s           2.10                                   :START DATA
STOP                    .s           229.20                                 :STOP DATA
STEP                    .s           0.10                                   :MEASUREMENT TIME INTERVAL
NULL                    .            -999.25                                :NULL VALUE
COMP                    .            Statoil ASA                            :COMPANY
FLD                     .            Volve                                  :FIELD
WELL                    .            15/9-F-1 B                             :WELL
RUN                     .            7                                      :RUN
LOC                     .            Maersk Inspirer                        :LOCATION
PROV                    .            na                                     :PROVINCE
SRVC                    .            Baker Hughes INTEQ                     :SERVICE COMPANY
DATE                    .YY/MM/DD    13/09/06                               :LOG DATE
UWI                     .                                                   :UNIQUE WELL ID
DEPTHMD                 .m           3301.5                                 :MEASURED DEPTH
DEPTHTVD                .m           3096.9                                 :TRUE VERTICAL DEPTH


~CURVE INFORMATION
#MNEM                   .UNIT        API CODES                               DESCRIPTION
#________________________________________________________________________________________
TIME                    .s                                                  :01 TIME
DD_PRESS                .bar                                                :02 DRAW DOWN PRESSURE
DD_VOLUME               .cm3                                                :03 INCREMENTAL DRAW DOWN VOLUME
TEMP                    .degC                                               :04 TRANSDUCER TEMPERATURE
DD_PRESS_MOD_1000       .bar                                                :05 DRAW DOWN PRESSURE MOD 1000
DD_PRESS_MOD_100        .bar                                                :06 DRAW DOWN PRESSURE MOD 100
DD_PRESS_MOD_10         .bar                                                :07 DRAW DOWN PRESSURE MOD 10
DD_PRESS_MOD_1          .bar                                                :08 DRAW DOWN PRESSURE MOD 1
DD_PRESS_MOD_01         .bar                                                :09 DRAW DOWN PRESSURE MOD 01
DD_PRESS_MOD_001        .bar                                                :10 DRAW DOWN PRESSURE MOD 001
DD_PRESS_MOD_0001       .bar                                                :11 DRAW DOWN PRESSURE MOD 0001


~PARAMETER INFORMATION
#MNEM                   .UNIT        VALUE                                   DESCRIPTION
#________________________________________________________________________________________
TOOLFACE                .deg         na                                     :01 TOOLFACE
PUMP_CAPACITY           .bar         400                                    :02 NOMINAL DRAW DOWN PUMP CAPACITY
PUMP_LIMIT              .bar         400                                    :03 DOWNLINK PUMP LIMIT
TIME_LIMIT              .min         10                                     :04 DOWNLINK MAX TIME
TEST_TYPE               .            LOW MOBILITY                           :05 DOWNLINK
DD_PIST_A               .cm2         3.1416                                 :06 DRAW DOWN PISTON AREA
V_SYS                   .cm3         131.0000                               :07 SYSTEM VOLUME
PROBE_ID                .cm          1.2700                                 :08 TTK PROBE ID
G0                      .            4.6700                                 :09 GEOMETRY FACTOR


~A                  TIME     DD_PRESS                              DD_VOLUME               TEMP                                   DD_PRESS_MOD_1000       DD_PRESS_MOD_100        DD_PRESS_MOD_10         DD_PRESS_MOD_1        DD_PRESS_MOD_01       DD_PRESS_MOD_001      DD_PRESS_MOD_0001
# ...
                  105.70    349.41062                               14.61724             85.383                                        3.49411e+002           4.94106e+001           9.41062e+000           4.10623e-001           1.06229e-002           6.22881e-004           6.22881e-004
                  105.80    349.40445                               14.61724             85.383                                        3.49404e+002           4.94044e+001           9.40445e+000           4.04447e-001           4.44692e-003           4.44692e-003           4.46918e-004
                  105.90    349.37806                               14.61724             85.383                                        3.49378e+002           4.93781e+001           9.37806e+000           3.78060e-001           7.80599e-002           8.05986e-003           5.98569e-005
                  106.00    349.36484                               14.61724             85.383                                        3.49365e+002           4.93648e+001           9.36484e+000           3.64843e-001           6.48434e-002           4.84341e-003           8.43409e-004
                  106.10    349.37594                               14.61724             85.383                                        3.49376e+002           4.93759e+001           9.37594e+000           3.75944e-001           7.59443e-002           5.94426e-003           9.44261e-004
                  106.20    349.36262                               14.61724             85.383                                        3.49363e+002           4.93626e+001           9.36262e+000           3.62623e-001           6.26234e-002           2.62344e-003           6.23445e-004
                  106.30    349.33787                               14.61724             85.383                                        3.49338e+002           4.93379e+001           9.33787e+000           3.37874e-001           3.78742e-002           7.87419e-003           8.74191e-004
                  106.40    349.36701                               14.61724             85.383                                        3.49367e+002           4.93670e+001           9.36701e+000           3.67013e-001           6.70131e-002           7.01313e-003           1.31342e-005
                  106.50    349.41037                               14.61724             85.383                                        3.49410e+002           4.94104e+001           9.41037e+000           4.10368e-001           1.03676e-002           3.67597e-004           3.67597e-004
                  106.60    349.41752                               14.61724             85.383                                        3.49418e+002           4.94175e+001           9.41752e+000           4.17524e-001           1.75240e-002           7.52399e-003           5.23987e-004
                  106.70    349.40877                               14.61724             85.383                                        3.49409e+002           4.94088e+001           9.40877e+000           4.08772e-001           8.77214e-003           8.77214e-003           7.72142e-004
                  106.80    349.38589                               14.61724             85.383                                        3.49386e+002           4.93859e+001           9.38589e+000           3.85894e-001           8.58943e-002           5.89434e-003           8.94339e-004
                  106.90    349.34875                               14.61724             85.383                                        3.49349e+002           4.93487e+001           9.34875e+000           3.48750e-001           4.87495e-002           8.74951e-003           7.49510e-004
                  107.00    349.34146                               14.61724             85.383                                        3.49341e+002           4.93415e+001           9.34146e+000           3.41465e-001           4.14646e-002           1.46455e-003           4.64555e-004
                  107.10    349.37962                               14.61724             85.383                                        3.49380e+002           4.93796e+001           9.37962e+000           3.79625e-001           7.96249e-002           9.62487e-003           6.24868e-004
                  107.20    349.42772                               14.61724             85.383                                        3.49428e+002           4.94277e+001           9.42772e+000           4.27724e-001           2.77241e-002           7.72415e-003           7.24148e-004
                  107.30    349.41146                               14.61724             85.383                                        3.49411e+002           4.94115e+001           9.41146e+000           4.11462e-001           1.14617e-002           1.46174e-003           4.61743e-004
                  107.40    349.37900                               14.61724             85.383                                        3.49379e+002           4.93790e+001           9.37900e+000           3.78997e-001           7.89974e-002           8.99745e-003           9.97447e-004
                  107.50    349.36831                               14.61724             85.383                                        3.49368e+002           4.93683e+001           9.36831e+000           3.68305e-001           6.83052e-002           8.30518e-003           3.05180e-004
                  107.60    349.37415                               14.61724             85.383                                        3.49374e+002           4.93742e+001           9.37415e+000           3.74151e-001           7.41513e-002           4.15132e-003           1.51318e-004
                  107.70    349.39809                               14.61724             85.383                                        3.49398e+002           4.93981e+001           9.39809e+000           3.98085e-001           9.80855e-002           8.08549e-003           8.54873e-005
                  107.80    349.40752                               14.61724             85.383                                        3.49408e+002           4.94075e+001           9.40752e+000           4.07521e-001           7.52118e-003           7.52118e-003           5.21175e-004
                  107.90    349.38679                               14.61724             85.383                                        3.49387e+002           4.93868e+001           9.38679e+000           3.86788e-001           8.67875e-002           6.78751e-003           7.87508e-004
                  108.00    349.38070                               14.61724             85.383                                        3.49381e+002           4.93807e+001           9.38070e+000           3.80703e-001           8.07025e-002           7.02510e-004           7.02510e-004
                  108.10    349.39184                               14.61724             85.383                                        3.49392e+002           4.93918e+001           9.39184e+000           3.91842e-001           9.18423e-002           1.84227e-003           8.42267e-004
                  108.20    349.38363                               14.61724             85.383                                        3.49384e+002           4.93836e+001           9.38363e+000           3.83625e-001           8.36254e-002           3.62544e-003           6.25437e-004
                  108.30    349.38773                               14.61724             85.383                                        3.49388e+002           4.93877e+001           9.38773e+000           3.87731e-001           8.77305e-002           7.73053e-003           7.30530e-004
                  108.40    349.40847                               14.61724             85.380                                        3.49408e+002           4.94085e+001           9.40847e+000           4.08475e-001           8.47489e-003           8.47489e-003           4.74892e-004
