~VERSION INFORMATION
VERS                    .            2.0                                    :CWLS LOG ASCII STANDARD
WRAP                    .            NO                                     :ONE LINE PER TIME STEP


~WELL INFORMATION
#MNEM                   .UNIT        DATA                                    DESCRIPTION
#________________________________________________________________________________________
STRTTIME                .HH/MM/SS    19:52:58                               :START TIME
STOPTIME                .HH/MM/SS    19:58:21                               :STOP TIME
STRT                    .s           2.10                                   :START DATA
STOP                    .s           321.30                                 :STOP DATA
STEP                    .s           0.10                                   :MEASUREMENT TIME INTERVAL
NULL                    .            -999.25                                :NULL VALUE
COMP                    .            Statoil ASA                            :COMPANY
FLD                     .            Volve                                  :FIELD
WELL                    .            15/9-F-11 A                            :WELL
RUN                     .            8                                      :RUN
LOC                     .            Maersk Inspirer                        :LOCATION
PROV                    .            na                                     :PROVINCE
SRVC                    .            Baker Hughes INTEQ                     :SERVICE COMPANY
DATE                    .YY/MM/DD    13/05/23                               :LOG DATE
UWI                     .                                                   :UNIQUE WELL ID
DEPTHMD                 .m           3602.0                                 :MEASURED DEPTH
DEPTHTVD                .m           3003.9                                 :TRUE VERTICAL DEPTH


~CURVE INFORMATION
#MNEM                   .UNIT        API CODES                               DESCRIPTION
#________________________________________________________________________________________
TIME                    .s                                                  :01 TIME
DD_PRESS                .bar                                                :02 DRAW DOWN PRESSURE
DD_VOLUME               .cm3                                                :03 INCREMENTAL DRAW DOWN VOLUME
TEMP                    .degC                                               :04 TRANSDUCER TEMPERATURE
DD_PRESS_MOD_1000       .bar                                                :05 DRAW DOWN PRESSURE MOD 1000
DD_PRESS_MOD_100        .bar                                                :06 DRAW DOWN PRESSURE MOD 100
DD_PRESS_MOD_10         .bar                                                :07 DRAW DOWN PRESSURE MOD 10
DD_PRESS_MOD_1          .bar                                                :08 DRAW DOWN PRESSURE MOD 1
DD_PRESS_MOD_01         .bar                                                :09 DRAW DOWN PRESSURE MOD 01
DD_PRESS_MOD_001        .bar                                                :10 DRAW DOWN PRESSURE MOD 001
DD_PRESS_MOD_0001       .bar                                                :11 DRAW DOWN PRESSURE MOD 0001


~PARAMETER INFORMATION
#MNEM                   .UNIT        VALUE                                   DESCRIPTION
#________________________________________________________________________________________
TOOLFACE                .deg         -40.9                                  :01 TOOLFACE
PUMP_CAPACITY           .bar         400                                    :02 NOMINAL DRAW DOWN PUMP CAPACITY
PUMP_LIMIT              .bar         240                                    :03 DOWNLINK PUMP LIMIT
TIME_LIMIT              .min         10                                     :04 DOWNLINK MAX TIME
TEST_TYPE               .            REPEAT                                 :05 DOWNLINK
TEST_TYPE               .            HIGH MOBILITY                          :06 DOWNLINK
DD_PIST_A               .cm2         3.1416                                 :07 DRAW DOWN PISTON AREA
V_SYS                   .cm3         131.0000                               :08 SYSTEM VOLUME
PROBE_ID                .cm          1.2700                                 :09 TTK PROBE ID
G0                      .            4.6700                                 :10 GEOMETRY FACTOR


~A                  TIME     DD_PRESS                              DD_VOLUME               TEMP                                   DD_PRESS_MOD_1000       DD_PRESS_MOD_100        DD_PRESS_MOD_10         DD_PRESS_MOD_1        DD_PRESS_MOD_01       DD_PRESS_MOD_001      DD_PRESS_MOD_0001
# ...
                  254.10    341.62974                               13.04235             71.078                                        3.41630e+002           4.16297e+001           1.62974e+000           6.29743e-001           2.97434e-002           9.74337e-003           7.43366e-004
                  254.20    341.55356                               13.04235             71.078                                        3.41554e+002           4.15536e+001           1.55356e+000           5.53564e-001           5.35641e-002           3.56409e-003           5.64087e-004
                  254.30    341.57450                               13.04235             71.078                                        3.41574e+002           4.15745e+001           1.57450e+000           5.74499e-001           7.44988e-002           4.49876e-003           4.98755e-004
                  254.40    341.66988                               13.04235             71.078                                        3.41670e+002           4.16699e+001           1.66988e+000           6.69880e-001           6.98802e-002           9.88021e-003           8.80207e-004
                  254.50    341.65267                               13.04235             71.078                                        3.41653e+002           4.16527e+001           1.65267e+000           6.52671e-001           5.26711e-002           2.67107e-003           6.71067e-004
                  254.60    341.56464                               13.04235             71.078                                        3.41565e+002           4.15646e+001           1.56464e+000           5.64642e-001           6.46424e-002           4.64239e-003           6.42394e-004
                  254.70    341.58883                               13.04235             71.078                                        3.41589e+002           4.15888e+001           1.58883e+000           5.88834e-001           8.88339e-002           8.83387e-003           8.33873e-004
                  254.80    341.67340                               13.04235             71.078                                        3.41673e+002           4.16734e+001           1.67340e+000           6.73401e-001           7.34012e-002           3.40124e-003           4.01241e-004
                  254.90    341.63195                               13.04235             71.078                                        3.41632e+002           4.16319e+001           1.63195e+000           6.31946e-001           3.19459e-002           1.94588e-003           9.45878e-004
                  255.00    341.53493                               13.04235             71.078                                        3.41535e+002           4.15349e+001           1.53493e+000           5.34929e-001           3.49294e-002           4.92943e-003           9.29426e-004
                  255.10    341.55625                               13.04235             71.078                                        3.41556e+002           4.15563e+001           1.55625e+000           5.56252e-001           5.62522e-002           6.25219e-003           2.52190e-004
                  255.20    341.63059                               13.04235             71.078                                        3.41631e+002           4.16306e+001           1.63059e+000           6.30588e-001           3.05884e-002           5.88388e-004           5.88388e-004
                  255.30    341.61759                               13.04235             71.078                                        3.41618e+002           4.16176e+001           1.61759e+000           6.17593e-001           1.75925e-002           7.59251e-003           5.92513e-004
                  255.40    341.59299                               13.04235             71.078                                        3.41593e+002           4.15930e+001           1.59299e+000           5.92991e-001           9.29907e-002           2.99068e-003           9.90678e-004
                  255.50    341.68836                               13.04235             71.078                                        3.41688e+002           4.16884e+001           1.68836e+000           6.88359e-001           8.83587e-002           8.35868e-003           3.58679e-004
                  255.60    341.78247                               13.04235             71.078                                        3.41782e+002           4.17825e+001           1.78247e+000           7.82469e-001           8.24688e-002           2.46883e-003           4.68826e-004
                  255.70    341.73888                               13.04235             71.078                                        3.41739e+002           4.17389e+001           1.73888e+000           7.38880e-001           3.88799e-002           8.87986e-003           8.79861e-004
                  255.80    341.61412                               13.04235             71.078                                        3.41614e+002           4.16141e+001           1.61412e+000           6.14122e-001           1.41217e-002           4.12166e-003           1.21663e-004
                  255.90    341.61559                               13.04235             71.078                                        3.41616e+002           4.16156e+001           1.61559e+000           6.15587e-001           1.55875e-002           5.58750e-003           5.87497e-004
                  256.00    341.64782                               13.04235             71.078                                        3.41648e+002           4.16478e+001           1.64782e+000           6.47822e-001           4.78218e-002           7.82181e-003           8.21815e-004
                  256.10    341.58942                               13.04235             71.078                                        3.41589e+002           4.15894e+001           1.58942e+000           5.89418e-001           8.94183e-002           9.41832e-003           4.18324e-004
                  256.20    341.53253                               13.04235             71.078                                        3.41533e+002           4.15325e+001           1.53253e+000           5.32534e-001           3.25345e-002           2.53448e-003           5.34480e-004
                  256.30    341.58877                               13.04235             71.078                                        3.41589e+002           4.15888e+001           1.58877e+000           5.88772e-001           8.87716e-002           8.77156e-003           7.71557e-004
                  256.40    341.66140                               13.04235             71.078                                        3.41661e+002           4.16614e+001           1.66140e+000           6.61396e-001           6.13956e-002           1.39557e-003           3.95573e-004
                  256.50    341.63652                               13.04235             71.078                                        3.41637e+002           4.16365e+001           1.63652e+000           6.36523e-001           3.65234e-002           6.52343e-003           5.23431e-004
                  256.60    341.57141                               13.04235             71.078                                        3.41571e+002           4.15714e+001           1.57141e+000           5.71410e-001           7.14099e-002           1.40986e-003           4.09860e-004
                  256.70    341.60463                               13.04235             71.078                                        3.41605e+002           4.16046e+001           1.60463e+000           6.04634e-001           4.63360e-003           4.63360e-003           6.33597e-004
                  256.80    341.64663                               13.04235             71.078                                        3.41647e+002           4.16466e+001           1.64663e+000           6.46633e-001           4.66326e-002           6.63258e-003           6.32585e-004
