~VERSION INFORMATION
VERS                    .            2.0                                    :CWLS LOG ASCII STANDARD
WRAP                    .            NO                                     :ONE LINE PER TIME STEP


~WELL INFORMATION
#MNEM                   .UNIT        DATA                                    DESCRIPTION
#________________________________________________________________________________________
STRTTIME                .HH/MM/SS    18:24:11                               :START TIME
STOPTIME                .HH/MM/SS    18:26:54                               :STOP TIME
STRT                    .s           2.10                                   :START DATA
STOP                    .s           161.30                                 :STOP DATA
STEP                    .s           0.10                                   :MEASUREMENT TIME INTERVAL
NULL                    .            -999.25                                :NULL VALUE
COMP                    .            Statoil ASA                            :COMPANY
FLD                     .            Volve                                  :FIELD
WELL                    .            15/9-F-11 A                            :WELL
RUN                     .            8                                      :RUN
LOC                     .            Maersk Inspirer                        :LOCATION
PROV                    .            na                                     :PROVINCE
SRVC                    .            Baker Hughes INTEQ                     :SERVICE COMPANY
DATE                    .YY/MM/DD    13/05/23                               :LOG DATE
UWI                     .                                                   :UNIQUE WELL ID
DEPTHMD                 .m           3681.0                                 :MEASURED DEPTH
DEPTHTVD                .m           3064.4                                 :TRUE VERTICAL DEPTH


~CURVE INFORMATION
#MNEM                   .UNIT        API CODES                               DESCRIPTION
#________________________________________________________________________________________
TIME                    .s                                                  :01 TIME
DD_PRESS                .bar                                                :02 DRAW DOWN PRESSURE
DD_VOLUME               .cm3                                                :03 INCREMENTAL DRAW DOWN VOLUME
TEMP                    .degC                                               :04 TRANSDUCER TEMPERATURE
DD_PRESS_MOD_1000       .bar                                                :05 DRAW DOWN PRESSURE MOD 1000
DD_PRESS_MOD_100        .bar                                                :06 DRAW DOWN PRESSURE MOD 100
DD_PRESS_MOD_10         .bar                                                :07 DRAW DOWN PRESSURE MOD 10
DD_PRESS_MOD_1          .bar                                                :08 DRAW DOWN PRESSURE MOD 1
DD_PRESS_MOD_01         .bar                                                :09 DRAW DOWN PRESSURE MOD 01
DD_PRESS_MOD_001        .bar                                                :10 DRAW DOWN PRESSURE MOD 001
DD_PRESS_MOD_0001       .bar                                                :11 DRAW DOWN PRESSURE MOD 0001


~PARAMETER INFORMATION
#MNEM                   .UNIT        VALUE                                   DESCRIPTION
#________________________________________________________________________________________
TOOLFACE                .deg         -38.1                                  :01 TOOLFACE
PUMP_CAPACITY           .bar         400                                    :02 NOMINAL DRAW DOWN PUMP CAPACITY
PUMP_LIMIT              .bar         240                                    :03 DOWNLINK PUMP LIMIT
TIME_LIMIT              .min         10                                     :04 DOWNLINK MAX TIME
TEST_TYPE               .            HIGH MOBILITY                          :05 DOWNLINK
DD_PIST_A               .cm2         3.1416                                 :06 DRAW DOWN PISTON AREA
V_SYS                   .cm3         131.0000                               :07 SYSTEM VOLUME
PROBE_ID                .cm          1.2700                                 :08 TTK PROBE ID
G0                      .            4.6700                                 :09 GEOMETRY FACTOR


~A                  TIME     DD_PRESS                              DD_VOLUME               TEMP                                   DD_PRESS_MOD_1000       DD_PRESS_MOD_100        DD_PRESS_MOD_10         DD_PRESS_MOD_1        DD_PRESS_MOD_01       DD_PRESS_MOD_001      DD_PRESS_MOD_0001
# ...
                   97.30    345.15488                               19.81606             75.133                                        3.45155e+002           4.51549e+001           5.15488e+000           1.54879e-001           5.48793e-002           4.87931e-003           8.79310e-004
                   97.40    345.15428                               19.81606             75.133                                        3.45154e+002           4.51543e+001           5.15428e+000           1.54283e-001           5.42827e-002           4.28271e-003           2.82710e-004
                   97.50    345.15587                               19.81606             75.133                                        3.45156e+002           4.51559e+001           5.15587e+000           1.55867e-001           5.58672e-002           5.86720e-003           8.67200e-004
                   97.60    345.15892                               19.81606             75.133                                        3.45159e+002           4.51589e+001           5.15892e+000           1.58923e-001           5.89226e-002           8.92265e-003           9.22646e-004
                   97.70    345.16168                               19.81606             75.133                                        3.45162e+002           4.51617e+001           5.16168e+000           1.61682e-001           6.16818e-002           1.68180e-003           6.81798e-004
                   97.80    345.15626                               19.81606             75.133                                        3.45156e+002           4.51563e+001           5.15626e+000           1.56258e-001           5.62582e-002           6.25818e-003           2.58177e-004
                   97.90    345.15193                               19.81606             75.133                                        3.45152e+002           4.51519e+001           5.15193e+000           1.51935e-001           5.19347e-002           1.93467e-003           9.34670e-004
                   98.00    345.15653                               19.81606             75.133                                        3.45157e+002           4.51565e+001           5.15653e+000           1.56527e-001           5.65270e-002           6.52704e-003           5.27036e-004
                   98.10    345.16141                               19.81606             75.133                                        3.45161e+002           4.51614e+001           5.16141e+000           1.61410e-001           6.14100e-002           1.40999e-003           4.09985e-004
                   98.20    345.16013                               19.81606             75.133                                        3.45160e+002           4.51601e+001           5.16013e+000           1.60126e-001           6.01259e-002           1.25921e-004           1.25921e-004
                   98.30    345.15494                               19.81606             75.133                                        3.45155e+002           4.51549e+001           5.15494e+000           1.54940e-001           5.49405e-002           4.94048e-003           9.40480e-004
                   98.40    345.15502                               19.81606             75.133                                        3.45155e+002           4.51550e+001           5.15502e+000           1.55020e-001           5.50200e-002           5.01999e-003           1.99917e-005
                   98.50    345.15841                               19.81606             75.133                                        3.45158e+002           4.51584e+001           5.15841e+000           1.58415e-001           5.84146e-002           8.41457e-003           4.14569e-004
                   98.60    345.15789                               19.81606             75.133                                        3.45158e+002           4.51579e+001           5.15789e+000           1.57889e-001           5.78893e-002           7.88929e-003           8.89292e-004
                   98.70    345.15533                               19.81606             75.133                                        3.45155e+002           4.51553e+001           5.15533e+000           1.55331e-001           5.53305e-002           5.33052e-003           3.30524e-004
                   98.80    345.15700                               19.81606             75.133                                        3.45157e+002           4.51570e+001           5.15700e+000           1.56997e-001           5.69971e-002           6.99712e-003           9.97117e-004
                   98.90    345.15943                               19.81606             75.133                                        3.45159e+002           4.51594e+001           5.15943e+000           1.59433e-001           5.94327e-002           9.43268e-003           4.32680e-004
                   99.00    345.15915                               19.81606             75.133                                        3.45159e+002           4.51591e+001           5.15915e+000           1.59147e-001           5.91470e-002           9.14696e-003           1.46956e-004
                   99.10    345.15998                               19.81606             75.133                                        3.45160e+002           4.51600e+001           5.15998e+000           1.59981e-001           5.99811e-002           9.98106e-003           9.81058e-004
                   99.20    345.15803                               19.81606             75.133                                        3.45158e+002           4.51580e+001           5.15803e+000           1.58033e-001           5.80329e-002           8.03291e-003           3.29052e-005
                   99.30    345.15527                               19.81606             75.133                                        3.45155e+002           4.51553e+001           5.15527e+000           1.55269e-001           5.52693e-002           5.26933e-003           2.69326e-004
                   99.40    345.15537                               19.81606             75.133                                        3.45155e+002           4.51554e+001           5.15537e+000           1.55366e-001           5.53662e-002           5.36623e-003           3.66235e-004
                   99.50    345.16238                               19.81606             75.133                                        3.45162e+002           4.51624e+001           5.16238e+000           1.62382e-001           6.23823e-002           2.38232e-003           3.82319e-004
                   99.60    345.16784                               19.81606             75.133                                        3.45168e+002           4.51678e+001           5.16784e+000           1.67842e-001           6.78424e-002           7.84239e-003           8.42388e-004
                   99.70    345.16189                               19.81606             75.133                                        3.45162e+002           4.51619e+001           5.16189e+000           1.61886e-001           6.18859e-002           1.88586e-003           8.85860e-004
                   99.80    345.15321                               19.81606             75.133                                        3.45153e+002           4.51532e+001           5.15321e+000           1.53212e-001           5.32118e-002           3.21183e-003           2.11826e-004
                   99.90    345.15789                               19.81606             75.130                                        3.45158e+002           4.51579e+001           5.15789e+000           1.57891e-001           5.78911e-002           7.89110e-003           8.91104e-004
                  100.00    345.16604                               19.81606             75.127                                        3.45166e+002           4.51660e+001           5.16604e+000           1.66035e-001           6.60354e-002           6.03543e-003           3.54340e-005
