~VERSION INFORMATION
VERS                    .            2.0                                    :CWLS LOG ASCII STANDARD
WRAP                    .            NO                                     :ONE LINE PER TIME STEP


~WELL INFORMATION
#MNEM                   .UNIT        DATA                                    DESCRIPTION
#________________________________________________________________________________________
STRTTIME                .HH/MM/SS    13:32:32                               :START TIME
STOPTIME                .HH/MM/SS    13:36:23                               :STOP TIME
STRT                    .s           2.10                                   :START DATA
STOP                    .s           229.20                                 :STOP DATA
STEP                    .s           0.10                                   :MEASUREMENT TIME INTERVAL
NULL                    .            -999.25                                :NULL VALUE
COMP                    .            Statoil ASA                            :COMPANY
FLD                     .            Volve                                  :FIELD
WELL                    .            15/9-F-1 B                             :WELL
RUN                     .            7                                      :RUN
LOC                     .            Maersk Inspirer                        :LOCATION
PROV                    .            na                                     :PROVINCE
SRVC                    .            Baker Hughes INTEQ                     :SERVICE COMPANY
DATE                    .YY/MM/DD    13/09/06                               :LOG DATE
UWI                     .                                                   :UNIQUE WELL ID
DEPTHMD                 .m           3301.5                                 :MEASURED DEPTH
DEPTHTVD                .m           3096.9                                 :TRUE VERTICAL DEPTH


~CURVE INFORMATION
#MNEM                   .UNIT        API CODES                               DESCRIPTION
#________________________________________________________________________________________
TIME                    .s                                                  :01 TIME
DD_PRESS                .bar                                                :02 DRAW DOWN PRESSURE
DD_VOLUME               .cm3                                                :03 INCREMENTAL DRAW DOWN VOLUME
TEMP                    .degC                                               :04 TRANSDUCER TEMPERATURE
DD_PRESS_MOD_1000       .bar                                                :05 DRAW DOWN PRESSURE MOD 1000
DD_PRESS_MOD_100        .bar                                                :06 DRAW DOWN PRESSURE MOD 100
DD_PRESS_MOD_10         .bar                                                :07 DRAW DOWN PRESSURE MOD 10
DD_PRESS_MOD_1          .bar                                                :08 DRAW DOWN PRESSURE MOD 1
DD_PRESS_MOD_01         .bar                                                :09 DRAW DOWN PRESSURE MOD 01
DD_PRESS_MOD_001        .bar                                                :10 DRAW DOWN PRESSURE MOD 001
DD_PRESS_MOD_0001       .bar                                                :11 DRAW DOWN PRESSURE MOD 0001


~PARAMETER INFORMATION
#MNEM                   .UNIT        VALUE                                   DESCRIPTION
#________________________________________________________________________________________
TOOLFACE                .deg         na                                     :01 TOOLFACE
PUMP_CAPACITY           .bar         400                                    :02 NOMINAL DRAW DOWN PUMP CAPACITY
PUMP_LIMIT              .bar         400                                    :03 DOWNLINK PUMP LIMIT
TIME_LIMIT              .min         10                                     :04 DOWNLINK MAX TIME
TEST_TYPE               .            LOW MOBILITY                           :05 DOWNLINK
DD_PIST_A               .cm2         3.1416                                 :06 DRAW DOWN PISTON AREA
V_SYS                   .cm3         131.0000                               :07 SYSTEM VOLUME
PROBE_ID                .cm          1.2700                                 :08 TTK PROBE ID
G0                      .            4.6700                                 :09 GEOMETRY FACTOR


~A                  TIME     DD_PRESS                              DD_VOLUME               TEMP                                   DD_PRESS_MOD_1000       DD_PRESS_MOD_100        DD_PRESS_MOD_10         DD_PRESS_MOD_1        DD_PRESS_MOD_01       DD_PRESS_MOD_001      DD_PRESS_MOD_0001
# ...
                   60.90    349.39066                               10.98695             85.422                                        3.49391e+002           4.93907e+001           9.39066e+000           3.90658e-001           9.06584e-002           6.58360e-004           6.58360e-004
                   61.00    349.37631                               10.98695             85.422                                        3.49376e+002           4.93763e+001           9.37631e+000           3.76313e-001           7.63126e-002           6.31264e-003           3.12641e-004
                   61.10    349.38481                               10.98695             85.422                                        3.49385e+002           4.93848e+001           9.38481e+000           3.84813e-001           8.48125e-002           4.81252e-003           8.12515e-004
                   61.20    349.39811                               10.98695             85.422                                        3.49398e+002           4.93981e+001           9.39811e+000           3.98109e-001           9.81089e-002           8.10892e-003           1.08918e-004
                   61.30    349.37841                               10.98695             85.422                                        3.49378e+002           4.93784e+001           9.37841e+000           3.78412e-001           7.84121e-002           8.41212e-003           4.12115e-004
                   61.40    349.37946                               10.98695             85.422                                        3.49379e+002           4.93795e+001           9.37946e+000           3.79463e-001           7.94631e-002           9.46315e-003           4.63147e-004
                   61.50    349.41911                               10.98695             85.422                                        3.49419e+002           4.94191e+001           9.41911e+000           4.19106e-001           1.91059e-002           9.10591e-003           1.05912e-004
                   61.60    349.43278                               10.98695             85.422                                        3.49433e+002           4.94328e+001           9.43278e+000           4.32776e-001           3.27764e-002           2.77640e-003           7.76399e-004
                   61.70    349.42964                               10.98695             85.422                                        3.49430e+002           4.94296e+001           9.42964e+000           4.29636e-001           2.96357e-002           9.63568e-003           6.35683e-004
                   61.80    349.41799                               10.98695             85.422                                        3.49418e+002           4.94180e+001           9.41799e+000           4.17991e-001           1.79908e-002           7.99084e-003           9.90839e-004
                   61.90    349.41002                               10.98695             85.422                                        3.49410e+002           4.94100e+001           9.41002e+000           4.10021e-001           1.00212e-002           2.11830e-005           2.11830e-005
                   62.00    349.41637                               10.98695             85.422                                        3.49416e+002           4.94164e+001           9.41637e+000           4.16367e-001           1.63667e-002           6.36672e-003           3.66724e-004
                   62.10    349.42223                               10.98695             85.422                                        3.49422e+002           4.94222e+001           9.42223e+000           4.22226e-001           2.22258e-002           2.22581e-003           2.25812e-004
                   62.20    349.40649                               10.98695             85.422                                        3.49406e+002           4.94065e+001           9.40649e+000           4.06492e-001           6.49160e-003           6.49160e-003           4.91595e-004
                   62.30    349.42629                               10.98695             85.422                                        3.49426e+002           4.94263e+001           9.42629e+000           4.26295e-001           2.62950e-002           6.29495e-003           2.94951e-004
                   62.40    349.45742                               10.98695             85.422                                        3.49457e+002           4.94574e+001           9.45742e+000           4.57417e-001           5.74170e-002           7.41702e-003           4.17024e-004
                   62.50    349.43955                               10.98695             85.422                                        3.49440e+002           4.94395e+001           9.43955e+000           4.39549e-001           3.95488e-002           9.54884e-003           5.48837e-004
                   62.60    349.42571                               10.98695             85.422                                        3.49426e+002           4.94257e+001           9.42571e+000           4.25709e-001           2.57088e-002           5.70884e-003           7.08838e-004
                   62.70    349.43812                               10.98695             85.422                                        3.49438e+002           4.94381e+001           9.43812e+000           4.38118e-001           3.81183e-002           8.11832e-003           1.18321e-004
                   62.80    349.41547                               10.98695             85.422                                        3.49415e+002           4.94155e+001           9.41547e+000           4.15472e-001           1.54717e-002           5.47171e-003           4.71712e-004
                   62.90    349.39658                               10.98695             85.422                                        3.49397e+002           4.93966e+001           9.39658e+000           3.96577e-001           9.65767e-002           6.57673e-003           5.76732e-004
                   63.00    349.45223                               10.98695             85.422                                        3.49452e+002           4.94522e+001           9.45223e+000           4.52231e-001           5.22310e-002           2.23098e-003           2.30984e-004
                   63.10    349.49105                               10.98695             85.422                                        3.49491e+002           4.94910e+001           9.49105e+000           4.91049e-001           9.10490e-002           1.04902e-003           4.90247e-005
                   63.20    349.46053                               10.98695             85.422                                        3.49461e+002           4.94605e+001           9.46053e+000           4.60531e-001           6.05306e-002           5.30583e-004           5.30583e-004
                   63.30    349.43392                               10.98695             85.422                                        3.49434e+002           4.94339e+001           9.43392e+000           4.33920e-001           3.39203e-002           3.92029e-003           9.20288e-004
                   63.40    349.41989                               10.98695             85.422                                        3.49420e+002           4.94199e+001           9.41989e+000           4.19891e-001           1.98906e-002           9.89063e-003           8.90632e-004
                   63.50    349.39722                               10.98695             85.422                                        3.49397e+002           4.93972e+001           9.39722e+000           3.97222e-001           9.72216e-002           7.22165e-003           2.21649e-004
                   63.60    349.42142                               10.98695             85.422                                        3.49421e+002           4.94214e+001           9.42142e+000           4.21418e-001           2.14183e-002           1.41831e-003           4.18312e-004
