~VERSION INFORMATION
VERS                    .            2.0                                    :CWLS LOG ASCII STANDARD
WRAP                    .            NO                                     :ONE LINE PER TIME STEP


~WELL INFORMATION
#MNEM                   .UNIT        DATA                                    DESCRIPTION
#________________________________________________________________________________________
STRTTIME                .HH/MM/SS    11:44:47                               :START TIME
STOPTIME                .HH/MM/SS    11:47:33                               :STOP TIME
STRT                    .s           2.10                                   :START DATA
STOP                    .s           164.50                                 :STOP DATA
STEP                    .s           0.10                                   :MEASUREMENT TIME INTERVAL
NULL                    .            -999.25                                :NULL VALUE
COMP                    .            Statoil ASA                            :COMPANY
FLD                     .            Volve                                  :FIELD
WELL                    .            15/9-F-11 A                            :WELL
RUN                     .            8                                      :RUN
LOC                     .            Maersk Inspirer                        :LOCATION
PROV                    .            na                                     :PROVINCE
SRVC                    .            Baker Hughes INTEQ                     :SERVICE COMPANY
DATE                    .YY/MM/DD    13/05/21                               :LOG DATE
UWI                     .                                                   :UNIQUE WELL ID
DEPTHMD                 .m           3624.0                                 :MEASURED DEPTH
DEPTHTVD                .m           3020.7                                 :TRUE VERTICAL DEPTH


~CURVE INFORMATION
#MNEM                   .UNIT        API CODES                               DESCRIPTION
#________________________________________________________________________________________
TIME                    .s                                                  :01 TIME
DD_PRESS                .bar                                                :02 DRAW DOWN PRESSURE
DD_VOLUME               .cm3                                                :03 INCREMENTAL DRAW DOWN VOLUME
TEMP                    .degC                                               :04 TRANSDUCER TEMPERATURE
DD_PRESS_MOD_1000       .bar                                                :05 DRAW DOWN PRESSURE MOD 1000
DD_PRESS_MOD_100        .bar                                                :06 DRAW DOWN PRESSURE MOD 100
DD_PRESS_MOD_10         .bar                                                :07 DRAW DOWN PRESSURE MOD 10
DD_PRESS_MOD_1          .bar                                                :08 DRAW DOWN PRESSURE MOD 1
DD_PRESS_MOD_01         .bar                                                :09 DRAW DOWN PRESSURE MOD 01
DD_PRESS_MOD_001        .bar                                                :10 DRAW DOWN PRESSURE MOD 001
DD_PRESS_MOD_0001       .bar                                                :11 DRAW DOWN PRESSURE MOD 0001


~PARAMETER INFORMATION
#MNEM                   .UNIT        VALUE                                   DESCRIPTION
#________________________________________________________________________________________
TOOLFACE                .deg         61.7                                   :01 TOOLFACE
PUMP_CAPACITY           .bar         400                                    :02 NOMINAL DRAW DOWN PUMP CAPACITY
PUMP_LIMIT              .bar         240                                    :03 DOWNLINK PUMP LIMIT
TIME_LIMIT              .min         10                                     :04 DOWNLINK MAX TIME
TEST_TYPE               .            REPEAT                                 :05 DOWNLINK
TEST_TYPE               .            HIGH MOBILITY                          :06 DOWNLINK
DD_PIST_A               .cm2         3.1416                                 :07 DRAW DOWN PISTON AREA
V_SYS                   .cm3         131.0000                               :08 SYSTEM VOLUME
PROBE_ID                .cm          1.2700                                 :09 TTK PROBE ID
G0                      .            4.6700                                 :10 GEOMETRY FACTOR


~A                  TIME     DD_PRESS                              DD_VOLUME               TEMP                                   DD_PRESS_MOD_1000       DD_PRESS_MOD_100        DD_PRESS_MOD_10         DD_PRESS_MOD_1        DD_PRESS_MOD_01       DD_PRESS_MOD_001      DD_PRESS_MOD_0001
                    2.10    414.84859                                0.00000             81.523                                        4.14849e+002           1.48486e+001           4.84859e+000           8.48590e-001           4.85900e-002           8.59000e-003           5.89996e-004
                    2.20    414.92951                                0.00000             81.523                                        4.14930e+002           1.49295e+001           4.92951e+000           9.29508e-001           2.95083e-002           9.50829e-003           5.08290e-004
                    2.30    414.97625                                0.00000             81.523                                        4.14976e+002           1.49762e+001           4.97625e+000           9.76246e-001           7.62456e-002           6.24561e-003           2.45610e-004
                    2.40    415.01934                                0.00000             81.523                                        4.15019e+002           1.50193e+001           5.01934e+000           1.93392e-002           1.93392e-002           9.33925e-003           3.39246e-004
                    2.50    415.08332                                0.00000             81.523                                        4.15083e+002           1.50833e+001           5.08332e+000           8.33157e-002           8.33157e-002           3.31571e-003           3.15713e-004
                    2.60    415.12459                                0.00000             81.523                                        4.15125e+002           1.51246e+001           5.12459e+000           1.24595e-001           2.45946e-002           4.59456e-003           5.94563e-004
                    2.70    415.10570                                0.00000             81.523                                        4.15106e+002           1.51057e+001           5.10570e+000           1.05698e-001           5.69771e-003           5.69771e-003           6.97706e-004
                    2.80    415.08617                                0.00000             81.523                                        4.15086e+002           1.50862e+001           5.08617e+000           8.61717e-002           8.61717e-002           6.17165e-003           1.71654e-004
                    2.90    415.08315                                0.00000             81.523                                        4.15083e+002           1.50832e+001           5.08315e+000           8.31508e-002           8.31508e-002           3.15077e-003           1.50771e-004
                    3.00    415.05713                                0.00000             81.523                                        4.15057e+002           1.50571e+001           5.05713e+000           5.71307e-002           5.71307e-002           7.13071e-003           1.30705e-004
                    3.10    415.00801                                0.00000             81.523                                        4.15008e+002           1.50080e+001           5.00801e+000           8.01096e-003           8.01096e-003           8.01096e-003           1.09552e-005
                    3.20    414.97082                                0.00000             81.523                                        4.14971e+002           1.49708e+001           4.97082e+000           9.70821e-001           7.08214e-002           8.21428e-004           8.21428e-004
                    3.30    414.97340                                0.00000             81.523                                        4.14973e+002           1.49734e+001           4.97340e+000           9.73403e-001           7.34032e-002           3.40320e-003           4.03203e-004
                    3.40    414.98166                                0.00000             81.523                                        4.14982e+002           1.49817e+001           4.98166e+000           9.81656e-001           8.16562e-002           1.65624e-003           6.56237e-004
                    3.50    414.98707                                0.00000             81.523                                        4.14987e+002           1.49871e+001           4.98707e+000           9.87067e-001           8.70672e-002           7.06721e-003           6.72146e-005
                    3.60    415.02757                                0.00000             81.523                                        4.15028e+002           1.50276e+001           5.02757e+000           2.75730e-002           2.75730e-002           7.57302e-003           5.73020e-004
                    3.70    415.11022                                0.00000             81.523                                        4.15110e+002           1.51102e+001           5.11022e+000           1.10219e-001           1.02191e-002           2.19126e-004           2.19126e-004
                    3.80    415.17032                                0.00000             81.523                                        4.15170e+002           1.51703e+001           5.17032e+000           1.70316e-001           7.03156e-002           3.15608e-004           3.15608e-004
                    3.90    415.19670                                0.00000             81.523                                        4.15197e+002           1.51967e+001           5.19670e+000           1.96702e-001           9.67020e-002           6.70204e-003           7.02036e-004
                    4.00    415.23059                                0.00000             81.523                                        4.15231e+002           1.52306e+001           5.23059e+000           2.30589e-001           3.05887e-002           5.88709e-004           5.88709e-004
                    4.10    415.28501                                0.00000             81.523                                        4.15285e+002           1.52850e+001           5.28501e+000           2.85015e-001           8.50148e-002           5.01484e-003           1.48400e-005
                    4.20    415.29843                                0.00000             81.523                                        4.15298e+002           1.52984e+001           5.29843e+000           2.98429e-001           9.84290e-002           8.42904e-003           4.29038e-004
                    4.30    415.26473                                0.00000             81.523                                        4.15265e+002           1.52647e+001           5.26473e+000           2.64731e-001           6.47310e-002           4.73097e-003           7.30975e-004
                    4.40    415.23496                                0.00000             81.523                                        4.15235e+002           1.52350e+001           5.23496e+000           2.34961e-001           3.49613e-002           4.96130e-003           9.61302e-004
                    4.50    415.20946                                0.00000             81.523                                        4.15209e+002           1.52095e+001           5.20946e+000           2.09456e-001           9.45638e-003           9.45638e-003           4.56378e-004
                    4.60    415.15627                                0.00000             81.523                                        4.15156e+002           1.51563e+001           5.15627e+000           1.56268e-001           5.62677e-002           6.26770e-003           2.67700e-004
                    4.70    415.07863                                0.00000             81.523                                        4.15079e+002           1.50786e+001           5.07863e+000           7.86293e-002           7.86293e-002           8.62929e-003           6.29293e-004
                    4.80    415.03701                                0.00000             81.523                                        4.15037e+002           1.50370e+001           5.03701e+000           3.70111e-002           3.70111e-002           7.01107e-003           1.10708e-005
