~VERSION INFORMATION
VERS                    .            2.0                                    :CWLS LOG ASCII STANDARD
WRAP                    .            NO                                     :ONE LINE PER TIME STEP


~WELL INFORMATION
#MNEM                   .UNIT        DATA                                    DESCRIPTION
#________________________________________________________________________________________
STRTTIME                .HH/MM/SS    16:37:30                               :START TIME
STOPTIME                .HH/MM/SS    16:40:36                               :STOP TIME
STRT                    .s           2.10                                   :START DATA
STOP                    .s           184.70                                 :STOP DATA
STEP                    .s           0.10                                   :MEASUREMENT TIME INTERVAL
NULL                    .            -999.25                                :NULL VALUE
COMP                    .            Statoil ASA                            :COMPANY
FLD                     .            Volve                                  :FIELD
WELL                    .            15/9-F-1 B                             :WELL
RUN                     .            7                                      :RUN
LOC                     .            Maersk Inspirer                        :LOCATION
PROV                    .            na                                     :PROVINCE
SRVC                    .            Baker Hughes INTEQ                     :SERVICE COMPANY
DATE                    .YY/MM/DD    13/09/06                               :LOG DATE
UWI                     .                                                   :UNIQUE WELL ID
DEPTHMD                 .m           3247.0                                 :MEASURED DEPTH
DEPTHTVD                .m           3043.3                                 :TRUE VERTICAL DEPTH


~CURVE INFORMATION
#MNEM                   .UNIT        API CODES                               DESCRIPTION
#________________________________________________________________________________________
TIME                    .s                                                  :01 TIME
DD_PRESS                .bar                                                :02 DRAW DOWN PRESSURE
DD_VOLUME               .cm3                                                :03 INCREMENTAL DRAW DOWN VOLUME
TEMP                    .degC                                               :04 TRANSDUCER TEMPERATURE
DD_PRESS_MOD_1000       .bar                                                :05 DRAW DOWN PRESSURE MOD 1000
DD_PRESS_MOD_100        .bar                                                :06 DRAW DOWN PRESSURE MOD 100
DD_PRESS_MOD_10         .bar                                                :07 DRAW DOWN PRESSURE MOD 10
DD_PRESS_MOD_1          .bar                                                :08 DRAW DOWN PRESSURE MOD 1
DD_PRESS_MOD_01         .bar                                                :09 DRAW DOWN PRESSURE MOD 01
DD_PRESS_MOD_001        .bar                                                :10 DRAW DOWN PRESSURE MOD 001
DD_PRESS_MOD_0001       .bar                                                :11 DRAW DOWN PRESSURE MOD 0001


~PARAMETER INFORMATION
#MNEM                   .UNIT        VALUE                                   DESCRIPTION
#________________________________________________________________________________________
TOOLFACE                .deg         na                                     :01 TOOLFACE
PUMP_CAPACITY           .bar         400                                    :02 NOMINAL DRAW DOWN PUMP CAPACITY
PUMP_LIMIT              .bar         400                                    :03 DOWNLINK PUMP LIMIT
TIME_LIMIT              .min         10                                     :04 DOWNLINK MAX TIME
TEST_TYPE               .            LOW MOBILITY                           :05 DOWNLINK
DD_PIST_A               .cm2         3.1416                                 :06 DRAW DOWN PISTON AREA
V_SYS                   .cm3         131.0000                               :07 SYSTEM VOLUME
PROBE_ID                .cm          1.2700                                 :08 TTK PROBE ID
G0                      .            4.6700                                 :09 GEOMETRY FACTOR


~A                  TIME     DD_PRESS                              DD_VOLUME               TEMP                                   DD_PRESS_MOD_1000       DD_PRESS_MOD_100        DD_PRESS_MOD_10         DD_PRESS_MOD_1        DD_PRESS_MOD_01       DD_PRESS_MOD_001      DD_PRESS_MOD_0001
# ...
                  170.10    435.12663                                0.00000             81.531                                        4.35127e+002           3.51266e+001           5.12663e+000           1.26631e-001           2.66310e-002           6.63099e-003           6.30987e-004
                  170.20    435.13016                                0.00000             81.531                                        4.35130e+002           3.51302e+001           5.13016e+000           1.30159e-001           3.01594e-002           1.59360e-004           1.59360e-004
                  170.30    435.13025                                0.00000             81.531                                        4.35130e+002           3.51302e+001           5.13025e+000           1.30246e-001           3.02459e-002           2.45927e-004           2.45927e-004
                  170.40    435.13155                                0.00000             81.531                                        4.35132e+002           3.51315e+001           5.13155e+000           1.31547e-001           3.15471e-002           1.54708e-003           5.47078e-004
                  170.50    435.13022                                0.00000             81.531                                        4.35130e+002           3.51302e+001           5.13022e+000           1.30222e-001           3.02223e-002           2.22325e-004           2.22325e-004
                  170.60    435.13958                                0.00000             81.531                                        4.35140e+002           3.51396e+001           5.13958e+000           1.39580e-001           3.95797e-002           9.57973e-003           5.79726e-004
                  170.70    435.13378                                0.00000             81.531                                        4.35134e+002           3.51338e+001           5.13378e+000           1.33781e-001           3.37813e-002           3.78129e-003           7.81288e-004
                  170.80    435.11588                                0.00000             81.531                                        4.35116e+002           3.51159e+001           5.11588e+000           1.15882e-001           1.58821e-002           5.88215e-003           8.82147e-004
                  170.90    435.10370                                0.00000             81.531                                        4.35104e+002           3.51037e+001           5.10370e+000           1.03702e-001           3.70201e-003           3.70201e-003           7.02010e-004
                  171.00    435.13059                                0.00000             81.531                                        4.35131e+002           3.51306e+001           5.13059e+000           1.30589e-001           3.05887e-002           5.88673e-004           5.88673e-004
                  171.10    435.13937                                0.00000             81.531                                        4.35139e+002           3.51394e+001           5.13937e+000           1.39366e-001           3.93661e-002           9.36606e-003           3.66056e-004
                  171.20    435.12574                                0.00000             81.531                                        4.35126e+002           3.51257e+001           5.12574e+000           1.25744e-001           2.57440e-002           5.74404e-003           7.44037e-004
                  171.30    435.11008                                0.00000             81.531                                        4.35110e+002           3.51101e+001           5.11008e+000           1.10083e-001           1.00829e-002           8.28690e-005           8.28690e-005
                  171.40    435.12996                                0.00000             81.531                                        4.35130e+002           3.51300e+001           5.12996e+000           1.29962e-001           2.99618e-002           9.96176e-003           9.61759e-004
                  171.50    435.13323                                0.00000             81.531                                        4.35133e+002           3.51332e+001           5.13323e+000           1.33232e-001           3.32322e-002           3.23217e-003           2.32167e-004
                  171.60    435.12832                                0.00000             81.531                                        4.35128e+002           3.51283e+001           5.12832e+000           1.28317e-001           2.83174e-002           8.31741e-003           3.17410e-004
                  171.70    435.12268                                0.00000             81.531                                        4.35123e+002           3.51227e+001           5.12268e+000           1.22685e-001           2.26848e-002           2.68476e-003           6.84758e-004
                  171.80    435.14081                                0.00000             81.531                                        4.35141e+002           3.51408e+001           5.14081e+000           1.40812e-001           4.08118e-002           8.11827e-004           8.11827e-004
                  171.90    435.13045                                0.00000             81.531                                        4.35130e+002           3.51304e+001           5.13045e+000           1.30450e-001           3.04496e-002           4.49640e-004           4.49640e-004
                  172.00    435.11847                                0.00000             81.531                                        4.35118e+002           3.51185e+001           5.11847e+000           1.18466e-001           1.84664e-002           8.46637e-003           4.66368e-004
                  172.10    435.12323                                0.00000             81.531                                        4.35123e+002           3.51232e+001           5.12323e+000           1.23228e-001           2.32276e-002           3.22759e-003           2.27594e-004
                  172.20    435.14783                                0.00000             81.531                                        4.35148e+002           3.51478e+001           5.14783e+000           1.47834e-001           4.78337e-002           7.83370e-003           8.33700e-004
                  172.30    435.14603                                0.00000             81.531                                        4.35146e+002           3.51460e+001           5.14603e+000           1.46031e-001           4.60314e-002           6.03141e-003           3.14132e-005
                  172.40    435.13152                                0.00000             81.531                                        4.35132e+002           3.51315e+001           5.13152e+000           1.31519e-001           3.15190e-002           1.51904e-003           5.19038e-004
                  172.50    435.12177                                0.00000             81.531                                        4.35122e+002           3.51218e+001           5.12177e+000           1.21770e-001           2.17701e-002           1.77008e-003           7.70080e-004
                  172.60    435.14146                                0.00000             81.531                                        4.35141e+002           3.51415e+001           5.14146e+000           1.41460e-001           4.14601e-002           1.46012e-003           4.60119e-004
                  172.70    435.13778                                0.00000             81.531                                        4.35138e+002           3.51378e+001           5.13778e+000           1.37779e-001           3.77794e-002           7.77939e-003           7.79393e-004
                  172.80    435.11862                                0.00000             81.531                                        4.35119e+002           3.51186e+001           5.11862e+000           1.18615e-001           1.86152e-002           8.61521e-003           6.15211e-004
