~VERSION INFORMATION
VERS                    .            2.0                                    :CWLS LOG ASCII STANDARD
WRAP                    .            NO                                     :ONE LINE PER TIME STEP


~WELL INFORMATION
#MNEM                   .UNIT        DATA                                    DESCRIPTION
#________________________________________________________________________________________
STRTTIME                .HH/MM/SS    18:50:18                               :START TIME
STOPTIME                .HH/MM/SS    18:53:14                               :STOP TIME
STRT                    .s           2.10                                   :START DATA
STOP                    .s           174.80                                 :STOP DATA
STEP                    .s           0.10                                   :MEASUREMENT TIME INTERVAL
NULL                    .            -999.25                                :NULL VALUE
COMP                    .            Statoil ASA                            :COMPANY
FLD                     .            Volve                                  :FIELD
WELL                    .            15/9-F-11 A                            :WELL
RUN                     .            8                                      :RUN
LOC                     .            Maersk Inspirer                        :LOCATION
PROV                    .            na                                     :PROVINCE
SRVC                    .            Baker Hughes INTEQ                     :SERVICE COMPANY
DATE                    .YY/MM/DD    13/05/23                               :LOG DATE
UWI                     .                                                   :UNIQUE WELL ID
DEPTHMD                 .m           3651.0                                 :MEASURED DEPTH
DEPTHTVD                .m           3041.4                                 :TRUE VERTICAL DEPTH


~CURVE INFORMATION
#MNEM                   .UNIT        API CODES                               DESCRIPTION
#________________________________________________________________________________________
TIME                    .s                                                  :01 TIME
DD_PRESS                .bar                                                :02 DRAW DOWN PRESSURE
DD_VOLUME               .cm3                                                :03 INCREMENTAL DRAW DOWN VOLUME
TEMP                    .degC                                               :04 TRANSDUCER TEMPERATURE
DD_PRESS_MOD_1000       .bar                                                :05 DRAW DOWN PRESSURE MOD 1000
DD_PRESS_MOD_100        .bar                                                :06 DRAW DOWN PRESSURE MOD 100
DD_PRESS_MOD_10         .bar                                                :07 DRAW DOWN PRESSURE MOD 10
DD_PRESS_MOD_1          .bar                                                :08 DRAW DOWN PRESSURE MOD 1
DD_PRESS_MOD_01         .bar                                                :09 DRAW DOWN PRESSURE MOD 01
DD_PRESS_MOD_001        .bar                                                :10 DRAW DOWN PRESSURE MOD 001
DD_PRESS_MOD_0001       .bar                                                :11 DRAW DOWN PRESSURE MOD 0001


~PARAMETER INFORMATION
#MNEM                   .UNIT        VALUE                                   DESCRIPTION
#________________________________________________________________________________________
TOOLFACE                .deg         -39.7                                  :01 TOOLFACE
PUMP_CAPACITY           .bar         400                                    :02 NOMINAL DRAW DOWN PUMP CAPACITY
PUMP_LIMIT              .bar         240                                    :03 DOWNLINK PUMP LIMIT
TIME_LIMIT              .min         10                                     :04 DOWNLINK MAX TIME
TEST_TYPE               .            REPEAT                                 :05 DOWNLINK
TEST_TYPE               .            HIGH MOBILITY                          :06 DOWNLINK
DD_PIST_A               .cm2         3.1416                                 :07 DRAW DOWN PISTON AREA
V_SYS                   .cm3         131.0000                               :08 SYSTEM VOLUME
PROBE_ID                .cm          1.2700                                 :09 TTK PROBE ID
G0                      .            4.6700                                 :10 GEOMETRY FACTOR


~A                  TIME     DD_PRESS                              DD_VOLUME               TEMP                                   DD_PRESS_MOD_1000       DD_PRESS_MOD_100        DD_PRESS_MOD_10         DD_PRESS_MOD_1        DD_PRESS_MOD_01       DD_PRESS_MOD_001      DD_PRESS_MOD_0001
# ...
                   35.70    343.07652                                8.64517             73.484                                        3.43077e+002           4.30765e+001           3.07652e+000           7.65199e-002           7.65199e-002           6.51987e-003           5.19873e-004
                   35.80    343.07989                                8.72847             73.484                                        3.43080e+002           4.30799e+001           3.07989e+000           7.98887e-002           7.98887e-002           9.88869e-003           8.88690e-004
                   35.90    343.08401                                8.81066             73.484                                        3.43084e+002           4.30840e+001           3.08401e+000           8.40052e-002           8.40052e-002           4.00519e-003           5.19457e-006
                   36.00    343.09035                                8.89176             73.482                                        3.43090e+002           4.30903e+001           3.09035e+000           9.03494e-002           9.03494e-002           3.49370e-004           3.49370e-004
                   36.10    343.09608                                8.97173             73.479                                        3.43096e+002           4.30961e+001           3.09608e+000           9.60787e-002           9.60787e-002           6.07867e-003           7.86665e-005
                   36.20    343.10157                                9.05051             73.477                                        3.43102e+002           4.31016e+001           3.10157e+000           1.01575e-001           1.57494e-003           1.57494e-003           5.74941e-004
                   36.30    343.10713                                9.12791             73.477                                        3.43107e+002           4.31071e+001           3.10713e+000           1.07128e-001           7.12846e-003           7.12846e-003           1.28464e-004
                   36.40    343.11029                                9.20401             73.477                                        3.43110e+002           4.31103e+001           3.11029e+000           1.10285e-001           1.02852e-002           2.85174e-004           2.85174e-004
                   36.50    343.11657                                9.27885             73.477                                        3.43117e+002           4.31166e+001           3.11657e+000           1.16571e-001           1.65711e-002           6.57112e-003           5.71118e-004
                   36.60    343.12691                                9.35242             73.477                                        3.43127e+002           4.31269e+001           3.12691e+000           1.26913e-001           2.69127e-002           6.91270e-003           9.12702e-004
                   36.70    343.13375                                9.42460             73.477                                        3.43134e+002           4.31337e+001           3.13375e+000           1.33747e-001           3.37469e-002           3.74688e-003           7.46877e-004
                   36.80    343.13914                                9.49539             73.477                                        3.43139e+002           4.31391e+001           3.13914e+000           1.39142e-001           3.91422e-002           9.14218e-003           1.42175e-004
                   36.90    343.14533                                9.56476             73.477                                        3.43145e+002           4.31453e+001           3.14533e+000           1.45326e-001           4.53260e-002           5.32596e-003           3.25958e-004
                   37.00    343.14869                                9.63277             73.477                                        3.43149e+002           4.31487e+001           3.14869e+000           1.48694e-001           4.86940e-002           8.69402e-003           6.94017e-004
                   37.10    343.15327                                9.69924             73.477                                        3.43153e+002           4.31533e+001           3.15327e+000           1.53275e-001           5.32746e-002           3.27456e-003           2.74564e-004
                   37.20    343.16087                                9.76416             73.477                                        3.43161e+002           4.31609e+001           3.16087e+000           1.60866e-001           6.08659e-002           8.65876e-004           8.65876e-004
                   37.30    343.16984                                9.82765             73.477                                        3.43170e+002           4.31698e+001           3.16984e+000           1.69842e-001           6.98422e-002           9.84223e-003           8.42229e-004
                   37.40    343.17543                                9.88964             73.477                                        3.43175e+002           4.31754e+001           3.17543e+000           1.75426e-001           7.54261e-002           5.42607e-003           4.26067e-004
                   37.50    343.18073                                9.94996             73.477                                        3.43181e+002           4.31807e+001           3.18073e+000           1.80729e-001           8.07285e-002           7.28525e-004           7.28525e-004
                   37.60    343.18853                               10.00859             73.477                                        3.43189e+002           4.31885e+001           3.18853e+000           1.88527e-001           8.85267e-002           8.52669e-003           5.26694e-004
                   37.70    343.19771                               10.06568             73.477                                        3.43198e+002           4.31977e+001           3.19771e+000           1.97708e-001           9.77081e-002           7.70809e-003           7.08094e-004
                   37.80    343.20419                               10.12113             73.474                                        3.43204e+002           4.32042e+001           3.20419e+000           2.04189e-001           4.18911e-003           4.18911e-003           1.89111e-004
                   37.90    343.20953                               10.17494             73.471                                        3.43210e+002           4.32095e+001           3.20953e+000           2.09532e-001           9.53250e-003           9.53250e-003           5.32499e-004
                   38.00    343.21743                               10.22710             73.469                                        3.43217e+002           4.32174e+001           3.21743e+000           2.17435e-001           1.74350e-002           7.43499e-003           4.34987e-004
                   38.10    343.22560                               10.27737             73.471                                        3.43226e+002           4.32256e+001           3.22560e+000           2.25602e-001           2.56022e-002           5.60221e-003           6.02215e-004
                   38.20    343.23160                               10.32602             73.475                                        3.43232e+002           4.32316e+001           3.23160e+000           2.31596e-001           3.15959e-002           1.59587e-003           5.95872e-004
                   38.30    343.23652                               10.37308             73.477                                        3.43237e+002           4.32365e+001           3.23652e+000           2.36524e-001           3.65237e-002           6.52370e-003           5.23705e-004
                   38.40    343.24154                               10.41827             73.477                                        3.43242e+002           4.32415e+001           3.24154e+000           2.41539e-001           4.15386e-002           1.53863e-003           5.38633e-004
