~VERSION INFORMATION
VERS                    .            2.0                                    :CWLS LOG ASCII STANDARD
WRAP                    .            NO                                     :ONE LINE PER TIME STEP


~WELL INFORMATION
#MNEM                   .UNIT        DATA                                    DESCRIPTION
#________________________________________________________________________________________
STRTTIME                .HH/MM/SS    02:42:03                               :START TIME
STOPTIME                .HH/MM/SS    02:44:56                               :STOP TIME
STRT                    .s           2.10                                   :START DATA
STOP                    .s           171.40                                 :STOP DATA
STEP                    .s           0.10                                   :MEASUREMENT TIME INTERVAL
NULL                    .            -999.25                                :NULL VALUE
COMP                    .            Statoil ASA                            :COMPANY
FLD                     .            Volve                                  :FIELD
WELL                    .            15/9-F-1 C                             :WELL
RUN                     .            4                                      :RUN
LOC                     .                                                   :LOCATION
PROV                    .            na                                     :PROVINCE
SRVC                    .            Baker Hughes INTEQ                     :SERVICE COMPANY
DATE                    .YY/MM/DD    14/03/15                               :LOG DATE
UWI                     .                                                   :UNIQUE WELL ID
DEPTHMD                 .m           3551.1                                 :MEASURED DEPTH
DEPTHTVD                .m           2992.9                                 :TRUE VERTICAL DEPTH


~CURVE INFORMATION
#MNEM                   .UNIT        API CODES                               DESCRIPTION
#________________________________________________________________________________________
TIME                    .s                                                  :01 TIME
DD_PRESS                .bar                                                :02 DRAW DOWN PRESSURE
DD_VOLUME               .cm3                                                :03 INCREMENTAL DRAW DOWN VOLUME
TEMP                    .degC                                               :04 TRANSDUCER TEMPERATURE
DD_PRESS_MOD_1000       .bar                                                :05 DRAW DOWN PRESSURE MOD 1000
DD_PRESS_MOD_100        .bar                                                :06 DRAW DOWN PRESSURE MOD 100
DD_PRESS_MOD_10         .bar                                                :07 DRAW DOWN PRESSURE MOD 10
DD_PRESS_MOD_1          .bar                                                :08 DRAW DOWN PRESSURE MOD 1
DD_PRESS_MOD_01         .bar                                                :09 DRAW DOWN PRESSURE MOD 01
DD_PRESS_MOD_001        .bar                                                :10 DRAW DOWN PRESSURE MOD 001
DD_PRESS_MOD_0001       .bar                                                :11 DRAW DOWN PRESSURE MOD 0001


~PARAMETER INFORMATION
#MNEM                   .UNIT        VALUE                                   DESCRIPTION
#________________________________________________________________________________________
TOOLFACE                .deg         84.6                                   :01 TOOLFACE
PUMP_CAPACITY           .bar         400                                    :02 NOMINAL DRAW DOWN PUMP CAPACITY
PUMP_LIMIT              .bar         240                                    :03 DOWNLINK PUMP LIMIT
TIME_LIMIT              .min         10                                     :04 DOWNLINK MAX TIME
TEST_TYPE               .            REPEAT                                 :05 DOWNLINK
TEST_TYPE               .            HIGH MOBILITY                          :06 DOWNLINK
DD_PIST_A               .cm2         3.1416                                 :07 DRAW DOWN PISTON AREA
V_SYS                   .cm3         131.0000                               :08 SYSTEM VOLUME
PROBE_ID                .cm          1.2700                                 :09 TTK PROBE ID
G0                      .            4.6700                                 :10 GEOMETRY FACTOR


~A                  TIME     DD_PRESS                              DD_VOLUME               TEMP                                   DD_PRESS_MOD_1000       DD_PRESS_MOD_100        DD_PRESS_MOD_10         DD_PRESS_MOD_1        DD_PRESS_MOD_01       DD_PRESS_MOD_001      DD_PRESS_MOD_0001
# ...
                   46.90    341.50697                               10.74275             85.164                                        3.41507e+002           4.15070e+001           1.50697e+000           5.06973e-001           6.97257e-003           6.97257e-003           9.72568e-004
                   47.00    341.50757                               10.74275             85.164                                        3.41508e+002           4.15076e+001           1.50757e+000           5.07574e-001           7.57382e-003           7.57382e-003           5.73817e-004
                   47.10    341.50597                               10.74275             85.164                                        3.41506e+002           4.15060e+001           1.50597e+000           5.05970e-001           5.97001e-003           5.97001e-003           9.70007e-004
                   47.20    341.50956                               10.74275             85.164                                        3.41510e+002           4.15096e+001           1.50956e+000           5.09558e-001           9.55754e-003           9.55754e-003           5.57544e-004
                   47.30    341.50853                               10.74275             85.164                                        3.41509e+002           4.15085e+001           1.50853e+000           5.08525e-001           8.52533e-003           8.52533e-003           5.25326e-004
                   47.40    341.50608                               10.74275             85.164                                        3.41506e+002           4.15061e+001           1.50608e+000           5.06083e-001           6.08311e-003           6.08311e-003           8.31098e-005
                   47.50    341.50762                               10.74275             85.164                                        3.41508e+002           4.15076e+001           1.50762e+000           5.07617e-001           7.61690e-003           7.61690e-003           6.16898e-004
                   47.60    341.51250                               10.74275             85.164                                        3.41513e+002           4.15125e+001           1.51250e+000           5.12500e-001           1.25003e-002           2.50034e-003           5.00341e-004
                   47.70    341.51021                               10.74275             85.164                                        3.41510e+002           4.15102e+001           1.51021e+000           5.10207e-001           1.02067e-002           2.06672e-004           2.06672e-004
                   47.80    341.50348                               10.74275             85.164                                        3.41503e+002           4.15035e+001           1.50348e+000           5.03476e-001           3.47636e-003           3.47636e-003           4.76357e-004
                   47.90    341.50582                               10.74275             85.164                                        3.41506e+002           4.15058e+001           1.50582e+000           5.05817e-001           5.81721e-003           5.81721e-003           8.17209e-004
                   48.00    341.51241                               10.74275             85.164                                        3.41512e+002           4.15124e+001           1.51241e+000           5.12407e-001           1.24068e-002           2.40679e-003           4.06789e-004
                   48.10    341.51299                               10.74275             85.164                                        3.41513e+002           4.15130e+001           1.51299e+000           5.12988e-001           1.29881e-002           2.98814e-003           9.88138e-004
                   48.20    341.50801                               10.74275             85.164                                        3.41508e+002           4.15080e+001           1.50801e+000           5.08014e-001           8.01406e-003           8.01406e-003           1.40639e-005
                   48.30    341.50372                               10.74275             85.164                                        3.41504e+002           4.15037e+001           1.50372e+000           5.03715e-001           3.71533e-003           3.71533e-003           7.15332e-004
                   48.40    341.50773                               10.74275             85.164                                        3.41508e+002           4.15077e+001           1.50773e+000           5.07726e-001           7.72621e-003           7.72621e-003           7.26215e-004
                   48.50    341.51358                               10.74275             85.164                                        3.41514e+002           4.15136e+001           1.51358e+000           5.13584e-001           1.35837e-002           3.58369e-003           5.83687e-004
                   48.60    341.51018                               10.74275             85.164                                        3.41510e+002           4.15102e+001           1.51018e+000           5.10180e-001           1.01803e-002           1.80274e-004           1.80274e-004
                   48.70    341.50377                               10.74275             85.164                                        3.41504e+002           4.15038e+001           1.50377e+000           5.03768e-001           3.76795e-003           3.76795e-003           7.67951e-004
                   48.80    341.50106                               10.74275             85.164                                        3.41501e+002           4.15011e+001           1.50106e+000           5.01061e-001           1.06135e-003           1.06135e-003           6.13546e-005
                   48.90    341.50500                               10.74275             85.164                                        3.41505e+002           4.15050e+001           1.50500e+000           5.05000e-001           5.00045e-003           5.00045e-003           4.52994e-007
                   49.00    341.51214                               10.74275             85.164                                        3.41512e+002           4.15121e+001           1.51214e+000           5.12144e-001           1.21438e-002           2.14380e-003           1.43799e-004
                   49.10    341.51567                               10.74275             85.164                                        3.41516e+002           4.15157e+001           1.51567e+000           5.15669e-001           1.56690e-002           5.66902e-003           6.69021e-004
                   49.20    341.51096                               10.74275             85.164                                        3.41511e+002           4.15110e+001           1.51096e+000           5.10965e-001           1.09650e-002           9.64981e-004           9.64981e-004
                   49.30    341.50613                               10.74275             85.164                                        3.41506e+002           4.15061e+001           1.50613e+000           5.06128e-001           6.12813e-003           6.12813e-003           1.28129e-004
                   49.40    341.50910                               10.74275             85.164                                        3.41509e+002           4.15091e+001           1.50910e+000           5.09104e-001           9.10434e-003           9.10434e-003           1.04343e-004
                   49.50    341.51569                               10.74275             85.164                                        3.41516e+002           4.15157e+001           1.51569e+000           5.15693e-001           1.56930e-002           5.69302e-003           6.93023e-004
                   49.60    341.51861                               10.74275             85.164                                        3.41519e+002           4.15186e+001           1.51861e+000           5.18611e-001           1.86114e-002           8.61140e-003           6.11404e-004
