~VERSION INFORMATION
VERS                    .            2.0                                    :CWLS LOG ASCII STANDARD
WRAP                    .            NO                                     :ONE LINE PER TIME STEP


~WELL INFORMATION
#MNEM                   .UNIT        DATA                                    DESCRIPTION
#________________________________________________________________________________________
STRTTIME                .HH/MM/SS    03:28:02                               :START TIME
STOPTIME                .HH/MM/SS    03:30:44                               :STOP TIME
STRT                    .s           2.10                                   :START DATA
STOP                    .s           160.80                                 :STOP DATA
STEP                    .s           0.10                                   :MEASUREMENT TIME INTERVAL
NULL                    .            -999.25                                :NULL VALUE
COMP                    .            Statoil ASA                            :COMPANY
FLD                     .            Volve                                  :FIELD
WELL                    .            15/9-F-1 C                             :WELL
RUN                     .            4                                      :RUN
LOC                     .                                                   :LOCATION
PROV                    .            na                                     :PROVINCE
SRVC                    .            Baker Hughes INTEQ                     :SERVICE COMPANY
DATE                    .YY/MM/DD    14/03/15                               :LOG DATE
UWI                     .                                                   :UNIQUE WELL ID
DEPTHMD                 .m           3493.0                                 :MEASURED DEPTH
DEPTHTVD                .m           2980.2                                 :TRUE VERTICAL DEPTH


~CURVE INFORMATION
#MNEM                   .UNIT        API CODES                               DESCRIPTION
#________________________________________________________________________________________
TIME                    .s                                                  :01 TIME
DD_PRESS                .bar                                                :02 DRAW DOWN PRESSURE
DD_VOLUME               .cm3                                                :03 INCREMENTAL DRAW DOWN VOLUME
TEMP                    .degC                                               :04 TRANSDUCER TEMPERATURE
DD_PRESS_MOD_1000       .bar                                                :05 DRAW DOWN PRESSURE MOD 1000
DD_PRESS_MOD_100        .bar                                                :06 DRAW DOWN PRESSURE MOD 100
DD_PRESS_MOD_10         .bar                                                :07 DRAW DOWN PRESSURE MOD 10
DD_PRESS_MOD_1          .bar                                                :08 DRAW DOWN PRESSURE MOD 1
DD_PRESS_MOD_01         .bar                                                :09 DRAW DOWN PRESSURE MOD 01
DD_PRESS_MOD_001        .bar                                                :10 DRAW DOWN PRESSURE MOD 001
DD_PRESS_MOD_0001       .bar                                                :11 DRAW DOWN PRESSURE MOD 0001


~PARAMETER INFORMATION
#MNEM                   .UNIT        VALUE                                   DESCRIPTION
#________________________________________________________________________________________
TOOLFACE                .deg         89.6                                   :01 TOOLFACE
PUMP_CAPACITY           .bar         400                                    :02 NOMINAL DRAW DOWN PUMP CAPACITY
PUMP_LIMIT              .bar         240                                    :03 DOWNLINK PUMP LIMIT
TIME_LIMIT              .min         10                                     :04 DOWNLINK MAX TIME
TEST_TYPE               .            REPEAT                                 :05 DOWNLINK
TEST_TYPE               .            HIGH MOBILITY                          :06 DOWNLINK
DD_PIST_A               .cm2         3.1416                                 :07 DRAW DOWN PISTON AREA
V_SYS                   .cm3         131.0000                               :08 SYSTEM VOLUME
PROBE_ID                .cm          1.2700                                 :09 TTK PROBE ID
G0                      .            4.6700                                 :10 GEOMETRY FACTOR


~A                  TIME     DD_PRESS                              DD_VOLUME               TEMP                                   DD_PRESS_MOD_1000       DD_PRESS_MOD_100        DD_PRESS_MOD_10         DD_PRESS_MOD_1        DD_PRESS_MOD_01       DD_PRESS_MOD_001      DD_PRESS_MOD_0001
# ...
                  116.90    340.45049                               29.43087             83.688                                        3.40450e+002           4.04505e+001           4.50487e-001           4.50487e-001           5.04869e-002           4.86921e-004           4.86921e-004
                  117.00    340.45049                               29.43087             83.688                                        3.40450e+002           4.04505e+001           4.50489e-001           4.50489e-001           5.04885e-002           4.88501e-004           4.88501e-004
                  117.10    340.45048                               29.43087             83.688                                        3.40450e+002           4.04505e+001           4.50484e-001           4.50484e-001           5.04836e-002           4.83599e-004           4.83599e-004
                  117.20    340.45048                               29.43087             83.688                                        3.40450e+002           4.04505e+001           4.50477e-001           4.50477e-001           5.04768e-002           4.76760e-004           4.76760e-004
                  117.30    340.45002                               29.43087             83.688                                        3.40450e+002           4.04500e+001           4.50016e-001           4.50016e-001           5.00156e-002           1.55512e-005           1.55512e-005
                  117.40    340.44900                               29.43087             83.688                                        3.40449e+002           4.04490e+001           4.48997e-001           4.48997e-001           4.89974e-002           8.99739e-003           9.97395e-004
                  117.50    340.44817                               29.43087             83.688                                        3.40448e+002           4.04482e+001           4.48175e-001           4.48175e-001           4.81749e-002           8.17489e-003           1.74892e-004
                  117.60    340.44880                               29.43087             83.688                                        3.40449e+002           4.04488e+001           4.48801e-001           4.48801e-001           4.88011e-002           8.80111e-003           8.01106e-004
                  117.70    340.45029                               29.43087             83.688                                        3.40450e+002           4.04503e+001           4.50290e-001           4.50290e-001           5.02897e-002           2.89652e-004           2.89652e-004
                  117.80    340.44953                               29.43087             83.688                                        3.40450e+002           4.04495e+001           4.49530e-001           4.49530e-001           4.95301e-002           9.53012e-003           5.30118e-004
                  117.90    340.44949                               29.43087             83.688                                        3.40449e+002           4.04495e+001           4.49488e-001           4.49488e-001           4.94876e-002           9.48759e-003           4.87590e-004
                  118.00    340.44914                               29.43087             83.688                                        3.40449e+002           4.04491e+001           4.49139e-001           4.49139e-001           4.91386e-002           9.13857e-003           1.38570e-004
                  118.10    340.44846                               29.43087             83.688                                        3.40448e+002           4.04485e+001           4.48461e-001           4.48461e-001           4.84615e-002           8.46150e-003           4.61497e-004
                  118.20    340.44910                               29.43087             83.688                                        3.40449e+002           4.04491e+001           4.49096e-001           4.49096e-001           4.90961e-002           9.09609e-003           9.60851e-005
                  118.30    340.45048                               29.43087             83.688                                        3.40450e+002           4.04505e+001           4.50478e-001           4.50478e-001           5.04784e-002           4.78389e-004           4.78389e-004
                  118.40    340.44943                               29.43087             83.688                                        3.40449e+002           4.04494e+001           4.49434e-001           4.49434e-001           4.94338e-002           9.43378e-003           4.33776e-004
                  118.50    340.44896                               29.43087             83.688                                        3.40449e+002           4.04490e+001           4.48961e-001           4.48961e-001           4.89608e-002           8.96076e-003           9.60760e-004
                  118.60    340.44963                               29.43087             83.688                                        3.40450e+002           4.04496e+001           4.49626e-001           4.49626e-001           4.96265e-002           9.62646e-003           6.26460e-004
                  118.70    340.45052                               29.43087             83.688                                        3.40451e+002           4.04505e+001           4.50522e-001           4.50522e-001           5.05224e-002           5.22401e-004           5.22401e-004
                  118.80    340.44962                               29.43087             83.688                                        3.40450e+002           4.04496e+001           4.49624e-001           4.49624e-001           4.96242e-002           9.62415e-003           6.24150e-004
                  118.90    340.44940                               29.43087             83.688                                        3.40449e+002           4.04494e+001           4.49402e-001           4.49402e-001           4.94021e-002           9.40214e-003           4.02141e-004
                  119.00    340.44772                               29.43087             83.688                                        3.40448e+002           4.04477e+001           4.47723e-001           4.47723e-001           4.77233e-002           7.72327e-003           7.23272e-004
                  119.10    340.44745                               29.43087             83.688                                        3.40447e+002           4.04474e+001           4.47445e-001           4.47445e-001           4.74455e-002           7.44546e-003           4.45456e-004
                  119.20    340.44893                               29.43087             83.688                                        3.40449e+002           4.04489e+001           4.48927e-001           4.48927e-001           4.89272e-002           8.92717e-003           9.27168e-004
                  119.30    340.45047                               29.43087             83.688                                        3.40450e+002           4.04505e+001           4.50467e-001           4.50467e-001           5.04668e-002           4.66754e-004           4.66754e-004
                  119.40    340.45046                               29.43087             83.688                                        3.40450e+002           4.04505e+001           4.50458e-001           4.50458e-001           5.04576e-002           4.57649e-004           4.57649e-004
                  119.50    340.45046                               29.43087             83.688                                        3.40450e+002           4.04505e+001           4.50460e-001           4.50460e-001           5.04597e-002           4.59725e-004           4.59725e-004
                  119.60    340.45046                               29.43087             83.688                                        3.40450e+002           4.04505e+001           4.50458e-001           4.50458e-001           5.04577e-002           4.57677e-004           4.57677e-004
