~VERSION INFORMATION
VERS                    .            2.0                                    :CWLS LOG ASCII STANDARD
WRAP                    .            NO                                     :ONE LINE PER TIME STEP


~WELL INFORMATION
#MNEM                   .UNIT        DATA                                    DESCRIPTION
#________________________________________________________________________________________
STRTTIME                .HH/MM/SS    09:43:23                               :START TIME
STOPTIME                .HH/MM/SS    09:46:50                               :STOP TIME
STRT                    .s           2.10                                   :START DATA
STOP                    .s           205.20                                 :STOP DATA
STEP                    .s           0.10                                   :MEASUREMENT TIME INTERVAL
NULL                    .            -999.25                                :NULL VALUE
COMP                    .            Statoil ASA                            :COMPANY
FLD                     .            Volve                                  :FIELD
WELL                    .            15/9-F-11 A                            :WELL
RUN                     .            8                                      :RUN
LOC                     .            Maersk Inspirer                        :LOCATION
PROV                    .            na                                     :PROVINCE
SRVC                    .            Baker Hughes INTEQ                     :SERVICE COMPANY
DATE                    .YY/MM/DD    13/05/21                               :LOG DATE
UWI                     .                                                   :UNIQUE WELL ID
DEPTHMD                 .m           3665.9                                 :MEASURED DEPTH
DEPTHTVD                .m           3052.8                                 :TRUE VERTICAL DEPTH


~CURVE INFORMATION
#MNEM                   .UNIT        API CODES                               DESCRIPTION
#________________________________________________________________________________________
TIME                    .s                                                  :01 TIME
DD_PRESS                .bar                                                :02 DRAW DOWN PRESSURE
DD_VOLUME               .cm3                                                :03 INCREMENTAL DRAW DOWN VOLUME
TEMP                    .degC                                               :04 TRANSDUCER TEMPERATURE
DD_PRESS_MOD_1000       .bar                                                :05 DRAW DOWN PRESSURE MOD 1000
DD_PRESS_MOD_100        .bar                                                :06 DRAW DOWN PRESSURE MOD 100
DD_PRESS_MOD_10         .bar                                                :07 DRAW DOWN PRESSURE MOD 10
DD_PRESS_MOD_1          .bar                                                :08 DRAW DOWN PRESSURE MOD 1
DD_PRESS_MOD_01         .bar                                                :09 DRAW DOWN PRESSURE MOD 01
DD_PRESS_MOD_001        .bar                                                :10 DRAW DOWN PRESSURE MOD 001
DD_PRESS_MOD_0001       .bar                                                :11 DRAW DOWN PRESSURE MOD 0001


~PARAMETER INFORMATION
#MNEM                   .UNIT        VALUE                                   DESCRIPTION
#________________________________________________________________________________________
TOOLFACE                .deg         60.0                                   :01 TOOLFACE
PUMP_CAPACITY           .bar         400                                    :02 NOMINAL DRAW DOWN PUMP CAPACITY
PUMP_LIMIT              .bar         240                                    :03 DOWNLINK PUMP LIMIT
TIME_LIMIT              .min         10                                     :04 DOWNLINK MAX TIME
TEST_TYPE               .            REPEAT                                 :05 DOWNLINK
TEST_TYPE               .            HIGH MOBILITY                          :06 DOWNLINK
DD_PIST_A               .cm2         3.1416                                 :07 DRAW DOWN PISTON AREA
V_SYS                   .cm3         131.0000                               :08 SYSTEM VOLUME
PROBE_ID                .cm          1.2700                                 :09 TTK PROBE ID
G0                      .            4.6700                                 :10 GEOMETRY FACTOR


~A                  TIME     DD_PRESS                              DD_VOLUME               TEMP                                   DD_PRESS_MOD_1000       DD_PRESS_MOD_100        DD_PRESS_MOD_10         DD_PRESS_MOD_1        DD_PRESS_MOD_01       DD_PRESS_MOD_001      DD_PRESS_MOD_0001
                    2.10    421.68819                                0.00000             83.250                                        4.21688e+002           2.16882e+001           1.68819e+000           6.88192e-001           8.81925e-002           8.19248e-003           1.92484e-004
                    2.20    421.64867                                0.00000             83.250                                        4.21649e+002           2.16487e+001           1.64867e+000           6.48674e-001           4.86739e-002           8.67389e-003           6.73895e-004
                    2.30    421.62035                                0.00000             83.250                                        4.21620e+002           2.16203e+001           1.62035e+000           6.20349e-001           2.03486e-002           3.48608e-004           3.48608e-004
                    2.40    421.61592                                0.00000             83.250                                        4.21616e+002           2.16159e+001           1.61592e+000           6.15919e-001           1.59188e-002           5.91878e-003           9.18776e-004
                    2.50    421.61828                                0.00000             83.250                                        4.21618e+002           2.16183e+001           1.61828e+000           6.18277e-001           1.82771e-002           8.27710e-003           2.77100e-004
                    2.60    421.63057                                0.00000             83.250                                        4.21631e+002           2.16306e+001           1.63057e+000           6.30570e-001           3.05700e-002           5.70038e-004           5.70038e-004
                    2.70    421.66610                                0.00000             83.250                                        4.21666e+002           2.16661e+001           1.66610e+000           6.66102e-001           6.61017e-002           6.10167e-003           1.01674e-004
                    2.80    421.73321                                0.00000             83.250                                        4.21733e+002           2.17332e+001           1.73321e+000           7.33206e-001           3.32060e-002           3.20598e-003           2.05980e-004
                    2.90    421.78897                                0.00000             83.250                                        4.21789e+002           2.17890e+001           1.78897e+000           7.88970e-001           8.89700e-002           8.97004e-003           9.70040e-004
                    3.00    421.80887                                0.00000             83.250                                        4.21809e+002           2.18089e+001           1.80887e+000           8.08868e-001           8.86778e-003           8.86778e-003           8.67783e-004
                    3.10    421.80469                                0.00000             83.250                                        4.21805e+002           2.18047e+001           1.80469e+000           8.04687e-001           4.68716e-003           4.68716e-003           6.87158e-004
                    3.20    421.82374                                0.00000             83.250                                        4.21824e+002           2.18237e+001           1.82374e+000           8.23739e-001           2.37389e-002           3.73888e-003           7.38879e-004
                    3.30    421.85033                                0.00000             83.250                                        4.21850e+002           2.18503e+001           1.85033e+000           8.50333e-001           5.03330e-002           3.33013e-004           3.33013e-004
                    3.40    421.85107                                0.00000             83.250                                        4.21851e+002           2.18511e+001           1.85107e+000           8.51069e-001           5.10690e-002           1.06900e-003           6.89954e-005
                    3.50    421.82049                                0.00000             83.250                                        4.21820e+002           2.18205e+001           1.82049e+000           8.20489e-001           2.04887e-002           4.88724e-004           4.88724e-004
                    3.60    421.78085                                0.00000             83.250                                        4.21781e+002           2.17808e+001           1.78085e+000           7.80847e-001           8.08474e-002           8.47358e-004           8.47358e-004
                    3.70    421.73299                                0.00000             83.250                                        4.21733e+002           2.17330e+001           1.73299e+000           7.32992e-001           3.29921e-002           2.99213e-003           9.92128e-004
                    3.80    421.68648                                0.00000             83.250                                        4.21686e+002           2.16865e+001           1.68648e+000           6.86476e-001           8.64757e-002           6.47573e-003           4.75725e-004
                    3.90    421.64666                                0.00000             83.250                                        4.21647e+002           2.16467e+001           1.64666e+000           6.46664e-001           4.66641e-002           6.66415e-003           6.64147e-004
                    4.00    421.61314                                0.00000             83.250                                        4.21613e+002           2.16131e+001           1.61314e+000           6.13137e-001           1.31368e-002           3.13683e-003           1.36828e-004
                    4.10    421.58160                                0.00000             83.250                                        4.21582e+002           2.15816e+001           1.58160e+000           5.81597e-001           8.15970e-002           1.59697e-003           5.96966e-004
                    4.20    421.56496                                0.00000             83.250                                        4.21565e+002           2.15650e+001           1.56496e+000           5.64962e-001           6.49622e-002           4.96218e-003           9.62178e-004
                    4.30    421.57650                                0.00000             83.250                                        4.21576e+002           2.15765e+001           1.57650e+000           5.76496e-001           7.64964e-002           6.49642e-003           4.96420e-004
                    4.40    421.59388                                0.00000             83.250                                        4.21594e+002           2.15939e+001           1.59388e+000           5.93878e-001           9.38782e-002           3.87822e-003           8.78221e-004
                    4.50    421.60279                                0.00000             83.250                                        4.21603e+002           2.16028e+001           1.60279e+000           6.02791e-001           2.79075e-003           2.79075e-003           7.90745e-004
                    4.60    421.60380                                0.00000             83.250                                        4.21604e+002           2.16038e+001           1.60380e+000           6.03799e-001           3.79922e-003           3.79922e-003           7.99215e-004
                    4.70    421.61321                                0.00000             83.250                                        4.21613e+002           2.16132e+001           1.61321e+000           6.13212e-001           1.32118e-002           3.21177e-003           2.11774e-004
                    4.80    421.62172                                0.00000             83.250                                        4.21622e+002           2.16217e+001           1.62172e+000           6.21724e-001           2.17241e-002           1.72413e-003           7.24128e-004
