~VERSION INFORMATION
VERS                    .            2.0                                    :CWLS LOG ASCII STANDARD
WRAP                    .            NO                                     :ONE LINE PER TIME STEP


~WELL INFORMATION
#MNEM                   .UNIT        DATA                                    DESCRIPTION
#________________________________________________________________________________________
STRTTIME                .HH/MM/SS    02:14:19                               :START TIME
STOPTIME                .HH/MM/SS    02:17:23                               :STOP TIME
STRT                    .s           2.10                                   :START DATA
STOP                    .s           182.70                                 :STOP DATA
STEP                    .s           0.10                                   :MEASUREMENT TIME INTERVAL
NULL                    .            -999.25                                :NULL VALUE
COMP                    .            Statoil ASA                            :COMPANY
FLD                     .            Volve                                  :FIELD
WELL                    .            15/9-F-1 C                             :WELL
RUN                     .            4                                      :RUN
LOC                     .                                                   :LOCATION
PROV                    .            na                                     :PROVINCE
SRVC                    .            Baker Hughes INTEQ                     :SERVICE COMPANY
DATE                    .YY/MM/DD    14/03/15                               :LOG DATE
UWI                     .                                                   :UNIQUE WELL ID
DEPTHMD                 .m           3603.0                                 :MEASURED DEPTH
DEPTHTVD                .m           3006.7                                 :TRUE VERTICAL DEPTH


~CURVE INFORMATION
#MNEM                   .UNIT        API CODES                               DESCRIPTION
#________________________________________________________________________________________
TIME                    .s                                                  :01 TIME
DD_PRESS                .bar                                                :02 DRAW DOWN PRESSURE
DD_VOLUME               .cm3                                                :03 INCREMENTAL DRAW DOWN VOLUME
TEMP                    .degC                                               :04 TRANSDUCER TEMPERATURE
DD_PRESS_MOD_1000       .bar                                                :05 DRAW DOWN PRESSURE MOD 1000
DD_PRESS_MOD_100        .bar                                                :06 DRAW DOWN PRESSURE MOD 100
DD_PRESS_MOD_10         .bar                                                :07 DRAW DOWN PRESSURE MOD 10
DD_PRESS_MOD_1          .bar                                                :08 DRAW DOWN PRESSURE MOD 1
DD_PRESS_MOD_01         .bar                                                :09 DRAW DOWN PRESSURE MOD 01
DD_PRESS_MOD_001        .bar                                                :10 DRAW DOWN PRESSURE MOD 001
DD_PRESS_MOD_0001       .bar                                                :11 DRAW DOWN PRESSURE MOD 0001


~PARAMETER INFORMATION
#MNEM                   .UNIT        VALUE                                   DESCRIPTION
#________________________________________________________________________________________
TOOLFACE                .deg         109.6                                  :01 TOOLFACE
PUMP_CAPACITY           .bar         400                                    :02 NOMINAL DRAW DOWN PUMP CAPACITY
PUMP_LIMIT              .bar         240                                    :03 DOWNLINK PUMP LIMIT
TIME_LIMIT              .min         10                                     :04 DOWNLINK MAX TIME
TEST_TYPE               .            REPEAT                                 :05 DOWNLINK
TEST_TYPE               .            HIGH MOBILITY                          :06 DOWNLINK
DD_PIST_A               .cm2         3.1416                                 :07 DRAW DOWN PISTON AREA
V_SYS                   .cm3         131.0000                               :08 SYSTEM VOLUME
PROBE_ID                .cm          1.2700                                 :09 TTK PROBE ID
G0                      .            4.6700                                 :10 GEOMETRY FACTOR


~A                  TIME     DD_PRESS                              DD_VOLUME               TEMP                                   DD_PRESS_MOD_1000       DD_PRESS_MOD_100        DD_PRESS_MOD_10         DD_PRESS_MOD_1        DD_PRESS_MOD_01       DD_PRESS_MOD_001      DD_PRESS_MOD_0001
# ...
                  181.30    426.65969                                0.00000             86.023                                        4.26660e+002           2.66597e+001           6.65969e+000           6.59692e-001           5.96924e-002           9.69237e-003           6.92374e-004
                  181.40    426.64982                                0.00000             86.023                                        4.26650e+002           2.66498e+001           6.64982e+000           6.49820e-001           4.98201e-002           9.82005e-003           8.20054e-004
                  181.50    426.65216                                0.00000             86.023                                        4.26652e+002           2.66522e+001           6.65216e+000           6.52163e-001           5.21632e-002           2.16315e-003           1.63153e-004
                  181.60    426.64972                                0.00000             86.023                                        4.26650e+002           2.66497e+001           6.64972e+000           6.49717e-001           4.97172e-002           9.71715e-003           7.17155e-004
                  181.70    426.64417                                0.00000             86.021                                        4.26644e+002           2.66442e+001           6.64417e+000           6.44167e-001           4.41672e-002           4.16724e-003           1.67243e-004
                  181.80    426.64397                                0.00000             86.018                                        4.26644e+002           2.66440e+001           6.64397e+000           6.43971e-001           4.39710e-002           3.97095e-003           9.70953e-004
                  181.90    426.65935                                0.00000             86.016                                        4.26659e+002           2.66593e+001           6.65935e+000           6.59348e-001           5.93476e-002           9.34762e-003           3.47623e-004
                  182.00    426.67607                                0.00000             86.016                                        4.26676e+002           2.66761e+001           6.67607e+000           6.76075e-001           7.60747e-002           6.07466e-003           7.46616e-005
                  182.10    426.66523                                0.00000             86.016                                        4.26665e+002           2.66652e+001           6.66523e+000           6.65227e-001           6.52268e-002           5.22677e-003           2.26766e-004
                  182.20    426.64055                                0.00000             86.016                                        4.26641e+002           2.66405e+001           6.64055e+000           6.40549e-001           4.05488e-002           5.48761e-004           5.48761e-004
                  182.30    426.63933                                0.00000             86.016                                        4.26639e+002           2.66393e+001           6.63933e+000           6.39334e-001           3.93335e-002           9.33355e-003           3.33546e-004
                  182.40    426.66586                                0.00000             86.016                                        4.26666e+002           2.66659e+001           6.66586e+000           6.65857e-001           6.58567e-002           5.85665e-003           8.56651e-004
                  182.50    426.67741                                0.00000             86.016                                        4.26677e+002           2.66774e+001           6.67741e+000           6.77411e-001           7.74109e-002           7.41089e-003           4.10888e-004
                  182.60    426.65719                                0.00000             86.016                                        4.26657e+002           2.66572e+001           6.65719e+000           6.57191e-001           5.71913e-002           7.19132e-003           1.91322e-004
                  182.70    426.64213                                0.00000             86.016                                        4.26642e+002           2.66421e+001           6.64213e+000           6.42127e-001           4.21275e-002           2.12750e-003           1.27495e-004
