~VERSION INFORMATION
VERS                    .            2.0                                    :CWLS LOG ASCII STANDARD
WRAP                    .            NO                                     :ONE LINE PER TIME STEP


~WELL INFORMATION
#MNEM                   .UNIT        DATA                                    DESCRIPTION
#________________________________________________________________________________________
STRTTIME                .HH/MM/SS    02:42:03                               :START TIME
STOPTIME                .HH/MM/SS    02:44:56                               :STOP TIME
STRT                    .s           2.10                                   :START DATA
STOP                    .s           171.40                                 :STOP DATA
STEP                    .s           0.10                                   :MEASUREMENT TIME INTERVAL
NULL                    .            -999.25                                :NULL VALUE
COMP                    .            Statoil ASA                            :COMPANY
FLD                     .            Volve                                  :FIELD
WELL                    .            15/9-F-1 C                             :WELL
RUN                     .            4                                      :RUN
LOC                     .                                                   :LOCATION
PROV                    .            na                                     :PROVINCE
SRVC                    .            Baker Hughes INTEQ                     :SERVICE COMPANY
DATE                    .YY/MM/DD    14/03/15                               :LOG DATE
UWI                     .                                                   :UNIQUE WELL ID
DEPTHMD                 .m           3551.1                                 :MEASURED DEPTH
DEPTHTVD                .m           2992.9                                 :TRUE VERTICAL DEPTH


~CURVE INFORMATION
#MNEM                   .UNIT        API CODES                               DESCRIPTION
#________________________________________________________________________________________
TIME                    .s                                                  :01 TIME
DD_PRESS                .bar                                                :02 DRAW DOWN PRESSURE
DD_VOLUME               .cm3                                                :03 INCREMENTAL DRAW DOWN VOLUME
TEMP                    .degC                                               :04 TRANSDUCER TEMPERATURE
DD_PRESS_MOD_1000       .bar                                                :05 DRAW DOWN PRESSURE MOD 1000
DD_PRESS_MOD_100        .bar                                                :06 DRAW DOWN PRESSURE MOD 100
DD_PRESS_MOD_10         .bar                                                :07 DRAW DOWN PRESSURE MOD 10
DD_PRESS_MOD_1          .bar                                                :08 DRAW DOWN PRESSURE MOD 1
DD_PRESS_MOD_01         .bar                                                :09 DRAW DOWN PRESSURE MOD 01
DD_PRESS_MOD_001        .bar                                                :10 DRAW DOWN PRESSURE MOD 001
DD_PRESS_MOD_0001       .bar                                                :11 DRAW DOWN PRESSURE MOD 0001


~PARAMETER INFORMATION
#MNEM                   .UNIT        VALUE                                   DESCRIPTION
#________________________________________________________________________________________
TOOLFACE                .deg         84.6                                   :01 TOOLFACE
PUMP_CAPACITY           .bar         400                                    :02 NOMINAL DRAW DOWN PUMP CAPACITY
PUMP_LIMIT              .bar         240                                    :03 DOWNLINK PUMP LIMIT
TIME_LIMIT              .min         10                                     :04 DOWNLINK MAX TIME
TEST_TYPE               .            REPEAT                                 :05 DOWNLINK
TEST_TYPE               .            HIGH MOBILITY                          :06 DOWNLINK
DD_PIST_A               .cm2         3.1416                                 :07 DRAW DOWN PISTON AREA
V_SYS                   .cm3         131.0000                               :08 SYSTEM VOLUME
PROBE_ID                .cm          1.2700                                 :09 TTK PROBE ID
G0                      .            4.6700                                 :10 GEOMETRY FACTOR


~A                  TIME     DD_PRESS                              DD_VOLUME               TEMP                                   DD_PRESS_MOD_1000       DD_PRESS_MOD_100        DD_PRESS_MOD_10         DD_PRESS_MOD_1        DD_PRESS_MOD_01       DD_PRESS_MOD_001      DD_PRESS_MOD_0001
# ...
                   80.50    336.00503                               12.61448             85.148                                        3.36005e+002           3.60050e+001           6.00503e+000           5.02964e-003           5.02964e-003           5.02964e-003           2.96440e-005
                   80.60    335.74281                               12.76492             85.148                                        3.35743e+002           3.57428e+001           5.74281e+000           7.42813e-001           4.28133e-002           2.81330e-003           8.13304e-004
                   80.70    335.47181                               12.92349             85.148                                        3.35472e+002           3.54718e+001           5.47181e+000           4.71811e-001           7.18114e-002           1.81137e-003           8.11373e-004
                   80.80    335.20824                               13.09007             85.148                                        3.35208e+002           3.52082e+001           5.20824e+000           2.08241e-001           8.24133e-003           8.24133e-003           2.41332e-004
                   80.90    334.94624                               13.26467             85.148                                        3.34946e+002           3.49462e+001           4.94624e+000           9.46238e-001           4.62383e-002           6.23825e-003           2.38250e-004
                   81.00    334.67333                               13.44759             85.148                                        3.34673e+002           3.46733e+001           4.67333e+000           6.73325e-001           7.33254e-002           3.32536e-003           3.25358e-004
                   81.10    334.39649                               13.63906             85.148                                        3.34396e+002           3.43965e+001           4.39649e+000           3.96485e-001           9.64854e-002           6.48540e-003           4.85399e-004
                   81.20    334.12402                               13.83937             85.148                                        3.34124e+002           3.41240e+001           4.12402e+000           1.24018e-001           2.40175e-002           4.01750e-003           1.75019e-005
                   81.30    333.84713                               14.04838             85.148                                        3.33847e+002           3.38471e+001           3.84713e+000           8.47134e-001           4.71339e-002           7.13388e-003           1.33882e-004
                   81.40    333.56275                               14.26589             85.148                                        3.33563e+002           3.35628e+001           3.56275e+000           5.62753e-001           6.27528e-002           2.75276e-003           7.52762e-004
                   81.50    333.27813                               14.49223             85.148                                        3.33278e+002           3.32781e+001           3.27813e+000           2.78126e-001           7.81257e-002           8.12574e-003           1.25740e-004
                   81.60    333.00033                               14.72785             85.148                                        3.33000e+002           3.30003e+001           3.00033e+000           3.31421e-004           3.31421e-004           3.31421e-004           3.31421e-004
                   81.70    332.72020                               14.97295             85.148                                        3.32720e+002           3.27202e+001           2.72020e+000           7.20198e-001           2.01985e-002           1.98468e-004           1.98468e-004
                   81.80    332.43391                               15.22736             85.148                                        3.32434e+002           3.24339e+001           2.43391e+000           4.33907e-001           3.39067e-002           3.90672e-003           9.06722e-004
                   81.90    332.14190                               15.49049             85.148                                        3.32142e+002           3.21419e+001           2.14190e+000           1.41899e-001           4.18995e-002           1.89946e-003           8.99461e-004
                   82.00    331.85145                               15.76220             85.148                                        3.31851e+002           3.18514e+001           1.85145e+000           8.51446e-001           5.14459e-002           1.44594e-003           4.45935e-004
                   82.10    331.56128                               16.04305             85.148                                        3.31561e+002           3.15613e+001           1.56128e+000           5.61276e-001           6.12756e-002           1.27564e-003           2.75635e-004
                   82.20    331.31592                               16.33198             85.148                                        3.31316e+002           3.13159e+001           1.31592e+000           3.15917e-001           1.59175e-002           5.91747e-003           9.17465e-004
                   82.30    331.16374                               16.62561             85.148                                        3.31164e+002           3.11637e+001           1.16374e+000           1.63738e-001           6.37380e-002           3.73795e-003           7.37952e-004
                   82.40    331.10959                               16.92043             85.148                                        3.31110e+002           3.11096e+001           1.10959e+000           1.09589e-001           9.58872e-003           9.58872e-003           5.88723e-004
                   82.50    331.10703                               17.21542             85.148                                        3.31107e+002           3.11070e+001           1.10703e+000           1.07030e-001           7.03024e-003           7.03024e-003           3.02429e-005
                   82.60    331.11549                               17.51039             85.148                                        3.31115e+002           3.11155e+001           1.11549e+000           1.15494e-001           1.54937e-002           5.49370e-003           4.93705e-004
                   82.70    331.16187                               17.80430             85.148                                        3.31162e+002           3.11619e+001           1.16187e+000           1.61874e-001           6.18735e-002           1.87352e-003           8.73517e-004
                   82.80    331.44256                               18.09076             85.148                                        3.31443e+002           3.14426e+001           1.44256e+000           4.42564e-001           4.25638e-002           2.56378e-003           5.63776e-004
                   82.90    332.03119                               18.36027             85.148                                        3.32031e+002           3.20312e+001           2.03119e+000           3.11906e-002           3.11906e-002           1.19057e-003           1.90570e-004
                   83.00    332.77700                               18.60786             85.146                                        3.32777e+002           3.27770e+001           2.77700e+000           7.77000e-001           7.69996e-002           6.99959e-003           9.99589e-004
                   83.10    333.55555                               18.83320             85.143                                        3.33556e+002           3.35555e+001           3.55555e+000           5.55549e-001           5.55494e-002           5.54943e-003           5.49430e-004
                   83.20    334.34509                               19.03610             85.141                                        3.34345e+002           3.43451e+001           4.34509e+000           3.45092e-001           4.50918e-002           5.09184e-003           9.18446e-005
