~VERSION INFORMATION
VERS                    .            2.0                                    :CWLS LOG ASCII STANDARD
WRAP                    .            NO                                     :ONE LINE PER TIME STEP


~WELL INFORMATION
#MNEM                   .UNIT        DATA                                    DESCRIPTION
#________________________________________________________________________________________
STRTTIME                .HH/MM/SS    14:04:48                               :START TIME
STOPTIME                .HH/MM/SS    14:07:57                               :STOP TIME
STRT                    .s           2.10                                   :START DATA
STOP                    .s           187.50                                 :STOP DATA
STEP                    .s           0.10                                   :MEASUREMENT TIME INTERVAL
NULL                    .            -999.25                                :NULL VALUE
COMP                    .            Statoil ASA                            :COMPANY
FLD                     .            Volve                                  :FIELD
WELL                    .            15/9-F-1 B                             :WELL
RUN                     .            7                                      :RUN
LOC                     .            Maersk Inspirer                        :LOCATION
PROV                    .            na                                     :PROVINCE
SRVC                    .            Baker Hughes INTEQ                     :SERVICE COMPANY
DATE                    .YY/MM/DD    13/09/06                               :LOG DATE
UWI                     .                                                   :UNIQUE WELL ID
DEPTHMD                 .m           3296.0                                 :MEASURED DEPTH
DEPTHTVD                .m           3091.5                                 :TRUE VERTICAL DEPTH


~CURVE INFORMATION
#MNEM                   .UNIT        API CODES                               DESCRIPTION
#________________________________________________________________________________________
TIME                    .s                                                  :01 TIME
DD_PRESS                .bar                                                :02 DRAW DOWN PRESSURE
DD_VOLUME               .cm3                                                :03 INCREMENTAL DRAW DOWN VOLUME
TEMP                    .degC                                               :04 TRANSDUCER TEMPERATURE
DD_PRESS_MOD_1000       .bar                                                :05 DRAW DOWN PRESSURE MOD 1000
DD_PRESS_MOD_100        .bar                                                :06 DRAW DOWN PRESSURE MOD 100
DD_PRESS_MOD_10         .bar                                                :07 DRAW DOWN PRESSURE MOD 10
DD_PRESS_MOD_1          .bar                                                :08 DRAW DOWN PRESSURE MOD 1
DD_PRESS_MOD_01         .bar                                                :09 DRAW DOWN PRESSURE MOD 01
DD_PRESS_MOD_001        .bar                                                :10 DRAW DOWN PRESSURE MOD 001
DD_PRESS_MOD_0001       .bar                                                :11 DRAW DOWN PRESSURE MOD 0001


~PARAMETER INFORMATION
#MNEM                   .UNIT        VALUE                                   DESCRIPTION
#________________________________________________________________________________________
TOOLFACE                .deg         na                                     :01 TOOLFACE
PUMP_CAPACITY           .bar         400                                    :02 NOMINAL DRAW DOWN PUMP CAPACITY
PUMP_LIMIT              .bar         400                                    :03 DOWNLINK PUMP LIMIT
TIME_LIMIT              .min         10                                     :04 DOWNLINK MAX TIME
TEST_TYPE               .            LOW MOBILITY                           :05 DOWNLINK
DD_PIST_A               .cm2         3.1416                                 :06 DRAW DOWN PISTON AREA
V_SYS                   .cm3         131.0000                               :07 SYSTEM VOLUME
PROBE_ID                .cm          1.2700                                 :08 TTK PROBE ID
G0                      .            4.6700                                 :09 GEOMETRY FACTOR


~A                  TIME     DD_PRESS                              DD_VOLUME               TEMP                                   DD_PRESS_MOD_1000       DD_PRESS_MOD_100        DD_PRESS_MOD_10         DD_PRESS_MOD_1        DD_PRESS_MOD_01       DD_PRESS_MOD_001      DD_PRESS_MOD_0001
# ...
                  172.90    441.86930                                0.00000             83.250                                        4.41869e+002           4.18693e+001           1.86930e+000           8.69300e-001           6.92998e-002           9.29979e-003           2.99795e-004
                  173.00    441.88975                                0.00000             83.250                                        4.41890e+002           4.18898e+001           1.88975e+000           8.89751e-001           8.97509e-002           9.75090e-003           7.50898e-004
                  173.10    441.92026                                0.00000             83.250                                        4.41920e+002           4.19203e+001           1.92026e+000           9.20261e-001           2.02609e-002           2.60903e-004           2.60903e-004
                  173.20    441.90980                                0.00000             83.250                                        4.41910e+002           4.19098e+001           1.90980e+000           9.09802e-001           9.80240e-003           9.80240e-003           8.02399e-004
                  173.30    441.89139                                0.00000             83.252                                        4.41891e+002           4.18914e+001           1.89139e+000           8.91387e-001           9.13867e-002           1.38670e-003           3.86705e-004
                  173.40    441.90189                                0.00000             83.256                                        4.41902e+002           4.19019e+001           1.90189e+000           9.01894e-001           1.89410e-003           1.89410e-003           8.94098e-004
                  173.50    441.92832                                0.00000             83.258                                        4.41928e+002           4.19283e+001           1.92832e+000           9.28317e-001           2.83171e-002           8.31712e-003           3.17117e-004
                  173.60    441.92863                                0.00000             83.258                                        4.41929e+002           4.19286e+001           1.92863e+000           9.28635e-001           2.86346e-002           8.63464e-003           6.34636e-004
                  173.70    441.91315                                0.00000             83.258                                        4.41913e+002           4.19131e+001           1.91315e+000           9.13148e-001           1.31479e-002           3.14787e-003           1.47867e-004
                  173.80    441.91742                                0.00000             83.258                                        4.41917e+002           4.19174e+001           1.91742e+000           9.17419e-001           1.74193e-002           7.41928e-003           4.19279e-004
                  173.90    441.92750                                0.00000             83.258                                        4.41927e+002           4.19275e+001           1.92750e+000           9.27498e-001           2.74981e-002           7.49813e-003           4.98126e-004
                  174.00    441.91114                                0.00000             83.258                                        4.41911e+002           4.19111e+001           1.91114e+000           9.11144e-001           1.11440e-002           1.14400e-003           1.44003e-004
                  174.10    441.88333                                0.00000             83.258                                        4.41883e+002           4.18833e+001           1.88333e+000           8.83326e-001           8.33258e-002           3.32576e-003           3.25760e-004
                  174.20    441.89108                                0.00000             83.258                                        4.41891e+002           4.18911e+001           1.89108e+000           8.91084e-001           9.10841e-002           1.08405e-003           8.40533e-005
                  174.30    441.91554                                0.00000             83.258                                        4.41916e+002           4.19155e+001           1.91554e+000           9.15535e-001           1.55353e-002           5.53525e-003           5.35254e-004
                  174.40    441.89716                                0.00000             83.258                                        4.41897e+002           4.18972e+001           1.89716e+000           8.97155e-001           9.71554e-002           7.15535e-003           1.55352e-004
                  174.50    441.86631                                0.00000             83.258                                        4.41866e+002           4.18663e+001           1.86631e+000           8.66313e-001           6.63130e-002           6.31303e-003           3.13026e-004
                  174.60    441.87519                                0.00000             83.258                                        4.41875e+002           4.18752e+001           1.87519e+000           8.75192e-001           7.51923e-002           5.19231e-003           1.92310e-004
                  174.70    441.89559                                0.00000             83.258                                        4.41896e+002           4.18956e+001           1.89559e+000           8.95585e-001           9.55852e-002           5.58517e-003           5.85174e-004
                  174.80    441.88474                                0.00000             83.258                                        4.41885e+002           4.18847e+001           1.88474e+000           8.84744e-001           8.47442e-002           4.74420e-003           7.44205e-004
                  174.90    441.87086                                0.00000             83.258                                        4.41871e+002           4.18709e+001           1.87086e+000           8.70865e-001           7.08649e-002           8.64907e-004           8.64907e-004
                  175.00    441.89337                                0.00000             83.258                                        4.41893e+002           4.18934e+001           1.89337e+000           8.93372e-001           9.33721e-002           3.37206e-003           3.72061e-004
                  175.10    441.91369                                0.00000             83.258                                        4.41914e+002           4.19137e+001           1.91369e+000           9.13689e-001           1.36890e-002           3.68896e-003           6.88959e-004
                  175.20    441.89192                                0.00000             83.258                                        4.41892e+002           4.18919e+001           1.89192e+000           8.91919e-001           9.19194e-002           1.91942e-003           9.19422e-004
                  175.30    441.87388                                0.00000             83.258                                        4.41874e+002           4.18739e+001           1.87388e+000           8.73877e-001           7.38772e-002           3.87724e-003           8.77245e-004
                  175.40    441.88285                                0.00000             83.258                                        4.41883e+002           4.18829e+001           1.88285e+000           8.82852e-001           8.28524e-002           2.85237e-003           8.52368e-004
                  175.50    441.89249                                0.00000             83.258                                        4.41892e+002           4.18925e+001           1.89249e+000           8.92488e-001           9.24878e-002           2.48779e-003           4.87789e-004
                  175.60    441.89337                                0.00000             83.258                                        4.41893e+002           4.18934e+001           1.89337e+000           8.93366e-001           9.33662e-002           3.36619e-003           3.66185e-004
