~VERSION INFORMATION
VERS                    .            2.0                                    :CWLS LOG ASCII STANDARD
WRAP                    .            NO                                     :ONE LINE PER TIME STEP


~WELL INFORMATION
#MNEM                   .UNIT        DATA                                    DESCRIPTION
#________________________________________________________________________________________
STRTTIME                .HH/MM/SS    16:20:20                               :START TIME
STOPTIME                .HH/MM/SS    16:23:23                               :STOP TIME
STRT                    .s           2.10                                   :START DATA
STOP                    .s           182.00                                 :STOP DATA
STEP                    .s           0.10                                   :MEASUREMENT TIME INTERVAL
NULL                    .            -999.25                                :NULL VALUE
COMP                    .            Statoil ASA                            :COMPANY
FLD                     .            Volve                                  :FIELD
WELL                    .            15/9-F-1 B                             :WELL
RUN                     .            7                                      :RUN
LOC                     .            Maersk Inspirer                        :LOCATION
PROV                    .            na                                     :PROVINCE
SRVC                    .            Baker Hughes INTEQ                     :SERVICE COMPANY
DATE                    .YY/MM/DD    13/09/06                               :LOG DATE
UWI                     .                                                   :UNIQUE WELL ID
DEPTHMD                 .m           3255.0                                 :MEASURED DEPTH
DEPTHTVD                .m           3051.1                                 :TRUE VERTICAL DEPTH


~CURVE INFORMATION
#MNEM                   .UNIT        API CODES                               DESCRIPTION
#________________________________________________________________________________________
TIME                    .s                                                  :01 TIME
DD_PRESS                .bar                                                :02 DRAW DOWN PRESSURE
DD_VOLUME               .cm3                                                :03 INCREMENTAL DRAW DOWN VOLUME
TEMP                    .degC                                               :04 TRANSDUCER TEMPERATURE
DD_PRESS_MOD_1000       .bar                                                :05 DRAW DOWN PRESSURE MOD 1000
DD_PRESS_MOD_100        .bar                                                :06 DRAW DOWN PRESSURE MOD 100
DD_PRESS_MOD_10         .bar                                                :07 DRAW DOWN PRESSURE MOD 10
DD_PRESS_MOD_1          .bar                                                :08 DRAW DOWN PRESSURE MOD 1
DD_PRESS_MOD_01         .bar                                                :09 DRAW DOWN PRESSURE MOD 01
DD_PRESS_MOD_001        .bar                                                :10 DRAW DOWN PRESSURE MOD 001
DD_PRESS_MOD_0001       .bar                                                :11 DRAW DOWN PRESSURE MOD 0001


~PARAMETER INFORMATION
#MNEM                   .UNIT        VALUE                                   DESCRIPTION
#________________________________________________________________________________________
TOOLFACE                .deg         na                                     :01 TOOLFACE
PUMP_CAPACITY           .bar         400                                    :02 NOMINAL DRAW DOWN PUMP CAPACITY
PUMP_LIMIT              .bar         400                                    :03 DOWNLINK PUMP LIMIT
TIME_LIMIT              .min         10                                     :04 DOWNLINK MAX TIME
TEST_TYPE               .            LOW MOBILITY                           :05 DOWNLINK
DD_PIST_A               .cm2         3.1416                                 :06 DRAW DOWN PISTON AREA
V_SYS                   .cm3         131.0000                               :07 SYSTEM VOLUME
PROBE_ID                .cm          1.2700                                 :08 TTK PROBE ID
G0                      .            4.6700                                 :09 GEOMETRY FACTOR


~A                  TIME     DD_PRESS                              DD_VOLUME               TEMP                                   DD_PRESS_MOD_1000       DD_PRESS_MOD_100        DD_PRESS_MOD_10         DD_PRESS_MOD_1        DD_PRESS_MOD_01       DD_PRESS_MOD_001      DD_PRESS_MOD_0001
# ...
                   24.50    435.65372                                0.00000             81.836                                        4.35654e+002           3.56537e+001           5.65372e+000           6.53721e-001           5.37209e-002           3.72088e-003           7.20875e-004
                   24.60    435.60691                                0.00000             81.836                                        4.35607e+002           3.56069e+001           5.60691e+000           6.06907e-001           6.90678e-003           6.90678e-003           9.06778e-004
                   24.70    435.61430                                0.00000             81.836                                        4.35614e+002           3.56143e+001           5.61430e+000           6.14302e-001           1.43015e-002           4.30151e-003           3.01514e-004
                   24.80    435.62978                                0.00000             81.836                                        4.35630e+002           3.56298e+001           5.62978e+000           6.29785e-001           2.97848e-002           9.78477e-003           7.84769e-004
                   24.90    435.59192                                0.00000             81.836                                        4.35592e+002           3.55919e+001           5.59192e+000           5.91919e-001           9.19192e-002           1.91915e-003           9.19150e-004
                   25.00    435.53984                                0.00000             81.836                                        4.35540e+002           3.55398e+001           5.53984e+000           5.39845e-001           3.98446e-002           9.84455e-003           8.44554e-004
                   25.10    435.51110                                0.00000             81.836                                        4.35511e+002           3.55111e+001           5.51110e+000           5.11100e-001           1.11003e-002           1.10027e-003           1.00268e-004
                   25.20    435.52172                                0.00000             81.836                                        4.35522e+002           3.55217e+001           5.52172e+000           5.21720e-001           2.17203e-002           1.72034e-003           7.20339e-004
                   25.30    435.50433                                0.00000             81.836                                        4.35504e+002           3.55043e+001           5.50433e+000           5.04326e-001           4.32568e-003           4.32568e-003           3.25683e-004
                   25.40    435.49924                                0.00000             81.836                                        4.35499e+002           3.54992e+001           5.49924e+000           4.99242e-001           9.92422e-002           9.24223e-003           2.42231e-004
                   25.50    435.50599                                0.00000             81.836                                        4.35506e+002           3.55060e+001           5.50599e+000           5.05987e-001           5.98719e-003           5.98719e-003           9.87193e-004
                   25.60    435.51221                                0.00000             81.836                                        4.35512e+002           3.55122e+001           5.51221e+000           5.12210e-001           1.22096e-002           2.20960e-003           2.09604e-004
                   25.70    435.51411                                0.00000             81.836                                        4.35514e+002           3.55141e+001           5.51411e+000           5.14106e-001           1.41062e-002           4.10618e-003           1.06175e-004
                   25.80    435.52937                                0.00000             81.836                                        4.35529e+002           3.55294e+001           5.52937e+000           5.29366e-001           2.93661e-002           9.36605e-003           3.66051e-004
                   25.90    435.52960                                0.00000             81.836                                        4.35530e+002           3.55296e+001           5.52960e+000           5.29597e-001           2.95969e-002           9.59690e-003           5.96900e-004
                   26.00    435.52829                                0.00000             81.836                                        4.35528e+002           3.55283e+001           5.52829e+000           5.28289e-001           2.82890e-002           8.28898e-003           2.88983e-004
                   26.10    435.53793                                0.00000             81.836                                        4.35538e+002           3.55379e+001           5.53793e+000           5.37927e-001           3.79273e-002           7.92732e-003           9.27324e-004
                   26.20    435.54690                                0.00000             81.836                                        4.35547e+002           3.55469e+001           5.54690e+000           5.46901e-001           4.69013e-002           6.90133e-003           9.01329e-004
                   26.30    435.55149                                0.00000             81.836                                        4.35551e+002           3.55515e+001           5.55149e+000           5.51487e-001           5.14866e-002           1.48661e-003           4.86608e-004
                   26.40    435.55240                                0.00000             81.836                                        4.35552e+002           3.55524e+001           5.55240e+000           5.52403e-001           5.24033e-002           2.40327e-003           4.03273e-004
                   26.50    435.55020                                0.00000             81.836                                        4.35550e+002           3.55502e+001           5.55020e+000           5.50198e-001           5.01979e-002           1.97919e-004           1.97919e-004
                   26.60    435.56462                                0.00000             81.836                                        4.35565e+002           3.55646e+001           5.56462e+000           5.64621e-001           6.46207e-002           4.62074e-003           6.20741e-004
                   26.70    435.57025                                0.00000             81.836                                        4.35570e+002           3.55703e+001           5.57025e+000           5.70252e-001           7.02517e-002           2.51691e-004           2.51691e-004
                   26.80    435.56783                                1.29176             81.836                                        4.35568e+002           3.55678e+001           5.56783e+000           5.67834e-001           6.78335e-002           7.83351e-003           8.33508e-004
                   26.90    435.58277                                1.29243             81.834                                        4.35583e+002           3.55828e+001           5.58277e+000           5.82769e-001           8.27693e-002           2.76933e-003           7.69329e-004
                   27.00    435.59801                                1.29344             81.830                                        4.35598e+002           3.55980e+001           5.59801e+000           5.98008e-001           9.80084e-002           8.00836e-003           8.36290e-006
                   27.10    435.52148                                1.29541             81.830                                        4.35521e+002           3.55215e+001           5.52148e+000           5.21479e-001           2.14792e-002           1.47921e-003           4.79215e-004
                   27.20    435.31509                                1.29913             81.834                                        4.35315e+002           3.53151e+001           5.31509e+000           3.15094e-001           1.50938e-002           5.09379e-003           9.37869e-005
