~VERSION INFORMATION
VERS                    .            2.0                                    :CWLS LOG ASCII STANDARD
WRAP                    .            NO                                     :ONE LINE PER TIME STEP


~WELL INFORMATION
#MNEM                   .UNIT        DATA                                    DESCRIPTION
#________________________________________________________________________________________
STRTTIME                .HH/MM/SS    01:04:55                               :START TIME
STOPTIME                .HH/MM/SS    01:07:44                               :STOP TIME
STRT                    .s           2.10                                   :START DATA
STOP                    .s           167.40                                 :STOP DATA
STEP                    .s           0.10                                   :MEASUREMENT TIME INTERVAL
NULL                    .            -999.25                                :NULL VALUE
COMP                    .            Statoil ASA                            :COMPANY
FLD                     .            Volve                                  :FIELD
WELL                    .            15/9-F-1 C                             :WELL
RUN                     .            4                                      :RUN
LOC                     .                                                   :LOCATION
PROV                    .            na                                     :PROVINCE
SRVC                    .            Baker Hughes INTEQ                     :SERVICE COMPANY
DATE                    .YY/MM/DD    14/03/15                               :LOG DATE
UWI                     .                                                   :UNIQUE WELL ID
DEPTHMD                 .m           3720.1                                 :MEASURED DEPTH
DEPTHTVD                .m           3050.6                                 :TRUE VERTICAL DEPTH


~CURVE INFORMATION
#MNEM                   .UNIT        API CODES                               DESCRIPTION
#________________________________________________________________________________________
TIME                    .s                                                  :01 TIME
DD_PRESS                .bar                                                :02 DRAW DOWN PRESSURE
DD_VOLUME               .cm3                                                :03 INCREMENTAL DRAW DOWN VOLUME
TEMP                    .degC                                               :04 TRANSDUCER TEMPERATURE
DD_PRESS_MOD_1000       .bar                                                :05 DRAW DOWN PRESSURE MOD 1000
DD_PRESS_MOD_100        .bar                                                :06 DRAW DOWN PRESSURE MOD 100
DD_PRESS_MOD_10         .bar                                                :07 DRAW DOWN PRESSURE MOD 10
DD_PRESS_MOD_1          .bar                                                :08 DRAW DOWN PRESSURE MOD 1
DD_PRESS_MOD_01         .bar                                                :09 DRAW DOWN PRESSURE MOD 01
DD_PRESS_MOD_001        .bar                                                :10 DRAW DOWN PRESSURE MOD 001
DD_PRESS_MOD_0001       .bar                                                :11 DRAW DOWN PRESSURE MOD 0001


~PARAMETER INFORMATION
#MNEM                   .UNIT        VALUE                                   DESCRIPTION
#________________________________________________________________________________________
TOOLFACE                .deg         134.6                                  :01 TOOLFACE
PUMP_CAPACITY           .bar         400                                    :02 NOMINAL DRAW DOWN PUMP CAPACITY
PUMP_LIMIT              .bar         240                                    :03 DOWNLINK PUMP LIMIT
TIME_LIMIT              .min         10                                     :04 DOWNLINK MAX TIME
TEST_TYPE               .            REPEAT                                 :05 DOWNLINK
TEST_TYPE               .            HIGH MOBILITY                          :06 DOWNLINK
DD_PIST_A               .cm2         3.1416                                 :07 DRAW DOWN PISTON AREA
V_SYS                   .cm3         131.0000                               :08 SYSTEM VOLUME
PROBE_ID                .cm          1.2700                                 :09 TTK PROBE ID
G0                      .            4.6700                                 :10 GEOMETRY FACTOR


~A                  TIME     DD_PRESS                              DD_VOLUME               TEMP                                   DD_PRESS_MOD_1000       DD_PRESS_MOD_100        DD_PRESS_MOD_10         DD_PRESS_MOD_1        DD_PRESS_MOD_01       DD_PRESS_MOD_001      DD_PRESS_MOD_0001
# ...
                   66.50    348.27611                               10.92852             87.266                                        3.48276e+002           4.82761e+001           8.27611e+000           2.76114e-001           7.61143e-002           6.11429e-003           1.14290e-004
                   66.60    348.27814                               10.92852             87.266                                        3.48278e+002           4.82781e+001           8.27814e+000           2.78145e-001           7.81446e-002           8.14460e-003           1.44599e-004
                   66.70    348.27894                               10.92852             87.266                                        3.48279e+002           4.82789e+001           8.27894e+000           2.78936e-001           7.89364e-002           8.93644e-003           9.36439e-004
                   66.80    348.27796                               10.92852             87.266                                        3.48278e+002           4.82780e+001           8.27796e+000           2.77958e-001           7.79578e-002           7.95777e-003           9.57772e-004
                   66.90    348.28031                               10.92852             87.266                                        3.48280e+002           4.82803e+001           8.28031e+000           2.80308e-001           8.03082e-002           3.08204e-004           3.08204e-004
                   67.00    348.28188                               10.92852             87.266                                        3.48282e+002           4.82819e+001           8.28188e+000           2.81879e-001           8.18793e-002           1.87925e-003           8.79251e-004
                   67.10    348.27956                               10.92852             87.266                                        3.48280e+002           4.82796e+001           8.27956e+000           2.79557e-001           7.95570e-002           9.55697e-003           5.56971e-004
                   67.20    348.27842                               10.92852             87.266                                        3.48278e+002           4.82784e+001           8.27842e+000           2.78419e-001           7.84192e-002           8.41916e-003           4.19158e-004
                   67.30    348.27922                               10.92852             87.266                                        3.48279e+002           4.82792e+001           8.27922e+000           2.79222e-001           7.92219e-002           9.22195e-003           2.21946e-004
                   67.40    348.27829                               10.92852             87.266                                        3.48278e+002           4.82783e+001           8.27829e+000           2.78286e-001           7.82858e-002           8.28580e-003           2.85802e-004
                   67.50    348.27692                               10.92852             87.266                                        3.48277e+002           4.82769e+001           8.27692e+000           2.76922e-001           7.69222e-002           6.92219e-003           9.22188e-004
                   67.60    348.27615                               10.92852             87.266                                        3.48276e+002           4.82761e+001           8.27615e+000           2.76146e-001           7.61464e-002           6.14639e-003           1.46387e-004
                   67.70    348.27908                               10.92852             87.266                                        3.48279e+002           4.82791e+001           8.27908e+000           2.79083e-001           7.90831e-002           9.08306e-003           8.30616e-005
                   67.80    348.27900                               10.92852             87.266                                        3.48279e+002           4.82790e+001           8.27900e+000           2.79004e-001           7.90038e-002           9.00384e-003           3.84199e-006
                   67.90    348.27729                               10.92852             87.266                                        3.48277e+002           4.82773e+001           8.27729e+000           2.77293e-001           7.72935e-002           7.29348e-003           2.93477e-004
                   68.00    348.27809                               10.92852             87.266                                        3.48278e+002           4.82781e+001           8.27809e+000           2.78091e-001           7.80909e-002           8.09089e-003           9.08907e-005
                   68.10    348.27953                               10.92852             87.266                                        3.48280e+002           4.82795e+001           8.27953e+000           2.79531e-001           7.95308e-002           9.53085e-003           5.30845e-004
                   68.20    348.28076                               10.92852             87.266                                        3.48281e+002           4.82808e+001           8.28076e+000           2.80762e-001           8.07619e-002           7.61925e-004           7.61925e-004
                   68.30    348.28179                               10.92852             87.266                                        3.48282e+002           4.82818e+001           8.28179e+000           2.81791e-001           8.17906e-002           1.79060e-003           7.90598e-004
                   68.40    348.28100                               10.92852             87.266                                        3.48281e+002           4.82810e+001           8.28100e+000           2.81001e-001           8.10008e-002           1.00081e-003           8.08429e-007
                   68.50    348.27984                               10.92852             87.266                                        3.48280e+002           4.82798e+001           8.27984e+000           2.79836e-001           7.98362e-002           9.83619e-003           8.36195e-004
                   68.60    348.27971                               10.92852             87.263                                        3.48280e+002           4.82797e+001           8.27971e+000           2.79711e-001           7.97111e-002           9.71112e-003           7.11121e-004
                   68.70    348.27899                               10.92852             87.260                                        3.48279e+002           4.82790e+001           8.27899e+000           2.78988e-001           7.89885e-002           8.98849e-003           9.88491e-004
                   68.80    348.27766                               10.92852             87.258                                        3.48278e+002           4.82777e+001           8.27766e+000           2.77657e-001           7.76568e-002           7.65680e-003           6.56798e-004
                   68.90    348.27780                               10.92852             87.258                                        3.48278e+002           4.82778e+001           8.27780e+000           2.77801e-001           7.78006e-002           7.80057e-003           8.00566e-004
                   69.00    348.27885                               10.92852             87.258                                        3.48279e+002           4.82789e+001           8.27885e+000           2.78850e-001           7.88501e-002           8.85012e-003           8.50123e-004
                   69.10    348.28012                               10.92852             87.258                                        3.48280e+002           4.82801e+001           8.28012e+000           2.80120e-001           8.01203e-002           1.20332e-004           1.20332e-004
                   69.20    348.27976                               10.92852             87.258                                        3.48280e+002           4.82798e+001           8.27976e+000           2.79759e-001           7.97593e-002           9.75928e-003           7.59283e-004
