~VERSION INFORMATION
VERS                    .            2.0                                    :CWLS LOG ASCII STANDARD
WRAP                    .            NO                                     :ONE LINE PER TIME STEP


~WELL INFORMATION
#MNEM                   .UNIT        DATA                                    DESCRIPTION
#________________________________________________________________________________________
STRTTIME                .HH/MM/SS    08:08:34                               :START TIME
STOPTIME                .HH/MM/SS    08:11:25                               :STOP TIME
STRT                    .s           2.10                                   :START DATA
STOP                    .s           169.10                                 :STOP DATA
STEP                    .s           0.10                                   :MEASUREMENT TIME INTERVAL
NULL                    .            -999.25                                :NULL VALUE
COMP                    .            Statoil ASA                            :COMPANY
FLD                     .            Volve                                  :FIELD
WELL                    .            15/9-F-11 A                            :WELL
RUN                     .            8                                      :RUN
LOC                     .            Maersk Inspirer                        :LOCATION
PROV                    .            na                                     :PROVINCE
SRVC                    .            Baker Hughes INTEQ                     :SERVICE COMPANY
DATE                    .YY/MM/DD    13/05/21                               :LOG DATE
UWI                     .                                                   :UNIQUE WELL ID
DEPTHMD                 .m           3694.5                                 :MEASURED DEPTH
DEPTHTVD                .m           3074.7                                 :TRUE VERTICAL DEPTH


~CURVE INFORMATION
#MNEM                   .UNIT        API CODES                               DESCRIPTION
#________________________________________________________________________________________
TIME                    .s                                                  :01 TIME
DD_PRESS                .bar                                                :02 DRAW DOWN PRESSURE
DD_VOLUME               .cm3                                                :03 INCREMENTAL DRAW DOWN VOLUME
TEMP                    .degC                                               :04 TRANSDUCER TEMPERATURE
DD_PRESS_MOD_1000       .bar                                                :05 DRAW DOWN PRESSURE MOD 1000
DD_PRESS_MOD_100        .bar                                                :06 DRAW DOWN PRESSURE MOD 100
DD_PRESS_MOD_10         .bar                                                :07 DRAW DOWN PRESSURE MOD 10
DD_PRESS_MOD_1          .bar                                                :08 DRAW DOWN PRESSURE MOD 1
DD_PRESS_MOD_01         .bar                                                :09 DRAW DOWN PRESSURE MOD 01
DD_PRESS_MOD_001        .bar                                                :10 DRAW DOWN PRESSURE MOD 001
DD_PRESS_MOD_0001       .bar                                                :11 DRAW DOWN PRESSURE MOD 0001


~PARAMETER INFORMATION
#MNEM                   .UNIT        VALUE                                   DESCRIPTION
#________________________________________________________________________________________
TOOLFACE                .deg         -107.9                                 :01 TOOLFACE
PUMP_CAPACITY           .bar         400                                    :02 NOMINAL DRAW DOWN PUMP CAPACITY
PUMP_LIMIT              .bar         240                                    :03 DOWNLINK PUMP LIMIT
TIME_LIMIT              .min         10                                     :04 DOWNLINK MAX TIME
TEST_TYPE               .            HIGH MOBILITY                          :05 DOWNLINK
DD_PIST_A               .cm2         3.1416                                 :06 DRAW DOWN PISTON AREA
V_SYS                   .cm3         131.0000                               :07 SYSTEM VOLUME
PROBE_ID                .cm          1.2700                                 :08 TTK PROBE ID
G0                      .            4.6700                                 :09 GEOMETRY FACTOR


~A                  TIME     DD_PRESS                              DD_VOLUME               TEMP                                   DD_PRESS_MOD_1000       DD_PRESS_MOD_100        DD_PRESS_MOD_10         DD_PRESS_MOD_1        DD_PRESS_MOD_01       DD_PRESS_MOD_001      DD_PRESS_MOD_0001
# ...
                   80.50    334.20658                               18.64713             84.865                                        3.34207e+002           3.42066e+001           4.20658e+000           2.06583e-001           6.58303e-003           6.58303e-003           5.83026e-004
                   80.60    335.27379                               18.83974             84.864                                        3.35274e+002           3.52738e+001           5.27379e+000           2.73793e-001           7.37928e-002           3.79283e-003           7.92831e-004
                   80.70    336.35872                               19.01328             84.865                                        3.36359e+002           3.63587e+001           6.35872e+000           3.58723e-001           5.87231e-002           8.72313e-003           7.23129e-004
                   80.80    337.44262                               19.16771             84.867                                        3.37443e+002           3.74426e+001           7.44262e+000           4.42623e-001           4.26230e-002           2.62299e-003           6.22992e-004
                   80.90    338.51768                               19.30293             84.865                                        3.38518e+002           3.85177e+001           8.51768e+000           5.17679e-001           1.76785e-002           7.67851e-003           6.78509e-004
                   81.00    339.59636                               19.41910             84.861                                        3.39596e+002           3.95964e+001           9.59636e+000           5.96358e-001           9.63577e-002           6.35766e-003           3.57658e-004
                   81.10    340.67060                               19.51620             84.859                                        3.40671e+002           4.06706e+001           6.70595e-001           6.70595e-001           7.05950e-002           5.95003e-004           5.95003e-004
                   81.20    341.73405                               19.59424             84.859                                        3.41734e+002           4.17341e+001           1.73405e+000           7.34055e-001           3.40548e-002           4.05485e-003           5.48465e-005
                   81.30    342.79291                               19.65298             84.859                                        3.42793e+002           4.27929e+001           2.79291e+000           7.92911e-001           9.29113e-002           2.91135e-003           9.11348e-004
                   81.40    343.85763                               19.69246             84.859                                        3.43858e+002           4.38576e+001           3.85763e+000           8.57626e-001           5.76260e-002           7.62604e-003           6.26043e-004
                   81.50    344.90468                               19.71307             84.859                                        3.44905e+002           4.49047e+001           4.90468e+000           9.04684e-001           4.68399e-003           4.68399e-003           6.83994e-004
                   81.60    345.72017                               19.71954             84.859                                        3.45720e+002           4.57202e+001           5.72017e+000           7.20173e-001           2.01731e-002           1.73100e-004           1.73100e-004
                   81.70    346.14186                               19.72014             84.859                                        3.46142e+002           4.61419e+001           6.14186e+000           1.41856e-001           4.18563e-002           1.85629e-003           8.56290e-004
                   81.80    346.28189                               19.72014             84.859                                        3.46282e+002           4.62819e+001           6.28189e+000           2.81893e-001           8.18931e-002           1.89309e-003           8.93091e-004
                   81.90    346.33352                               19.72014             84.859                                        3.46334e+002           4.63335e+001           6.33352e+000           3.33525e-001           3.35249e-002           3.52495e-003           5.24949e-004
                   82.00    346.35299                               19.72014             84.859                                        3.46353e+002           4.63530e+001           6.35299e+000           3.52995e-001           5.29950e-002           2.99497e-003           9.94972e-004
                   82.10    346.35608                               19.72014             84.859                                        3.46356e+002           4.63561e+001           6.35608e+000           3.56076e-001           5.60757e-002           6.07567e-003           7.56697e-005
                   82.20    346.35357                               19.72014             84.859                                        3.46354e+002           4.63536e+001           6.35357e+000           3.53572e-001           5.35720e-002           3.57201e-003           5.72008e-004
                   82.30    346.36098                               19.72014             84.859                                        3.46361e+002           4.63610e+001           6.36098e+000           3.60980e-001           6.09799e-002           9.79875e-004           9.79875e-004
                   82.40    346.37270                               19.72014             84.859                                        3.46373e+002           4.63727e+001           6.37270e+000           3.72704e-001           7.27039e-002           2.70390e-003           7.03901e-004
                   82.50    346.37464                               19.72014             84.859                                        3.46375e+002           4.63746e+001           6.37464e+000           3.74642e-001           7.46418e-002           4.64176e-003           6.41762e-004
                   82.60    346.37293                               19.72014             84.859                                        3.46373e+002           4.63729e+001           6.37293e+000           3.72926e-001           7.29261e-002           2.92612e-003           9.26120e-004
                   82.70    346.37532                               19.72014             84.859                                        3.46375e+002           4.63753e+001           6.37532e+000           3.75319e-001           7.53188e-002           5.31877e-003           3.18774e-004
                   82.80    346.38018                               19.72014             84.859                                        3.46380e+002           4.63802e+001           6.38018e+000           3.80183e-001           8.01826e-002           1.82568e-004           1.82568e-004
                   82.90    346.38289                               19.72014             84.859                                        3.46383e+002           4.63829e+001           6.38289e+000           3.82890e-001           8.28901e-002           2.89014e-003           8.90139e-004
                   83.00    346.37791                               19.72014             84.859                                        3.46378e+002           4.63779e+001           6.37791e+000           3.77907e-001           7.79067e-002           7.90672e-003           9.06721e-004
                   83.10    346.37647                               19.72014             84.859                                        3.46376e+002           4.63765e+001           6.37647e+000           3.76467e-001           7.64674e-002           6.46744e-003           4.67436e-004
                   83.20    346.38392                               19.72014             84.859                                        3.46384e+002           4.63839e+001           6.38392e+000           3.83924e-001           8.39241e-002           3.92411e-003           9.24108e-004
