~VERSION INFORMATION
VERS                    .            2.0                                    :CWLS LOG ASCII STANDARD
WRAP                    .            NO                                     :ONE LINE PER TIME STEP


~WELL INFORMATION
#MNEM                   .UNIT        DATA                                    DESCRIPTION
#________________________________________________________________________________________
STRTTIME                .HH/MM/SS    14:04:48                               :START TIME
STOPTIME                .HH/MM/SS    14:07:57                               :STOP TIME
STRT                    .s           2.10                                   :START DATA
STOP                    .s           187.50                                 :STOP DATA
STEP                    .s           0.10                                   :MEASUREMENT TIME INTERVAL
NULL                    .            -999.25                                :NULL VALUE
COMP                    .            Statoil ASA                            :COMPANY
FLD                     .            Volve                                  :FIELD
WELL                    .            15/9-F-1 B                             :WELL
RUN                     .            7                                      :RUN
LOC                     .            Maersk Inspirer                        :LOCATION
PROV                    .            na                                     :PROVINCE
SRVC                    .            Baker Hughes INTEQ                     :SERVICE COMPANY
DATE                    .YY/MM/DD    13/09/06                               :LOG DATE
UWI                     .                                                   :UNIQUE WELL ID
DEPTHMD                 .m           3296.0                                 :MEASURED DEPTH
DEPTHTVD                .m           3091.5                                 :TRUE VERTICAL DEPTH


~CURVE INFORMATION
#MNEM                   .UNIT        API CODES                               DESCRIPTION
#________________________________________________________________________________________
TIME                    .s                                                  :01 TIME
DD_PRESS                .bar                                                :02 DRAW DOWN PRESSURE
DD_VOLUME               .cm3                                                :03 INCREMENTAL DRAW DOWN VOLUME
TEMP                    .degC                                               :04 TRANSDUCER TEMPERATURE
DD_PRESS_MOD_1000       .bar                                                :05 DRAW DOWN PRESSURE MOD 1000
DD_PRESS_MOD_100        .bar                                                :06 DRAW DOWN PRESSURE MOD 100
DD_PRESS_MOD_10         .bar                                                :07 DRAW DOWN PRESSURE MOD 10
DD_PRESS_MOD_1          .bar                                                :08 DRAW DOWN PRESSURE MOD 1
DD_PRESS_MOD_01         .bar                                                :09 DRAW DOWN PRESSURE MOD 01
DD_PRESS_MOD_001        .bar                                                :10 DRAW DOWN PRESSURE MOD 001
DD_PRESS_MOD_0001       .bar                                                :11 DRAW DOWN PRESSURE MOD 0001


~PARAMETER INFORMATION
#MNEM                   .UNIT        VALUE                                   DESCRIPTION
#________________________________________________________________________________________
TOOLFACE                .deg         na                                     :01 TOOLFACE
PUMP_CAPACITY           .bar         400                                    :02 NOMINAL DRAW DOWN PUMP CAPACITY
PUMP_LIMIT              .bar         400                                    :03 DOWNLINK PUMP LIMIT
TIME_LIMIT              .min         10                                     :04 DOWNLINK MAX TIME
TEST_TYPE               .            LOW MOBILITY                           :05 DOWNLINK
DD_PIST_A               .cm2         3.1416                                 :06 DRAW DOWN PISTON AREA
V_SYS                   .cm3         131.0000                               :07 SYSTEM VOLUME
PROBE_ID                .cm          1.2700                                 :08 TTK PROBE ID
G0                      .            4.6700                                 :09 GEOMETRY FACTOR


~A                  TIME     DD_PRESS                              DD_VOLUME               TEMP                                   DD_PRESS_MOD_1000       DD_PRESS_MOD_100        DD_PRESS_MOD_10         DD_PRESS_MOD_1        DD_PRESS_MOD_01       DD_PRESS_MOD_001      DD_PRESS_MOD_0001
# ...
                  122.50    339.41761                               21.86178             83.258                                        3.39418e+002           3.94176e+001           9.41761e+000           4.17606e-001           1.76058e-002           7.60582e-003           6.05817e-004
                  122.60    339.10638                               21.96879             83.258                                        3.39106e+002           3.91064e+001           9.10638e+000           1.06384e-001           6.38393e-003           6.38393e-003           3.83932e-004
                  122.70    338.79005                               22.07909             83.258                                        3.38790e+002           3.87900e+001           8.79005e+000           7.90047e-001           9.00467e-002           4.66687e-005           4.66687e-005
                  122.80    338.47448                               22.19285             83.258                                        3.38474e+002           3.84745e+001           8.47448e+000           4.74484e-001           7.44837e-002           4.48368e-003           4.83684e-004
                  122.90    338.15709                               22.30997             83.258                                        3.38157e+002           3.81571e+001           8.15709e+000           1.57087e-001           5.70874e-002           7.08745e-003           8.74493e-005
                  123.00    337.84576                               22.43013             83.258                                        3.37846e+002           3.78458e+001           7.84576e+000           8.45756e-001           4.57565e-002           5.75648e-003           7.56484e-004
                  123.10    337.54196                               22.55317             83.258                                        3.37542e+002           3.75420e+001           7.54196e+000           5.41955e-001           4.19551e-002           1.95513e-003           9.55132e-004
                  123.20    337.24829                               22.67931             83.258                                        3.37248e+002           3.72483e+001           7.24829e+000           2.48294e-001           4.82941e-002           8.29409e-003           2.94091e-004
                  123.30    336.94297                               22.80891             83.258                                        3.36943e+002           3.69430e+001           6.94297e+000           9.42972e-001           4.29718e-002           2.97184e-003           9.71842e-004
                  123.40    336.62797                               22.94220             83.258                                        3.36628e+002           3.66280e+001           6.62797e+000           6.27974e-001           2.79738e-002           7.97380e-003           9.73797e-004
                  123.50    336.32040                               23.07885             83.258                                        3.36320e+002           3.63204e+001           6.32040e+000           3.20399e-001           2.03990e-002           3.99012e-004           3.99012e-004
                  123.60    336.01192                               23.21858             83.258                                        3.36012e+002           3.60119e+001           6.01192e+000           1.19201e-002           1.19201e-002           1.92006e-003           9.20059e-004
                  123.70    335.71910                               23.36130             83.258                                        3.35719e+002           3.57191e+001           5.71910e+000           7.19104e-001           1.91035e-002           9.10354e-003           1.03535e-004
                  123.80    335.42938                               23.50754             83.258                                        3.35429e+002           3.54294e+001           5.42938e+000           4.29382e-001           2.93817e-002           9.38170e-003           3.81702e-004
                  123.90    335.12717                               23.65689             83.258                                        3.35127e+002           3.51272e+001           5.12717e+000           1.27172e-001           2.71721e-002           7.17215e-003           1.72150e-004
                  124.00    334.83365                               23.80897             83.258                                        3.34834e+002           3.48336e+001           4.83365e+000           8.33646e-001           3.36465e-002           3.64646e-003           6.46461e-004
                  124.10    334.56125                               23.96422             83.258                                        3.34561e+002           3.45612e+001           4.56125e+000           5.61247e-001           6.12474e-002           1.24741e-003           2.47409e-004
                  124.20    334.28297                               24.12261             83.258                                        3.34283e+002           3.42830e+001           4.28297e+000           2.82968e-001           8.29685e-002           2.96850e-003           9.68498e-004
                  124.30    334.00173                               24.28368             83.258                                        3.34002e+002           3.40017e+001           4.00173e+000           1.73190e-003           1.73190e-003           1.73190e-003           7.31897e-004
                  124.40    333.73420                               24.44753             83.258                                        3.33734e+002           3.37342e+001           3.73420e+000           7.34196e-001           3.41961e-002           4.19611e-003           1.96109e-004
                  124.50    333.46912                               24.61431             83.258                                        3.33469e+002           3.34691e+001           3.46912e+000           4.69125e-001           6.91246e-002           9.12460e-003           1.24600e-004
                  124.60    333.21229                               24.78405             83.258                                        3.33212e+002           3.32123e+001           3.21229e+000           2.12289e-001           1.22894e-002           2.28945e-003           2.89449e-004
                  124.70    332.94765                               24.95663             83.258                                        3.32948e+002           3.29477e+001           2.94765e+000           9.47652e-001           4.76519e-002           7.65195e-003           6.51946e-004
                  124.80    332.69877                               25.13147             83.258                                        3.32699e+002           3.26988e+001           2.69877e+000           6.98774e-001           9.87741e-002           8.77413e-003           7.74131e-004
                  124.90    332.46515                               25.30875             83.258                                        3.32465e+002           3.24651e+001           2.46515e+000           4.65148e-001           6.51481e-002           5.14812e-003           1.48120e-004
                  125.00    332.23059                               25.48862             83.258                                        3.32231e+002           3.22306e+001           2.23059e+000           2.30590e-001           3.05897e-002           5.89652e-004           5.89652e-004
                  125.10    332.00162                               25.67090             83.258                                        3.32002e+002           3.20016e+001           2.00162e+000           1.61552e-003           1.61552e-003           1.61552e-003           6.15522e-004
                  125.20    331.79627                               25.85559             83.258                                        3.31796e+002           3.17963e+001           1.79627e+000           7.96270e-001           9.62704e-002           6.27037e-003           2.70366e-004
