~VERSION INFORMATION
VERS                    .            2.0                                    :CWLS LOG ASCII STANDARD
WRAP                    .            NO                                     :ONE LINE PER TIME STEP


~WELL INFORMATION
#MNEM                   .UNIT        DATA                                    DESCRIPTION
#________________________________________________________________________________________
STRTTIME                .HH/MM/SS    15:31:36                               :START TIME
STOPTIME                .HH/MM/SS    15:34:21                               :STOP TIME
STRT                    .s           2.10                                   :START DATA
STOP                    .s           163.50                                 :STOP DATA
STEP                    .s           0.10                                   :MEASUREMENT TIME INTERVAL
NULL                    .            -999.25                                :NULL VALUE
COMP                    .            Statoil ASA                            :COMPANY
FLD                     .            Volve                                  :FIELD
WELL                    .            15/9-F-11 A                            :WELL
RUN                     .            8                                      :RUN
LOC                     .            Maersk Inspirer                        :LOCATION
PROV                    .            na                                     :PROVINCE
SRVC                    .            Baker Hughes INTEQ                     :SERVICE COMPANY
DATE                    .YY/MM/DD    13/05/21                               :LOG DATE
UWI                     .                                                   :UNIQUE WELL ID
DEPTHMD                 .m           3617.2                                 :MEASURED DEPTH
DEPTHTVD                .m           3015.5                                 :TRUE VERTICAL DEPTH


~CURVE INFORMATION
#MNEM                   .UNIT        API CODES                               DESCRIPTION
#________________________________________________________________________________________
TIME                    .s                                                  :01 TIME
DD_PRESS                .bar                                                :02 DRAW DOWN PRESSURE
DD_VOLUME               .cm3                                                :03 INCREMENTAL DRAW DOWN VOLUME
TEMP                    .degC                                               :04 TRANSDUCER TEMPERATURE
DD_PRESS_MOD_1000       .bar                                                :05 DRAW DOWN PRESSURE MOD 1000
DD_PRESS_MOD_100        .bar                                                :06 DRAW DOWN PRESSURE MOD 100
DD_PRESS_MOD_10         .bar                                                :07 DRAW DOWN PRESSURE MOD 10
DD_PRESS_MOD_1          .bar                                                :08 DRAW DOWN PRESSURE MOD 1
DD_PRESS_MOD_01         .bar                                                :09 DRAW DOWN PRESSURE MOD 01
DD_PRESS_MOD_001        .bar                                                :10 DRAW DOWN PRESSURE MOD 001
DD_PRESS_MOD_0001       .bar                                                :11 DRAW DOWN PRESSURE MOD 0001


~PARAMETER INFORMATION
#MNEM                   .UNIT        VALUE                                   DESCRIPTION
#________________________________________________________________________________________
TOOLFACE                .deg         63.0                                   :01 TOOLFACE
PUMP_CAPACITY           .bar         400                                    :02 NOMINAL DRAW DOWN PUMP CAPACITY
PUMP_LIMIT              .bar         240                                    :03 DOWNLINK PUMP LIMIT
TIME_LIMIT              .min         10                                     :04 DOWNLINK MAX TIME
TEST_TYPE               .            HIGH MOBILITY                          :05 DOWNLINK
DD_PIST_A               .cm2         3.1416                                 :06 DRAW DOWN PISTON AREA
V_SYS                   .cm3         131.0000                               :07 SYSTEM VOLUME
PROBE_ID                .cm          1.2700                                 :08 TTK PROBE ID
G0                      .            4.6700                                 :09 GEOMETRY FACTOR


~A                  TIME     DD_PRESS                              DD_VOLUME               TEMP                                   DD_PRESS_MOD_1000       DD_PRESS_MOD_100        DD_PRESS_MOD_10         DD_PRESS_MOD_1        DD_PRESS_MOD_01       DD_PRESS_MOD_001      DD_PRESS_MOD_0001
# ...
                   44.10    341.68797                               10.92973             80.063                                        3.41688e+002           4.16880e+001           1.68797e+000           6.87968e-001           8.79677e-002           7.96774e-003           9.67743e-004
                   44.20    341.68869                               10.92973             80.063                                        3.41689e+002           4.16887e+001           1.68869e+000           6.88695e-001           8.86948e-002           8.69480e-003           6.94803e-004
                   44.30    341.69037                               10.92973             80.063                                        3.41690e+002           4.16904e+001           1.69037e+000           6.90365e-001           9.03652e-002           3.65166e-004           3.65166e-004
                   44.40    341.69016                               10.92973             80.063                                        3.41690e+002           4.16902e+001           1.69016e+000           6.90161e-001           9.01609e-002           1.60862e-004           1.60862e-004
                   44.50    341.68972                               10.92973             80.063                                        3.41690e+002           4.16897e+001           1.68972e+000           6.89721e-001           8.97206e-002           9.72061e-003           7.20609e-004
                   44.60    341.69027                               10.92973             80.063                                        3.41690e+002           4.16903e+001           1.69027e+000           6.90272e-001           9.02722e-002           2.72163e-004           2.72163e-004
                   44.70    341.69020                               10.92973             80.063                                        3.41690e+002           4.16902e+001           1.69020e+000           6.90203e-001           9.02027e-002           2.02651e-004           2.02651e-004
                   44.80    341.68841                               10.92973             80.063                                        3.41688e+002           4.16884e+001           1.68841e+000           6.88413e-001           8.84125e-002           8.41254e-003           4.12540e-004
                   44.90    341.68892                               10.92973             80.065                                        3.41689e+002           4.16889e+001           1.68892e+000           6.88919e-001           8.89195e-002           8.91947e-003           9.19474e-004
                   45.00    341.68982                               10.92973             80.068                                        3.41690e+002           4.16898e+001           1.68982e+000           6.89822e-001           8.98216e-002           9.82163e-003           8.21633e-004
                   45.10    341.69043                               10.92973             80.070                                        3.41690e+002           4.16904e+001           1.69043e+000           6.90431e-001           9.04310e-002           4.31040e-004           4.31040e-004
                   45.20    341.69184                               10.92973             80.070                                        3.41692e+002           4.16918e+001           1.69184e+000           6.91841e-001           9.18410e-002           1.84096e-003           8.40960e-004
                   45.30    341.68964                               10.92973             80.070                                        3.41690e+002           4.16896e+001           1.68964e+000           6.89637e-001           8.96366e-002           9.63661e-003           6.36611e-004
                   45.40    341.68894                               10.92973             80.070                                        3.41689e+002           4.16889e+001           1.68894e+000           6.88936e-001           8.89358e-002           8.93576e-003           9.35761e-004
                   45.50    341.69185                               10.92973             80.070                                        3.41692e+002           4.16918e+001           1.69185e+000           6.91846e-001           9.18458e-002           1.84581e-003           8.45814e-004
                   45.60    341.69415                               10.92973             80.070                                        3.41694e+002           4.16942e+001           1.69415e+000           6.94152e-001           9.41520e-002           4.15196e-003           1.51957e-004
                   45.70    341.69291                               10.92973             80.070                                        3.41693e+002           4.16929e+001           1.69291e+000           6.92909e-001           9.29087e-002           2.90868e-003           9.08684e-004
                   45.80    341.69006                               10.92973             80.070                                        3.41690e+002           4.16901e+001           1.69006e+000           6.90058e-001           9.00585e-002           5.84712e-005           5.84712e-005
                   45.90    341.69129                               10.92973             80.070                                        3.41691e+002           4.16913e+001           1.69129e+000           6.91294e-001           9.12939e-002           1.29385e-003           2.93855e-004
                   46.00    341.69257                               10.92973             80.070                                        3.41693e+002           4.16926e+001           1.69257e+000           6.92570e-001           9.25704e-002           2.57038e-003           5.70380e-004
                   46.10    341.69298                               10.92973             80.070                                        3.41693e+002           4.16930e+001           1.69298e+000           6.92980e-001           9.29799e-002           2.97991e-003           9.79915e-004
                   46.20    341.69334                               10.92973             80.070                                        3.41693e+002           4.16933e+001           1.69334e+000           6.93338e-001           9.33381e-002           3.33807e-003           3.38068e-004
                   46.30    341.69475                               10.92973             80.070                                        3.41695e+002           4.16947e+001           1.69475e+000           6.94747e-001           9.47468e-002           4.74684e-003           7.46839e-004
                   46.40    341.69307                               10.92973             80.070                                        3.41693e+002           4.16931e+001           1.69307e+000           6.93066e-001           9.30660e-002           3.06601e-003           6.60061e-005
                   46.50    341.69099                               10.92973             80.070                                        3.41691e+002           4.16910e+001           1.69099e+000           6.90992e-001           9.09921e-002           9.92101e-004           9.92101e-004
                   46.60    341.69111                               10.92973             80.070                                        3.41691e+002           4.16911e+001           1.69111e+000           6.91107e-001           9.11073e-002           1.10734e-003           1.07344e-004
                   46.70    341.69311                               10.92973             80.070                                        3.41693e+002           4.16931e+001           1.69311e+000           6.93110e-001           9.31103e-002           3.11033e-003           1.10331e-004
                   46.80    341.69192                               10.92973             80.070                                        3.41692e+002           4.16919e+001           1.69192e+000           6.91916e-001           9.19160e-002           1.91605e-003           9.16049e-004
