~VERSION INFORMATION
VERS                    .            2.0                                    :CWLS LOG ASCII STANDARD
WRAP                    .            NO                                     :ONE LINE PER TIME STEP


~WELL INFORMATION
#MNEM                   .UNIT        DATA                                    DESCRIPTION
#________________________________________________________________________________________
STRTTIME                .HH/MM/SS    23:39:21                               :START TIME
STOPTIME                .HH/MM/SS    23:43:19                               :STOP TIME
STRT                    .s           2.10                                   :START DATA
STOP                    .s           236.60                                 :STOP DATA
STEP                    .s           0.10                                   :MEASUREMENT TIME INTERVAL
NULL                    .            -999.25                                :NULL VALUE
COMP                    .            Statoil                                :COMPANY
FLD                     .            Volve                                  :FIELD
WELL                    .            15/9-F-11 T2                           :WELL
RUN                     .            7                                      :RUN
LOC                     .            Maersk Inspirer                        :LOCATION
PROV                    .            na                                     :PROVINCE
SRVC                    .            Baker Hughes INTEQ                     :SERVICE COMPANY
DATE                    .YY/MM/DD    13/05/04                               :LOG DATE
UWI                     .                                                   :UNIQUE WELL ID
DEPTHMD                 .m           4417.0                                 :MEASURED DEPTH
DEPTHTVD                .m           3257.6                                 :TRUE VERTICAL DEPTH


~CURVE INFORMATION
#MNEM                   .UNIT        API CODES                               DESCRIPTION
#________________________________________________________________________________________
TIME                    .s                                                  :01 TIME
DD_PRESS                .bar                                                :02 DRAW DOWN PRESSURE
DD_VOLUME               .cm3                                                :03 INCREMENTAL DRAW DOWN VOLUME
TEMP                    .degC                                               :04 TRANSDUCER TEMPERATURE
DD_PRESS_MOD_1000       .bar                                                :05 DRAW DOWN PRESSURE MOD 1000
DD_PRESS_MOD_100        .bar                                                :06 DRAW DOWN PRESSURE MOD 100
DD_PRESS_MOD_10         .bar                                                :07 DRAW DOWN PRESSURE MOD 10
DD_PRESS_MOD_1          .bar                                                :08 DRAW DOWN PRESSURE MOD 1
DD_PRESS_MOD_01         .bar                                                :09 DRAW DOWN PRESSURE MOD 01
DD_PRESS_MOD_001        .bar                                                :10 DRAW DOWN PRESSURE MOD 001
DD_PRESS_MOD_0001       .bar                                                :11 DRAW DOWN PRESSURE MOD 0001


~PARAMETER INFORMATION
#MNEM                   .UNIT        VALUE                                   DESCRIPTION
#________________________________________________________________________________________
TOOLFACE                .deg         na                                     :01 TOOLFACE
PUMP_CAPACITY           .bar         400                                    :02 NOMINAL DRAW DOWN PUMP CAPACITY
PUMP_LIMIT              .bar         240                                    :03 DOWNLINK PUMP LIMIT
TIME_LIMIT              .min         10                                     :04 DOWNLINK MAX TIME
TEST_TYPE               .            REPEAT                                 :05 DOWNLINK
TEST_TYPE               .            HIGH MOBILITY                          :06 DOWNLINK
DD_PIST_A               .cm2         3.1416                                 :07 DRAW DOWN PISTON AREA
V_SYS                   .cm3         131.0000                               :08 SYSTEM VOLUME
PROBE_ID                .cm          1.2700                                 :09 TTK PROBE ID
G0                      .            4.6700                                 :10 GEOMETRY FACTOR


~A                  TIME     DD_PRESS                              DD_VOLUME               TEMP                                   DD_PRESS_MOD_1000       DD_PRESS_MOD_100        DD_PRESS_MOD_10         DD_PRESS_MOD_1        DD_PRESS_MOD_01       DD_PRESS_MOD_001      DD_PRESS_MOD_0001
# ...
                  172.90    361.06831                               16.44317             96.000                                        3.61068e+002           6.10683e+001           1.06831e+000           6.83121e-002           6.83121e-002           8.31215e-003           3.12150e-004
                  173.00    361.06482                               16.44317             96.000                                        3.61065e+002           6.10648e+001           1.06482e+000           6.48239e-002           6.48239e-002           4.82388e-003           8.23885e-004
                  173.10    361.06226                               16.44317             96.000                                        3.61062e+002           6.10623e+001           1.06226e+000           6.22567e-002           6.22567e-002           2.25665e-003           2.56654e-004
                  173.20    361.07725                               16.44317             96.000                                        3.61077e+002           6.10772e+001           1.07725e+000           7.72484e-002           7.72484e-002           7.24840e-003           2.48398e-004
                  173.30    361.08320                               16.44317             96.000                                        3.61083e+002           6.10832e+001           1.08320e+000           8.31981e-002           8.31981e-002           3.19812e-003           1.98120e-004
                  173.40    361.07190                               16.44317             96.000                                        3.61072e+002           6.10719e+001           1.07190e+000           7.18971e-002           7.18971e-002           1.89710e-003           8.97104e-004
                  173.50    361.06792                               16.44317             96.000                                        3.61068e+002           6.10679e+001           1.06792e+000           6.79220e-002           6.79220e-002           7.92198e-003           9.21981e-004
                  173.60    361.06720                               16.44317             96.000                                        3.61067e+002           6.10672e+001           1.06720e+000           6.72003e-002           6.72003e-002           7.20026e-003           2.00261e-004
                  173.70    361.05998                               16.44317             96.000                                        3.61060e+002           6.10600e+001           1.05998e+000           5.99834e-002           5.99834e-002           9.98337e-003           9.83375e-004
                  173.80    361.06460                               16.44317             96.000                                        3.61065e+002           6.10646e+001           1.06460e+000           6.46046e-002           6.46046e-002           4.60458e-003           6.04576e-004
                  173.90    361.07527                               16.44317             96.000                                        3.61075e+002           6.10753e+001           1.07527e+000           7.52722e-002           7.52722e-002           5.27224e-003           2.72239e-004
                  174.00    361.07309                               16.44317             96.000                                        3.61073e+002           6.10731e+001           1.07309e+000           7.30907e-002           7.30907e-002           3.09074e-003           9.07391e-005
                  174.10    361.07096                               16.44317             96.000                                        3.61071e+002           6.10710e+001           1.07096e+000           7.09619e-002           7.09619e-002           9.61920e-004           9.61920e-004
                  174.20    361.06986                               16.44317             96.000                                        3.61070e+002           6.10699e+001           1.06986e+000           6.98575e-002           6.98575e-002           9.85747e-003           8.57466e-004
                  174.30    361.07008                               16.44317             96.000                                        3.61070e+002           6.10701e+001           1.07008e+000           7.00773e-002           7.00773e-002           7.73326e-005           7.73326e-005
                  174.40    361.07624                               16.44317             96.000                                        3.61076e+002           6.10762e+001           1.07624e+000           7.62388e-002           7.62388e-002           6.23879e-003           2.38794e-004
                  174.50    361.08183                               16.44317             96.000                                        3.61082e+002           6.10818e+001           1.08183e+000           8.18254e-002           8.18254e-002           1.82544e-003           8.25437e-004
                  174.60    361.07448                               16.44317             96.000                                        3.61074e+002           6.10745e+001           1.07448e+000           7.44801e-002           7.44801e-002           4.48009e-003           4.80091e-004
                  174.70    361.06353                               16.44317             96.000                                        3.61064e+002           6.10635e+001           1.06353e+000           6.35338e-002           6.35338e-002           3.53377e-003           5.33770e-004
                  174.80    361.07273                               16.44317             96.000                                        3.61073e+002           6.10727e+001           1.07273e+000           7.27275e-002           7.27275e-002           2.72746e-003           7.27456e-004
                  174.90    361.07498                               16.44317             96.000                                        3.61075e+002           6.10750e+001           1.07498e+000           7.49776e-002           7.49776e-002           4.97755e-003           9.77554e-004
                  175.00    361.06000                               16.44317             96.000                                        3.61060e+002           6.10600e+001           1.06000e+000           6.00011e-002           6.00011e-002           1.08391e-006           1.08391e-006
                  175.10    361.05495                               16.44317             96.000                                        3.61055e+002           6.10549e+001           1.05495e+000           5.49483e-002           5.49483e-002           4.94826e-003           9.48261e-004
                  175.20    361.07146                               16.44317             96.000                                        3.61071e+002           6.10715e+001           1.07146e+000           7.14628e-002           7.14628e-002           1.46281e-003           4.62807e-004
                  175.30    361.07657                               16.44317             96.000                                        3.61077e+002           6.10766e+001           1.07657e+000           7.65650e-002           7.65650e-002           6.56504e-003           5.65043e-004
                  175.40    361.07788                               16.44317             96.000                                        3.61078e+002           6.10779e+001           1.07788e+000           7.78822e-002           7.78822e-002           7.88220e-003           8.82202e-004
                  175.50    361.08243                               16.44317             96.000                                        3.61082e+002           6.10824e+001           1.08243e+000           8.24322e-002           8.24322e-002           2.43221e-003           4.32209e-004
                  175.60    361.07638                               16.44317             96.000                                        3.61076e+002           6.10764e+001           1.07638e+000           7.63796e-002           7.63796e-002           6.37958e-003           3.79576e-004
