~VERSION INFORMATION
VERS                    .            2.0                                    :CWLS LOG ASCII STANDARD
WRAP                    .            NO                                     :ONE LINE PER TIME STEP


~WELL INFORMATION
#MNEM                   .UNIT        DATA                                    DESCRIPTION
#________________________________________________________________________________________
STRTTIME                .HH/MM/SS    19:52:58                               :START TIME
STOPTIME                .HH/MM/SS    19:58:21                               :STOP TIME
STRT                    .s           2.10                                   :START DATA
STOP                    .s           321.30                                 :STOP DATA
STEP                    .s           0.10                                   :MEASUREMENT TIME INTERVAL
NULL                    .            -999.25                                :NULL VALUE
COMP                    .            Statoil ASA                            :COMPANY
FLD                     .            Volve                                  :FIELD
WELL                    .            15/9-F-11 A                            :WELL
RUN                     .            8                                      :RUN
LOC                     .            Maersk Inspirer                        :LOCATION
PROV                    .            na                                     :PROVINCE
SRVC                    .            Baker Hughes INTEQ                     :SERVICE COMPANY
DATE                    .YY/MM/DD    13/05/23                               :LOG DATE
UWI                     .                                                   :UNIQUE WELL ID
DEPTHMD                 .m           3602.0                                 :MEASURED DEPTH
DEPTHTVD                .m           3003.9                                 :TRUE VERTICAL DEPTH


~CURVE INFORMATION
#MNEM                   .UNIT        API CODES                               DESCRIPTION
#________________________________________________________________________________________
TIME                    .s                                                  :01 TIME
DD_PRESS                .bar                                                :02 DRAW DOWN PRESSURE
DD_VOLUME               .cm3                                                :03 INCREMENTAL DRAW DOWN VOLUME
TEMP                    .degC                                               :04 TRANSDUCER TEMPERATURE
DD_PRESS_MOD_1000       .bar                                                :05 DRAW DOWN PRESSURE MOD 1000
DD_PRESS_MOD_100        .bar                                                :06 DRAW DOWN PRESSURE MOD 100
DD_PRESS_MOD_10         .bar                                                :07 DRAW DOWN PRESSURE MOD 10
DD_PRESS_MOD_1          .bar                                                :08 DRAW DOWN PRESSURE MOD 1
DD_PRESS_MOD_01         .bar                                                :09 DRAW DOWN PRESSURE MOD 01
DD_PRESS_MOD_001        .bar                                                :10 DRAW DOWN PRESSURE MOD 001
DD_PRESS_MOD_0001       .bar                                                :11 DRAW DOWN PRESSURE MOD 0001


~PARAMETER INFORMATION
#MNEM                   .UNIT        VALUE                                   DESCRIPTION
#________________________________________________________________________________________
TOOLFACE                .deg         -40.9                                  :01 TOOLFACE
PUMP_CAPACITY           .bar         400                                    :02 NOMINAL DRAW DOWN PUMP CAPACITY
PUMP_LIMIT              .bar         240                                    :03 DOWNLINK PUMP LIMIT
TIME_LIMIT              .min         10                                     :04 DOWNLINK MAX TIME
TEST_TYPE               .            REPEAT                                 :05 DOWNLINK
TEST_TYPE               .            HIGH MOBILITY                          :06 DOWNLINK
DD_PIST_A               .cm2         3.1416                                 :07 DRAW DOWN PISTON AREA
V_SYS                   .cm3         131.0000                               :08 SYSTEM VOLUME
PROBE_ID                .cm          1.2700                                 :09 TTK PROBE ID
G0                      .            4.6700                                 :10 GEOMETRY FACTOR


~A                  TIME     DD_PRESS                              DD_VOLUME               TEMP                                   DD_PRESS_MOD_1000       DD_PRESS_MOD_100        DD_PRESS_MOD_10         DD_PRESS_MOD_1        DD_PRESS_MOD_01       DD_PRESS_MOD_001      DD_PRESS_MOD_0001
# ...
                   44.10    337.48089                               10.57399             70.953                                        3.37481e+002           3.74809e+001           7.48089e+000           4.80894e-001           8.08943e-002           8.94310e-004           8.94310e-004
                   44.20    337.61325                               10.57399             70.953                                        3.37613e+002           3.76133e+001           7.61325e+000           6.13253e-001           1.32535e-002           3.25349e-003           2.53493e-004
                   44.30    337.73428                               10.57399             70.953                                        3.37734e+002           3.77343e+001           7.73428e+000           7.34283e-001           3.42826e-002           4.28264e-003           2.82636e-004
                   44.40    337.92700                               10.57399             70.953                                        3.37927e+002           3.79270e+001           7.92700e+000           9.27005e-001           2.70048e-002           7.00483e-003           4.82915e-006
                   44.50    338.10854                               10.57399             70.953                                        3.38109e+002           3.81085e+001           8.10854e+000           1.08544e-001           8.54388e-003           8.54388e-003           5.43879e-004
                   44.60    338.22873                               10.57399             70.953                                        3.38229e+002           3.82287e+001           8.22873e+000           2.28729e-001           2.87285e-002           8.72851e-003           7.28515e-004
                   44.70    338.36196                               10.57399             70.953                                        3.38362e+002           3.83620e+001           8.36196e+000           3.61962e-001           6.19625e-002           1.96246e-003           9.62459e-004
                   44.80    338.55981                               10.57399             70.955                                        3.38560e+002           3.85598e+001           8.55981e+000           5.59805e-001           5.98053e-002           9.80531e-003           8.05310e-004
                   44.90    338.71707                               10.57399             70.959                                        3.38717e+002           3.87171e+001           8.71707e+000           7.17074e-001           1.70741e-002           7.07405e-003           7.40525e-005
                   45.00    338.77761                               10.57399             70.961                                        3.38778e+002           3.87776e+001           8.77761e+000           7.77614e-001           7.76139e-002           7.61388e-003           6.13880e-004
                   45.10    338.84938                               10.57399             70.961                                        3.38849e+002           3.88494e+001           8.84938e+000           8.49384e-001           4.93837e-002           9.38366e-003           3.83655e-004
                   45.20    339.00205                               10.57399             70.961                                        3.39002e+002           3.90020e+001           9.00205e+000           2.04959e-003           2.04959e-003           2.04959e-003           4.95884e-005
                   45.30    339.11128                               10.57399             70.961                                        3.39111e+002           3.91113e+001           9.11128e+000           1.11284e-001           1.12838e-002           1.28378e-003           2.83781e-004
                   45.40    339.14256                               10.57399             70.961                                        3.39143e+002           3.91426e+001           9.14256e+000           1.42565e-001           4.25649e-002           2.56494e-003           5.64940e-004
                   45.50    339.20096                               10.57399             70.961                                        3.39201e+002           3.92010e+001           9.20096e+000           2.00964e-001           9.64447e-004           9.64447e-004           9.64447e-004
                   45.60    339.33841                               10.57399             70.961                                        3.39338e+002           3.93384e+001           9.33841e+000           3.38409e-001           3.84093e-002           8.40931e-003           4.09308e-004
                   45.70    339.46694                               10.57399             70.961                                        3.39467e+002           3.94669e+001           9.46694e+000           4.66943e-001           6.69426e-002           6.94257e-003           9.42573e-004
                   45.80    339.51271                               10.57399             70.961                                        3.39513e+002           3.95127e+001           9.51271e+000           5.12710e-001           1.27100e-002           2.71001e-003           7.10009e-004
                   45.90    339.56236                               10.57399             70.961                                        3.39562e+002           3.95624e+001           9.56236e+000           5.62355e-001           6.23553e-002           2.35531e-003           3.55311e-004
                   46.00    339.68799                               10.57399             70.961                                        3.39688e+002           3.96880e+001           9.68799e+000           6.87986e-001           8.79856e-002           7.98559e-003           9.85588e-004
                   46.10    339.77703                               10.57399             70.961                                        3.39777e+002           3.97770e+001           9.77703e+000           7.77025e-001           7.70254e-002           7.02538e-003           2.53799e-005
                   46.20    339.77809                               10.57399             70.961                                        3.39778e+002           3.97781e+001           9.77809e+000           7.78085e-001           7.80855e-002           8.08547e-003           8.54674e-005
                   46.30    339.80352                               10.57399             70.961                                        3.39804e+002           3.98035e+001           9.80352e+000           8.03518e-001           3.51831e-003           3.51831e-003           5.18313e-004
                   46.40    339.91038                               10.57399             70.961                                        3.39910e+002           3.99104e+001           9.91038e+000           9.10380e-001           1.03803e-002           3.80295e-004           3.80295e-004
                   46.50    340.02076                               10.57399             70.963                                        3.40021e+002           4.00208e+001           2.07564e-002           2.07564e-002           2.07564e-002           7.56401e-004           7.56401e-004
                   46.60    340.03833                               10.57399             70.967                                        3.40038e+002           4.00383e+001           3.83336e-002           3.83336e-002           3.83336e-002           8.33364e-003           3.33642e-004
                   46.70    340.02485                               10.57399             70.969                                        3.40025e+002           4.00248e+001           2.48452e-002           2.48452e-002           2.48452e-002           4.84524e-003           8.45243e-004
                   46.80    340.09840                               10.57399             70.969                                        3.40098e+002           4.00984e+001           9.84050e-002           9.84050e-002           9.84050e-002           8.40498e-003           4.04985e-004
