~VERSION INFORMATION
VERS                    .            2.0                                    :CWLS LOG ASCII STANDARD
WRAP                    .            NO                                     :ONE LINE PER TIME STEP


~WELL INFORMATION
#MNEM                   .UNIT        DATA                                    DESCRIPTION
#________________________________________________________________________________________
STRTTIME                .HH/MM/SS    08:48:41                               :START TIME
STOPTIME                .HH/MM/SS    08:51:35                               :STOP TIME
STRT                    .s           2.10                                   :START DATA
STOP                    .s           172.50                                 :STOP DATA
STEP                    .s           0.10                                   :MEASUREMENT TIME INTERVAL
NULL                    .            -999.25                                :NULL VALUE
COMP                    .            Statoil ASA                            :COMPANY
FLD                     .            Volve                                  :FIELD
WELL                    .            15/9-F-11 A                            :WELL
RUN                     .            8                                      :RUN
LOC                     .            Maersk Inspirer                        :LOCATION
PROV                    .            na                                     :PROVINCE
SRVC                    .            Baker Hughes INTEQ                     :SERVICE COMPANY
DATE                    .YY/MM/DD    13/05/21                               :LOG DATE
UWI                     .                                                   :UNIQUE WELL ID
DEPTHMD                 .m           3681.0                                 :MEASURED DEPTH
DEPTHTVD                .m           3064.4                                 :TRUE VERTICAL DEPTH


~CURVE INFORMATION
#MNEM                   .UNIT        API CODES                               DESCRIPTION
#________________________________________________________________________________________
TIME                    .s                                                  :01 TIME
DD_PRESS                .bar                                                :02 DRAW DOWN PRESSURE
DD_VOLUME               .cm3                                                :03 INCREMENTAL DRAW DOWN VOLUME
TEMP                    .degC                                               :04 TRANSDUCER TEMPERATURE
DD_PRESS_MOD_1000       .bar                                                :05 DRAW DOWN PRESSURE MOD 1000
DD_PRESS_MOD_100        .bar                                                :06 DRAW DOWN PRESSURE MOD 100
DD_PRESS_MOD_10         .bar                                                :07 DRAW DOWN PRESSURE MOD 10
DD_PRESS_MOD_1          .bar                                                :08 DRAW DOWN PRESSURE MOD 1
DD_PRESS_MOD_01         .bar                                                :09 DRAW DOWN PRESSURE MOD 01
DD_PRESS_MOD_001        .bar                                                :10 DRAW DOWN PRESSURE MOD 001
DD_PRESS_MOD_0001       .bar                                                :11 DRAW DOWN PRESSURE MOD 0001


~PARAMETER INFORMATION
#MNEM                   .UNIT        VALUE                                   DESCRIPTION
#________________________________________________________________________________________
TOOLFACE                .deg         -59.5                                  :01 TOOLFACE
PUMP_CAPACITY           .bar         400                                    :02 NOMINAL DRAW DOWN PUMP CAPACITY
PUMP_LIMIT              .bar         240                                    :03 DOWNLINK PUMP LIMIT
TIME_LIMIT              .min         10                                     :04 DOWNLINK MAX TIME
TEST_TYPE               .            REPEAT                                 :05 DOWNLINK
TEST_TYPE               .            HIGH MOBILITY                          :06 DOWNLINK
DD_PIST_A               .cm2         3.1416                                 :07 DRAW DOWN PISTON AREA
V_SYS                   .cm3         131.0000                               :08 SYSTEM VOLUME
PROBE_ID                .cm          1.2700                                 :09 TTK PROBE ID
G0                      .            4.6700                                 :10 GEOMETRY FACTOR


~A                  TIME     DD_PRESS                              DD_VOLUME               TEMP                                   DD_PRESS_MOD_1000       DD_PRESS_MOD_100        DD_PRESS_MOD_10         DD_PRESS_MOD_1        DD_PRESS_MOD_01       DD_PRESS_MOD_001      DD_PRESS_MOD_0001
# ...
                   80.50    345.54000                               19.86705             82.578                                        3.45540e+002           4.55400e+001           5.54000e+000           5.39997e-001           3.99973e-002           9.99726e-003           9.97259e-004
                   80.60    345.52839                               19.86705             82.578                                        3.45528e+002           4.55284e+001           5.52839e+000           5.28386e-001           2.83864e-002           8.38640e-003           3.86401e-004
                   80.70    345.53932                               19.86705             82.578                                        3.45539e+002           4.55393e+001           5.53932e+000           5.39319e-001           3.93186e-002           9.31856e-003           3.18559e-004
                   80.80    345.54955                               19.86705             82.580                                        3.45550e+002           4.55496e+001           5.54955e+000           5.49555e-001           4.95547e-002           9.55471e-003           5.54714e-004
                   80.90    345.53857                               19.86705             82.582                                        3.45539e+002           4.55386e+001           5.53857e+000           5.38571e-001           3.85713e-002           8.57130e-003           5.71301e-004
                   81.00    345.53189                               19.86705             82.582                                        3.45532e+002           4.55319e+001           5.53189e+000           5.31888e-001           3.18877e-002           1.88766e-003           8.87663e-004
                   81.10    345.54114                               19.86705             82.582                                        3.45541e+002           4.55411e+001           5.54114e+000           5.41137e-001           4.11375e-002           1.13748e-003           1.37483e-004
                   81.20    345.55270                               19.86705             82.582                                        3.45553e+002           4.55527e+001           5.55270e+000           5.52701e-001           5.27008e-002           2.70077e-003           7.00771e-004
                   81.30    345.55107                               19.86705             82.582                                        3.45551e+002           4.55511e+001           5.55107e+000           5.51073e-001           5.10726e-002           1.07264e-003           7.26400e-005
                   81.40    345.54616                               19.86705             82.582                                        3.45546e+002           4.55462e+001           5.54616e+000           5.46163e-001           4.61628e-002           6.16282e-003           1.62825e-004
                   81.50    345.53970                               19.86705             82.582                                        3.45540e+002           4.55397e+001           5.53970e+000           5.39697e-001           3.96972e-002           9.69720e-003           6.97198e-004
                   81.60    345.54382                               19.86705             82.580                                        3.45544e+002           4.55438e+001           5.54382e+000           5.43816e-001           4.38160e-002           3.81597e-003           8.15968e-004
                   81.70    345.55150                               19.86705             82.578                                        3.45551e+002           4.55515e+001           5.55150e+000           5.51497e-001           5.14967e-002           1.49670e-003           4.96704e-004
                   81.80    345.55132                               19.86705             82.578                                        3.45551e+002           4.55513e+001           5.55132e+000           5.51317e-001           5.13169e-002           1.31694e-003           3.16937e-004
                   81.90    345.54308                               19.86705             82.578                                        3.45543e+002           4.55431e+001           5.54308e+000           5.43081e-001           4.30809e-002           3.08093e-003           8.09323e-005
                   82.00    345.54415                               19.86705             82.578                                        3.45544e+002           4.55442e+001           5.54415e+000           5.44155e-001           4.41548e-002           4.15476e-003           1.54757e-004
                   82.10    345.54449                               19.86705             82.578                                        3.45544e+002           4.55445e+001           5.54449e+000           5.44490e-001           4.44903e-002           4.49026e-003           4.90257e-004
                   82.20    345.53878                               19.86705             82.578                                        3.45539e+002           4.55388e+001           5.53878e+000           5.38778e-001           3.87777e-002           8.77773e-003           7.77727e-004
                   82.30    345.53247                               19.86705             82.578                                        3.45532e+002           4.55325e+001           5.53247e+000           5.32465e-001           3.24653e-002           2.46530e-003           4.65302e-004
                   82.40    345.53869                               19.86705             82.578                                        3.45539e+002           4.55387e+001           5.53869e+000           5.38686e-001           3.86863e-002           8.68631e-003           6.86311e-004
                   82.50    345.54866                               19.86705             82.578                                        3.45549e+002           4.55487e+001           5.54866e+000           5.48662e-001           4.86620e-002           8.66196e-003           6.61957e-004
                   82.60    345.55040                               19.86705             82.578                                        3.45550e+002           4.55504e+001           5.55040e+000           5.50400e-001           5.03998e-002           3.99811e-004           3.99811e-004
                   82.70    345.55205                               19.86705             82.578                                        3.45552e+002           4.55521e+001           5.55205e+000           5.52051e-001           5.20509e-002           2.05095e-003           5.09486e-005
                   82.80    345.55345                               19.86705             82.578                                        3.45553e+002           4.55534e+001           5.55345e+000           5.53447e-001           5.34474e-002           3.44744e-003           4.47435e-004
                   82.90    345.54356                               19.86705             82.578                                        3.45544e+002           4.55436e+001           5.54356e+000           5.43564e-001           4.35641e-002           3.56414e-003           5.64145e-004
                   83.00    345.53826                               19.86705             82.578                                        3.45538e+002           4.55383e+001           5.53826e+000           5.38256e-001           3.82558e-002           8.25582e-003           2.55821e-004
                   83.10    345.54589                               19.86705             82.580                                        3.45546e+002           4.55459e+001           5.54589e+000           5.45891e-001           4.58908e-002           5.89079e-003           8.90787e-004
                   83.20    345.55642                               19.86705             82.584                                        3.45556e+002           4.55564e+001           5.55642e+000           5.56422e-001           5.64218e-002           6.42179e-003           4.21792e-004
