~VERSION INFORMATION
VERS                    .            2.0                                    :CWLS LOG ASCII STANDARD
WRAP                    .            NO                                     :ONE LINE PER TIME STEP


~WELL INFORMATION
#MNEM                   .UNIT        DATA                                    DESCRIPTION
#________________________________________________________________________________________
STRTTIME                .HH/MM/SS    10:22:55                               :START TIME
STOPTIME                .HH/MM/SS    10:26:06                               :STOP TIME
STRT                    .s           2.10                                   :START DATA
STOP                    .s           189.80                                 :STOP DATA
STEP                    .s           0.10                                   :MEASUREMENT TIME INTERVAL
NULL                    .            -999.25                                :NULL VALUE
COMP                    .            Statoil ASA                            :COMPANY
FLD                     .            Volve                                  :FIELD
WELL                    .            15/9-F-11 A                            :WELL
RUN                     .            8                                      :RUN
LOC                     .            Maersk Inspirer                        :LOCATION
PROV                    .            na                                     :PROVINCE
SRVC                    .            Baker Hughes INTEQ                     :SERVICE COMPANY
DATE                    .YY/MM/DD    13/05/21                               :LOG DATE
UWI                     .                                                   :UNIQUE WELL ID
DEPTHMD                 .m           3651.0                                 :MEASURED DEPTH
DEPTHTVD                .m           3041.4                                 :TRUE VERTICAL DEPTH


~CURVE INFORMATION
#MNEM                   .UNIT        API CODES                               DESCRIPTION
#________________________________________________________________________________________
TIME                    .s                                                  :01 TIME
DD_PRESS                .bar                                                :02 DRAW DOWN PRESSURE
DD_VOLUME               .cm3                                                :03 INCREMENTAL DRAW DOWN VOLUME
TEMP                    .degC                                               :04 TRANSDUCER TEMPERATURE
DD_PRESS_MOD_1000       .bar                                                :05 DRAW DOWN PRESSURE MOD 1000
DD_PRESS_MOD_100        .bar                                                :06 DRAW DOWN PRESSURE MOD 100
DD_PRESS_MOD_10         .bar                                                :07 DRAW DOWN PRESSURE MOD 10
DD_PRESS_MOD_1          .bar                                                :08 DRAW DOWN PRESSURE MOD 1
DD_PRESS_MOD_01         .bar                                                :09 DRAW DOWN PRESSURE MOD 01
DD_PRESS_MOD_001        .bar                                                :10 DRAW DOWN PRESSURE MOD 001
DD_PRESS_MOD_0001       .bar                                                :11 DRAW DOWN PRESSURE MOD 0001


~PARAMETER INFORMATION
#MNEM                   .UNIT        VALUE                                   DESCRIPTION
#________________________________________________________________________________________
TOOLFACE                .deg         61.5                                   :01 TOOLFACE
PUMP_CAPACITY           .bar         400                                    :02 NOMINAL DRAW DOWN PUMP CAPACITY
PUMP_LIMIT              .bar         240                                    :03 DOWNLINK PUMP LIMIT
TIME_LIMIT              .min         10                                     :04 DOWNLINK MAX TIME
TEST_TYPE               .            REPEAT                                 :05 DOWNLINK
TEST_TYPE               .            HIGH MOBILITY                          :06 DOWNLINK
DD_PIST_A               .cm2         3.1416                                 :07 DRAW DOWN PISTON AREA
V_SYS                   .cm3         131.0000                               :08 SYSTEM VOLUME
PROBE_ID                .cm          1.2700                                 :09 TTK PROBE ID
G0                      .            4.6700                                 :10 GEOMETRY FACTOR


~A                  TIME     DD_PRESS                              DD_VOLUME               TEMP                                   DD_PRESS_MOD_1000       DD_PRESS_MOD_100        DD_PRESS_MOD_10         DD_PRESS_MOD_1        DD_PRESS_MOD_01       DD_PRESS_MOD_001      DD_PRESS_MOD_0001
                    2.10    418.65962                                0.00000             81.111                                        4.18660e+002           1.86596e+001           8.65962e+000           6.59620e-001           5.96198e-002           9.61978e-003           6.19779e-004
                    2.20    418.69566                                0.00000             81.112                                        4.18696e+002           1.86957e+001           8.69566e+000           6.95659e-001           9.56586e-002           5.65857e-003           6.58571e-004
                    2.30    418.71020                                0.00000             81.115                                        4.18710e+002           1.87102e+001           8.71020e+000           7.10203e-001           1.02030e-002           2.03025e-004           2.03025e-004
                    2.40    418.72279                                0.00000             81.117                                        4.18723e+002           1.87228e+001           8.72279e+000           7.22791e-001           2.27908e-002           2.79078e-003           7.90780e-004
                    2.50    418.72634                                0.00000             81.117                                        4.18726e+002           1.87263e+001           8.72634e+000           7.26340e-001           2.63400e-002           6.33999e-003           3.39992e-004
                    2.60    418.70385                                0.00000             81.117                                        4.18704e+002           1.87039e+001           8.70385e+000           7.03854e-001           3.85404e-003           3.85404e-003           8.54042e-004
                    2.70    418.66099                                0.00000             81.117                                        4.18661e+002           1.86610e+001           8.66099e+000           6.60987e-001           6.09873e-002           9.87323e-004           9.87323e-004
                    2.80    418.63081                                0.00000             81.117                                        4.18631e+002           1.86308e+001           8.63081e+000           6.30812e-001           3.08120e-002           8.11982e-004           8.11982e-004
                    2.90    418.61131                                0.00000             81.117                                        4.18611e+002           1.86113e+001           8.61131e+000           6.11310e-001           1.13097e-002           1.30969e-003           3.09686e-004
                    3.00    418.59209                                0.00000             81.117                                        4.18592e+002           1.85921e+001           8.59209e+000           5.92087e-001           9.20869e-002           2.08688e-003           8.68756e-005
                    3.10    418.57661                                0.00000             81.117                                        4.18577e+002           1.85766e+001           8.57661e+000           5.76606e-001           7.66061e-002           6.60613e-003           6.06133e-004
                    3.20    418.60269                                0.00000             81.117                                        4.18603e+002           1.86027e+001           8.60269e+000           6.02686e-001           2.68561e-003           2.68561e-003           6.85608e-004
                    3.30    418.64887                                0.00000             81.117                                        4.18649e+002           1.86489e+001           8.64887e+000           6.48867e-001           4.88669e-002           8.86689e-003           8.66887e-004
                    3.40    418.69238                                0.00000             81.117                                        4.18692e+002           1.86924e+001           8.69238e+000           6.92378e-001           9.23777e-002           2.37775e-003           3.77748e-004
                    3.50    418.72390                                0.00000             81.117                                        4.18724e+002           1.87239e+001           8.72390e+000           7.23897e-001           2.38967e-002           3.89673e-003           8.96727e-004
                    3.60    418.77188                                0.00000             81.117                                        4.18772e+002           1.87719e+001           8.77188e+000           7.71879e-001           7.18792e-002           1.87918e-003           8.79176e-004
                    3.70    418.81609                                0.00000             81.117                                        4.18816e+002           1.88161e+001           8.81609e+000           8.16089e-001           1.60895e-002           6.08950e-003           8.94987e-005
                    3.80    418.83728                                0.00000             81.117                                        4.18837e+002           1.88373e+001           8.83728e+000           8.37283e-001           3.72834e-002           7.28340e-003           2.83398e-004
                    3.90    418.83797                                0.00000             81.117                                        4.18838e+002           1.88380e+001           8.83797e+000           8.37973e-001           3.79726e-002           7.97262e-003           9.72620e-004
                    4.00    418.83254                                0.00000             81.117                                        4.18833e+002           1.88325e+001           8.83254e+000           8.32540e-001           3.25398e-002           2.53979e-003           5.39795e-004
                    4.10    418.81647                                0.00000             81.117                                        4.18816e+002           1.88165e+001           8.81647e+000           8.16468e-001           1.64676e-002           6.46758e-003           4.67578e-004
                    4.20    418.78964                                0.00000             81.117                                        4.18790e+002           1.87896e+001           8.78964e+000           7.89641e-001           8.96412e-002           9.64119e-003           6.41188e-004
                    4.30    418.75424                                0.00000             81.117                                        4.18754e+002           1.87542e+001           8.75424e+000           7.54241e-001           5.42413e-002           4.24130e-003           2.41296e-004
                    4.40    418.69253                                0.00000             81.117                                        4.18693e+002           1.86925e+001           8.69253e+000           6.92527e-001           9.25272e-002           2.52720e-003           5.27202e-004
                    4.50    418.64404                                0.00000             81.117                                        4.18644e+002           1.86440e+001           8.64404e+000           6.44037e-001           4.40367e-002           4.03665e-003           3.66521e-005
                    4.60    418.62107                                0.00000             81.117                                        4.18621e+002           1.86211e+001           8.62107e+000           6.21066e-001           2.10662e-002           1.06621e-003           6.62064e-005
                    4.70    418.60014                                0.00000             81.117                                        4.18600e+002           1.86001e+001           8.60014e+000           6.00137e-001           1.36908e-004           1.36908e-004           1.36908e-004
                    4.80    418.57224                                0.00000             81.115                                        4.18572e+002           1.85722e+001           8.57224e+000           5.72240e-001           7.22399e-002           2.23988e-003           2.39876e-004
