~VERSION INFORMATION
VERS                    .            2.0                                    :CWLS LOG ASCII STANDARD
WRAP                    .            NO                                     :ONE LINE PER TIME STEP


~WELL INFORMATION
#MNEM                   .UNIT        DATA                                    DESCRIPTION
#________________________________________________________________________________________
STRTTIME                .HH/MM/SS    00:10:18                               :START TIME
STOPTIME                .HH/MM/SS    00:13:47                               :STOP TIME
STRT                    .s           2.10                                   :START DATA
STOP                    .s           207.40                                 :STOP DATA
STEP                    .s           0.10                                   :MEASUREMENT TIME INTERVAL
NULL                    .            -999.25                                :NULL VALUE
COMP                    .            Statoil ASA                            :COMPANY
FLD                     .            Volve                                  :FIELD
WELL                    .            15/9-F-1                               :WELL
RUN                     .            4                                      :RUN
LOC                     .            Maersk Inspirer                        :LOCATION
PROV                    .            na                                     :PROVINCE
SRVC                    .            Baker Hughes INTEQ                     :SERVICE COMPANY
DATE                    .YY/MM/DD    13/08/19                               :LOG DATE
UWI                     .                                                   :UNIQUE WELL ID
DEPTHMD                 .m           3332.4                                 :MEASURED DEPTH
DEPTHTVD                .m           3056.0                                 :TRUE VERTICAL DEPTH


~CURVE INFORMATION
#MNEM                   .UNIT        API CODES                               DESCRIPTION
#________________________________________________________________________________________
TIME                    .s                                                  :01 TIME
DD_PRESS                .bar                                                :02 DRAW DOWN PRESSURE
DD_VOLUME               .cm3                                                :03 INCREMENTAL DRAW DOWN VOLUME
TEMP                    .degC                                               :04 TRANSDUCER TEMPERATURE
DD_PRESS_MOD_1000       .bar                                                :05 DRAW DOWN PRESSURE MOD 1000
DD_PRESS_MOD_100        .bar                                                :06 DRAW DOWN PRESSURE MOD 100
DD_PRESS_MOD_10         .bar                                                :07 DRAW DOWN PRESSURE MOD 10
DD_PRESS_MOD_1          .bar                                                :08 DRAW DOWN PRESSURE MOD 1
DD_PRESS_MOD_01         .bar                                                :09 DRAW DOWN PRESSURE MOD 01
DD_PRESS_MOD_001        .bar                                                :10 DRAW DOWN PRESSURE MOD 001
DD_PRESS_MOD_0001       .bar                                                :11 DRAW DOWN PRESSURE MOD 0001


~PARAMETER INFORMATION
#MNEM                   .UNIT        VALUE                                   DESCRIPTION
#________________________________________________________________________________________
TOOLFACE                .deg         78.2                                   :01 TOOLFACE
PUMP_CAPACITY           .bar         400                                    :02 NOMINAL DRAW DOWN PUMP CAPACITY
PUMP_LIMIT              .bar         240                                    :03 DOWNLINK PUMP LIMIT
TIME_LIMIT              .min         10                                     :04 DOWNLINK MAX TIME
TEST_TYPE               .            LOW MOBILITY                           :05 DOWNLINK
DD_PIST_A               .cm2         3.1416                                 :06 DRAW DOWN PISTON AREA
V_SYS                   .cm3         131.0000                               :07 SYSTEM VOLUME
PROBE_ID                .cm          1.2700                                 :08 TTK PROBE ID
G0                      .            4.6700                                 :09 GEOMETRY FACTOR


~A                  TIME     DD_PRESS                              DD_VOLUME               TEMP                                   DD_PRESS_MOD_1000       DD_PRESS_MOD_100        DD_PRESS_MOD_10         DD_PRESS_MOD_1        DD_PRESS_MOD_01       DD_PRESS_MOD_001      DD_PRESS_MOD_0001
# ...
                   16.10    409.99600                                0.00000             74.734                                        4.09996e+002           9.99600e+000           9.99600e+000           9.95996e-001           9.59964e-002           5.99645e-003           9.96450e-004
                   16.20    409.98640                                0.00000             74.734                                        4.09986e+002           9.98640e+000           9.98640e+000           9.86403e-001           8.64026e-002           6.40258e-003           4.02575e-004
                   16.30    409.99036                                0.00000             74.732                                        4.09990e+002           9.99036e+000           9.99036e+000           9.90356e-001           9.03557e-002           3.55719e-004           3.55719e-004
                   16.40    410.01733                                0.00000             74.729                                        4.10017e+002           1.00173e+001           1.73322e-002           1.73322e-002           1.73322e-002           7.33223e-003           3.32229e-004
                   16.50    410.04124                                0.00000             74.729                                        4.10041e+002           1.00412e+001           4.12442e-002           4.12442e-002           4.12442e-002           1.24418e-003           2.44178e-004
                   16.60    410.03182                                0.00000             74.732                                        4.10032e+002           1.00318e+001           3.18215e-002           3.18215e-002           3.18215e-002           1.82147e-003           8.21469e-004
                   16.70    410.03046                                0.00000             74.734                                        4.10030e+002           1.00305e+001           3.04633e-002           3.04633e-002           3.04633e-002           4.63337e-004           4.63337e-004
                   16.80    410.03675                                0.00000             74.734                                        4.10037e+002           1.00368e+001           3.67523e-002           3.67523e-002           3.67523e-002           6.75232e-003           7.52316e-004
                   16.90    410.04463                                0.00000             74.734                                        4.10045e+002           1.00446e+001           4.46260e-002           4.46260e-002           4.46260e-002           4.62598e-003           6.25984e-004
                   17.00    410.04381                                0.00000             74.734                                        4.10044e+002           1.00438e+001           4.38078e-002           4.38078e-002           4.38078e-002           3.80779e-003           8.07788e-004
                   17.10    410.05939                                0.00000             74.734                                        4.10059e+002           1.00594e+001           5.93939e-002           5.93939e-002           5.93939e-002           9.39389e-003           3.93887e-004
                   17.20    410.05986                                0.00000             74.734                                        4.10060e+002           1.00599e+001           5.98555e-002           5.98555e-002           5.98555e-002           9.85548e-003           8.55477e-004
                   17.30    410.06787                                0.00000             74.734                                        4.10068e+002           1.00679e+001           6.78674e-002           6.78674e-002           6.78674e-002           7.86736e-003           8.67360e-004
                   17.40    410.07668                                0.00000             74.734                                        4.10077e+002           1.00767e+001           7.66763e-002           7.66763e-002           7.66763e-002           6.67631e-003           6.76310e-004
                   17.50    410.08155                                0.00000             74.734                                        4.10082e+002           1.00815e+001           8.15470e-002           8.15470e-002           8.15470e-002           1.54701e-003           5.47006e-004
                   17.60    410.07526                                0.00000             74.734                                        4.10075e+002           1.00753e+001           7.52575e-002           7.52575e-002           7.52575e-002           5.25747e-003           2.57466e-004
                   17.70    410.08741                                0.00000             74.732                                        4.10087e+002           1.00874e+001           8.74095e-002           8.74095e-002           8.74095e-002           7.40951e-003           4.09511e-004
                   17.80    410.09469                                0.00000             74.731                                        4.10095e+002           1.00947e+001           9.46939e-002           9.46939e-002           9.46939e-002           4.69390e-003           6.93900e-004
                   17.90    410.09316                                0.00000             74.732                                        4.10093e+002           1.00932e+001           9.31550e-002           9.31550e-002           9.31550e-002           3.15503e-003           1.55033e-004
                   18.00    410.08523                                0.00000             74.734                                        4.10085e+002           1.00852e+001           8.52330e-002           8.52330e-002           8.52330e-002           5.23297e-003           2.32967e-004
                   18.10    410.09647                                0.00000             74.734                                        4.10096e+002           1.00965e+001           9.64679e-002           9.64679e-002           9.64679e-002           6.46792e-003           4.67924e-004
                   18.20    410.08860                                0.00000             74.734                                        4.10089e+002           1.00886e+001           8.85984e-002           8.85984e-002           8.85984e-002           8.59836e-003           5.98360e-004
                   18.30    410.08062                                0.00000             74.734                                        4.10081e+002           1.00806e+001           8.06233e-002           8.06233e-002           8.06233e-002           6.23274e-004           6.23274e-004
                   18.40    410.08912                                0.00000             74.734                                        4.10089e+002           1.00891e+001           8.91169e-002           8.91169e-002           8.91169e-002           9.11690e-003           1.16901e-004
                   18.50    410.09548                                0.00000             74.732                                        4.10095e+002           1.00955e+001           9.54823e-002           9.54823e-002           9.54823e-002           5.48231e-003           4.82305e-004
                   18.60    410.07680                                0.00000             74.731                                        4.10077e+002           1.00768e+001           7.68031e-002           7.68031e-002           7.68031e-002           6.80315e-003           8.03147e-004
                   18.70    410.07229                                0.00000             74.732                                        4.10072e+002           1.00723e+001           7.22920e-002           7.22920e-002           7.22920e-002           2.29201e-003           2.92011e-004
                   18.80    410.08434                                0.00000             74.734                                        4.10084e+002           1.00843e+001           8.43423e-002           8.43423e-002           8.43423e-002           4.34226e-003           3.42263e-004
