~VERSION INFORMATION
VERS                    .            2.0                                    :CWLS LOG ASCII STANDARD
WRAP                    .            NO                                     :ONE LINE PER TIME STEP


~WELL INFORMATION
#MNEM                   .UNIT        DATA                                    DESCRIPTION
#________________________________________________________________________________________
STRTTIME                .HH/MM/SS    22:39:37                               :START TIME
STOPTIME                .HH/MM/SS    22:43:03                               :STOP TIME
STRT                    .s           2.10                                   :START DATA
STOP                    .s           204.10                                 :STOP DATA
STEP                    .s           0.10                                   :MEASUREMENT TIME INTERVAL
NULL                    .            -999.25                                :NULL VALUE
COMP                    .            Statoil ASA                            :COMPANY
FLD                     .            Volve                                  :FIELD
WELL                    .            15/9-F-1 C                             :WELL
RUN                     .            4                                      :RUN
LOC                     .                                                   :LOCATION
PROV                    .            na                                     :PROVINCE
SRVC                    .            Baker Hughes INTEQ                     :SERVICE COMPANY
DATE                    .YY/MM/DD    14/03/14                               :LOG DATE
UWI                     .                                                   :UNIQUE WELL ID
DEPTHMD                 .m           3925.1                                 :MEASURED DEPTH
DEPTHTVD                .m           3120.2                                 :TRUE VERTICAL DEPTH


~CURVE INFORMATION
#MNEM                   .UNIT        API CODES                               DESCRIPTION
#________________________________________________________________________________________
TIME                    .s                                                  :01 TIME
DD_PRESS                .bar                                                :02 DRAW DOWN PRESSURE
DD_VOLUME               .cm3                                                :03 INCREMENTAL DRAW DOWN VOLUME
TEMP                    .degC                                               :04 TRANSDUCER TEMPERATURE
DD_PRESS_MOD_1000       .bar                                                :05 DRAW DOWN PRESSURE MOD 1000
DD_PRESS_MOD_100        .bar                                                :06 DRAW DOWN PRESSURE MOD 100
DD_PRESS_MOD_10         .bar                                                :07 DRAW DOWN PRESSURE MOD 10
DD_PRESS_MOD_1          .bar                                                :08 DRAW DOWN PRESSURE MOD 1
DD_PRESS_MOD_01         .bar                                                :09 DRAW DOWN PRESSURE MOD 01
DD_PRESS_MOD_001        .bar                                                :10 DRAW DOWN PRESSURE MOD 001
DD_PRESS_MOD_0001       .bar                                                :11 DRAW DOWN PRESSURE MOD 0001


~PARAMETER INFORMATION
#MNEM                   .UNIT        VALUE                                   DESCRIPTION
#________________________________________________________________________________________
TOOLFACE                .deg         -7.4                                   :01 TOOLFACE
PUMP_CAPACITY           .bar         400                                    :02 NOMINAL DRAW DOWN PUMP CAPACITY
PUMP_LIMIT              .bar         240                                    :03 DOWNLINK PUMP LIMIT
TIME_LIMIT              .min         10                                     :04 DOWNLINK MAX TIME
TEST_TYPE               .            HIGH MOBILITY                          :05 DOWNLINK
DD_PIST_A               .cm2         3.1416                                 :06 DRAW DOWN PISTON AREA
V_SYS                   .cm3         131.0000                               :07 SYSTEM VOLUME
PROBE_ID                .cm          1.2700                                 :08 TTK PROBE ID
G0                      .            4.6700                                 :09 GEOMETRY FACTOR


~A                  TIME     DD_PRESS                              DD_VOLUME               TEMP                                   DD_PRESS_MOD_1000       DD_PRESS_MOD_100        DD_PRESS_MOD_10         DD_PRESS_MOD_1        DD_PRESS_MOD_01       DD_PRESS_MOD_001      DD_PRESS_MOD_0001
# ...
                  147.70    353.16377                               29.42602             91.328                                        3.53164e+002           5.31638e+001           3.16377e+000           1.63766e-001           6.37663e-002           3.76634e-003           7.66336e-004
                  147.80    353.15771                               29.42602             91.328                                        3.53158e+002           5.31577e+001           3.15771e+000           1.57707e-001           5.77069e-002           7.70691e-003           7.06911e-004
                  147.90    353.15979                               29.42602             91.328                                        3.53160e+002           5.31598e+001           3.15979e+000           1.59786e-001           5.97861e-002           9.78608e-003           7.86083e-004
                  148.00    353.16610                               29.42602             91.328                                        3.53166e+002           5.31661e+001           3.16610e+000           1.66104e-001           6.61041e-002           6.10412e-003           1.04123e-004
                  148.10    353.16595                               29.42602             91.328                                        3.53166e+002           5.31659e+001           3.16595e+000           1.65947e-001           6.59468e-002           5.94679e-003           9.46785e-004
                  148.20    353.16112                               29.42602             91.328                                        3.53161e+002           5.31611e+001           3.16112e+000           1.61117e-001           6.11167e-002           1.11674e-003           1.16740e-004
                  148.30    353.16091                               29.42602             91.328                                        3.53161e+002           5.31609e+001           3.16091e+000           1.60912e-001           6.09118e-002           9.11827e-004           9.11827e-004
                  148.40    353.16160                               29.42602             91.328                                        3.53162e+002           5.31616e+001           3.16160e+000           1.61602e-001           6.16022e-002           1.60225e-003           6.02245e-004
                  148.50    353.16282                               29.42602             91.328                                        3.53163e+002           5.31628e+001           3.16282e+000           1.62825e-001           6.28249e-002           2.82488e-003           8.24884e-004
                  148.60    353.16198                               29.42602             91.328                                        3.53162e+002           5.31620e+001           3.16198e+000           1.61977e-001           6.19768e-002           1.97684e-003           9.76835e-004
                  148.70    353.16040                               29.42602             91.328                                        3.53160e+002           5.31604e+001           3.16040e+000           1.60402e-001           6.04023e-002           4.02317e-004           4.02317e-004
                  148.80    353.16087                               29.42602             91.328                                        3.53161e+002           5.31609e+001           3.16087e+000           1.60867e-001           6.08673e-002           8.67310e-004           8.67310e-004
                  148.90    353.16424                               29.42602             91.328                                        3.53164e+002           5.31642e+001           3.16424e+000           1.64238e-001           6.42383e-002           4.23829e-003           2.38290e-004
                  149.00    353.16199                               29.42602             91.328                                        3.53162e+002           5.31620e+001           3.16199e+000           1.61989e-001           6.19889e-002           1.98895e-003           9.88947e-004
                  149.10    353.15919                               29.42602             91.328                                        3.53159e+002           5.31592e+001           3.15919e+000           1.59189e-001           5.91894e-002           9.18939e-003           1.89388e-004
                  149.20    353.15967                               29.42602             91.328                                        3.53160e+002           5.31597e+001           3.15967e+000           1.59670e-001           5.96701e-002           9.67010e-003           6.70101e-004
                  149.30    353.16092                               29.42602             91.328                                        3.53161e+002           5.31609e+001           3.16092e+000           1.60925e-001           6.09249e-002           9.24902e-004           9.24902e-004
                  149.40    353.16166                               29.42602             91.328                                        3.53162e+002           5.31617e+001           3.16166e+000           1.61663e-001           6.16633e-002           1.66330e-003           6.63300e-004
                  149.50    353.16253                               29.42602             91.328                                        3.53163e+002           5.31625e+001           3.16253e+000           1.62533e-001           6.25333e-002           2.53329e-003           5.33290e-004
                  149.60    353.16382                               29.42602             91.328                                        3.53164e+002           5.31638e+001           3.16382e+000           1.63820e-001           6.38203e-002           3.82025e-003           8.20254e-004
                  149.70    353.16260                               29.42602             91.328                                        3.53163e+002           5.31626e+001           3.16260e+000           1.62600e-001           6.26002e-002           2.60024e-003           6.00244e-004
                  149.80    353.15910                               29.42602             91.328                                        3.53159e+002           5.31591e+001           3.15910e+000           1.59098e-001           5.90977e-002           9.09775e-003           9.77488e-005
                  149.90    353.16107                               29.42602             91.328                                        3.53161e+002           5.31611e+001           3.16107e+000           1.61069e-001           6.10692e-002           1.06921e-003           6.92077e-005
                  150.00    353.16702                               29.42602             91.328                                        3.53167e+002           5.31670e+001           3.16702e+000           1.67018e-001           6.70177e-002           7.01772e-003           1.77243e-005
                  150.10    353.16425                               29.42602             91.328                                        3.53164e+002           5.31642e+001           3.16425e+000           1.64247e-001           6.42474e-002           4.24736e-003           2.47356e-004
                  150.20    353.15421                               29.42602             91.328                                        3.53154e+002           5.31542e+001           3.15421e+000           1.54213e-001           5.42128e-002           4.21281e-003           2.12811e-004
                  150.30    353.15401                               29.42602             91.328                                        3.53154e+002           5.31540e+001           3.15401e+000           1.54014e-001           5.40135e-002           4.01355e-003           1.35483e-005
                  150.40    353.16351                               29.42602             91.328                                        3.53164e+002           5.31635e+001           3.16351e+000           1.63512e-001           6.35117e-002           3.51172e-003           5.11716e-004
