~VERSION INFORMATION
VERS                    .            2.0                                    :CWLS LOG ASCII STANDARD
WRAP                    .            NO                                     :ONE LINE PER TIME STEP


~WELL INFORMATION
#MNEM                   .UNIT        DATA                                    DESCRIPTION
#________________________________________________________________________________________
STRTTIME                .HH/MM/SS    11:07:04                               :START TIME
STOPTIME                .HH/MM/SS    11:10:49                               :STOP TIME
STRT                    .s           2.10                                   :START DATA
STOP                    .s           223.10                                 :STOP DATA
STEP                    .s           0.10                                   :MEASUREMENT TIME INTERVAL
NULL                    .            -999.25                                :NULL VALUE
COMP                    .            Statoil ASA                            :COMPANY
FLD                     .            Volve                                  :FIELD
WELL                    .            15/9-F-11 A                            :WELL
RUN                     .            8                                      :RUN
LOC                     .            Maersk Inspirer                        :LOCATION
PROV                    .            na                                     :PROVINCE
SRVC                    .            Baker Hughes INTEQ                     :SERVICE COMPANY
DATE                    .YY/MM/DD    13/05/21                               :LOG DATE
UWI                     .                                                   :UNIQUE WELL ID
DEPTHMD                 .m           3632.0                                 :MEASURED DEPTH
DEPTHTVD                .m           3026.9                                 :TRUE VERTICAL DEPTH


~CURVE INFORMATION
#MNEM                   .UNIT        API CODES                               DESCRIPTION
#________________________________________________________________________________________
TIME                    .s                                                  :01 TIME
DD_PRESS                .bar                                                :02 DRAW DOWN PRESSURE
DD_VOLUME               .cm3                                                :03 INCREMENTAL DRAW DOWN VOLUME
TEMP                    .degC                                               :04 TRANSDUCER TEMPERATURE
DD_PRESS_MOD_1000       .bar                                                :05 DRAW DOWN PRESSURE MOD 1000
DD_PRESS_MOD_100        .bar                                                :06 DRAW DOWN PRESSURE MOD 100
DD_PRESS_MOD_10         .bar                                                :07 DRAW DOWN PRESSURE MOD 10
DD_PRESS_MOD_1          .bar                                                :08 DRAW DOWN PRESSURE MOD 1
DD_PRESS_MOD_01         .bar                                                :09 DRAW DOWN PRESSURE MOD 01
DD_PRESS_MOD_001        .bar                                                :10 DRAW DOWN PRESSURE MOD 001
DD_PRESS_MOD_0001       .bar                                                :11 DRAW DOWN PRESSURE MOD 0001


~PARAMETER INFORMATION
#MNEM                   .UNIT        VALUE                                   DESCRIPTION
#________________________________________________________________________________________
TOOLFACE                .deg         66.7                                   :01 TOOLFACE
PUMP_CAPACITY           .bar         400                                    :02 NOMINAL DRAW DOWN PUMP CAPACITY
PUMP_LIMIT              .bar         240                                    :03 DOWNLINK PUMP LIMIT
TIME_LIMIT              .min         10                                     :04 DOWNLINK MAX TIME
TEST_TYPE               .            REPEAT                                 :05 DOWNLINK
TEST_TYPE               .            HIGH MOBILITY                          :06 DOWNLINK
DD_PIST_A               .cm2         3.1416                                 :07 DRAW DOWN PISTON AREA
V_SYS                   .cm3         131.0000                               :08 SYSTEM VOLUME
PROBE_ID                .cm          1.2700                                 :09 TTK PROBE ID
G0                      .            4.6700                                 :10 GEOMETRY FACTOR


~A                  TIME     DD_PRESS                              DD_VOLUME               TEMP                                   DD_PRESS_MOD_1000       DD_PRESS_MOD_100        DD_PRESS_MOD_10         DD_PRESS_MOD_1        DD_PRESS_MOD_01       DD_PRESS_MOD_001      DD_PRESS_MOD_0001
# ...
                  175.70    342.69983                               14.97769             80.602                                        3.42700e+002           4.26998e+001           2.69983e+000           6.99828e-001           9.98281e-002           9.82806e-003           8.28063e-004
                  175.80    342.71492                               14.97769             80.602                                        3.42715e+002           4.27149e+001           2.71492e+000           7.14920e-001           1.49200e-002           4.91999e-003           9.19994e-004
                  175.90    342.71334                               14.97769             80.602                                        3.42713e+002           4.27133e+001           2.71334e+000           7.13344e-001           1.33441e-002           3.34405e-003           3.44050e-004
                  176.00    342.70064                               14.97769             80.602                                        3.42701e+002           4.27006e+001           2.70064e+000           7.00644e-001           6.44354e-004           6.44354e-004           6.44354e-004
                  176.10    342.69813                               14.97769             80.602                                        3.42698e+002           4.26981e+001           2.69813e+000           6.98128e-001           9.81277e-002           8.12773e-003           1.27727e-004
                  176.20    342.70506                               14.97769             80.602                                        3.42705e+002           4.27051e+001           2.70506e+000           7.05059e-001           5.05900e-003           5.05900e-003           5.90032e-005
                  176.30    342.70552                               14.97769             80.602                                        3.42706e+002           4.27055e+001           2.70552e+000           7.05519e-001           5.51855e-003           5.51855e-003           5.18547e-004
                  176.40    342.69914                               14.97769             80.602                                        3.42699e+002           4.26991e+001           2.69914e+000           6.99141e-001           9.91410e-002           9.14101e-003           1.41008e-004
                  176.50    342.70217                               14.97769             80.602                                        3.42702e+002           4.27022e+001           2.70217e+000           7.02169e-001           2.16877e-003           2.16877e-003           1.68769e-004
                  176.60    342.71272                               14.97769             80.602                                        3.42713e+002           4.27127e+001           2.71272e+000           7.12723e-001           1.27234e-002           2.72342e-003           7.23423e-004
                  176.70    342.71335                               14.97769             80.602                                        3.42713e+002           4.27133e+001           2.71335e+000           7.13345e-001           1.33454e-002           3.34544e-003           3.45438e-004
                  176.80    342.70835                               14.97769             80.602                                        3.42708e+002           4.27084e+001           2.70835e+000           7.08351e-001           8.35107e-003           8.35107e-003           3.51068e-004
                  176.90    342.71327                               14.97769             80.602                                        3.42713e+002           4.27133e+001           2.71327e+000           7.13271e-001           1.32714e-002           3.27138e-003           2.71383e-004
                  177.00    342.71440                               14.97769             80.602                                        3.42714e+002           4.27144e+001           2.71440e+000           7.14402e-001           1.44020e-002           4.40196e-003           4.01956e-004
                  177.10    342.70473                               14.97769             80.602                                        3.42705e+002           4.27047e+001           2.70473e+000           7.04733e-001           4.73333e-003           4.73333e-003           7.33332e-004
                  177.20    342.69592                               14.97769             80.602                                        3.42696e+002           4.26959e+001           2.69592e+000           6.95923e-001           9.59233e-002           5.92326e-003           9.23262e-004
                  177.30    342.70066                               14.97769             80.602                                        3.42701e+002           4.27007e+001           2.70066e+000           7.00657e-001           6.57175e-004           6.57175e-004           6.57175e-004
                  177.40    342.70696                               14.97769             80.602                                        3.42707e+002           4.27070e+001           2.70696e+000           7.06961e-001           6.96111e-003           6.96111e-003           9.61110e-004
                  177.50    342.71016                               14.97769             80.602                                        3.42710e+002           4.27102e+001           2.71016e+000           7.10155e-001           1.01554e-002           1.55411e-004           1.55411e-004
                  177.60    342.71217                               14.97769             80.602                                        3.42712e+002           4.27122e+001           2.71217e+000           7.12170e-001           1.21702e-002           2.17021e-003           1.70214e-004
                  177.70    342.71474                               14.97769             80.602                                        3.42715e+002           4.27147e+001           2.71474e+000           7.14737e-001           1.47365e-002           4.73653e-003           7.36535e-004
                  177.80    342.71698                               14.97769             80.602                                        3.42717e+002           4.27170e+001           2.71698e+000           7.16979e-001           1.69793e-002           6.97934e-003           9.79338e-004
                  177.90    342.71494                               14.97769             80.602                                        3.42715e+002           4.27149e+001           2.71494e+000           7.14936e-001           1.49360e-002           4.93600e-003           9.35996e-004
                  178.00    342.70918                               14.97769             80.602                                        3.42709e+002           4.27092e+001           2.70918e+000           7.09176e-001           9.17627e-003           9.17627e-003           1.76266e-004
                  178.10    342.70812                               14.97769             80.602                                        3.42708e+002           4.27081e+001           2.70812e+000           7.08123e-001           8.12275e-003           8.12275e-003           1.22753e-004
                  178.20    342.70947                               14.97769             80.602                                        3.42709e+002           4.27095e+001           2.70947e+000           7.09474e-001           9.47435e-003           9.47435e-003           4.74346e-004
                  178.30    342.70462                               14.97769             80.602                                        3.42705e+002           4.27046e+001           2.70462e+000           7.04622e-001           4.62207e-003           4.62207e-003           6.22070e-004
                  178.40    342.70120                               14.97769             80.602                                        3.42701e+002           4.27012e+001           2.70120e+000           7.01199e-001           1.19920e-003           1.19920e-003           1.99204e-004
