~VERSION INFORMATION
VERS                    .            2.0                                    :CWLS LOG ASCII STANDARD
WRAP                    .            NO                                     :ONE LINE PER TIME STEP


~WELL INFORMATION
#MNEM                   .UNIT        DATA                                    DESCRIPTION
#________________________________________________________________________________________
STRTTIME                .HH/MM/SS    08:31:17                               :START TIME
STOPTIME                .HH/MM/SS    08:34:03                               :STOP TIME
STRT                    .s           2.10                                   :START DATA
STOP                    .s           164.70                                 :STOP DATA
STEP                    .s           0.10                                   :MEASUREMENT TIME INTERVAL
NULL                    .            -999.25                                :NULL VALUE
COMP                    .            Statoil ASA                            :COMPANY
FLD                     .            Volve                                  :FIELD
WELL                    .            15/9-F-11 A                            :WELL
RUN                     .            8                                      :RUN
LOC                     .            Maersk Inspirer                        :LOCATION
PROV                    .            na                                     :PROVINCE
SRVC                    .            Baker Hughes INTEQ                     :SERVICE COMPANY
DATE                    .YY/MM/DD    13/05/21                               :LOG DATE
UWI                     .                                                   :UNIQUE WELL ID
DEPTHMD                 .m           3688.1                                 :MEASURED DEPTH
DEPTHTVD                .m           3069.8                                 :TRUE VERTICAL DEPTH


~CURVE INFORMATION
#MNEM                   .UNIT        API CODES                               DESCRIPTION
#________________________________________________________________________________________
TIME                    .s                                                  :01 TIME
DD_PRESS                .bar                                                :02 DRAW DOWN PRESSURE
DD_VOLUME               .cm3                                                :03 INCREMENTAL DRAW DOWN VOLUME
TEMP                    .degC                                               :04 TRANSDUCER TEMPERATURE
DD_PRESS_MOD_1000       .bar                                                :05 DRAW DOWN PRESSURE MOD 1000
DD_PRESS_MOD_100        .bar                                                :06 DRAW DOWN PRESSURE MOD 100
DD_PRESS_MOD_10         .bar                                                :07 DRAW DOWN PRESSURE MOD 10
DD_PRESS_MOD_1          .bar                                                :08 DRAW DOWN PRESSURE MOD 1
DD_PRESS_MOD_01         .bar                                                :09 DRAW DOWN PRESSURE MOD 01
DD_PRESS_MOD_001        .bar                                                :10 DRAW DOWN PRESSURE MOD 001
DD_PRESS_MOD_0001       .bar                                                :11 DRAW DOWN PRESSURE MOD 0001


~PARAMETER INFORMATION
#MNEM                   .UNIT        VALUE                                   DESCRIPTION
#________________________________________________________________________________________
TOOLFACE                .deg         -78.9                                  :01 TOOLFACE
PUMP_CAPACITY           .bar         400                                    :02 NOMINAL DRAW DOWN PUMP CAPACITY
PUMP_LIMIT              .bar         240                                    :03 DOWNLINK PUMP LIMIT
TIME_LIMIT              .min         10                                     :04 DOWNLINK MAX TIME
TEST_TYPE               .            REPEAT                                 :05 DOWNLINK
TEST_TYPE               .            HIGH MOBILITY                          :06 DOWNLINK
DD_PIST_A               .cm2         3.1416                                 :07 DRAW DOWN PISTON AREA
V_SYS                   .cm3         131.0000                               :08 SYSTEM VOLUME
PROBE_ID                .cm          1.2700                                 :09 TTK PROBE ID
G0                      .            4.6700                                 :10 GEOMETRY FACTOR


~A                  TIME     DD_PRESS                              DD_VOLUME               TEMP                                   DD_PRESS_MOD_1000       DD_PRESS_MOD_100        DD_PRESS_MOD_10         DD_PRESS_MOD_1        DD_PRESS_MOD_01       DD_PRESS_MOD_001      DD_PRESS_MOD_0001
# ...
                  150.50    424.85481                                0.00000             83.273                                        4.24855e+002           2.48548e+001           4.85481e+000           8.54812e-001           5.48121e-002           4.81213e-003           8.12133e-004
                  150.60    424.86722                                0.00000             83.273                                        4.24867e+002           2.48672e+001           4.86722e+000           8.67219e-001           6.72190e-002           7.21898e-003           2.18977e-004
                  150.70    424.86407                                0.00000             83.273                                        4.24864e+002           2.48641e+001           4.86407e+000           8.64072e-001           6.40722e-002           4.07223e-003           7.22334e-005
                  150.80    424.85721                                0.00000             83.273                                        4.24857e+002           2.48572e+001           4.85721e+000           8.57209e-001           5.72092e-002           7.20919e-003           2.09190e-004
                  150.90    424.84606                                0.00000             83.273                                        4.24846e+002           2.48461e+001           4.84606e+000           8.46059e-001           4.60594e-002           6.05936e-003           5.93557e-005
                  151.00    424.85775                                0.00000             83.273                                        4.24858e+002           2.48577e+001           4.85775e+000           8.57745e-001           5.77454e-002           7.74541e-003           7.45408e-004
                  151.10    424.86921                                0.00000             83.273                                        4.24869e+002           2.48692e+001           4.86921e+000           8.69207e-001           6.92074e-002           9.20739e-003           2.07386e-004
                  151.20    424.86045                                0.00000             83.273                                        4.24860e+002           2.48605e+001           4.86045e+000           8.60454e-001           6.04538e-002           4.53809e-004           4.53809e-004
                  151.30    424.84682                                0.00000             83.273                                        4.24847e+002           2.48468e+001           4.84682e+000           8.46820e-001           4.68202e-002           6.82016e-003           8.20156e-004
                  151.40    424.85164                                0.00000             83.273                                        4.24852e+002           2.48516e+001           4.85164e+000           8.51641e-001           5.16414e-002           1.64135e-003           6.41355e-004
                  151.50    424.86944                                0.00000             83.273                                        4.24869e+002           2.48694e+001           4.86944e+000           8.69436e-001           6.94364e-002           9.43644e-003           4.36435e-004
                  151.60    424.87252                                0.00000             83.273                                        4.24873e+002           2.48725e+001           4.87252e+000           8.72522e-001           7.25223e-002           2.52229e-003           5.22293e-004
                  151.70    424.86954                                0.00000             83.273                                        4.24870e+002           2.48695e+001           4.86954e+000           8.69541e-001           6.95411e-002           9.54109e-003           5.41086e-004
                  151.80    424.87191                                0.00000             83.273                                        4.24872e+002           2.48719e+001           4.87191e+000           8.71906e-001           7.19057e-002           1.90572e-003           9.05722e-004
                  151.90    424.87107                                0.00000             83.273                                        4.24871e+002           2.48711e+001           4.87107e+000           8.71072e-001           7.10725e-002           1.07249e-003           7.24875e-005
                  152.00    424.84959                                0.00000             83.273                                        4.24850e+002           2.48496e+001           4.84959e+000           8.49590e-001           4.95902e-002           9.59025e-003           5.90250e-004
                  152.10    424.83764                                0.00000             83.273                                        4.24838e+002           2.48376e+001           4.83764e+000           8.37637e-001           3.76375e-002           7.63748e-003           6.37476e-004
                  152.20    424.83701                                0.00000             83.273                                        4.24837e+002           2.48370e+001           4.83701e+000           8.37008e-001           3.70077e-002           7.00767e-003           7.67475e-006
                  152.30    424.84786                                0.00000             83.273                                        4.24848e+002           2.48479e+001           4.84786e+000           8.47863e-001           4.78630e-002           7.86298e-003           8.62984e-004
                  152.40    424.84108                                0.00000             83.273                                        4.24841e+002           2.48411e+001           4.84108e+000           8.41079e-001           4.10793e-002           1.07926e-003           7.92610e-005
                  152.50    424.84020                                0.00000             83.273                                        4.24840e+002           2.48402e+001           4.84020e+000           8.40196e-001           4.01956e-002           1.95602e-004           1.95602e-004
                  152.60    424.85254                                0.00000             83.273                                        4.24853e+002           2.48525e+001           4.85254e+000           8.52541e-001           5.25407e-002           2.54071e-003           5.40711e-004
                  152.70    424.86387                                0.00000             83.273                                        4.24864e+002           2.48639e+001           4.86387e+000           8.63873e-001           6.38729e-002           3.87293e-003           8.72926e-004
                  152.80    424.86715                                0.00000             83.273                                        4.24867e+002           2.48671e+001           4.86715e+000           8.67146e-001           6.71465e-002           7.14646e-003           1.46455e-004
                  152.90    424.87281                                0.00000             83.273                                        4.24873e+002           2.48728e+001           4.87281e+000           8.72811e-001           7.28113e-002           2.81132e-003           8.11316e-004
                  153.00    424.86563                                0.00000             83.273                                        4.24866e+002           2.48656e+001           4.86563e+000           8.65627e-001           6.56265e-002           5.62650e-003           6.26503e-004
                  153.10    424.84336                                0.00000             83.273                                        4.24843e+002           2.48434e+001           4.84336e+000           8.43358e-001           4.33581e-002           3.35812e-003           3.58123e-004
                  153.20    424.84075                                0.00000             83.273                                        4.24841e+002           2.48407e+001           4.84075e+000           8.40748e-001           4.07476e-002           7.47580e-004           7.47580e-004
