~VERSION INFORMATION
VERS                    .            2.0                                    :CWLS LOG ASCII STANDARD
WRAP                    .            NO                                     :ONE LINE PER TIME STEP


~WELL INFORMATION
#MNEM                   .UNIT        DATA                                    DESCRIPTION
#________________________________________________________________________________________
STRTTIME                .HH/MM/SS    16:37:30                               :START TIME
STOPTIME                .HH/MM/SS    16:40:36                               :STOP TIME
STRT                    .s           2.10                                   :START DATA
STOP                    .s           184.70                                 :STOP DATA
STEP                    .s           0.10                                   :MEASUREMENT TIME INTERVAL
NULL                    .            -999.25                                :NULL VALUE
COMP                    .            Statoil ASA                            :COMPANY
FLD                     .            Volve                                  :FIELD
WELL                    .            15/9-F-1 B                             :WELL
RUN                     .            7                                      :RUN
LOC                     .            Maersk Inspirer                        :LOCATION
PROV                    .            na                                     :PROVINCE
SRVC                    .            Baker Hughes INTEQ                     :SERVICE COMPANY
DATE                    .YY/MM/DD    13/09/06                               :LOG DATE
UWI                     .                                                   :UNIQUE WELL ID
DEPTHMD                 .m           3247.0                                 :MEASURED DEPTH
DEPTHTVD                .m           3043.3                                 :TRUE VERTICAL DEPTH


~CURVE INFORMATION
#MNEM                   .UNIT        API CODES                               DESCRIPTION
#________________________________________________________________________________________
TIME                    .s                                                  :01 TIME
DD_PRESS                .bar                                                :02 DRAW DOWN PRESSURE
DD_VOLUME               .cm3                                                :03 INCREMENTAL DRAW DOWN VOLUME
TEMP                    .degC                                               :04 TRANSDUCER TEMPERATURE
DD_PRESS_MOD_1000       .bar                                                :05 DRAW DOWN PRESSURE MOD 1000
DD_PRESS_MOD_100        .bar                                                :06 DRAW DOWN PRESSURE MOD 100
DD_PRESS_MOD_10         .bar                                                :07 DRAW DOWN PRESSURE MOD 10
DD_PRESS_MOD_1          .bar                                                :08 DRAW DOWN PRESSURE MOD 1
DD_PRESS_MOD_01         .bar                                                :09 DRAW DOWN PRESSURE MOD 01
DD_PRESS_MOD_001        .bar                                                :10 DRAW DOWN PRESSURE MOD 001
DD_PRESS_MOD_0001       .bar                                                :11 DRAW DOWN PRESSURE MOD 0001


~PARAMETER INFORMATION
#MNEM                   .UNIT        VALUE                                   DESCRIPTION
#________________________________________________________________________________________
TOOLFACE                .deg         na                                     :01 TOOLFACE
PUMP_CAPACITY           .bar         400                                    :02 NOMINAL DRAW DOWN PUMP CAPACITY
PUMP_LIMIT              .bar         400                                    :03 DOWNLINK PUMP LIMIT
TIME_LIMIT              .min         10                                     :04 DOWNLINK MAX TIME
TEST_TYPE               .            LOW MOBILITY                           :05 DOWNLINK
DD_PIST_A               .cm2         3.1416                                 :06 DRAW DOWN PISTON AREA
V_SYS                   .cm3         131.0000                               :07 SYSTEM VOLUME
PROBE_ID                .cm          1.2700                                 :08 TTK PROBE ID
G0                      .            4.6700                                 :09 GEOMETRY FACTOR


~A                  TIME     DD_PRESS                              DD_VOLUME               TEMP                                   DD_PRESS_MOD_1000       DD_PRESS_MOD_100        DD_PRESS_MOD_10         DD_PRESS_MOD_1        DD_PRESS_MOD_01       DD_PRESS_MOD_001      DD_PRESS_MOD_0001
# ...
                   86.10    341.99872                               11.29252             81.539                                        3.41999e+002           4.19987e+001           1.99872e+000           9.98722e-001           9.87221e-002           8.72213e-003           7.22129e-004
                   86.20    341.79566                               11.33158             81.539                                        3.41796e+002           4.17957e+001           1.79566e+000           7.95663e-001           9.56633e-002           5.66325e-003           6.63251e-004
                   86.30    341.57946                               11.37400             81.539                                        3.41579e+002           4.15795e+001           1.57946e+000           5.79456e-001           7.94561e-002           9.45607e-003           4.56075e-004
                   86.40    341.33856                               11.41963             81.539                                        3.41339e+002           4.13386e+001           1.33856e+000           3.38559e-001           3.85590e-002           8.55896e-003           5.58956e-004
                   86.50    341.11269                               11.46856             81.539                                        3.41113e+002           4.11127e+001           1.11269e+000           1.12687e-001           1.26867e-002           2.68671e-003           6.86714e-004
                   86.60    340.90263                               11.52099             81.539                                        3.40903e+002           4.09026e+001           9.02628e-001           9.02628e-001           2.62767e-003           2.62767e-003           6.27671e-004
                   86.70    340.67421                               11.57715             81.539                                        3.40674e+002           4.06742e+001           6.74206e-001           6.74206e-001           7.42062e-002           4.20622e-003           2.06223e-004
                   86.80    340.44146                               11.63693             81.539                                        3.40441e+002           4.04415e+001           4.41464e-001           4.41464e-001           4.14642e-002           1.46421e-003           4.64207e-004
                   86.90    340.19666                               11.70087             81.539                                        3.40197e+002           4.01967e+001           1.96658e-001           1.96658e-001           9.66578e-002           6.65783e-003           6.57834e-004
                   87.00    339.93725                               11.76895             81.539                                        3.39937e+002           3.99373e+001           9.93725e+000           9.37250e-001           3.72504e-002           7.25040e-003           2.50396e-004
                   87.10    339.67012                               11.84093             81.539                                        3.39670e+002           3.96701e+001           9.67012e+000           6.70119e-001           7.01192e-002           1.19220e-004           1.19220e-004
                   87.20    339.40408                               11.91698             81.539                                        3.39404e+002           3.94041e+001           9.40408e+000           4.04078e-001           4.07835e-003           4.07835e-003           7.83467e-005
                   87.30    339.14408                               11.99750             81.539                                        3.39144e+002           3.91441e+001           9.14408e+000           1.44084e-001           4.40842e-002           4.08417e-003           8.41704e-005
                   87.40    338.88376                               12.08271             81.539                                        3.38884e+002           3.88838e+001           8.88376e+000           8.83757e-001           8.37570e-002           3.75704e-003           7.57038e-004
                   87.50    338.60741                               12.17266             81.539                                        3.38607e+002           3.86074e+001           8.60741e+000           6.07414e-001           7.41442e-003           7.41442e-003           4.14422e-004
                   87.60    338.32997                               12.26691             81.539                                        3.38330e+002           3.83300e+001           8.32997e+000           3.29967e-001           2.99673e-002           9.96727e-003           9.67272e-004
                   87.70    338.05892                               12.36571             81.539                                        3.38059e+002           3.80589e+001           8.05892e+000           5.89188e-002           5.89188e-002           8.91878e-003           9.18777e-004
                   87.80    337.78038                               12.46962             81.539                                        3.37780e+002           3.77804e+001           7.78038e+000           7.80378e-001           8.03784e-002           3.78409e-004           3.78409e-004
                   87.90    337.49151                               12.57882             81.539                                        3.37492e+002           3.74915e+001           7.49151e+000           4.91508e-001           9.15076e-002           1.50763e-003           5.07631e-004
                   88.00    337.19981                               12.69323             81.539                                        3.37200e+002           3.71998e+001           7.19981e+000           1.99807e-001           9.98072e-002           9.80719e-003           8.07192e-004
                   88.10    336.91275                               12.81305             81.539                                        3.36913e+002           3.69127e+001           6.91275e+000           9.12748e-001           1.27478e-002           2.74780e-003           7.47797e-004
                   88.20    336.63447                               12.93818             81.539                                        3.36634e+002           3.66345e+001           6.63447e+000           6.34465e-001           3.44653e-002           4.46535e-003           4.65345e-004
                   88.30    336.35186                               13.06854             81.539                                        3.36352e+002           3.63519e+001           6.35186e+000           3.51855e-001           5.18551e-002           1.85514e-003           8.55139e-004
                   88.40    336.06896                               13.20398             81.539                                        3.36069e+002           3.60690e+001           6.06896e+000           6.89564e-002           6.89564e-002           8.95640e-003           9.56404e-004
                   88.50    335.78933                               13.34507             81.539                                        3.35789e+002           3.57893e+001           5.78933e+000           7.89334e-001           8.93343e-002           9.33432e-003           3.34316e-004
                   88.60    335.49535                               13.49213             81.539                                        3.35495e+002           3.54953e+001           5.49535e+000           4.95345e-001           9.53454e-002           5.34544e-003           3.45443e-004
                   88.70    335.19107                               13.64487             81.539                                        3.35191e+002           3.51911e+001           5.19107e+000           1.91065e-001           9.10650e-002           1.06505e-003           6.50470e-005
                   88.80    334.89027                               13.80301             81.539                                        3.34890e+002           3.48903e+001           4.89027e+000           8.90273e-001           9.02726e-002           2.72618e-004           2.72618e-004
