~VERSION INFORMATION
VERS                    .            2.0                                    :CWLS LOG ASCII STANDARD
WRAP                    .            NO                                     :ONE LINE PER TIME STEP


~WELL INFORMATION
#MNEM                   .UNIT        DATA                                    DESCRIPTION
#________________________________________________________________________________________
STRTTIME                .HH/MM/SS    22:05:32                               :START TIME
STOPTIME                .HH/MM/SS    22:09:32                               :STOP TIME
STRT                    .s           2.10                                   :START DATA
STOP                    .s           238.90                                 :STOP DATA
STEP                    .s           0.10                                   :MEASUREMENT TIME INTERVAL
NULL                    .            -999.25                                :NULL VALUE
COMP                    .            Statoil                                :COMPANY
FLD                     .            Volve                                  :FIELD
WELL                    .            15/9-F-11 T2                           :WELL
RUN                     .            7                                      :RUN
LOC                     .            Maersk Inspirer                        :LOCATION
PROV                    .            na                                     :PROVINCE
SRVC                    .            Baker Hughes INTEQ                     :SERVICE COMPANY
DATE                    .YY/MM/DD    13/05/04                               :LOG DATE
UWI                     .                                                   :UNIQUE WELL ID
DEPTHMD                 .m           4490.1                                 :MEASURED DEPTH
DEPTHTVD                .m           3328.5                                 :TRUE VERTICAL DEPTH


~CURVE INFORMATION
#MNEM                   .UNIT        API CODES                               DESCRIPTION
#________________________________________________________________________________________
TIME                    .s                                                  :01 TIME
DD_PRESS                .bar                                                :02 DRAW DOWN PRESSURE
DD_VOLUME               .cm3                                                :03 INCREMENTAL DRAW DOWN VOLUME
TEMP                    .degC                                               :04 TRANSDUCER TEMPERATURE
DD_PRESS_MOD_1000       .bar                                                :05 DRAW DOWN PRESSURE MOD 1000
DD_PRESS_MOD_100        .bar                                                :06 DRAW DOWN PRESSURE MOD 100
DD_PRESS_MOD_10         .bar                                                :07 DRAW DOWN PRESSURE MOD 10
DD_PRESS_MOD_1          .bar                                                :08 DRAW DOWN PRESSURE MOD 1
DD_PRESS_MOD_01         .bar                                                :09 DRAW DOWN PRESSURE MOD 01
DD_PRESS_MOD_001        .bar                                                :10 DRAW DOWN PRESSURE MOD 001
DD_PRESS_MOD_0001       .bar                                                :11 DRAW DOWN PRESSURE MOD 0001


~PARAMETER INFORMATION
#MNEM                   .UNIT        VALUE                                   DESCRIPTION
#________________________________________________________________________________________
TOOLFACE                .deg         na                                     :01 TOOLFACE
PUMP_CAPACITY           .bar         400                                    :02 NOMINAL DRAW DOWN PUMP CAPACITY
PUMP_LIMIT              .bar         240                                    :03 DOWNLINK PUMP LIMIT
TIME_LIMIT              .min         10                                     :04 DOWNLINK MAX TIME
TEST_TYPE               .            HIGH MOBILITY                          :05 DOWNLINK
DD_PIST_A               .cm2         3.1416                                 :06 DRAW DOWN PISTON AREA
V_SYS                   .cm3         131.0000                               :07 SYSTEM VOLUME
PROBE_ID                .cm          1.2700                                 :08 TTK PROBE ID
G0                      .            4.6700                                 :09 GEOMETRY FACTOR


~A                  TIME     DD_PRESS                              DD_VOLUME               TEMP                                   DD_PRESS_MOD_1000       DD_PRESS_MOD_100        DD_PRESS_MOD_10         DD_PRESS_MOD_1        DD_PRESS_MOD_01       DD_PRESS_MOD_001      DD_PRESS_MOD_0001
# ...
                  111.30    351.45780                               13.32523             97.242                                        3.51458e+002           5.14578e+001           1.45780e+000           4.57801e-001           5.78009e-002           7.80090e-003           8.00901e-004
                  111.40    351.21923                               13.40225             97.242                                        3.51219e+002           5.12192e+001           1.21923e+000           2.19232e-001           1.92325e-002           9.23249e-003           2.32486e-004
                  111.50    350.99664                               13.48078             97.242                                        3.50997e+002           5.09966e+001           9.96643e-001           9.96643e-001           9.66432e-002           6.64318e-003           6.43179e-004
                  111.60    350.76506                               13.56102             97.242                                        3.50765e+002           5.07651e+001           7.65059e-001           7.65059e-001           6.50593e-002           5.05930e-003           5.93031e-005
                  111.70    350.52942                               13.64233             97.242                                        3.50529e+002           5.05294e+001           5.29425e-001           5.29425e-001           2.94249e-002           9.42494e-003           4.24938e-004
                  111.80    350.31600                               13.72434             97.242                                        3.50316e+002           5.03160e+001           3.16004e-001           3.16004e-001           1.60044e-002           6.00438e-003           4.38200e-006
                  111.90    350.13043                               13.80773             97.242                                        3.50130e+002           5.01304e+001           1.30429e-001           1.30429e-001           3.04292e-002           4.29202e-004           4.29202e-004
                  112.00    349.93590                               13.89337             97.242                                        3.49936e+002           4.99359e+001           9.93590e+000           9.35901e-001           3.59012e-002           5.90117e-003           9.01174e-004
                  112.10    349.73220                               13.98043             97.242                                        3.49732e+002           4.97322e+001           9.73220e+000           7.32202e-001           3.22016e-002           2.20165e-003           2.01647e-004
                  112.20    349.53965                               14.06855             97.242                                        3.49540e+002           4.95396e+001           9.53965e+000           5.39649e-001           3.96488e-002           9.64877e-003           6.48773e-004
                  112.30    349.35283                               14.15751             97.242                                        3.49353e+002           4.93528e+001           9.35283e+000           3.52835e-001           5.28349e-002           2.83491e-003           8.34910e-004
                  112.40    349.15429                               14.24707             97.242                                        3.49154e+002           4.91543e+001           9.15429e+000           1.54292e-001           5.42918e-002           4.29183e-003           2.91829e-004
                  112.50    348.97964                               14.33734             97.242                                        3.48980e+002           4.89796e+001           8.97964e+000           9.79644e-001           7.96442e-002           9.64425e-003           6.44245e-004
                  112.60    348.83855                               14.42872             97.242                                        3.48839e+002           4.88385e+001           8.83855e+000           8.38550e-001           3.85498e-002           8.54983e-003           5.49828e-004
                  112.70    348.71042                               14.52163             97.242                                        3.48710e+002           4.87104e+001           8.71042e+000           7.10417e-001           1.04171e-002           4.17119e-004           4.17119e-004
                  112.80    348.56718                               14.61583             97.242                                        3.48567e+002           4.85672e+001           8.56718e+000           5.67181e-001           6.71810e-002           7.18101e-003           1.81013e-004
                  112.90    348.40821                               14.71020             97.242                                        3.48408e+002           4.84082e+001           8.40821e+000           4.08206e-001           8.20613e-003           8.20613e-003           2.06135e-004
                  113.00    348.30182                               14.80459             97.242                                        3.48302e+002           4.83018e+001           8.30182e+000           3.01822e-001           1.82151e-003           1.82151e-003           8.21508e-004
                  113.10    348.22215                               14.90063             97.242                                        3.48222e+002           4.82222e+001           8.22215e+000           2.22153e-001           2.21532e-002           2.15320e-003           1.53203e-004
                  113.20    348.09825                               14.99805             97.242                                        3.48098e+002           4.80983e+001           8.09825e+000           9.82506e-002           9.82506e-002           8.25058e-003           2.50576e-004
                  113.30    347.96431                               15.09509             97.242                                        3.47964e+002           4.79643e+001           7.96431e+000           9.64309e-001           6.43092e-002           4.30917e-003           3.09173e-004
                  113.40    347.89042                               15.19229             97.242                                        3.47890e+002           4.78904e+001           7.89042e+000           8.90423e-001           9.04230e-002           4.23029e-004           4.23029e-004
                  113.50    347.83913                               15.29087             97.242                                        3.47839e+002           4.78391e+001           7.83913e+000           8.39134e-001           3.91342e-002           9.13424e-003           1.34240e-004
                  113.60    347.75116                               15.39047             97.242                                        3.47751e+002           4.77512e+001           7.75116e+000           7.51156e-001           5.11558e-002           1.15582e-003           1.55822e-004
                  113.70    347.66381                               15.48956             97.242                                        3.47664e+002           4.76638e+001           7.66381e+000           6.63808e-001           6.38078e-002           3.80781e-003           8.07809e-004
                  113.80    347.62231                               15.58814             97.242                                        3.47622e+002           4.76223e+001           7.62231e+000           6.22313e-001           2.23132e-002           2.31320e-003           3.13201e-004
                  113.90    347.62188                               15.68725             97.242                                        3.47622e+002           4.76219e+001           7.62188e+000           6.21881e-001           2.18811e-002           1.88109e-003           8.81088e-004
                  114.00    347.59478                               15.78767             97.242                                        3.47595e+002           4.75948e+001           7.59478e+000           5.94779e-001           9.47786e-002           4.77863e-003           7.78634e-004
