~VERSION INFORMATION
VERS                    .            2.0                                    :CWLS LOG ASCII STANDARD
WRAP                    .            NO                                     :ONE LINE PER TIME STEP


~WELL INFORMATION
#MNEM                   .UNIT        DATA                                    DESCRIPTION
#________________________________________________________________________________________
STRTTIME                .HH/MM/SS    22:05:32                               :START TIME
STOPTIME                .HH/MM/SS    22:09:32                               :STOP TIME
STRT                    .s           2.10                                   :START DATA
STOP                    .s           238.90                                 :STOP DATA
STEP                    .s           0.10                                   :MEASUREMENT TIME INTERVAL
NULL                    .            -999.25                                :NULL VALUE
COMP                    .            Statoil                                :COMPANY
FLD                     .            Volve                                  :FIELD
WELL                    .            15/9-F-11 T2                           :WELL
RUN                     .            7                                      :RUN
LOC                     .            Maersk Inspirer                        :LOCATION
PROV                    .            na                                     :PROVINCE
SRVC                    .            Baker Hughes INTEQ                     :SERVICE COMPANY
DATE                    .YY/MM/DD    13/05/04                               :LOG DATE
UWI                     .                                                   :UNIQUE WELL ID
DEPTHMD                 .m           4490.1                                 :MEASURED DEPTH
DEPTHTVD                .m           3328.5                                 :TRUE VERTICAL DEPTH


~CURVE INFORMATION
#MNEM                   .UNIT        API CODES                               DESCRIPTION
#________________________________________________________________________________________
TIME                    .s                                                  :01 TIME
DD_PRESS                .bar                                                :02 DRAW DOWN PRESSURE
DD_VOLUME               .cm3                                                :03 INCREMENTAL DRAW DOWN VOLUME
TEMP                    .degC                                               :04 TRANSDUCER TEMPERATURE
DD_PRESS_MOD_1000       .bar                                                :05 DRAW DOWN PRESSURE MOD 1000
DD_PRESS_MOD_100        .bar                                                :06 DRAW DOWN PRESSURE MOD 100
DD_PRESS_MOD_10         .bar                                                :07 DRAW DOWN PRESSURE MOD 10
DD_PRESS_MOD_1          .bar                                                :08 DRAW DOWN PRESSURE MOD 1
DD_PRESS_MOD_01         .bar                                                :09 DRAW DOWN PRESSURE MOD 01
DD_PRESS_MOD_001        .bar                                                :10 DRAW DOWN PRESSURE MOD 001
DD_PRESS_MOD_0001       .bar                                                :11 DRAW DOWN PRESSURE MOD 0001


~PARAMETER INFORMATION
#MNEM                   .UNIT        VALUE                                   DESCRIPTION
#________________________________________________________________________________________
TOOLFACE                .deg         na                                     :01 TOOLFACE
PUMP_CAPACITY           .bar         400                                    :02 NOMINAL DRAW DOWN PUMP CAPACITY
PUMP_LIMIT              .bar         240                                    :03 DOWNLINK PUMP LIMIT
TIME_LIMIT              .min         10                                     :04 DOWNLINK MAX TIME
TEST_TYPE               .            HIGH MOBILITY                          :05 DOWNLINK
DD_PIST_A               .cm2         3.1416                                 :06 DRAW DOWN PISTON AREA
V_SYS                   .cm3         131.0000                               :07 SYSTEM VOLUME
PROBE_ID                .cm          1.2700                                 :08 TTK PROBE ID
G0                      .            4.6700                                 :09 GEOMETRY FACTOR


~A                  TIME     DD_PRESS                              DD_VOLUME               TEMP                                   DD_PRESS_MOD_1000       DD_PRESS_MOD_100        DD_PRESS_MOD_10         DD_PRESS_MOD_1        DD_PRESS_MOD_01       DD_PRESS_MOD_001      DD_PRESS_MOD_0001
# ...
                  128.10    367.53578                               17.96449             97.242                                        3.67536e+002           6.75358e+001           7.53578e+000           5.35780e-001           3.57802e-002           5.78024e-003           7.80238e-004
                  128.20    367.53029                               17.96449             97.242                                        3.67530e+002           6.75303e+001           7.53029e+000           5.30293e-001           3.02935e-002           2.93493e-004           2.93493e-004
                  128.30    367.47282                               17.96449             97.242                                        3.67473e+002           6.74728e+001           7.47282e+000           4.72821e-001           7.28210e-002           2.82104e-003           8.21039e-004
                  128.40    367.42923                               17.96449             97.242                                        3.67429e+002           6.74292e+001           7.42923e+000           4.29234e-001           2.92340e-002           9.23397e-003           2.33971e-004
                  128.50    367.41796                               17.96449             97.242                                        3.67418e+002           6.74180e+001           7.41796e+000           4.17957e-001           1.79570e-002           7.95701e-003           9.57010e-004
                  128.60    367.42980                               17.96449             97.242                                        3.67430e+002           6.74298e+001           7.42980e+000           4.29801e-001           2.98013e-002           9.80132e-003           8.01319e-004
                  128.70    367.46310                               17.96449             97.242                                        3.67463e+002           6.74631e+001           7.46310e+000           4.63097e-001           6.30974e-002           3.09742e-003           9.74194e-005
                  128.80    367.51150                               17.96449             97.242                                        3.67511e+002           6.75115e+001           7.51150e+000           5.11495e-001           1.14952e-002           1.49524e-003           4.95237e-004
                  128.90    367.53601                               17.96449             97.242                                        3.67536e+002           6.75360e+001           7.53601e+000           5.36014e-001           3.60141e-002           6.01412e-003           1.41245e-005
                  129.00    367.50640                               17.96449             97.242                                        3.67506e+002           6.75064e+001           7.50640e+000           5.06397e-001           6.39717e-003           6.39717e-003           3.97174e-004
                  129.10    367.48744                               17.96449             97.242                                        3.67487e+002           6.74874e+001           7.48744e+000           4.87444e-001           8.74438e-002           7.44377e-003           4.43768e-004
                  129.20    367.49301                               17.96449             97.242                                        3.67493e+002           6.74930e+001           7.49301e+000           4.93006e-001           9.30058e-002           3.00584e-003           5.83917e-006
                  129.30    367.47426                               17.96449             97.242                                        3.67474e+002           6.74743e+001           7.47426e+000           4.74260e-001           7.42597e-002           4.25966e-003           2.59662e-004
                  129.40    367.44591                               17.96449             97.242                                        3.67446e+002           6.74459e+001           7.44591e+000           4.45914e-001           4.59138e-002           5.91382e-003           9.13822e-004
                  129.50    367.43622                               17.96449             97.242                                        3.67436e+002           6.74362e+001           7.43622e+000           4.36218e-001           3.62183e-002           6.21832e-003           2.18318e-004
                  129.60    367.45518                               17.96449             97.242                                        3.67455e+002           6.74552e+001           7.45518e+000           4.55182e-001           5.51816e-002           5.18156e-003           1.81563e-004
                  129.70    367.46818                               17.96449             97.242                                        3.67468e+002           6.74682e+001           7.46818e+000           4.68179e-001           6.81789e-002           8.17888e-003           1.78885e-004
                  129.80    367.45961                               17.96449             97.242                                        3.67460e+002           6.74596e+001           7.45961e+000           4.59610e-001           5.96099e-002           9.60990e-003           6.09898e-004
                  129.90    367.47697                               17.96449             97.242                                        3.67477e+002           6.74770e+001           7.47697e+000           4.76971e-001           7.69712e-002           6.97122e-003           9.71218e-004
                  130.00    367.52457                               17.96449             97.242                                        3.67525e+002           6.75246e+001           7.52457e+000           5.24573e-001           2.45729e-002           4.57295e-003           5.72946e-004
                  130.10    367.55634                               17.96449             97.242                                        3.67556e+002           6.75563e+001           7.55634e+000           5.56343e-001           5.63426e-002           6.34257e-003           3.42574e-004
                  130.20    367.52526                               17.96449             97.242                                        3.67525e+002           6.75253e+001           7.52526e+000           5.25256e-001           2.52559e-002           5.25586e-003           2.55862e-004
                  130.30    367.45121                               17.96449             97.242                                        3.67451e+002           6.74512e+001           7.45121e+000           4.51213e-001           5.12131e-002           1.21307e-003           2.13066e-004
                  130.40    367.43263                               17.96449             97.242                                        3.67433e+002           6.74326e+001           7.43263e+000           4.32635e-001           3.26345e-002           2.63451e-003           6.34508e-004
                  130.50    367.45059                               17.96449             97.242                                        3.67451e+002           6.74506e+001           7.45059e+000           4.50589e-001           5.05893e-002           5.89268e-004           5.89268e-004
                  130.60    367.44359                               17.96449             97.242                                        3.67444e+002           6.74436e+001           7.44359e+000           4.43589e-001           4.35892e-002           3.58921e-003           5.89212e-004
                  130.70    367.46312                               17.96449             97.242                                        3.67463e+002           6.74631e+001           7.46312e+000           4.63125e-001           6.31246e-002           3.12462e-003           1.24617e-004
                  130.80    367.52020                               17.96449             97.242                                        3.67520e+002           6.75202e+001           7.52020e+000           5.20198e-001           2.01984e-002           1.98414e-004           1.98414e-004
