~VERSION INFORMATION
VERS                    .            2.0                                    :CWLS LOG ASCII STANDARD
WRAP                    .            NO                                     :ONE LINE PER TIME STEP


~WELL INFORMATION
#MNEM                   .UNIT        DATA                                    DESCRIPTION
#________________________________________________________________________________________
STRTTIME                .HH/MM/SS    16:37:30                               :START TIME
STOPTIME                .HH/MM/SS    16:40:36                               :STOP TIME
STRT                    .s           2.10                                   :START DATA
STOP                    .s           184.70                                 :STOP DATA
STEP                    .s           0.10                                   :MEASUREMENT TIME INTERVAL
NULL                    .            -999.25                                :NULL VALUE
COMP                    .            Statoil ASA                            :COMPANY
FLD                     .            Volve                                  :FIELD
WELL                    .            15/9-F-1 B                             :WELL
RUN                     .            7                                      :RUN
LOC                     .            Maersk Inspirer                        :LOCATION
PROV                    .            na                                     :PROVINCE
SRVC                    .            Baker Hughes INTEQ                     :SERVICE COMPANY
DATE                    .YY/MM/DD    13/09/06                               :LOG DATE
UWI                     .                                                   :UNIQUE WELL ID
DEPTHMD                 .m           3247.0                                 :MEASURED DEPTH
DEPTHTVD                .m           3043.3                                 :TRUE VERTICAL DEPTH


~CURVE INFORMATION
#MNEM                   .UNIT        API CODES                               DESCRIPTION
#________________________________________________________________________________________
TIME                    .s                                                  :01 TIME
DD_PRESS                .bar                                                :02 DRAW DOWN PRESSURE
DD_VOLUME               .cm3                                                :03 INCREMENTAL DRAW DOWN VOLUME
TEMP                    .degC                                               :04 TRANSDUCER TEMPERATURE
DD_PRESS_MOD_1000       .bar                                                :05 DRAW DOWN PRESSURE MOD 1000
DD_PRESS_MOD_100        .bar                                                :06 DRAW DOWN PRESSURE MOD 100
DD_PRESS_MOD_10         .bar                                                :07 DRAW DOWN PRESSURE MOD 10
DD_PRESS_MOD_1          .bar                                                :08 DRAW DOWN PRESSURE MOD 1
DD_PRESS_MOD_01         .bar                                                :09 DRAW DOWN PRESSURE MOD 01
DD_PRESS_MOD_001        .bar                                                :10 DRAW DOWN PRESSURE MOD 001
DD_PRESS_MOD_0001       .bar                                                :11 DRAW DOWN PRESSURE MOD 0001


~PARAMETER INFORMATION
#MNEM                   .UNIT        VALUE                                   DESCRIPTION
#________________________________________________________________________________________
TOOLFACE                .deg         na                                     :01 TOOLFACE
PUMP_CAPACITY           .bar         400                                    :02 NOMINAL DRAW DOWN PUMP CAPACITY
PUMP_LIMIT              .bar         400                                    :03 DOWNLINK PUMP LIMIT
TIME_LIMIT              .min         10                                     :04 DOWNLINK MAX TIME
TEST_TYPE               .            LOW MOBILITY                           :05 DOWNLINK
DD_PIST_A               .cm2         3.1416                                 :06 DRAW DOWN PISTON AREA
V_SYS                   .cm3         131.0000                               :07 SYSTEM VOLUME
PROBE_ID                .cm          1.2700                                 :08 TTK PROBE ID
G0                      .            4.6700                                 :09 GEOMETRY FACTOR


~A                  TIME     DD_PRESS                              DD_VOLUME               TEMP                                   DD_PRESS_MOD_1000       DD_PRESS_MOD_100        DD_PRESS_MOD_10         DD_PRESS_MOD_1        DD_PRESS_MOD_01       DD_PRESS_MOD_001      DD_PRESS_MOD_0001
# ...
                  108.50    344.56582                               19.95717             81.523                                        3.44566e+002           4.45658e+001           4.56582e+000           5.65819e-001           6.58187e-002           5.81866e-003           8.18660e-004
                  108.60    344.56841                               19.95717             81.523                                        3.44568e+002           4.45684e+001           4.56841e+000           5.68408e-001           6.84078e-002           8.40777e-003           4.07770e-004
                  108.70    344.55256                               19.95717             81.523                                        3.44553e+002           4.45526e+001           4.55256e+000           5.52560e-001           5.25596e-002           2.55960e-003           5.59605e-004
                  108.80    344.54990                               19.95717             81.523                                        3.44550e+002           4.45499e+001           4.54990e+000           5.49904e-001           4.99038e-002           9.90381e-003           9.03813e-004
                  108.90    344.57466                               19.95717             81.523                                        3.44575e+002           4.45747e+001           4.57466e+000           5.74660e-001           7.46601e-002           4.66008e-003           6.60082e-004
                  109.00    344.58101                               19.95717             81.523                                        3.44581e+002           4.45810e+001           4.58101e+000           5.81013e-001           8.10134e-002           1.01339e-003           1.33918e-005
                  109.10    344.55751                               19.95717             81.523                                        3.44558e+002           4.45575e+001           4.55751e+000           5.57510e-001           5.75104e-002           7.51043e-003           5.10425e-004
                  109.20    344.54034                               19.95717             81.523                                        3.44540e+002           4.45403e+001           4.54034e+000           5.40339e-001           4.03388e-002           3.38793e-004           3.38793e-004
                  109.30    344.55753                               19.95717             81.523                                        3.44558e+002           4.45575e+001           4.55753e+000           5.57530e-001           5.75298e-002           7.52984e-003           5.29841e-004
                  109.40    344.58075                               19.95717             81.523                                        3.44581e+002           4.45807e+001           4.58075e+000           5.80750e-001           8.07499e-002           7.49858e-004           7.49858e-004
                  109.50    344.56609                               19.95717             81.523                                        3.44566e+002           4.45661e+001           4.56609e+000           5.66089e-001           6.60887e-002           6.08874e-003           8.87395e-005
                  109.60    344.54126                               19.95717             81.523                                        3.44541e+002           4.45413e+001           4.54126e+000           5.41256e-001           4.12557e-002           1.25572e-003           2.55716e-004
                  109.70    344.54738                               19.95717             81.523                                        3.44547e+002           4.45474e+001           4.54738e+000           5.47378e-001           4.73779e-002           7.37787e-003           3.77868e-004
                  109.80    344.56426                               19.95717             81.523                                        3.44564e+002           4.45643e+001           4.56426e+000           5.64258e-001           6.42577e-002           4.25766e-003           2.57657e-004
                  109.90    344.56084                               19.95717             81.523                                        3.44561e+002           4.45608e+001           4.56084e+000           5.60835e-001           6.08352e-002           8.35230e-004           8.35230e-004
                  110.00    344.55626                               19.95717             81.523                                        3.44556e+002           4.45563e+001           4.55626e+000           5.56263e-001           5.62630e-002           6.26296e-003           2.62961e-004
                  110.10    344.56552                               19.95717             81.523                                        3.44566e+002           4.45655e+001           4.56552e+000           5.65517e-001           6.55172e-002           5.51721e-003           5.17215e-004
                  110.20    344.57213                               19.95717             81.523                                        3.44572e+002           4.45721e+001           4.57213e+000           5.72126e-001           7.21263e-002           2.12625e-003           1.26254e-004
                  110.30    344.56416                               19.95717             81.523                                        3.44564e+002           4.45642e+001           4.56416e+000           5.64158e-001           6.41576e-002           4.15758e-003           1.57576e-004
                  110.40    344.55256                               19.95717             81.523                                        3.44553e+002           4.45526e+001           4.55256e+000           5.52562e-001           5.25624e-002           2.56236e-003           5.62362e-004
                  110.50    344.55450                               19.95717             81.523                                        3.44555e+002           4.45545e+001           4.55450e+000           5.54500e-001           5.45001e-002           4.50014e-003           5.00145e-004
                  110.60    344.55931                               19.95717             81.523                                        3.44559e+002           4.45593e+001           4.55931e+000           5.59305e-001           5.93051e-002           9.30513e-003           3.05130e-004
                  110.70    344.55646                               19.95717             81.523                                        3.44556e+002           4.45565e+001           4.55646e+000           5.56458e-001           5.64581e-002           6.45810e-003           4.58096e-004
                  110.80    344.56229                               19.95717             81.523                                        3.44562e+002           4.45623e+001           4.56229e+000           5.62294e-001           6.22942e-002           2.29420e-003           2.94199e-004
                  110.90    344.57629                               19.95717             81.523                                        3.44576e+002           4.45763e+001           4.57629e+000           5.76291e-001           7.62906e-002           6.29061e-003           2.90614e-004
                  111.00    344.57318                               19.95717             81.523                                        3.44573e+002           4.45732e+001           4.57318e+000           5.73181e-001           7.31806e-002           3.18060e-003           1.80597e-004
                  111.10    344.55227                               19.95717             81.523                                        3.44552e+002           4.45523e+001           4.55227e+000           5.52273e-001           5.22729e-002           2.27293e-003           2.72925e-004
                  111.20    344.54527                               19.95717             81.523                                        3.44545e+002           4.45453e+001           4.54527e+000           5.45266e-001           4.52665e-002           5.26647e-003           2.66473e-004
