~VERSION INFORMATION
VERS                    .            2.0                                    :CWLS LOG ASCII STANDARD
WRAP                    .            NO                                     :ONE LINE PER TIME STEP


~WELL INFORMATION
#MNEM                   .UNIT        DATA                                    DESCRIPTION
#________________________________________________________________________________________
STRTTIME                .HH/MM/SS    18:24:11                               :START TIME
STOPTIME                .HH/MM/SS    18:26:54                               :STOP TIME
STRT                    .s           2.10                                   :START DATA
STOP                    .s           161.30                                 :STOP DATA
STEP                    .s           0.10                                   :MEASUREMENT TIME INTERVAL
NULL                    .            -999.25                                :NULL VALUE
COMP                    .            Statoil ASA                            :COMPANY
FLD                     .            Volve                                  :FIELD
WELL                    .            15/9-F-11 A                            :WELL
RUN                     .            8                                      :RUN
LOC                     .            Maersk Inspirer                        :LOCATION
PROV                    .            na                                     :PROVINCE
SRVC                    .            Baker Hughes INTEQ                     :SERVICE COMPANY
DATE                    .YY/MM/DD    13/05/23                               :LOG DATE
UWI                     .                                                   :UNIQUE WELL ID
DEPTHMD                 .m           3681.0                                 :MEASURED DEPTH
DEPTHTVD                .m           3064.4                                 :TRUE VERTICAL DEPTH


~CURVE INFORMATION
#MNEM                   .UNIT        API CODES                               DESCRIPTION
#________________________________________________________________________________________
TIME                    .s                                                  :01 TIME
DD_PRESS                .bar                                                :02 DRAW DOWN PRESSURE
DD_VOLUME               .cm3                                                :03 INCREMENTAL DRAW DOWN VOLUME
TEMP                    .degC                                               :04 TRANSDUCER TEMPERATURE
DD_PRESS_MOD_1000       .bar                                                :05 DRAW DOWN PRESSURE MOD 1000
DD_PRESS_MOD_100        .bar                                                :06 DRAW DOWN PRESSURE MOD 100
DD_PRESS_MOD_10         .bar                                                :07 DRAW DOWN PRESSURE MOD 10
DD_PRESS_MOD_1          .bar                                                :08 DRAW DOWN PRESSURE MOD 1
DD_PRESS_MOD_01         .bar                                                :09 DRAW DOWN PRESSURE MOD 01
DD_PRESS_MOD_001        .bar                                                :10 DRAW DOWN PRESSURE MOD 001
DD_PRESS_MOD_0001       .bar                                                :11 DRAW DOWN PRESSURE MOD 0001


~PARAMETER INFORMATION
#MNEM                   .UNIT        VALUE                                   DESCRIPTION
#________________________________________________________________________________________
TOOLFACE                .deg         -38.1                                  :01 TOOLFACE
PUMP_CAPACITY           .bar         400                                    :02 NOMINAL DRAW DOWN PUMP CAPACITY
PUMP_LIMIT              .bar         240                                    :03 DOWNLINK PUMP LIMIT
TIME_LIMIT              .min         10                                     :04 DOWNLINK MAX TIME
TEST_TYPE               .            HIGH MOBILITY                          :05 DOWNLINK
DD_PIST_A               .cm2         3.1416                                 :06 DRAW DOWN PISTON AREA
V_SYS                   .cm3         131.0000                               :07 SYSTEM VOLUME
PROBE_ID                .cm          1.2700                                 :08 TTK PROBE ID
G0                      .            4.6700                                 :09 GEOMETRY FACTOR


~A                  TIME     DD_PRESS                              DD_VOLUME               TEMP                                   DD_PRESS_MOD_1000       DD_PRESS_MOD_100        DD_PRESS_MOD_10         DD_PRESS_MOD_1        DD_PRESS_MOD_01       DD_PRESS_MOD_001      DD_PRESS_MOD_0001
# ...
                  158.90    426.65009                                0.00000             75.063                                        4.26650e+002           2.66501e+001           6.65009e+000           6.50093e-001           5.00930e-002           9.30279e-005           9.30279e-005
                  159.00    426.64370                                0.00000             75.063                                        4.26644e+002           2.66437e+001           6.64370e+000           6.43702e-001           4.37016e-002           3.70162e-003           7.01623e-004
                  159.10    426.63424                                0.00000             75.063                                        4.26634e+002           2.66342e+001           6.63424e+000           6.34235e-001           3.42354e-002           4.23543e-003           2.35432e-004
                  159.20    426.62840                                0.00000             75.063                                        4.26628e+002           2.66284e+001           6.62840e+000           6.28396e-001           2.83957e-002           8.39574e-003           3.95737e-004
                  159.30    426.61907                                0.00000             75.063                                        4.26619e+002           2.66191e+001           6.61907e+000           6.19074e-001           1.90740e-002           9.07404e-003           7.40418e-005
                  159.40    426.62763                                0.00000             75.063                                        4.26628e+002           2.66276e+001           6.62763e+000           6.27629e-001           2.76287e-002           7.62874e-003           6.28743e-004
                  159.50    426.63871                                0.00000             75.063                                        4.26639e+002           2.66387e+001           6.63871e+000           6.38714e-001           3.87141e-002           8.71410e-003           7.14103e-004
                  159.60    426.64969                                0.00000             75.060                                        4.26650e+002           2.66497e+001           6.64969e+000           6.49688e-001           4.96885e-002           9.68846e-003           6.88461e-004
                  159.70    426.65149                                0.00000             75.057                                        4.26651e+002           2.66515e+001           6.65149e+000           6.51489e-001           5.14893e-002           1.48929e-003           4.89288e-004
                  159.80    426.65165                                0.00000             75.055                                        4.26652e+002           2.66517e+001           6.65165e+000           6.51654e-001           5.16535e-002           1.65353e-003           6.53530e-004
                  159.90    426.65657                                0.00000             75.055                                        4.26657e+002           2.66566e+001           6.65657e+000           6.56568e-001           5.65676e-002           6.56756e-003           5.67556e-004
                  160.00    426.66763                                0.00000             75.055                                        4.26668e+002           2.66676e+001           6.66763e+000           6.67634e-001           6.76337e-002           7.63366e-003           6.33659e-004
                  160.10    426.66793                                0.00000             75.055                                        4.26668e+002           2.66679e+001           6.66793e+000           6.67932e-001           6.79315e-002           7.93152e-003           9.31521e-004
                  160.20    426.66314                                0.00000             75.055                                        4.26663e+002           2.66631e+001           6.66314e+000           6.63136e-001           6.31361e-002           3.13614e-003           1.36137e-004
                  160.30    426.66708                                0.00000             75.055                                        4.26667e+002           2.66671e+001           6.66708e+000           6.67083e-001           6.70830e-002           7.08302e-003           8.30213e-005
                  160.40    426.67009                                0.00000             75.055                                        4.26670e+002           2.66701e+001           6.67009e+000           6.70087e-001           7.00871e-002           8.71398e-005           8.71398e-005
                  160.50    426.66588                                0.00000             75.055                                        4.26666e+002           2.66659e+001           6.66588e+000           6.65875e-001           6.58750e-002           5.87504e-003           8.75042e-004
                  160.60    426.66061                                0.00000             75.055                                        4.26661e+002           2.66606e+001           6.66061e+000           6.60608e-001           6.06081e-002           6.08077e-004           6.08077e-004
                  160.70    426.66424                                0.00000             75.055                                        4.26664e+002           2.66642e+001           6.66424e+000           6.64244e-001           6.42437e-002           4.24370e-003           2.43699e-004
                  160.80    426.65851                                0.00000             75.055                                        4.26659e+002           2.66585e+001           6.65851e+000           6.58512e-001           5.85121e-002           8.51209e-003           5.12094e-004
                  160.90    426.65011                                0.00000             75.055                                        4.26650e+002           2.66501e+001           6.65011e+000           6.50109e-001           5.01088e-002           1.08790e-004           1.08790e-004
                  161.00    426.66256                                0.00000             75.055                                        4.26663e+002           2.66626e+001           6.66256e+000           6.62562e-001           6.25619e-002           2.56192e-003           5.61921e-004
                  161.10    426.67394                                0.00000             75.055                                        4.26674e+002           2.66739e+001           6.67394e+000           6.73938e-001           7.39380e-002           3.93801e-003           9.38014e-004
                  161.20    426.66302                                0.00000             75.055                                        4.26663e+002           2.66630e+001           6.66302e+000           6.63018e-001           6.30184e-002           3.01836e-003           1.83560e-005
                  161.30    426.63312                                0.00000             75.055                                        4.26633e+002           2.66331e+001           6.63312e+000           6.33117e-001           3.31170e-002           3.11705e-003           1.17046e-004
