~VERSION INFORMATION
VERS                    .            2.0                                    :CWLS LOG ASCII STANDARD
WRAP                    .            NO                                     :ONE LINE PER TIME STEP


~WELL INFORMATION
#MNEM                   .UNIT        DATA                                    DESCRIPTION
#________________________________________________________________________________________
STRTTIME                .HH/MM/SS    02:14:19                               :START TIME
STOPTIME                .HH/MM/SS    02:17:23                               :STOP TIME
STRT                    .s           2.10                                   :START DATA
STOP                    .s           182.70                                 :STOP DATA
STEP                    .s           0.10                                   :MEASUREMENT TIME INTERVAL
NULL                    .            -999.25                                :NULL VALUE
COMP                    .            Statoil ASA                            :COMPANY
FLD                     .            Volve                                  :FIELD
WELL                    .            15/9-F-1 C                             :WELL
RUN                     .            4                                      :RUN
LOC                     .                                                   :LOCATION
PROV                    .            na                                     :PROVINCE
SRVC                    .            Baker Hughes INTEQ                     :SERVICE COMPANY
DATE                    .YY/MM/DD    14/03/15                               :LOG DATE
UWI                     .                                                   :UNIQUE WELL ID
DEPTHMD                 .m           3603.0                                 :MEASURED DEPTH
DEPTHTVD                .m           3006.7                                 :TRUE VERTICAL DEPTH


~CURVE INFORMATION
#MNEM                   .UNIT        API CODES                               DESCRIPTION
#________________________________________________________________________________________
TIME                    .s                                                  :01 TIME
DD_PRESS                .bar                                                :02 DRAW DOWN PRESSURE
DD_VOLUME               .cm3                                                :03 INCREMENTAL DRAW DOWN VOLUME
TEMP                    .degC                                               :04 TRANSDUCER TEMPERATURE
DD_PRESS_MOD_1000       .bar                                                :05 DRAW DOWN PRESSURE MOD 1000
DD_PRESS_MOD_100        .bar                                                :06 DRAW DOWN PRESSURE MOD 100
DD_PRESS_MOD_10         .bar                                                :07 DRAW DOWN PRESSURE MOD 10
DD_PRESS_MOD_1          .bar                                                :08 DRAW DOWN PRESSURE MOD 1
DD_PRESS_MOD_01         .bar                                                :09 DRAW DOWN PRESSURE MOD 01
DD_PRESS_MOD_001        .bar                                                :10 DRAW DOWN PRESSURE MOD 001
DD_PRESS_MOD_0001       .bar                                                :11 DRAW DOWN PRESSURE MOD 0001


~PARAMETER INFORMATION
#MNEM                   .UNIT        VALUE                                   DESCRIPTION
#________________________________________________________________________________________
TOOLFACE                .deg         109.6                                  :01 TOOLFACE
PUMP_CAPACITY           .bar         400                                    :02 NOMINAL DRAW DOWN PUMP CAPACITY
PUMP_LIMIT              .bar         240                                    :03 DOWNLINK PUMP LIMIT
TIME_LIMIT              .min         10                                     :04 DOWNLINK MAX TIME
TEST_TYPE               .            REPEAT                                 :05 DOWNLINK
TEST_TYPE               .            HIGH MOBILITY                          :06 DOWNLINK
DD_PIST_A               .cm2         3.1416                                 :07 DRAW DOWN PISTON AREA
V_SYS                   .cm3         131.0000                               :08 SYSTEM VOLUME
PROBE_ID                .cm          1.2700                                 :09 TTK PROBE ID
G0                      .            4.6700                                 :10 GEOMETRY FACTOR


~A                  TIME     DD_PRESS                              DD_VOLUME               TEMP                                   DD_PRESS_MOD_1000       DD_PRESS_MOD_100        DD_PRESS_MOD_10         DD_PRESS_MOD_1        DD_PRESS_MOD_01       DD_PRESS_MOD_001      DD_PRESS_MOD_0001
# ...
                  133.70    345.38032                               29.46609             86.047                                        3.45380e+002           4.53803e+001           5.38032e+000           3.80323e-001           8.03227e-002           3.22726e-004           3.22726e-004
                  133.80    345.38406                               29.46609             86.047                                        3.45384e+002           4.53841e+001           5.38406e+000           3.84056e-001           8.40563e-002           4.05634e-003           5.63438e-005
                  133.90    345.38114                               29.46609             86.047                                        3.45381e+002           4.53811e+001           5.38114e+000           3.81139e-001           8.11386e-002           1.13861e-003           1.38611e-004
                  134.00    345.37567                               29.46609             86.047                                        3.45376e+002           4.53757e+001           5.37567e+000           3.75673e-001           7.56728e-002           5.67285e-003           6.72847e-004
                  134.10    345.37725                               29.46609             86.047                                        3.45377e+002           4.53773e+001           5.37725e+000           3.77251e-001           7.72510e-002           7.25097e-003           2.50966e-004
                  134.20    345.38124                               29.46609             86.047                                        3.45381e+002           4.53812e+001           5.38124e+000           3.81244e-001           8.12437e-002           1.24366e-003           2.43663e-004
                  134.30    345.38309                               29.46609             86.047                                        3.45383e+002           4.53831e+001           5.38309e+000           3.83089e-001           8.30886e-002           3.08857e-003           8.85712e-005
                  134.40    345.37874                               29.46609             86.047                                        3.45379e+002           4.53787e+001           5.37874e+000           3.78744e-001           7.87438e-002           8.74377e-003           7.43765e-004
                  134.50    345.37546                               29.46609             86.047                                        3.45375e+002           4.53755e+001           5.37546e+000           3.75458e-001           7.54581e-002           5.45806e-003           4.58061e-004
                  134.60    345.37749                               29.46609             86.047                                        3.45377e+002           4.53775e+001           5.37749e+000           3.77486e-001           7.74862e-002           7.48621e-003           4.86208e-004
                  134.70    345.38007                               29.46609             86.047                                        3.45380e+002           4.53801e+001           5.38007e+000           3.80067e-001           8.00668e-002           6.68164e-005           6.68164e-005
                  134.80    345.37982                               29.46609             86.047                                        3.45380e+002           4.53798e+001           5.37982e+000           3.79816e-001           7.98158e-002           9.81583e-003           8.15834e-004
                  134.90    345.37597                               29.46609             86.047                                        3.45376e+002           4.53760e+001           5.37597e+000           3.75969e-001           7.59691e-002           5.96913e-003           9.69129e-004
                  135.00    345.37519                               29.46609             86.045                                        3.45375e+002           4.53752e+001           5.37519e+000           3.75191e-001           7.51915e-002           5.19146e-003           1.91459e-004
                  135.10    345.37921                               29.46609             86.043                                        3.45379e+002           4.53792e+001           5.37921e+000           3.79209e-001           7.92088e-002           9.20881e-003           2.08807e-004
                  135.20    345.38060                               29.46609             86.043                                        3.45381e+002           4.53806e+001           5.38060e+000           3.80598e-001           8.05984e-002           5.98398e-004           5.98398e-004
                  135.30    345.37957                               29.46609             86.041                                        3.45380e+002           4.53796e+001           5.37957e+000           3.79568e-001           7.95678e-002           9.56779e-003           5.67785e-004
                  135.40    345.38003                               29.46609             86.039                                        3.45380e+002           4.53800e+001           5.38003e+000           3.80031e-001           8.00315e-002           3.14528e-005           3.14528e-005
                  135.50    345.38286                               29.46609             86.039                                        3.45383e+002           4.53829e+001           5.38286e+000           3.82858e-001           8.28578e-002           2.85784e-003           8.57838e-004
                  135.60    345.38124                               29.46609             86.039                                        3.45381e+002           4.53812e+001           5.38124e+000           3.81239e-001           8.12394e-002           1.23944e-003           2.39439e-004
                  135.70    345.37840                               29.46609             86.039                                        3.45378e+002           4.53784e+001           5.37840e+000           3.78399e-001           7.83986e-002           8.39856e-003           3.98556e-004
                  135.80    345.37954                               29.46609             86.039                                        3.45380e+002           4.53795e+001           5.37954e+000           3.79539e-001           7.95395e-002           9.53947e-003           5.39471e-004
                  135.90    345.37894                               29.46609             86.039                                        3.45379e+002           4.53789e+001           5.37894e+000           3.78940e-001           7.89402e-002           8.94016e-003           9.40162e-004
                  136.00    345.37617                               29.46609             86.039                                        3.45376e+002           4.53762e+001           5.37617e+000           3.76174e-001           7.61738e-002           6.17385e-003           1.73848e-004
                  136.10    345.37601                               29.46609             86.039                                        3.45376e+002           4.53760e+001           5.37601e+000           3.76013e-001           7.60126e-002           6.01261e-003           1.26087e-005
                  136.20    345.37859                               29.46609             86.039                                        3.45379e+002           4.53786e+001           5.37859e+000           3.78592e-001           7.85925e-002           8.59248e-003           5.92480e-004
                  136.30    345.38179                               29.46609             86.039                                        3.45382e+002           4.53818e+001           5.38179e+000           3.81793e-001           8.17926e-002           1.79256e-003           7.92563e-004
                  136.40    345.38215                               29.46609             86.039                                        3.45382e+002           4.53822e+001           5.38215e+000           3.82153e-001           8.21530e-002           2.15298e-003           1.52978e-004
