~VERSION INFORMATION
VERS                    .            2.0                                    :CWLS LOG ASCII STANDARD
WRAP                    .            NO                                     :ONE LINE PER TIME STEP


~WELL INFORMATION
#MNEM                   .UNIT        DATA                                    DESCRIPTION
#________________________________________________________________________________________
STRTTIME                .HH/MM/SS    18:24:11                               :START TIME
STOPTIME                .HH/MM/SS    18:26:54                               :STOP TIME
STRT                    .s           2.10                                   :START DATA
STOP                    .s           161.30                                 :STOP DATA
STEP                    .s           0.10                                   :MEASUREMENT TIME INTERVAL
NULL                    .            -999.25                                :NULL VALUE
COMP                    .            Statoil ASA                            :COMPANY
FLD                     .            Volve                                  :FIELD
WELL                    .            15/9-F-11 A                            :WELL
RUN                     .            8                                      :RUN
LOC                     .            Maersk Inspirer                        :LOCATION
PROV                    .            na                                     :PROVINCE
SRVC                    .            Baker Hughes INTEQ                     :SERVICE COMPANY
DATE                    .YY/MM/DD    13/05/23                               :LOG DATE
UWI                     .                                                   :UNIQUE WELL ID
DEPTHMD                 .m           3681.0                                 :MEASURED DEPTH
DEPTHTVD                .m           3064.4                                 :TRUE VERTICAL DEPTH


~CURVE INFORMATION
#MNEM                   .UNIT        API CODES                               DESCRIPTION
#________________________________________________________________________________________
TIME                    .s                                                  :01 TIME
DD_PRESS                .bar                                                :02 DRAW DOWN PRESSURE
DD_VOLUME               .cm3                                                :03 INCREMENTAL DRAW DOWN VOLUME
TEMP                    .degC                                               :04 TRANSDUCER TEMPERATURE
DD_PRESS_MOD_1000       .bar                                                :05 DRAW DOWN PRESSURE MOD 1000
DD_PRESS_MOD_100        .bar                                                :06 DRAW DOWN PRESSURE MOD 100
DD_PRESS_MOD_10         .bar                                                :07 DRAW DOWN PRESSURE MOD 10
DD_PRESS_MOD_1          .bar                                                :08 DRAW DOWN PRESSURE MOD 1
DD_PRESS_MOD_01         .bar                                                :09 DRAW DOWN PRESSURE MOD 01
DD_PRESS_MOD_001        .bar                                                :10 DRAW DOWN PRESSURE MOD 001
DD_PRESS_MOD_0001       .bar                                                :11 DRAW DOWN PRESSURE MOD 0001


~PARAMETER INFORMATION
#MNEM                   .UNIT        VALUE                                   DESCRIPTION
#________________________________________________________________________________________
TOOLFACE                .deg         -38.1                                  :01 TOOLFACE
PUMP_CAPACITY           .bar         400                                    :02 NOMINAL DRAW DOWN PUMP CAPACITY
PUMP_LIMIT              .bar         240                                    :03 DOWNLINK PUMP LIMIT
TIME_LIMIT              .min         10                                     :04 DOWNLINK MAX TIME
TEST_TYPE               .            HIGH MOBILITY                          :05 DOWNLINK
DD_PIST_A               .cm2         3.1416                                 :06 DRAW DOWN PISTON AREA
V_SYS                   .cm3         131.0000                               :07 SYSTEM VOLUME
PROBE_ID                .cm          1.2700                                 :08 TTK PROBE ID
G0                      .            4.6700                                 :09 GEOMETRY FACTOR


~A                  TIME     DD_PRESS                              DD_VOLUME               TEMP                                   DD_PRESS_MOD_1000       DD_PRESS_MOD_100        DD_PRESS_MOD_10         DD_PRESS_MOD_1        DD_PRESS_MOD_01       DD_PRESS_MOD_001      DD_PRESS_MOD_0001
# ...
                  139.30    426.44506                                0.00000             75.063                                        4.26445e+002           2.64451e+001           6.44506e+000           4.45057e-001           4.50568e-002           5.05680e-003           5.67981e-005
                  139.40    426.45649                                0.00000             75.063                                        4.26456e+002           2.64565e+001           6.45649e+000           4.56492e-001           5.64918e-002           6.49182e-003           4.91819e-004
                  139.50    426.48509                                0.00000             75.063                                        4.26485e+002           2.64851e+001           6.48509e+000           4.85085e-001           8.50851e-002           5.08505e-003           8.50503e-005
                  139.60    426.50075                                0.00000             75.063                                        4.26501e+002           2.65007e+001           6.50075e+000           5.00746e-001           7.45930e-004           7.45930e-004           7.45930e-004
                  139.70    426.51303                                0.00000             75.063                                        4.26513e+002           2.65130e+001           6.51303e+000           5.13026e-001           1.30260e-002           3.02598e-003           2.59828e-005
                  139.80    426.51859                                0.00000             75.063                                        4.26519e+002           2.65186e+001           6.51859e+000           5.18587e-001           1.85865e-002           8.58653e-003           5.86535e-004
                  139.90    426.52749                                0.00000             75.063                                        4.26527e+002           2.65275e+001           6.52749e+000           5.27489e-001           2.74888e-002           7.48880e-003           4.88801e-004
                  140.00    426.53566                                0.00000             75.065                                        4.26536e+002           2.65357e+001           6.53566e+000           5.35663e-001           3.56627e-002           5.66267e-003           6.62667e-004
                  140.10    426.55438                                0.00000             75.068                                        4.26554e+002           2.65544e+001           6.55438e+000           5.54385e-001           5.43849e-002           4.38486e-003           3.84855e-004
                  140.20    426.55363                                0.00000             75.070                                        4.26554e+002           2.65536e+001           6.55363e+000           5.53628e-001           5.36281e-002           3.62806e-003           6.28063e-004
                  140.30    426.55837                                0.00000             75.070                                        4.26558e+002           2.65584e+001           6.55837e+000           5.58372e-001           5.83718e-002           8.37185e-003           3.71846e-004
                  140.40    426.57016                                0.00000             75.070                                        4.26570e+002           2.65702e+001           6.57016e+000           5.70165e-001           7.01647e-002           1.64658e-004           1.64658e-004
                  140.50    426.56479                                0.00000             75.070                                        4.26565e+002           2.65648e+001           6.56479e+000           5.64793e-001           6.47932e-002           4.79321e-003           7.93208e-004
                  140.60    426.55647                                0.00000             75.070                                        4.26556e+002           2.65565e+001           6.55647e+000           5.56473e-001           5.64734e-002           6.47343e-003           4.73428e-004
                  140.70    426.57575                                0.00000             75.070                                        4.26576e+002           2.65757e+001           6.57575e+000           5.75748e-001           7.57479e-002           5.74788e-003           7.47876e-004
                  140.80    426.60037                                0.00000             75.070                                        4.26600e+002           2.66004e+001           6.60037e+000           6.00370e-001           3.70436e-004           3.70436e-004           3.70436e-004
                  140.90    426.60246                                0.00000             75.070                                        4.26602e+002           2.66025e+001           6.60246e+000           6.02461e-001           2.46138e-003           2.46138e-003           4.61382e-004
                  141.00    426.59382                                0.00000             75.070                                        4.26594e+002           2.65938e+001           6.59382e+000           5.93824e-001           9.38244e-002           3.82439e-003           8.24385e-004
                  141.10    426.58494                                0.00000             75.070                                        4.26585e+002           2.65849e+001           6.58494e+000           5.84937e-001           8.49366e-002           4.93665e-003           9.36650e-004
                  141.20    426.60162                                0.00000             75.070                                        4.26602e+002           2.66016e+001           6.60162e+000           6.01623e-001           1.62318e-003           1.62318e-003           6.23177e-004
                  141.30    426.60477                                0.00000             75.070                                        4.26605e+002           2.66048e+001           6.60477e+000           6.04769e-001           4.76859e-003           4.76859e-003           7.68588e-004
                  141.40    426.58903                                0.00000             75.070                                        4.26589e+002           2.65890e+001           6.58903e+000           5.89028e-001           8.90278e-002           9.02777e-003           2.77689e-005
                  141.50    426.58780                                0.00000             75.070                                        4.26588e+002           2.65878e+001           6.58780e+000           5.87799e-001           8.77987e-002           7.79868e-003           7.98678e-004
                  141.60    426.61319                                0.00000             75.070                                        4.26613e+002           2.66132e+001           6.61319e+000           6.13189e-001           1.31891e-002           3.18911e-003           1.89110e-004
                  141.70    426.62211                                0.00000             75.070                                        4.26622e+002           2.66221e+001           6.62211e+000           6.22108e-001           2.21084e-002           2.10845e-003           1.08445e-004
                  141.80    426.60313                                0.00000             75.070                                        4.26603e+002           2.66031e+001           6.60313e+000           6.03129e-001           3.12897e-003           3.12897e-003           1.28967e-004
                  141.90    426.60620                                0.00000             75.070                                        4.26606e+002           2.66062e+001           6.60620e+000           6.06199e-001           6.19927e-003           6.19927e-003           1.99267e-004
                  142.00    426.62350                                0.00000             75.070                                        4.26624e+002           2.66235e+001           6.62350e+000           6.23502e-001           2.35020e-002           3.50202e-003           5.02019e-004
