~VERSION INFORMATION
VERS                    .            2.0                                    :CWLS LOG ASCII STANDARD
WRAP                    .            NO                                     :ONE LINE PER TIME STEP


~WELL INFORMATION
#MNEM                   .UNIT        DATA                                    DESCRIPTION
#________________________________________________________________________________________
STRTTIME                .HH/MM/SS    10:02:47                               :START TIME
STOPTIME                .HH/MM/SS    10:07:04                               :STOP TIME
STRT                    .s           2.10                                   :START DATA
STOP                    .s           255.20                                 :STOP DATA
STEP                    .s           0.10                                   :MEASUREMENT TIME INTERVAL
NULL                    .            -999.25                                :NULL VALUE
COMP                    .            Statoil ASA                            :COMPANY
FLD                     .            Volve                                  :FIELD
WELL                    .            15/9-F-11 A                            :WELL
RUN                     .            8                                      :RUN
LOC                     .            Maersk Inspirer                        :LOCATION
PROV                    .            na                                     :PROVINCE
SRVC                    .            Baker Hughes INTEQ                     :SERVICE COMPANY
DATE                    .YY/MM/DD    13/05/21                               :LOG DATE
UWI                     .                                                   :UNIQUE WELL ID
DEPTHMD                 .m           3657.3                                 :MEASURED DEPTH
DEPTHTVD                .m           3046.2                                 :TRUE VERTICAL DEPTH


~CURVE INFORMATION
#MNEM                   .UNIT        API CODES                               DESCRIPTION
#________________________________________________________________________________________
TIME                    .s                                                  :01 TIME
DD_PRESS                .bar                                                :02 DRAW DOWN PRESSURE
DD_VOLUME               .cm3                                                :03 INCREMENTAL DRAW DOWN VOLUME
TEMP                    .degC                                               :04 TRANSDUCER TEMPERATURE
DD_PRESS_MOD_1000       .bar                                                :05 DRAW DOWN PRESSURE MOD 1000
DD_PRESS_MOD_100        .bar                                                :06 DRAW DOWN PRESSURE MOD 100
DD_PRESS_MOD_10         .bar                                                :07 DRAW DOWN PRESSURE MOD 10
DD_PRESS_MOD_1          .bar                                                :08 DRAW DOWN PRESSURE MOD 1
DD_PRESS_MOD_01         .bar                                                :09 DRAW DOWN PRESSURE MOD 01
DD_PRESS_MOD_001        .bar                                                :10 DRAW DOWN PRESSURE MOD 001
DD_PRESS_MOD_0001       .bar                                                :11 DRAW DOWN PRESSURE MOD 0001


~PARAMETER INFORMATION
#MNEM                   .UNIT        VALUE                                   DESCRIPTION
#________________________________________________________________________________________
TOOLFACE                .deg         60.1                                   :01 TOOLFACE
PUMP_CAPACITY           .bar         400                                    :02 NOMINAL DRAW DOWN PUMP CAPACITY
PUMP_LIMIT              .bar         240                                    :03 DOWNLINK PUMP LIMIT
TIME_LIMIT              .min         10                                     :04 DOWNLINK MAX TIME
TEST_TYPE               .            REPEAT                                 :05 DOWNLINK
TEST_TYPE               .            HIGH MOBILITY                          :06 DOWNLINK
DD_PIST_A               .cm2         3.1416                                 :07 DRAW DOWN PISTON AREA
V_SYS                   .cm3         131.0000                               :08 SYSTEM VOLUME
PROBE_ID                .cm          1.2700                                 :09 TTK PROBE ID
G0                      .            4.6700                                 :10 GEOMETRY FACTOR


~A                  TIME     DD_PRESS                              DD_VOLUME               TEMP                                   DD_PRESS_MOD_1000       DD_PRESS_MOD_100        DD_PRESS_MOD_10         DD_PRESS_MOD_1        DD_PRESS_MOD_01       DD_PRESS_MOD_001      DD_PRESS_MOD_0001
# ...
                   35.70    267.03916                                8.85578             82.148                                        2.67039e+002           6.70392e+001           7.03916e+000           3.91559e-002           3.91559e-002           9.15591e-003           1.55907e-004
                   35.80    267.88461                                8.93333             82.148                                        2.67885e+002           6.78846e+001           7.88461e+000           8.84609e-001           8.46091e-002           4.60907e-003           6.09066e-004
                   35.90    268.76793                                9.00962             82.148                                        2.68768e+002           6.87679e+001           8.76793e+000           7.67932e-001           6.79320e-002           7.93203e-003           9.32034e-004
                   36.00    269.66947                                9.08454             82.148                                        2.69669e+002           6.96695e+001           9.66947e+000           6.69470e-001           6.94702e-002           9.47018e-003           4.70179e-004
                   36.10    270.59500                                9.15806             82.148                                        2.70595e+002           7.05950e+001           5.94999e-001           5.94999e-001           9.49989e-002           4.99890e-003           9.98895e-004
                   36.20    271.55032                                9.23022             82.146                                        2.71550e+002           7.15503e+001           1.55032e+000           5.50323e-001           5.03233e-002           3.23311e-004           3.23311e-004
                   36.30    272.52502                                9.30106             82.143                                        2.72525e+002           7.25250e+001           2.52502e+000           5.25015e-001           2.50153e-002           5.01533e-003           1.53273e-005
                   36.40    273.51787                                9.37055             82.141                                        2.73518e+002           7.35179e+001           3.51787e+000           5.17873e-001           1.78728e-002           7.87281e-003           8.72810e-004
                   36.50    274.54461                                9.43860             82.141                                        2.74545e+002           7.45446e+001           4.54461e+000           5.44614e-001           4.46137e-002           4.61373e-003           6.13728e-004
                   36.60    275.60122                                9.50505             82.141                                        2.75601e+002           7.56012e+001           5.60122e+000           6.01224e-001           1.22423e-003           1.22423e-003           2.24226e-004
                   36.70    276.67841                                9.56996             82.141                                        2.76678e+002           7.66784e+001           6.67841e+000           6.78411e-001           7.84110e-002           8.41095e-003           4.10951e-004
                   36.80    277.77061                                9.63349             82.141                                        2.77771e+002           7.77706e+001           7.77061e+000           7.70613e-001           7.06134e-002           6.13407e-004           6.13407e-004
                   36.90    278.89134                                9.69550             82.141                                        2.78891e+002           7.88913e+001           8.89134e+000           8.91343e-001           9.13427e-002           1.34270e-003           3.42697e-004
                   37.00    280.04746                                9.75583             82.141                                        2.80047e+002           8.00475e+001           4.74640e-002           4.74640e-002           4.74640e-002           7.46400e-003           4.64003e-004
                   37.10    281.22977                                9.81453             82.141                                        2.81230e+002           8.12298e+001           1.22977e+000           2.29766e-001           2.97662e-002           9.76619e-003           7.66193e-004
                   37.20    282.42832                                9.87171             82.141                                        2.82428e+002           8.24283e+001           2.42832e+000           4.28325e-001           2.83247e-002           8.32468e-003           3.24684e-004
                   37.30    283.64930                                9.92717             82.141                                        2.83649e+002           8.36493e+001           3.64930e+000           6.49302e-001           4.93017e-002           9.30169e-003           3.01691e-004
                   37.40    284.90136                                9.98098             82.141                                        2.84901e+002           8.49014e+001           4.90136e+000           9.01364e-001           1.36437e-003           1.36437e-003           3.64371e-004
                   37.50    286.17498                               10.03309             82.141                                        2.86175e+002           8.61750e+001           6.17498e+000           1.74977e-001           7.49766e-002           4.97664e-003           9.76640e-004
                   37.60    287.46730                               10.08353             82.141                                        2.87467e+002           8.74673e+001           7.46730e+000           4.67305e-001           6.73049e-002           7.30487e-003           3.04872e-004
                   37.70    288.77847                               10.13224             82.141                                        2.88778e+002           8.87785e+001           8.77847e+000           7.78474e-001           7.84744e-002           8.47444e-003           4.74439e-004
                   37.80    290.11750                               10.17920             82.141                                        2.90118e+002           9.01175e+001           1.17503e-001           1.17503e-001           1.75032e-002           7.50319e-003           5.03190e-004
                   37.90    291.48534                               10.22445             82.141                                        2.91485e+002           9.14853e+001           1.48534e+000           4.85341e-001           8.53406e-002           5.34062e-003           3.40621e-004
                   38.00    292.87321                               10.26782             82.141                                        2.92873e+002           9.28732e+001           2.87321e+000           8.73214e-001           7.32136e-002           3.21356e-003           2.13560e-004
                   38.10    294.27175                               10.30932             82.141                                        2.94272e+002           9.42718e+001           4.27175e+000           2.71754e-001           7.17542e-002           1.75416e-003           7.54155e-004
                   38.20    295.69066                               10.34901             82.141                                        2.95691e+002           9.56907e+001           5.69066e+000           6.90659e-001           9.06588e-002           6.58795e-004           6.58795e-004
                   38.30    297.13620                               10.38685             82.141                                        2.97136e+002           9.71362e+001           7.13620e+000           1.36202e-001           3.62017e-002           6.20170e-003           2.01699e-004
                   38.40    298.60489                               10.42294             82.141                                        2.98605e+002           9.86049e+001           8.60489e+000           6.04889e-001           4.88880e-003           4.88880e-003           8.88795e-004
