~VERSION INFORMATION
VERS                    .            2.0                                    :CWLS LOG ASCII STANDARD
WRAP                    .            NO                                     :ONE LINE PER TIME STEP


~WELL INFORMATION
#MNEM                   .UNIT        DATA                                    DESCRIPTION
#________________________________________________________________________________________
STRTTIME                .HH/MM/SS    14:50:05                               :START TIME
STOPTIME                .HH/MM/SS    14:53:18                               :STOP TIME
STRT                    .s           2.10                                   :START DATA
STOP                    .s           191.60                                 :STOP DATA
STEP                    .s           0.10                                   :MEASUREMENT TIME INTERVAL
NULL                    .            -999.25                                :NULL VALUE
COMP                    .            Statoil ASA                            :COMPANY
FLD                     .            Volve                                  :FIELD
WELL                    .            15/9-F-1 B                             :WELL
RUN                     .            7                                      :RUN
LOC                     .            Maersk Inspirer                        :LOCATION
PROV                    .            na                                     :PROVINCE
SRVC                    .            Baker Hughes INTEQ                     :SERVICE COMPANY
DATE                    .YY/MM/DD    13/09/06                               :LOG DATE
UWI                     .                                                   :UNIQUE WELL ID
DEPTHMD                 .m           3280.5                                 :MEASURED DEPTH
DEPTHTVD                .m           3076.1                                 :TRUE VERTICAL DEPTH


~CURVE INFORMATION
#MNEM                   .UNIT        API CODES                               DESCRIPTION
#________________________________________________________________________________________
TIME                    .s                                                  :01 TIME
DD_PRESS                .bar                                                :02 DRAW DOWN PRESSURE
DD_VOLUME               .cm3                                                :03 INCREMENTAL DRAW DOWN VOLUME
TEMP                    .degC                                               :04 TRANSDUCER TEMPERATURE
DD_PRESS_MOD_1000       .bar                                                :05 DRAW DOWN PRESSURE MOD 1000
DD_PRESS_MOD_100        .bar                                                :06 DRAW DOWN PRESSURE MOD 100
DD_PRESS_MOD_10         .bar                                                :07 DRAW DOWN PRESSURE MOD 10
DD_PRESS_MOD_1          .bar                                                :08 DRAW DOWN PRESSURE MOD 1
DD_PRESS_MOD_01         .bar                                                :09 DRAW DOWN PRESSURE MOD 01
DD_PRESS_MOD_001        .bar                                                :10 DRAW DOWN PRESSURE MOD 001
DD_PRESS_MOD_0001       .bar                                                :11 DRAW DOWN PRESSURE MOD 0001


~PARAMETER INFORMATION
#MNEM                   .UNIT        VALUE                                   DESCRIPTION
#________________________________________________________________________________________
TOOLFACE                .deg         na                                     :01 TOOLFACE
PUMP_CAPACITY           .bar         400                                    :02 NOMINAL DRAW DOWN PUMP CAPACITY
PUMP_LIMIT              .bar         400                                    :03 DOWNLINK PUMP LIMIT
TIME_LIMIT              .min         10                                     :04 DOWNLINK MAX TIME
TEST_TYPE               .            LOW MOBILITY                           :05 DOWNLINK
DD_PIST_A               .cm2         3.1416                                 :06 DRAW DOWN PISTON AREA
V_SYS                   .cm3         131.0000                               :07 SYSTEM VOLUME
PROBE_ID                .cm          1.2700                                 :08 TTK PROBE ID
G0                      .            4.6700                                 :09 GEOMETRY FACTOR


~A                  TIME     DD_PRESS                              DD_VOLUME               TEMP                                   DD_PRESS_MOD_1000       DD_PRESS_MOD_100        DD_PRESS_MOD_10         DD_PRESS_MOD_1        DD_PRESS_MOD_01       DD_PRESS_MOD_001      DD_PRESS_MOD_0001
# ...
                  164.50    347.58875                               29.22933             82.447                                        3.47589e+002           4.75887e+001           7.58875e+000           5.88749e-001           8.87491e-002           8.74913e-003           7.49133e-004
                  164.60    347.58548                               29.22933             82.445                                        3.47585e+002           4.75855e+001           7.58548e+000           5.85480e-001           8.54797e-002           5.47973e-003           4.79730e-004
                  164.70    347.58174                               29.22933             82.445                                        3.47582e+002           4.75817e+001           7.58174e+000           5.81739e-001           8.17393e-002           1.73933e-003           7.39332e-004
                  164.80    347.58133                               29.22933             82.445                                        3.47581e+002           4.75813e+001           7.58133e+000           5.81326e-001           8.13261e-002           1.32609e-003           3.26086e-004
                  164.90    347.58499                               29.22933             82.445                                        3.47585e+002           4.75850e+001           7.58499e+000           5.84988e-001           8.49880e-002           4.98801e-003           9.88010e-004
                  165.00    347.58229                               29.22933             82.445                                        3.47582e+002           4.75823e+001           7.58229e+000           5.82291e-001           8.22905e-002           2.29053e-003           2.90526e-004
                  165.10    347.58020                               29.22933             82.445                                        3.47580e+002           4.75802e+001           7.58020e+000           5.80201e-001           8.02008e-002           2.00778e-004           2.00778e-004
                  165.20    347.58166                               29.22933             82.445                                        3.47582e+002           4.75817e+001           7.58166e+000           5.81657e-001           8.16569e-002           1.65687e-003           6.56873e-004
                  165.30    347.58533                               29.22933             82.445                                        3.47585e+002           4.75853e+001           7.58533e+000           5.85331e-001           8.53312e-002           5.33118e-003           3.31180e-004
                  165.40    347.58800                               29.22933             82.445                                        3.47588e+002           4.75880e+001           7.58800e+000           5.87999e-001           8.79993e-002           7.99928e-003           9.99282e-004
                  165.50    347.58787                               29.22933             82.445                                        3.47588e+002           4.75879e+001           7.58787e+000           5.87867e-001           8.78673e-002           7.86731e-003           8.67315e-004
                  165.60    347.58651                               29.22933             82.445                                        3.47587e+002           4.75865e+001           7.58651e+000           5.86513e-001           8.65133e-002           6.51327e-003           5.13272e-004
                  165.70    347.58465                               29.22933             82.445                                        3.47585e+002           4.75847e+001           7.58465e+000           5.84652e-001           8.46522e-002           4.65220e-003           6.52201e-004
                  165.80    347.58228                               29.22933             82.445                                        3.47582e+002           4.75823e+001           7.58228e+000           5.82279e-001           8.22793e-002           2.27933e-003           2.79333e-004
                  165.90    347.58369                               29.22933             82.445                                        3.47584e+002           4.75837e+001           7.58369e+000           5.83693e-001           8.36933e-002           3.69333e-003           6.93329e-004
                  166.00    347.58253                               29.22933             82.445                                        3.47583e+002           4.75825e+001           7.58253e+000           5.82535e-001           8.25347e-002           2.53466e-003           5.34664e-004
                  166.10    347.58341                               29.22933             82.445                                        3.47583e+002           4.75834e+001           7.58341e+000           5.83408e-001           8.34076e-002           3.40764e-003           4.07637e-004
                  166.20    347.58389                               29.22933             82.445                                        3.47584e+002           4.75839e+001           7.58389e+000           5.83893e-001           8.38934e-002           3.89341e-003           8.93407e-004
                  166.30    347.55961                                0.00000             82.445                                        3.47560e+002           4.75596e+001           7.55961e+000           5.59607e-001           5.96071e-002           9.60707e-003           6.07073e-004
                  166.40    347.96905                                0.00000             82.445                                        3.47969e+002           4.79691e+001           7.96905e+000           9.69051e-001           6.90506e-002           9.05056e-003           5.05572e-005
                  166.50    349.23007                                0.00000             82.445                                        3.49230e+002           4.92301e+001           9.23007e+000           2.30072e-001           3.00720e-002           7.19713e-005           7.19713e-005
                  166.60    350.61500                                0.00000             82.445                                        3.50615e+002           5.06150e+001           6.15005e-001           6.15005e-001           1.50045e-002           5.00451e-003           4.50892e-006
                  166.70    351.31184                                0.00000             82.445                                        3.51312e+002           5.13118e+001           1.31184e+000           3.11839e-001           1.18395e-002           1.83947e-003           8.39474e-004
                  166.80    351.96067                                0.00000             82.445                                        3.51961e+002           5.19607e+001           1.96067e+000           9.60670e-001           6.06699e-002           6.69894e-004           6.69894e-004
                  166.90    353.20735                                0.00000             82.445                                        3.53207e+002           5.32074e+001           3.20735e+000           2.07354e-001           7.35377e-003           7.35377e-003           3.53767e-004
                  167.00    354.69040                                0.00000             82.445                                        3.54690e+002           5.46904e+001           4.69040e+000           6.90399e-001           9.03995e-002           3.99476e-004           3.99476e-004
                  167.10    355.96221                                0.00000             82.445                                        3.55962e+002           5.59622e+001           5.96221e+000           9.62207e-001           6.22067e-002           2.20673e-003           2.06731e-004
                  167.20    357.15965                                0.00000             82.445                                        3.57160e+002           5.71596e+001           7.15965e+000           1.59646e-001           5.96461e-002           9.64608e-003           6.46083e-004
