~VERSION INFORMATION
VERS                    .            2.0                                    :CWLS LOG ASCII STANDARD
WRAP                    .            NO                                     :ONE LINE PER TIME STEP


~WELL INFORMATION
#MNEM                   .UNIT        DATA                                    DESCRIPTION
#________________________________________________________________________________________
STRTTIME                .HH/MM/SS    14:04:48                               :START TIME
STOPTIME                .HH/MM/SS    14:07:57                               :STOP TIME
STRT                    .s           2.10                                   :START DATA
STOP                    .s           187.50                                 :STOP DATA
STEP                    .s           0.10                                   :MEASUREMENT TIME INTERVAL
NULL                    .            -999.25                                :NULL VALUE
COMP                    .            Statoil ASA                            :COMPANY
FLD                     .            Volve                                  :FIELD
WELL                    .            15/9-F-1 B                             :WELL
RUN                     .            7                                      :RUN
LOC                     .            Maersk Inspirer                        :LOCATION
PROV                    .            na                                     :PROVINCE
SRVC                    .            Baker Hughes INTEQ                     :SERVICE COMPANY
DATE                    .YY/MM/DD    13/09/06                               :LOG DATE
UWI                     .                                                   :UNIQUE WELL ID
DEPTHMD                 .m           3296.0                                 :MEASURED DEPTH
DEPTHTVD                .m           3091.5                                 :TRUE VERTICAL DEPTH


~CURVE INFORMATION
#MNEM                   .UNIT        API CODES                               DESCRIPTION
#________________________________________________________________________________________
TIME                    .s                                                  :01 TIME
DD_PRESS                .bar                                                :02 DRAW DOWN PRESSURE
DD_VOLUME               .cm3                                                :03 INCREMENTAL DRAW DOWN VOLUME
TEMP                    .degC                                               :04 TRANSDUCER TEMPERATURE
DD_PRESS_MOD_1000       .bar                                                :05 DRAW DOWN PRESSURE MOD 1000
DD_PRESS_MOD_100        .bar                                                :06 DRAW DOWN PRESSURE MOD 100
DD_PRESS_MOD_10         .bar                                                :07 DRAW DOWN PRESSURE MOD 10
DD_PRESS_MOD_1          .bar                                                :08 DRAW DOWN PRESSURE MOD 1
DD_PRESS_MOD_01         .bar                                                :09 DRAW DOWN PRESSURE MOD 01
DD_PRESS_MOD_001        .bar                                                :10 DRAW DOWN PRESSURE MOD 001
DD_PRESS_MOD_0001       .bar                                                :11 DRAW DOWN PRESSURE MOD 0001


~PARAMETER INFORMATION
#MNEM                   .UNIT        VALUE                                   DESCRIPTION
#________________________________________________________________________________________
TOOLFACE                .deg         na                                     :01 TOOLFACE
PUMP_CAPACITY           .bar         400                                    :02 NOMINAL DRAW DOWN PUMP CAPACITY
PUMP_LIMIT              .bar         400                                    :03 DOWNLINK PUMP LIMIT
TIME_LIMIT              .min         10                                     :04 DOWNLINK MAX TIME
TEST_TYPE               .            LOW MOBILITY                           :05 DOWNLINK
DD_PIST_A               .cm2         3.1416                                 :06 DRAW DOWN PISTON AREA
V_SYS                   .cm3         131.0000                               :07 SYSTEM VOLUME
PROBE_ID                .cm          1.2700                                 :08 TTK PROBE ID
G0                      .            4.6700                                 :09 GEOMETRY FACTOR


~A                  TIME     DD_PRESS                              DD_VOLUME               TEMP                                   DD_PRESS_MOD_1000       DD_PRESS_MOD_100        DD_PRESS_MOD_10         DD_PRESS_MOD_1        DD_PRESS_MOD_01       DD_PRESS_MOD_001      DD_PRESS_MOD_0001
# ...
                   13.30    440.76102                                0.00000             83.367                                        4.40761e+002           4.07610e+001           7.61023e-001           7.61023e-001           6.10231e-002           1.02307e-003           2.30734e-005
                   13.40    440.82759                                0.00000             83.367                                        4.40828e+002           4.08276e+001           8.27594e-001           8.27594e-001           2.75938e-002           7.59380e-003           5.93797e-004
                   13.50    440.82736                                0.00000             83.367                                        4.40827e+002           4.08274e+001           8.27363e-001           8.27363e-001           2.73626e-002           7.36256e-003           3.62560e-004
                   13.60    440.79364                                0.00000             83.367                                        4.40794e+002           4.07936e+001           7.93638e-001           7.93638e-001           9.36381e-002           3.63806e-003           6.38056e-004
                   13.70    440.82126                                0.00000             83.367                                        4.40821e+002           4.08213e+001           8.21257e-001           8.21257e-001           2.12566e-002           1.25664e-003           2.56641e-004
                   13.80    440.87303                                0.00000             83.367                                        4.40873e+002           4.08730e+001           8.73030e-001           8.73030e-001           7.30299e-002           3.02985e-003           2.98512e-005
                   13.90    440.87083                                0.00000             83.367                                        4.40871e+002           4.08708e+001           8.70827e-001           8.70827e-001           7.08269e-002           8.26852e-004           8.26852e-004
                   14.00    440.83543                                0.00000             83.367                                        4.40835e+002           4.08354e+001           8.35427e-001           8.35427e-001           3.54268e-002           5.42684e-003           4.26839e-004
                   14.10    440.85364                                0.00000             83.367                                        4.40854e+002           4.08536e+001           8.53636e-001           8.53636e-001           5.36356e-002           3.63563e-003           6.35625e-004
                   14.20    440.91102                                0.00000             83.367                                        4.40911e+002           4.09110e+001           9.11022e-001           9.11022e-001           1.10216e-002           1.02156e-003           2.15565e-005
                   14.30    440.90262                                0.00000             83.367                                        4.40903e+002           4.09026e+001           9.02618e-001           9.02618e-001           2.61839e-003           2.61839e-003           6.18394e-004
                   14.40    440.84669                                0.00000             83.367                                        4.40847e+002           4.08467e+001           8.46686e-001           8.46686e-001           4.66856e-002           6.68555e-003           6.85551e-004
                   14.50    440.85745                                0.00000             83.367                                        4.40857e+002           4.08575e+001           8.57454e-001           8.57454e-001           5.74544e-002           7.45441e-003           4.54414e-004
                   14.60    440.90789                                0.00000             83.367                                        4.40908e+002           4.09079e+001           9.07892e-001           9.07892e-001           7.89203e-003           7.89203e-003           8.92035e-004
                   14.70    440.89537                                0.00000             83.367                                        4.40895e+002           4.08954e+001           8.95374e-001           8.95374e-001           9.53742e-002           5.37424e-003           3.74241e-004
                   14.80    440.85208                                0.00000             83.367                                        4.40852e+002           4.08521e+001           8.52079e-001           8.52079e-001           5.20788e-002           2.07884e-003           7.88397e-005
                   14.90    440.88220                                0.00000             83.367                                        4.40882e+002           4.08822e+001           8.82196e-001           8.82196e-001           8.21959e-002           2.19592e-003           1.95918e-004
                   15.00    440.93810                                0.00000             83.367                                        4.40938e+002           4.09381e+001           9.38103e-001           9.38103e-001           3.81030e-002           8.10298e-003           1.02976e-004
                   15.10    440.92274                                0.00000             83.367                                        4.40923e+002           4.09227e+001           9.22741e-001           9.22741e-001           2.27412e-002           2.74124e-003           7.41236e-004
                   15.20    440.87846                                0.00000             83.367                                        4.40878e+002           4.08785e+001           8.78456e-001           8.78456e-001           7.84560e-002           8.45603e-003           4.56027e-004
                   15.30    440.90974                                0.00000             83.367                                        4.40910e+002           4.09097e+001           9.09741e-001           9.09741e-001           9.74134e-003           9.74134e-003           7.41342e-004
                   15.40    440.96779                                0.00000             83.367                                        4.40968e+002           4.09678e+001           9.67789e-001           9.67789e-001           6.77888e-002           7.78884e-003           7.88838e-004
                   15.50    440.95341                                0.00000             83.367                                        4.40953e+002           4.09534e+001           9.53414e-001           9.53414e-001           5.34139e-002           3.41390e-003           4.13896e-004
                   15.60    440.91073                                0.00000             83.367                                        4.40911e+002           4.09107e+001           9.10725e-001           9.10725e-001           1.07253e-002           7.25300e-004           7.25300e-004
                   15.70    440.94053                                0.00000             83.367                                        4.40941e+002           4.09405e+001           9.40533e-001           9.40533e-001           4.05328e-002           5.32793e-004           5.32793e-004
                   15.80    440.98906                                0.00000             83.367                                        4.40989e+002           4.09891e+001           9.89064e-001           9.89064e-001           8.90644e-002           9.06435e-003           6.43506e-005
                   15.90    440.97682                                0.00000             83.367                                        4.40977e+002           4.09768e+001           9.76817e-001           9.76817e-001           7.68172e-002           6.81718e-003           8.17179e-004
                   16.00    440.94326                                0.00000             83.367                                        4.40943e+002           4.09433e+001           9.43260e-001           9.43260e-001           4.32598e-002           3.25984e-003           2.59842e-004
