~VERSION INFORMATION
VERS                    .            2.0                                    :CWLS LOG ASCII STANDARD
WRAP                    .            NO                                     :ONE LINE PER TIME STEP


~WELL INFORMATION
#MNEM                   .UNIT        DATA                                    DESCRIPTION
#________________________________________________________________________________________
STRTTIME                .HH/MM/SS    15:44:09                               :START TIME
STOPTIME                .HH/MM/SS    15:46:59                               :STOP TIME
STRT                    .s           2.10                                   :START DATA
STOP                    .s           168.10                                 :STOP DATA
STEP                    .s           0.10                                   :MEASUREMENT TIME INTERVAL
NULL                    .            -999.25                                :NULL VALUE
COMP                    .            Statoil ASA                            :COMPANY
FLD                     .            Volve                                  :FIELD
WELL                    .            15/9-F-1 B                             :WELL
RUN                     .            7                                      :RUN
LOC                     .            Maersk Inspirer                        :LOCATION
PROV                    .            na                                     :PROVINCE
SRVC                    .            Baker Hughes INTEQ                     :SERVICE COMPANY
DATE                    .YY/MM/DD    13/09/06                               :LOG DATE
UWI                     .                                                   :UNIQUE WELL ID
DEPTHMD                 .m           3266.5                                 :MEASURED DEPTH
DEPTHTVD                .m           3062.4                                 :TRUE VERTICAL DEPTH


~CURVE INFORMATION
#MNEM                   .UNIT        API CODES                               DESCRIPTION
#________________________________________________________________________________________
TIME                    .s                                                  :01 TIME
DD_PRESS                .bar                                                :02 DRAW DOWN PRESSURE
DD_VOLUME               .cm3                                                :03 INCREMENTAL DRAW DOWN VOLUME
TEMP                    .degC                                               :04 TRANSDUCER TEMPERATURE
DD_PRESS_MOD_1000       .bar                                                :05 DRAW DOWN PRESSURE MOD 1000
DD_PRESS_MOD_100        .bar                                                :06 DRAW DOWN PRESSURE MOD 100
DD_PRESS_MOD_10         .bar                                                :07 DRAW DOWN PRESSURE MOD 10
DD_PRESS_MOD_1          .bar                                                :08 DRAW DOWN PRESSURE MOD 1
DD_PRESS_MOD_01         .bar                                                :09 DRAW DOWN PRESSURE MOD 01
DD_PRESS_MOD_001        .bar                                                :10 DRAW DOWN PRESSURE MOD 001
DD_PRESS_MOD_0001       .bar                                                :11 DRAW DOWN PRESSURE MOD 0001


~PARAMETER INFORMATION
#MNEM                   .UNIT        VALUE                                   DESCRIPTION
#________________________________________________________________________________________
TOOLFACE                .deg         na                                     :01 TOOLFACE
PUMP_CAPACITY           .bar         400                                    :02 NOMINAL DRAW DOWN PUMP CAPACITY
PUMP_LIMIT              .bar         400                                    :03 DOWNLINK PUMP LIMIT
TIME_LIMIT              .min         10                                     :04 DOWNLINK MAX TIME
TEST_TYPE               .            LOW MOBILITY                           :05 DOWNLINK
DD_PIST_A               .cm2         3.1416                                 :06 DRAW DOWN PISTON AREA
V_SYS                   .cm3         131.0000                               :07 SYSTEM VOLUME
PROBE_ID                .cm          1.2700                                 :08 TTK PROBE ID
G0                      .            4.6700                                 :09 GEOMETRY FACTOR


~A                  TIME     DD_PRESS                              DD_VOLUME               TEMP                                   DD_PRESS_MOD_1000       DD_PRESS_MOD_100        DD_PRESS_MOD_10         DD_PRESS_MOD_1        DD_PRESS_MOD_01       DD_PRESS_MOD_001      DD_PRESS_MOD_0001
# ...
                  122.50    346.52486                               29.23190             82.516                                        3.46525e+002           4.65249e+001           6.52486e+000           5.24859e-001           2.48588e-002           4.85882e-003           8.58818e-004
                  122.60    346.52506                               29.23190             82.516                                        3.46525e+002           4.65251e+001           6.52506e+000           5.25063e-001           2.50627e-002           5.06274e-003           6.27392e-005
                  122.70    346.52473                               29.23190             82.516                                        3.46525e+002           4.65247e+001           6.52473e+000           5.24728e-001           2.47276e-002           4.72759e-003           7.27590e-004
                  122.80    346.52516                               29.23190             82.516                                        3.46525e+002           4.65252e+001           6.52516e+000           5.25158e-001           2.51582e-002           5.15820e-003           1.58203e-004
                  122.90    346.52345                               29.23190             82.516                                        3.46523e+002           4.65234e+001           6.52345e+000           5.23447e-001           2.34471e-002           3.44710e-003           4.47097e-004
                  123.00    346.52297                               29.23190             82.516                                        3.46523e+002           4.65230e+001           6.52297e+000           5.22966e-001           2.29657e-002           2.96568e-003           9.65684e-004
                  123.10    346.52287                               29.23190             82.516                                        3.46523e+002           4.65229e+001           6.52287e+000           5.22865e-001           2.28654e-002           2.86539e-003           8.65391e-004
                  123.20    346.52416                               29.23190             82.516                                        3.46524e+002           4.65242e+001           6.52416e+000           5.24156e-001           2.41557e-002           4.15572e-003           1.55720e-004
                  123.30    346.52414                               29.23190             82.516                                        3.46524e+002           4.65241e+001           6.52414e+000           5.24144e-001           2.41436e-002           4.14356e-003           1.43556e-004
                  123.40    346.52665                               29.23190             82.516                                        3.46527e+002           4.65267e+001           6.52665e+000           5.26654e-001           2.66542e-002           6.65418e-003           6.54185e-004
                  123.50    346.52864                               29.23190             82.516                                        3.46529e+002           4.65286e+001           6.52864e+000           5.28643e-001           2.86427e-002           8.64268e-003           6.42678e-004
                  123.60    346.52629                               29.23190             82.516                                        3.46526e+002           4.65263e+001           6.52629e+000           5.26287e-001           2.62868e-002           6.28679e-003           2.86786e-004
                  123.70    346.52279                               29.23190             82.516                                        3.46523e+002           4.65228e+001           6.52279e+000           5.22786e-001           2.27857e-002           2.78569e-003           7.85692e-004
                  123.80    346.52280                               29.23190             82.516                                        3.46523e+002           4.65228e+001           6.52280e+000           5.22803e-001           2.28032e-002           2.80317e-003           8.03168e-004
                  123.90    346.52276                               29.23190             82.516                                        3.46523e+002           4.65228e+001           6.52276e+000           5.22765e-001           2.27650e-002           2.76497e-003           7.64965e-004
                  124.00    346.52555                               29.23190             82.516                                        3.46526e+002           4.65255e+001           6.52555e+000           5.25549e-001           2.55495e-002           5.54950e-003           5.49497e-004
                  124.10    346.52667                               29.23190             82.516                                        3.46527e+002           4.65267e+001           6.52667e+000           5.26669e-001           2.66692e-002           6.66921e-003           6.69209e-004
                  124.20    346.52658                               29.23190             82.516                                        3.46527e+002           4.65266e+001           6.52658e+000           5.26576e-001           2.65760e-002           6.57597e-003           5.75971e-004
                  124.30    346.52654                               29.23190             82.516                                        3.46527e+002           4.65265e+001           6.52654e+000           5.26544e-001           2.65436e-002           6.54363e-003           5.43634e-004
                  124.40    346.52596                               29.23190             82.516                                        3.46526e+002           4.65260e+001           6.52596e+000           5.25960e-001           2.59596e-002           5.95963e-003           9.59630e-004
                  124.50    346.52778                               29.23190             82.516                                        3.46528e+002           4.65278e+001           6.52778e+000           5.27776e-001           2.77756e-002           7.77560e-003           7.75603e-004
                  124.60    346.52767                               29.23190             82.516                                        3.46528e+002           4.65277e+001           6.52767e+000           5.27674e-001           2.76745e-002           7.67450e-003           6.74497e-004
                  124.70    346.52997                               29.23190             82.516                                        3.46530e+002           4.65300e+001           6.52997e+000           5.29972e-001           2.99721e-002           9.97214e-003           9.72141e-004
                  124.80    346.53244                               29.23190             82.516                                        3.46532e+002           4.65324e+001           6.53244e+000           5.32443e-001           3.24430e-002           2.44298e-003           4.42982e-004
                  124.90    346.53199                               29.23190             82.516                                        3.46532e+002           4.65320e+001           6.53199e+000           5.31987e-001           3.19871e-002           1.98715e-003           9.87145e-004
                  125.00    346.52931                               29.23190             82.516                                        3.46529e+002           4.65293e+001           6.52931e+000           5.29312e-001           2.93125e-002           9.31250e-003           3.12498e-004
                  125.10    346.52915                               29.23190             82.516                                        3.46529e+002           4.65291e+001           6.52915e+000           5.29147e-001           2.91474e-002           9.14737e-003           1.47368e-004
                  125.20    346.52800                               29.23190             82.516                                        3.46528e+002           4.65280e+001           6.52800e+000           5.27999e-001           2.79994e-002           7.99937e-003           9.99366e-004
