~VERSION INFORMATION
VERS                    .            2.0                                    :CWLS LOG ASCII STANDARD
WRAP                    .            NO                                     :ONE LINE PER TIME STEP


~WELL INFORMATION
#MNEM                   .UNIT        DATA                                    DESCRIPTION
#________________________________________________________________________________________
STRTTIME                .HH/MM/SS    08:31:17                               :START TIME
STOPTIME                .HH/MM/SS    08:34:03                               :STOP TIME
STRT                    .s           2.10                                   :START DATA
STOP                    .s           164.70                                 :STOP DATA
STEP                    .s           0.10                                   :MEASUREMENT TIME INTERVAL
NULL                    .            -999.25                                :NULL VALUE
COMP                    .            Statoil ASA                            :COMPANY
FLD                     .            Volve                                  :FIELD
WELL                    .            15/9-F-11 A                            :WELL
RUN                     .            8                                      :RUN
LOC                     .            Maersk Inspirer                        :LOCATION
PROV                    .            na                                     :PROVINCE
SRVC                    .            Baker Hughes INTEQ                     :SERVICE COMPANY
DATE                    .YY/MM/DD    13/05/21                               :LOG DATE
UWI                     .                                                   :UNIQUE WELL ID
DEPTHMD                 .m           3688.1                                 :MEASURED DEPTH
DEPTHTVD                .m           3069.8                                 :TRUE VERTICAL DEPTH


~CURVE INFORMATION
#MNEM                   .UNIT        API CODES                               DESCRIPTION
#________________________________________________________________________________________
TIME                    .s                                                  :01 TIME
DD_PRESS                .bar                                                :02 DRAW DOWN PRESSURE
DD_VOLUME               .cm3                                                :03 INCREMENTAL DRAW DOWN VOLUME
TEMP                    .degC                                               :04 TRANSDUCER TEMPERATURE
DD_PRESS_MOD_1000       .bar                                                :05 DRAW DOWN PRESSURE MOD 1000
DD_PRESS_MOD_100        .bar                                                :06 DRAW DOWN PRESSURE MOD 100
DD_PRESS_MOD_10         .bar                                                :07 DRAW DOWN PRESSURE MOD 10
DD_PRESS_MOD_1          .bar                                                :08 DRAW DOWN PRESSURE MOD 1
DD_PRESS_MOD_01         .bar                                                :09 DRAW DOWN PRESSURE MOD 01
DD_PRESS_MOD_001        .bar                                                :10 DRAW DOWN PRESSURE MOD 001
DD_PRESS_MOD_0001       .bar                                                :11 DRAW DOWN PRESSURE MOD 0001


~PARAMETER INFORMATION
#MNEM                   .UNIT        VALUE                                   DESCRIPTION
#________________________________________________________________________________________
TOOLFACE                .deg         -78.9                                  :01 TOOLFACE
PUMP_CAPACITY           .bar         400                                    :02 NOMINAL DRAW DOWN PUMP CAPACITY
PUMP_LIMIT              .bar         240                                    :03 DOWNLINK PUMP LIMIT
TIME_LIMIT              .min         10                                     :04 DOWNLINK MAX TIME
TEST_TYPE               .            REPEAT                                 :05 DOWNLINK
TEST_TYPE               .            HIGH MOBILITY                          :06 DOWNLINK
DD_PIST_A               .cm2         3.1416                                 :07 DRAW DOWN PISTON AREA
V_SYS                   .cm3         131.0000                               :08 SYSTEM VOLUME
PROBE_ID                .cm          1.2700                                 :09 TTK PROBE ID
G0                      .            4.6700                                 :10 GEOMETRY FACTOR


~A                  TIME     DD_PRESS                              DD_VOLUME               TEMP                                   DD_PRESS_MOD_1000       DD_PRESS_MOD_100        DD_PRESS_MOD_10         DD_PRESS_MOD_1        DD_PRESS_MOD_01       DD_PRESS_MOD_001      DD_PRESS_MOD_0001
# ...
                  119.70    346.05385                               29.44544             83.250                                        3.46054e+002           4.60538e+001           6.05385e+000           5.38472e-002           5.38472e-002           3.84720e-003           8.47199e-004
                  119.80    346.04831                               29.44544             83.250                                        3.46048e+002           4.60483e+001           6.04831e+000           4.83097e-002           4.83097e-002           8.30972e-003           3.09720e-004
                  119.90    346.05157                               29.44544             83.250                                        3.46052e+002           4.60516e+001           6.05157e+000           5.15697e-002           5.15697e-002           1.56968e-003           5.69676e-004
                  120.00    346.05952                               29.44544             83.250                                        3.46060e+002           4.60595e+001           6.05952e+000           5.95221e-002           5.95221e-002           9.52213e-003           5.22128e-004
                  120.10    346.05120                               29.44544             83.250                                        3.46051e+002           4.60512e+001           6.05120e+000           5.11995e-002           5.11995e-002           1.19952e-003           1.99522e-004
                  120.20    346.04260                               29.44544             83.250                                        3.46043e+002           4.60426e+001           6.04260e+000           4.25950e-002           4.25950e-002           2.59505e-003           5.95046e-004
                  120.30    346.05308                               29.44544             83.250                                        3.46053e+002           4.60531e+001           6.05308e+000           5.30811e-002           5.30811e-002           3.08105e-003           8.10526e-005
                  120.40    346.06015                               29.44544             83.250                                        3.46060e+002           4.60602e+001           6.06015e+000           6.01506e-002           6.01506e-002           1.50597e-004           1.50597e-004
                  120.50    346.04858                               29.44544             83.250                                        3.46049e+002           4.60486e+001           6.04858e+000           4.85818e-002           4.85818e-002           8.58185e-003           5.81849e-004
                  120.60    346.04670                               29.44544             83.250                                        3.46047e+002           4.60467e+001           6.04670e+000           4.66953e-002           4.66953e-002           6.69525e-003           6.95252e-004
                  120.70    346.05738                               29.44544             83.250                                        3.46057e+002           4.60574e+001           6.05738e+000           5.73793e-002           5.73793e-002           7.37927e-003           3.79269e-004
                  120.80    346.06512                               29.44544             83.250                                        3.46065e+002           4.60651e+001           6.06512e+000           6.51160e-002           6.51160e-002           5.11601e-003           1.16012e-004
                  120.90    346.05825                               29.44544             83.250                                        3.46058e+002           4.60582e+001           6.05825e+000           5.82459e-002           5.82459e-002           8.24591e-003           2.45915e-004
                  121.00    346.04549                               29.44544             83.250                                        3.46045e+002           4.60455e+001           6.04549e+000           4.54934e-002           4.54934e-002           5.49337e-003           4.93369e-004
                  121.10    346.05386                               29.44544             83.250                                        3.46054e+002           4.60539e+001           6.05386e+000           5.38609e-002           5.38609e-002           3.86087e-003           8.60873e-004
                  121.20    346.06953                               29.44544             83.250                                        3.46070e+002           4.60695e+001           6.06953e+000           6.95339e-002           6.95339e-002           9.53386e-003           5.33859e-004
                  121.30    346.06346                               29.44544             83.250                                        3.46063e+002           4.60635e+001           6.06346e+000           6.34602e-002           6.34602e-002           3.46018e-003           4.60179e-004
                  121.40    346.04526                               29.44544             83.250                                        3.46045e+002           4.60453e+001           6.04526e+000           4.52552e-002           4.52552e-002           5.25519e-003           2.55190e-004
                  121.50    346.04208                               29.44544             83.250                                        3.46042e+002           4.60421e+001           6.04208e+000           4.20810e-002           4.20810e-002           2.08097e-003           8.09659e-005
                  121.60    346.05348                               29.44544             83.250                                        3.46053e+002           4.60535e+001           6.05348e+000           5.34794e-002           5.34794e-002           3.47940e-003           4.79396e-004
                  121.70    346.06127                               29.44544             83.250                                        3.46061e+002           4.60613e+001           6.06127e+000           6.12739e-002           6.12739e-002           1.27389e-003           2.73889e-004
                  121.80    346.05478                               29.44544             83.250                                        3.46055e+002           4.60548e+001           6.05478e+000           5.47821e-002           5.47821e-002           4.78206e-003           7.82059e-004
                  121.90    346.04110                               29.44544             83.250                                        3.46041e+002           4.60411e+001           6.04110e+000           4.10996e-002           4.10996e-002           1.09956e-003           9.95585e-005
                  122.00    346.04731                               29.44544             83.250                                        3.46047e+002           4.60473e+001           6.04731e+000           4.73062e-002           4.73062e-002           7.30617e-003           3.06167e-004
                  122.10    346.06451                               29.44544             83.250                                        3.46065e+002           4.60645e+001           6.06451e+000           6.45070e-002           6.45070e-002           4.50698e-003           5.06975e-004
                  122.20    346.06469                               29.44544             83.250                                        3.46065e+002           4.60647e+001           6.06469e+000           6.46861e-002           6.46861e-002           4.68612e-003           6.86121e-004
                  122.30    346.04723                               29.44544             83.250                                        3.46047e+002           4.60472e+001           6.04723e+000           4.72287e-002           4.72287e-002           7.22869e-003           2.28688e-004
                  122.40    346.04198                               29.44544             83.250                                        3.46042e+002           4.60420e+001           6.04198e+000           4.19807e-002           4.19807e-002           1.98069e-003           9.80688e-004
