~VERSION INFORMATION
VERS                    .            2.0                                    :CWLS LOG ASCII STANDARD
WRAP                    .            NO                                     :ONE LINE PER TIME STEP


~WELL INFORMATION
#MNEM                   .UNIT        DATA                                    DESCRIPTION
#________________________________________________________________________________________
STRTTIME                .HH/MM/SS    18:24:11                               :START TIME
STOPTIME                .HH/MM/SS    18:26:54                               :STOP TIME
STRT                    .s           2.10                                   :START DATA
STOP                    .s           161.30                                 :STOP DATA
STEP                    .s           0.10                                   :MEASUREMENT TIME INTERVAL
NULL                    .            -999.25                                :NULL VALUE
COMP                    .            Statoil ASA                            :COMPANY
FLD                     .            Volve                                  :FIELD
WELL                    .            15/9-F-11 A                            :WELL
RUN                     .            8                                      :RUN
LOC                     .            Maersk Inspirer                        :LOCATION
PROV                    .            na                                     :PROVINCE
SRVC                    .            Baker Hughes INTEQ                     :SERVICE COMPANY
DATE                    .YY/MM/DD    13/05/23                               :LOG DATE
UWI                     .                                                   :UNIQUE WELL ID
DEPTHMD                 .m           3681.0                                 :MEASURED DEPTH
DEPTHTVD                .m           3064.4                                 :TRUE VERTICAL DEPTH


~CURVE INFORMATION
#MNEM                   .UNIT        API CODES                               DESCRIPTION
#________________________________________________________________________________________
TIME                    .s                                                  :01 TIME
DD_PRESS                .bar                                                :02 DRAW DOWN PRESSURE
DD_VOLUME               .cm3                                                :03 INCREMENTAL DRAW DOWN VOLUME
TEMP                    .degC                                               :04 TRANSDUCER TEMPERATURE
DD_PRESS_MOD_1000       .bar                                                :05 DRAW DOWN PRESSURE MOD 1000
DD_PRESS_MOD_100        .bar                                                :06 DRAW DOWN PRESSURE MOD 100
DD_PRESS_MOD_10         .bar                                                :07 DRAW DOWN PRESSURE MOD 10
DD_PRESS_MOD_1          .bar                                                :08 DRAW DOWN PRESSURE MOD 1
DD_PRESS_MOD_01         .bar                                                :09 DRAW DOWN PRESSURE MOD 01
DD_PRESS_MOD_001        .bar                                                :10 DRAW DOWN PRESSURE MOD 001
DD_PRESS_MOD_0001       .bar                                                :11 DRAW DOWN PRESSURE MOD 0001


~PARAMETER INFORMATION
#MNEM                   .UNIT        VALUE                                   DESCRIPTION
#________________________________________________________________________________________
TOOLFACE                .deg         -38.1                                  :01 TOOLFACE
PUMP_CAPACITY           .bar         400                                    :02 NOMINAL DRAW DOWN PUMP CAPACITY
PUMP_LIMIT              .bar         240                                    :03 DOWNLINK PUMP LIMIT
TIME_LIMIT              .min         10                                     :04 DOWNLINK MAX TIME
TEST_TYPE               .            HIGH MOBILITY                          :05 DOWNLINK
DD_PIST_A               .cm2         3.1416                                 :06 DRAW DOWN PISTON AREA
V_SYS                   .cm3         131.0000                               :07 SYSTEM VOLUME
PROBE_ID                .cm          1.2700                                 :08 TTK PROBE ID
G0                      .            4.6700                                 :09 GEOMETRY FACTOR


~A                  TIME     DD_PRESS                              DD_VOLUME               TEMP                                   DD_PRESS_MOD_1000       DD_PRESS_MOD_100        DD_PRESS_MOD_10         DD_PRESS_MOD_1        DD_PRESS_MOD_01       DD_PRESS_MOD_001      DD_PRESS_MOD_0001
# ...
                   21.70    426.55150                                0.00000             75.297                                        4.26551e+002           2.65515e+001           6.55150e+000           5.51499e-001           5.14985e-002           1.49850e-003           4.98501e-004
                   21.80    426.56855                                0.00000             75.297                                        4.26569e+002           2.65685e+001           6.56855e+000           5.68548e-001           6.85483e-002           8.54834e-003           5.48337e-004
                   21.90    426.64329                                0.00000             75.297                                        4.26643e+002           2.66433e+001           6.64329e+000           6.43290e-001           4.32900e-002           3.28996e-003           2.89956e-004
                   22.00    427.03346                                0.00000             75.297                                        4.27033e+002           2.70335e+001           7.03346e+000           3.34647e-002           3.34647e-002           3.46465e-003           4.64655e-004
                   22.10    427.88242                                0.00000             75.297                                        4.27882e+002           2.78824e+001           7.88242e+000           8.82417e-001           8.24173e-002           2.41729e-003           4.17293e-004
                   22.20    428.90430                                0.00000             75.297                                        4.28904e+002           2.89043e+001           8.90430e+000           9.04305e-001           4.30456e-003           4.30456e-003           3.04556e-004
                   22.30    429.86586                                0.00000             75.297                                        4.29866e+002           2.98659e+001           9.86586e+000           8.65862e-001           6.58623e-002           5.86231e-003           8.62312e-004
                   22.40    430.31498                                0.00000             75.297                                        4.30315e+002           3.03150e+001           3.14978e-001           3.14978e-001           1.49785e-002           4.97848e-003           9.78484e-004
                   22.50    429.79390                                0.00000             75.297                                        4.29794e+002           2.97939e+001           9.79390e+000           7.93902e-001           9.39021e-002           3.90214e-003           9.02137e-004
                   22.60    428.75487                                0.00000             75.297                                        4.28755e+002           2.87549e+001           8.75487e+000           7.54871e-001           5.48711e-002           4.87109e-003           8.71094e-004
                   22.70    427.93200                                0.00000             75.297                                        4.27932e+002           2.79320e+001           7.93200e+000           9.31998e-001           3.19984e-002           1.99843e-003           9.98430e-004
                   22.80    427.31470                                0.00000             75.297                                        4.27315e+002           2.73147e+001           7.31470e+000           3.14697e-001           1.46972e-002           4.69724e-003           6.97240e-004
                   22.90    426.93193                                0.00000             75.297                                        4.26932e+002           2.69319e+001           6.93193e+000           9.31927e-001           3.19269e-002           1.92692e-003           9.26919e-004
                   23.00    426.59769                                0.00000             75.297                                        4.26598e+002           2.65977e+001           6.59769e+000           5.97691e-001           9.76913e-002           7.69132e-003           6.91323e-004
                   23.10    426.16803                                0.00000             75.297                                        4.26168e+002           2.61680e+001           6.16803e+000           1.68033e-001           6.80325e-002           8.03254e-003           3.25359e-005
                   23.20    425.84891                                0.00000             75.297                                        4.25849e+002           2.58489e+001           5.84891e+000           8.48910e-001           4.89104e-002           8.91039e-003           9.10388e-004
                   23.30    425.80596                                0.00000             75.297                                        4.25806e+002           2.58060e+001           5.80596e+000           8.05957e-001           5.95681e-003           5.95681e-003           9.56810e-004
                   23.40    425.89573                                0.00000             75.297                                        4.25896e+002           2.58957e+001           5.89573e+000           8.95732e-001           9.57325e-002           5.73246e-003           7.32460e-004
                   23.50    425.98927                                0.00000             75.297                                        4.25989e+002           2.59893e+001           5.98927e+000           9.89269e-001           8.92690e-002           9.26899e-003           2.68991e-004
                   23.60    426.05669                                0.00000             75.297                                        4.26057e+002           2.60567e+001           6.05669e+000           5.66915e-002           5.66915e-002           6.69152e-003           6.91522e-004
                   23.70    426.11972                                0.00000             75.297                                        4.26120e+002           2.61197e+001           6.11972e+000           1.19722e-001           1.97217e-002           9.72171e-003           7.21711e-004
                   23.80    426.19400                                0.00000             75.295                                        4.26194e+002           2.61940e+001           6.19400e+000           1.94000e-001           9.40000e-002           3.99996e-003           9.99957e-004
                   23.90    426.24655                                0.00000             75.291                                        4.26247e+002           2.62466e+001           6.24655e+000           2.46550e-001           4.65502e-002           6.55018e-003           5.50183e-004
                   24.00    426.28605                                0.00000             75.289                                        4.26286e+002           2.62861e+001           6.28605e+000           2.86052e-001           8.60523e-002           6.05232e-003           5.23170e-005
                   24.10    426.33106                                0.00000             75.289                                        4.26331e+002           2.63311e+001           6.33106e+000           3.31065e-001           3.10649e-002           1.06492e-003           6.49219e-005
                   24.20    426.37712                                0.00000             75.289                                        4.26377e+002           2.63771e+001           6.37712e+000           3.77118e-001           7.71184e-002           7.11839e-003           1.18390e-004
                   24.30    426.40441                                0.00000             75.289                                        4.26404e+002           2.64044e+001           6.40441e+000           4.04413e-001           4.41301e-003           4.41301e-003           4.13009e-004
                   24.40    426.42800                                0.00000             75.289                                        4.26428e+002           2.64280e+001           6.42800e+000           4.27997e-001           2.79974e-002           7.99737e-003           9.97373e-004
