~VERSION INFORMATION
VERS                    .            2.0                                    :CWLS LOG ASCII STANDARD
WRAP                    .            NO                                     :ONE LINE PER TIME STEP


~WELL INFORMATION
#MNEM                   .UNIT        DATA                                    DESCRIPTION
#________________________________________________________________________________________
STRTTIME                .HH/MM/SS    19:52:58                               :START TIME
STOPTIME                .HH/MM/SS    19:58:21                               :STOP TIME
STRT                    .s           2.10                                   :START DATA
STOP                    .s           321.30                                 :STOP DATA
STEP                    .s           0.10                                   :MEASUREMENT TIME INTERVAL
NULL                    .            -999.25                                :NULL VALUE
COMP                    .            Statoil ASA                            :COMPANY
FLD                     .            Volve                                  :FIELD
WELL                    .            15/9-F-11 A                            :WELL
RUN                     .            8                                      :RUN
LOC                     .            Maersk Inspirer                        :LOCATION
PROV                    .            na                                     :PROVINCE
SRVC                    .            Baker Hughes INTEQ                     :SERVICE COMPANY
DATE                    .YY/MM/DD    13/05/23                               :LOG DATE
UWI                     .                                                   :UNIQUE WELL ID
DEPTHMD                 .m           3602.0                                 :MEASURED DEPTH
DEPTHTVD                .m           3003.9                                 :TRUE VERTICAL DEPTH


~CURVE INFORMATION
#MNEM                   .UNIT        API CODES                               DESCRIPTION
#________________________________________________________________________________________
TIME                    .s                                                  :01 TIME
DD_PRESS                .bar                                                :02 DRAW DOWN PRESSURE
DD_VOLUME               .cm3                                                :03 INCREMENTAL DRAW DOWN VOLUME
TEMP                    .degC                                               :04 TRANSDUCER TEMPERATURE
DD_PRESS_MOD_1000       .bar                                                :05 DRAW DOWN PRESSURE MOD 1000
DD_PRESS_MOD_100        .bar                                                :06 DRAW DOWN PRESSURE MOD 100
DD_PRESS_MOD_10         .bar                                                :07 DRAW DOWN PRESSURE MOD 10
DD_PRESS_MOD_1          .bar                                                :08 DRAW DOWN PRESSURE MOD 1
DD_PRESS_MOD_01         .bar                                                :09 DRAW DOWN PRESSURE MOD 01
DD_PRESS_MOD_001        .bar                                                :10 DRAW DOWN PRESSURE MOD 001
DD_PRESS_MOD_0001       .bar                                                :11 DRAW DOWN PRESSURE MOD 0001


~PARAMETER INFORMATION
#MNEM                   .UNIT        VALUE                                   DESCRIPTION
#________________________________________________________________________________________
TOOLFACE                .deg         -40.9                                  :01 TOOLFACE
PUMP_CAPACITY           .bar         400                                    :02 NOMINAL DRAW DOWN PUMP CAPACITY
PUMP_LIMIT              .bar         240                                    :03 DOWNLINK PUMP LIMIT
TIME_LIMIT              .min         10                                     :04 DOWNLINK MAX TIME
TEST_TYPE               .            REPEAT                                 :05 DOWNLINK
TEST_TYPE               .            HIGH MOBILITY                          :06 DOWNLINK
DD_PIST_A               .cm2         3.1416                                 :07 DRAW DOWN PISTON AREA
V_SYS                   .cm3         131.0000                               :08 SYSTEM VOLUME
PROBE_ID                .cm          1.2700                                 :09 TTK PROBE ID
G0                      .            4.6700                                 :10 GEOMETRY FACTOR


~A                  TIME     DD_PRESS                              DD_VOLUME               TEMP                                   DD_PRESS_MOD_1000       DD_PRESS_MOD_100        DD_PRESS_MOD_10         DD_PRESS_MOD_1        DD_PRESS_MOD_01       DD_PRESS_MOD_001      DD_PRESS_MOD_0001
# ...
                   66.50    341.37059                               10.57399             70.984                                        3.41371e+002           4.13706e+001           1.37059e+000           3.70591e-001           7.05914e-002           5.91381e-004           5.91381e-004
                   66.60    341.41715                               10.57399             70.984                                        3.41417e+002           4.14172e+001           1.41715e+000           4.17150e-001           1.71503e-002           7.15026e-003           1.50261e-004
                   66.70    341.50946                               10.57399             70.984                                        3.41509e+002           4.15095e+001           1.50946e+000           5.09456e-001           9.45555e-003           9.45555e-003           4.55547e-004
                   66.80    341.46000                               10.57399             70.984                                        3.41460e+002           4.14600e+001           1.46000e+000           4.59995e-001           5.99951e-002           9.99511e-003           9.95107e-004
                   66.90    341.39763                               10.57399             70.984                                        3.41398e+002           4.13976e+001           1.39763e+000           3.97631e-001           9.76306e-002           7.63059e-003           6.30592e-004
                   67.00    341.45883                               10.57399             70.982                                        3.41459e+002           4.14588e+001           1.45883e+000           4.58831e-001           5.88311e-002           8.83107e-003           8.31069e-004
                   67.10    341.46883                               10.57399             70.979                                        3.41469e+002           4.14688e+001           1.46883e+000           4.68831e-001           6.88306e-002           8.83060e-003           8.30601e-004
                   67.20    341.41251                               10.57399             70.977                                        3.41413e+002           4.14125e+001           1.41251e+000           4.12511e-001           1.25112e-002           2.51119e-003           5.11191e-004
                   67.30    341.42300                               10.57399             70.977                                        3.41423e+002           4.14230e+001           1.42300e+000           4.23000e-001           2.30001e-002           3.00008e-003           7.84773e-008
                   67.40    341.48102                               10.57399             70.977                                        3.41481e+002           4.14810e+001           1.48102e+000           4.81022e-001           8.10223e-002           1.02232e-003           2.23215e-005
                   67.50    341.50371                               10.57399             70.977                                        3.41504e+002           4.15037e+001           1.50371e+000           5.03713e-001           3.71337e-003           3.71337e-003           7.13366e-004
                   67.60    341.43771                               10.57399             70.979                                        3.41438e+002           4.14377e+001           1.43771e+000           4.37713e-001           3.77131e-002           7.71307e-003           7.13070e-004
                   67.70    341.37048                               10.57399             70.982                                        3.41370e+002           4.13705e+001           1.37048e+000           3.70475e-001           7.04754e-002           4.75433e-004           4.75433e-004
                   67.80    341.42651                               10.57399             70.982                                        3.41427e+002           4.14265e+001           1.42651e+000           4.26508e-001           2.65077e-002           6.50773e-003           5.07729e-004
                   67.90    341.49571                               10.57399             70.979                                        3.41496e+002           4.14957e+001           1.49571e+000           4.95707e-001           9.57066e-002           5.70664e-003           7.06639e-004
                   68.00    341.47462                               10.57399             70.977                                        3.41475e+002           4.14746e+001           1.47462e+000           4.74624e-001           7.46240e-002           4.62398e-003           6.23976e-004
                   68.10    341.43110                               10.57399             70.977                                        3.41431e+002           4.14311e+001           1.43110e+000           4.31102e-001           3.11015e-002           1.10155e-003           1.01546e-004
                   68.20    341.47328                               10.57399             70.977                                        3.41473e+002           4.14733e+001           1.47328e+000           4.73279e-001           7.32786e-002           3.27860e-003           2.78600e-004
                   68.30    341.53680                               10.57399             70.977                                        3.41537e+002           4.15368e+001           1.53680e+000           5.36801e-001           3.68009e-002           6.80093e-003           8.00925e-004
                   68.40    341.51817                               10.57399             70.979                                        3.41518e+002           4.15182e+001           1.51817e+000           5.18175e-001           1.81746e-002           8.17463e-003           1.74625e-004
                   68.50    341.46274                               10.57399             70.980                                        3.41463e+002           4.14627e+001           1.46274e+000           4.62741e-001           6.27405e-002           2.74051e-003           7.40510e-004
                   68.60    341.47984                               10.57399             70.979                                        3.41480e+002           4.14798e+001           1.47984e+000           4.79843e-001           7.98434e-002           9.84340e-003           8.43401e-004
                   68.70    341.50177                               10.57399             70.977                                        3.41502e+002           4.15018e+001           1.50177e+000           5.01766e-001           1.76588e-003           1.76588e-003           7.65882e-004
                   68.80    341.44753                               10.57399             70.977                                        3.41448e+002           4.14475e+001           1.44753e+000           4.47529e-001           4.75294e-002           7.52940e-003           5.29404e-004
                   68.90    341.39432                               10.57399             70.977                                        3.41394e+002           4.13943e+001           1.39432e+000           3.94319e-001           9.43189e-002           4.31894e-003           3.18936e-004
                   69.00    341.46464                               10.57399             70.977                                        3.41465e+002           4.14646e+001           1.46464e+000           4.64638e-001           6.46381e-002           4.63805e-003           6.38055e-004
                   69.10    341.52374                               10.57399             70.977                                        3.41524e+002           4.15237e+001           1.52374e+000           5.23739e-001           2.37390e-002           3.73896e-003           7.38955e-004
                   69.20    341.47019                               10.57399             70.977                                        3.41470e+002           4.14702e+001           1.47019e+000           4.70189e-001           7.01891e-002           1.89085e-004           1.89085e-004
