~VERSION INFORMATION
VERS                    .            2.0                                    :CWLS LOG ASCII STANDARD
WRAP                    .            NO                                     :ONE LINE PER TIME STEP


~WELL INFORMATION
#MNEM                   .UNIT        DATA                                    DESCRIPTION
#________________________________________________________________________________________
STRTTIME                .HH/MM/SS    00:10:18                               :START TIME
STOPTIME                .HH/MM/SS    00:13:47                               :STOP TIME
STRT                    .s           2.10                                   :START DATA
STOP                    .s           207.40                                 :STOP DATA
STEP                    .s           0.10                                   :MEASUREMENT TIME INTERVAL
NULL                    .            -999.25                                :NULL VALUE
COMP                    .            Statoil ASA                            :COMPANY
FLD                     .            Volve                                  :FIELD
WELL                    .            15/9-F-1                               :WELL
RUN                     .            4                                      :RUN
LOC                     .            Maersk Inspirer                        :LOCATION
PROV                    .            na                                     :PROVINCE
SRVC                    .            Baker Hughes INTEQ                     :SERVICE COMPANY
DATE                    .YY/MM/DD    13/08/19                               :LOG DATE
UWI                     .                                                   :UNIQUE WELL ID
DEPTHMD                 .m           3332.4                                 :MEASURED DEPTH
DEPTHTVD                .m           3056.0                                 :TRUE VERTICAL DEPTH


~CURVE INFORMATION
#MNEM                   .UNIT        API CODES                               DESCRIPTION
#________________________________________________________________________________________
TIME                    .s                                                  :01 TIME
DD_PRESS                .bar                                                :02 DRAW DOWN PRESSURE
DD_VOLUME               .cm3                                                :03 INCREMENTAL DRAW DOWN VOLUME
TEMP                    .degC                                               :04 TRANSDUCER TEMPERATURE
DD_PRESS_MOD_1000       .bar                                                :05 DRAW DOWN PRESSURE MOD 1000
DD_PRESS_MOD_100        .bar                                                :06 DRAW DOWN PRESSURE MOD 100
DD_PRESS_MOD_10         .bar                                                :07 DRAW DOWN PRESSURE MOD 10
DD_PRESS_MOD_1          .bar                                                :08 DRAW DOWN PRESSURE MOD 1
DD_PRESS_MOD_01         .bar                                                :09 DRAW DOWN PRESSURE MOD 01
DD_PRESS_MOD_001        .bar                                                :10 DRAW DOWN PRESSURE MOD 001
DD_PRESS_MOD_0001       .bar                                                :11 DRAW DOWN PRESSURE MOD 0001


~PARAMETER INFORMATION
#MNEM                   .UNIT        VALUE                                   DESCRIPTION
#________________________________________________________________________________________
TOOLFACE                .deg         78.2                                   :01 TOOLFACE
PUMP_CAPACITY           .bar         400                                    :02 NOMINAL DRAW DOWN PUMP CAPACITY
PUMP_LIMIT              .bar         240                                    :03 DOWNLINK PUMP LIMIT
TIME_LIMIT              .min         10                                     :04 DOWNLINK MAX TIME
TEST_TYPE               .            LOW MOBILITY                           :05 DOWNLINK
DD_PIST_A               .cm2         3.1416                                 :06 DRAW DOWN PISTON AREA
V_SYS                   .cm3         131.0000                               :07 SYSTEM VOLUME
PROBE_ID                .cm          1.2700                                 :08 TTK PROBE ID
G0                      .            4.6700                                 :09 GEOMETRY FACTOR


~A                  TIME     DD_PRESS                              DD_VOLUME               TEMP                                   DD_PRESS_MOD_1000       DD_PRESS_MOD_100        DD_PRESS_MOD_10         DD_PRESS_MOD_1        DD_PRESS_MOD_01       DD_PRESS_MOD_001      DD_PRESS_MOD_0001
# ...
                   83.30    340.64352                               10.77702             74.711                                        3.40644e+002           4.06435e+001           6.43525e-001           6.43525e-001           4.35248e-002           3.52485e-003           5.24846e-004
                   83.40    340.64269                               10.77702             74.711                                        3.40643e+002           4.06427e+001           6.42685e-001           6.42685e-001           4.26853e-002           2.68528e-003           6.85284e-004
                   83.50    340.64331                               10.77702             74.711                                        3.40643e+002           4.06433e+001           6.43312e-001           6.43312e-001           4.33117e-002           3.31172e-003           3.11721e-004
                   83.60    340.64456                               10.77702             74.711                                        3.40645e+002           4.06446e+001           6.44557e-001           6.44557e-001           4.45569e-002           4.55690e-003           5.56904e-004
                   83.70    340.64509                               10.77702             74.711                                        3.40645e+002           4.06451e+001           6.45094e-001           6.45094e-001           4.50943e-002           5.09434e-003           9.43417e-005
                   83.80    340.64368                               10.77702             74.711                                        3.40644e+002           4.06437e+001           6.43676e-001           6.43676e-001           4.36762e-002           3.67622e-003           6.76219e-004
                   83.90    340.64306                               10.77702             74.711                                        3.40643e+002           4.06431e+001           6.43060e-001           6.43060e-001           4.30597e-002           3.05965e-003           5.96522e-005
                   84.00    340.64325                               10.77702             74.711                                        3.40643e+002           4.06432e+001           6.43246e-001           6.43246e-001           4.32458e-002           3.24580e-003           2.45795e-004
                   84.10    340.64379                               10.77702             74.711                                        3.40644e+002           4.06438e+001           6.43786e-001           6.43786e-001           4.37857e-002           3.78570e-003           7.85700e-004
                   84.20    340.64382                               10.77702             74.711                                        3.40644e+002           4.06438e+001           6.43815e-001           6.43815e-001           4.38152e-002           3.81521e-003           8.15213e-004
                   84.30    340.64225                               10.77702             74.711                                        3.40642e+002           4.06422e+001           6.42248e-001           6.42248e-001           4.22482e-002           2.24819e-003           2.48187e-004
                   84.40    340.63909                               10.77702             74.711                                        3.40639e+002           4.06391e+001           6.39086e-001           6.39086e-001           3.90863e-002           9.08628e-003           8.62827e-005
                   84.50    340.63938                               10.77702             74.711                                        3.40639e+002           4.06394e+001           6.39376e-001           6.39376e-001           3.93759e-002           9.37594e-003           3.75937e-004
                   84.60    340.64233                               10.77702             74.711                                        3.40642e+002           4.06423e+001           6.42328e-001           6.42328e-001           4.23285e-002           2.32848e-003           3.28475e-004
                   84.70    340.64340                               10.77702             74.711                                        3.40643e+002           4.06434e+001           6.43402e-001           6.43402e-001           4.34020e-002           3.40200e-003           4.02004e-004
                   84.80    340.64310                               10.77702             74.711                                        3.40643e+002           4.06431e+001           6.43104e-001           6.43104e-001           4.31042e-002           3.10419e-003           1.04193e-004
                   84.90    340.64375                               10.77702             74.711                                        3.40644e+002           4.06438e+001           6.43754e-001           6.43754e-001           4.37537e-002           3.75368e-003           7.53676e-004
                   85.00    340.64153                               10.77702             74.711                                        3.40642e+002           4.06415e+001           6.41528e-001           6.41528e-001           4.15284e-002           1.52840e-003           5.28396e-004
                   85.10    340.63965                               10.77702             74.711                                        3.40640e+002           4.06396e+001           6.39647e-001           6.39647e-001           3.96473e-002           9.64734e-003           6.47339e-004
                   85.20    340.64073                               10.77702             74.711                                        3.40641e+002           4.06407e+001           6.40729e-001           6.40729e-001           4.07285e-002           7.28518e-004           7.28518e-004
                   85.30    340.64253                               10.77702             74.711                                        3.40643e+002           4.06425e+001           6.42531e-001           6.42531e-001           4.25305e-002           2.53054e-003           5.30544e-004
                   85.40    340.64177                               10.77702             74.711                                        3.40642e+002           4.06418e+001           6.41774e-001           6.41774e-001           4.17740e-002           1.77401e-003           7.74009e-004
                   85.50    340.64261                               10.77702             74.711                                        3.40643e+002           4.06426e+001           6.42606e-001           6.42606e-001           4.26064e-002           2.60642e-003           6.06415e-004
                   85.60    340.64393                               10.77702             74.711                                        3.40644e+002           4.06439e+001           6.43927e-001           6.43927e-001           4.39273e-002           3.92726e-003           9.27261e-004
                   85.70    340.64414                               10.77702             74.711                                        3.40644e+002           4.06441e+001           6.44137e-001           6.44137e-001           4.41367e-002           4.13672e-003           1.36717e-004
                   85.80    340.64435                               10.77702             74.711                                        3.40644e+002           4.06443e+001           6.44347e-001           6.44347e-001           4.43470e-002           4.34703e-003           3.47033e-004
                   85.90    340.64469                               10.77702             74.711                                        3.40645e+002           4.06447e+001           6.44690e-001           6.44690e-001           4.46901e-002           4.69009e-003           6.90088e-004
                   86.00    340.64413                               10.77702             74.711                                        3.40644e+002           4.06441e+001           6.44131e-001           6.44131e-001           4.41312e-002           4.13120e-003           1.31202e-004
