~VERSION INFORMATION
VERS                    .            2.0                                    :CWLS LOG ASCII STANDARD
WRAP                    .            NO                                     :ONE LINE PER TIME STEP


~WELL INFORMATION
#MNEM                   .UNIT        DATA                                    DESCRIPTION
#________________________________________________________________________________________
STRTTIME                .HH/MM/SS    10:48:38                               :START TIME
STOPTIME                .HH/MM/SS    10:51:35                               :STOP TIME
STRT                    .s           2.10                                   :START DATA
STOP                    .s           175.10                                 :STOP DATA
STEP                    .s           0.10                                   :MEASUREMENT TIME INTERVAL
NULL                    .            -999.25                                :NULL VALUE
COMP                    .            Statoil ASA                            :COMPANY
FLD                     .            Volve                                  :FIELD
WELL                    .            15/9-F-11 A                            :WELL
RUN                     .            8                                      :RUN
LOC                     .            Maersk Inspirer                        :LOCATION
PROV                    .            na                                     :PROVINCE
SRVC                    .            Baker Hughes INTEQ                     :SERVICE COMPANY
DATE                    .YY/MM/DD    13/05/21                               :LOG DATE
UWI                     .                                                   :UNIQUE WELL ID
DEPTHMD                 .m           3635.2                                 :MEASURED DEPTH
DEPTHTVD                .m           3029.3                                 :TRUE VERTICAL DEPTH


~CURVE INFORMATION
#MNEM                   .UNIT        API CODES                               DESCRIPTION
#________________________________________________________________________________________
TIME                    .s                                                  :01 TIME
DD_PRESS                .bar                                                :02 DRAW DOWN PRESSURE
DD_VOLUME               .cm3                                                :03 INCREMENTAL DRAW DOWN VOLUME
TEMP                    .degC                                               :04 TRANSDUCER TEMPERATURE
DD_PRESS_MOD_1000       .bar                                                :05 DRAW DOWN PRESSURE MOD 1000
DD_PRESS_MOD_100        .bar                                                :06 DRAW DOWN PRESSURE MOD 100
DD_PRESS_MOD_10         .bar                                                :07 DRAW DOWN PRESSURE MOD 10
DD_PRESS_MOD_1          .bar                                                :08 DRAW DOWN PRESSURE MOD 1
DD_PRESS_MOD_01         .bar                                                :09 DRAW DOWN PRESSURE MOD 01
DD_PRESS_MOD_001        .bar                                                :10 DRAW DOWN PRESSURE MOD 001
DD_PRESS_MOD_0001       .bar                                                :11 DRAW DOWN PRESSURE MOD 0001


~PARAMETER INFORMATION
#MNEM                   .UNIT        VALUE                                   DESCRIPTION
#________________________________________________________________________________________
TOOLFACE                .deg         69.1                                   :01 TOOLFACE
PUMP_CAPACITY           .bar         400                                    :02 NOMINAL DRAW DOWN PUMP CAPACITY
PUMP_LIMIT              .bar         240                                    :03 DOWNLINK PUMP LIMIT
TIME_LIMIT              .min         10                                     :04 DOWNLINK MAX TIME
TEST_TYPE               .            REPEAT                                 :05 DOWNLINK
TEST_TYPE               .            HIGH MOBILITY                          :06 DOWNLINK
DD_PIST_A               .cm2         3.1416                                 :07 DRAW DOWN PISTON AREA
V_SYS                   .cm3         131.0000                               :08 SYSTEM VOLUME
PROBE_ID                .cm          1.2700                                 :09 TTK PROBE ID
G0                      .            4.6700                                 :10 GEOMETRY FACTOR


~A                  TIME     DD_PRESS                              DD_VOLUME               TEMP                                   DD_PRESS_MOD_1000       DD_PRESS_MOD_100        DD_PRESS_MOD_10         DD_PRESS_MOD_1        DD_PRESS_MOD_01       DD_PRESS_MOD_001      DD_PRESS_MOD_0001
# ...
                  161.70    416.19092                                0.00000             80.680                                        4.16191e+002           1.61909e+001           6.19092e+000           1.90918e-001           9.09178e-002           9.17771e-004           9.17771e-004
                  161.80    416.19652                                0.00000             80.680                                        4.16197e+002           1.61965e+001           6.19652e+000           1.96517e-001           9.65168e-002           6.51683e-003           5.16832e-004
                  161.90    416.20149                                0.00000             80.680                                        4.16201e+002           1.62015e+001           6.20149e+000           2.01486e-001           1.48595e-003           1.48595e-003           4.85948e-004
                  162.00    416.19635                                0.00000             80.680                                        4.16196e+002           1.61963e+001           6.19635e+000           1.96349e-001           9.63490e-002           6.34902e-003           3.49025e-004
                  162.10    416.20484                                0.00000             80.680                                        4.16205e+002           1.62048e+001           6.20484e+000           2.04835e-001           4.83520e-003           4.83520e-003           8.35203e-004
                  162.20    416.23471                                0.00000             80.680                                        4.16235e+002           1.62347e+001           6.23471e+000           2.34712e-001           3.47123e-002           4.71229e-003           7.12292e-004
                  162.30    416.23967                                0.00000             80.680                                        4.16240e+002           1.62397e+001           6.23967e+000           2.39669e-001           3.96691e-002           9.66910e-003           6.69104e-004
                  162.40    416.22313                                0.00000             80.682                                        4.16223e+002           1.62231e+001           6.22313e+000           2.23130e-001           2.31301e-002           3.13015e-003           1.30147e-004
                  162.50    416.22848                                0.00000             80.686                                        4.16228e+002           1.62285e+001           6.22848e+000           2.28485e-001           2.84849e-002           8.48490e-003           4.84897e-004
                  162.60    416.26672                                0.00000             80.688                                        4.16267e+002           1.62667e+001           6.26672e+000           2.66715e-001           6.67151e-002           6.71511e-003           7.15108e-004
                  162.70    416.27636                                0.00000             80.688                                        4.16276e+002           1.62764e+001           6.27636e+000           2.76358e-001           7.63584e-002           6.35845e-003           3.58447e-004
                  162.80    416.25536                                0.00000             80.688                                        4.16255e+002           1.62554e+001           6.25536e+000           2.55363e-001           5.53630e-002           5.36302e-003           3.63018e-004
                  162.90    416.24674                                0.00000             80.688                                        4.16247e+002           1.62467e+001           6.24674e+000           2.46744e-001           4.67439e-002           6.74393e-003           7.43932e-004
                  163.00    416.24976                                0.00000             80.688                                        4.16250e+002           1.62498e+001           6.24976e+000           2.49758e-001           4.97584e-002           9.75844e-003           7.58443e-004
                  163.10    416.24289                                0.00000             80.688                                        4.16243e+002           1.62429e+001           6.24289e+000           2.42888e-001           4.28878e-002           2.88776e-003           8.87758e-004
                  163.20    416.24320                                0.00000             80.688                                        4.16243e+002           1.62432e+001           6.24320e+000           2.43204e-001           4.32044e-002           3.20445e-003           2.04448e-004
                  163.30    416.25281                                0.00000             80.688                                        4.16253e+002           1.62528e+001           6.25281e+000           2.52815e-001           5.28147e-002           2.81466e-003           8.14665e-004
                  163.40    416.26053                                0.00000             80.688                                        4.16261e+002           1.62605e+001           6.26053e+000           2.60528e-001           6.05275e-002           5.27524e-004           5.27524e-004
                  163.50    416.25671                                0.00000             80.688                                        4.16257e+002           1.62567e+001           6.25671e+000           2.56713e-001           5.67125e-002           6.71252e-003           7.12519e-004
                  163.60    416.25217                                0.00000             80.688                                        4.16252e+002           1.62522e+001           6.25217e+000           2.52166e-001           5.21663e-002           2.16626e-003           1.66258e-004
                  163.70    416.26963                                0.00000             80.690                                        4.16270e+002           1.62696e+001           6.26963e+000           2.69628e-001           6.96278e-002           9.62778e-003           6.27780e-004
                  163.80    416.28071                                0.00000             80.693                                        4.16281e+002           1.62807e+001           6.28071e+000           2.80711e-001           8.07112e-002           7.11157e-004           7.11157e-004
                  163.90    416.26442                                0.00000             80.695                                        4.16264e+002           1.62644e+001           6.26442e+000           2.64416e-001           6.44158e-002           4.41578e-003           4.15781e-004
                  164.00    416.24374                                0.00000             80.695                                        4.16244e+002           1.62437e+001           6.24374e+000           2.43745e-001           4.37449e-002           3.74491e-003           7.44914e-004
                  164.10    416.24036                                0.00000             80.695                                        4.16240e+002           1.62404e+001           6.24036e+000           2.40359e-001           4.03588e-002           3.58757e-004           3.58757e-004
                  164.20    416.24407                                0.00000             80.695                                        4.16244e+002           1.62441e+001           6.24407e+000           2.44072e-001           4.40716e-002           4.07155e-003           7.15531e-005
                  164.30    416.24605                                0.00000             80.695                                        4.16246e+002           1.62460e+001           6.24605e+000           2.46047e-001           4.60465e-002           6.04654e-003           4.65363e-005
                  164.40    416.23346                                0.00000             80.695                                        4.16233e+002           1.62335e+001           6.23346e+000           2.33464e-001           3.34637e-002           3.46375e-003           4.63747e-004
