~VERSION INFORMATION
VERS                    .            2.0                                    :CWLS LOG ASCII STANDARD
WRAP                    .            NO                                     :ONE LINE PER TIME STEP


~WELL INFORMATION
#MNEM                   .UNIT        DATA                                    DESCRIPTION
#________________________________________________________________________________________
STRTTIME                .HH/MM/SS    09:08:53                               :START TIME
STOPTIME                .HH/MM/SS    09:11:57                               :STOP TIME
STRT                    .s           2.10                                   :START DATA
STOP                    .s           182.80                                 :STOP DATA
STEP                    .s           0.10                                   :MEASUREMENT TIME INTERVAL
NULL                    .            -999.25                                :NULL VALUE
COMP                    .            Statoil ASA                            :COMPANY
FLD                     .            Volve                                  :FIELD
WELL                    .            15/9-F-11 A                            :WELL
RUN                     .            8                                      :RUN
LOC                     .            Maersk Inspirer                        :LOCATION
PROV                    .            na                                     :PROVINCE
SRVC                    .            Baker Hughes INTEQ                     :SERVICE COMPANY
DATE                    .YY/MM/DD    13/05/21                               :LOG DATE
UWI                     .                                                   :UNIQUE WELL ID
DEPTHMD                 .m           3671.1                                 :MEASURED DEPTH
DEPTHTVD                .m           3056.7                                 :TRUE VERTICAL DEPTH


~CURVE INFORMATION
#MNEM                   .UNIT        API CODES                               DESCRIPTION
#________________________________________________________________________________________
TIME                    .s                                                  :01 TIME
DD_PRESS                .bar                                                :02 DRAW DOWN PRESSURE
DD_VOLUME               .cm3                                                :03 INCREMENTAL DRAW DOWN VOLUME
TEMP                    .degC                                               :04 TRANSDUCER TEMPERATURE
DD_PRESS_MOD_1000       .bar                                                :05 DRAW DOWN PRESSURE MOD 1000
DD_PRESS_MOD_100        .bar                                                :06 DRAW DOWN PRESSURE MOD 100
DD_PRESS_MOD_10         .bar                                                :07 DRAW DOWN PRESSURE MOD 10
DD_PRESS_MOD_1          .bar                                                :08 DRAW DOWN PRESSURE MOD 1
DD_PRESS_MOD_01         .bar                                                :09 DRAW DOWN PRESSURE MOD 01
DD_PRESS_MOD_001        .bar                                                :10 DRAW DOWN PRESSURE MOD 001
DD_PRESS_MOD_0001       .bar                                                :11 DRAW DOWN PRESSURE MOD 0001


~PARAMETER INFORMATION
#MNEM                   .UNIT        VALUE                                   DESCRIPTION
#________________________________________________________________________________________
TOOLFACE                .deg         -56.2                                  :01 TOOLFACE
PUMP_CAPACITY           .bar         400                                    :02 NOMINAL DRAW DOWN PUMP CAPACITY
PUMP_LIMIT              .bar         240                                    :03 DOWNLINK PUMP LIMIT
TIME_LIMIT              .min         10                                     :04 DOWNLINK MAX TIME
TEST_TYPE               .            REPEAT                                 :05 DOWNLINK
TEST_TYPE               .            HIGH MOBILITY                          :06 DOWNLINK
DD_PIST_A               .cm2         3.1416                                 :07 DRAW DOWN PISTON AREA
V_SYS                   .cm3         131.0000                               :08 SYSTEM VOLUME
PROBE_ID                .cm          1.2700                                 :09 TTK PROBE ID
G0                      .            4.6700                                 :10 GEOMETRY FACTOR


~A                  TIME     DD_PRESS                              DD_VOLUME               TEMP                                   DD_PRESS_MOD_1000       DD_PRESS_MOD_100        DD_PRESS_MOD_10         DD_PRESS_MOD_1        DD_PRESS_MOD_01       DD_PRESS_MOD_001      DD_PRESS_MOD_0001
# ...
                   86.10    331.25549                               18.11048             82.383                                        3.31255e+002           3.12555e+001           1.25549e+000           2.55491e-001           5.54908e-002           5.49081e-003           4.90811e-004
                   86.20    331.89259                               18.18861             82.383                                        3.31893e+002           3.18926e+001           1.89259e+000           8.92595e-001           9.25946e-002           2.59463e-003           5.94634e-004
                   86.30    332.49945                               18.26261             82.383                                        3.32499e+002           3.24994e+001           2.49945e+000           4.99448e-001           9.94483e-002           9.44833e-003           4.48333e-004
                   86.40    333.12016                               18.33260             82.383                                        3.33120e+002           3.31202e+001           3.12016e+000           1.20158e-001           2.01584e-002           1.58428e-004           1.58428e-004
                   86.50    333.75971                               18.39844             82.383                                        3.33760e+002           3.37597e+001           3.75971e+000           7.59711e-001           5.97115e-002           9.71147e-003           7.11467e-004
                   86.60    334.37874                               18.46022             82.383                                        3.34379e+002           3.43787e+001           4.37874e+000           3.78735e-001           7.87351e-002           8.73514e-003           7.35140e-004
                   86.70    334.97493                               18.51800             82.383                                        3.34975e+002           3.49749e+001           4.97493e+000           9.74932e-001           7.49319e-002           4.93192e-003           9.31917e-004
                   86.80    335.59674                               18.57177             82.383                                        3.35597e+002           3.55967e+001           5.59674e+000           5.96741e-001           9.67414e-002           6.74140e-003           7.41401e-004
                   86.90    336.23572                               18.62136             82.383                                        3.36236e+002           3.62357e+001           6.23572e+000           2.35724e-001           3.57242e-002           5.72417e-003           7.24168e-004
                   87.00    336.86625                               18.66678             82.383                                        3.36866e+002           3.68662e+001           6.86625e+000           8.66247e-001           6.62472e-002           6.24721e-003           2.47206e-004
                   87.10    337.49594                               18.70815             82.383                                        3.37496e+002           3.74959e+001           7.49594e+000           4.95944e-001           9.59438e-002           5.94377e-003           9.43771e-004
                   87.20    338.13502                               18.74552             82.383                                        3.38135e+002           3.81350e+001           8.13502e+000           1.35022e-001           3.50222e-002           5.02220e-003           2.22015e-005
                   87.30    338.77432                               18.77883             82.383                                        3.38774e+002           3.87743e+001           8.77432e+000           7.74320e-001           7.43201e-002           4.32008e-003           3.20084e-004
                   87.40    339.40319                               18.80792             82.383                                        3.39403e+002           3.94032e+001           9.40319e+000           4.03190e-001           3.18993e-003           3.18993e-003           1.89930e-004
                   87.50    340.02682                               18.83302             82.383                                        3.40027e+002           4.00268e+001           2.68212e-002           2.68212e-002           2.68212e-002           6.82115e-003           8.21151e-004
                   87.60    340.65033                               18.85413             82.383                                        3.40650e+002           4.06503e+001           6.50328e-001           6.50328e-001           5.03279e-002           3.27860e-004           3.27860e-004
                   87.70    341.29427                               18.87100             82.383                                        3.41294e+002           4.12943e+001           1.29427e+000           2.94268e-001           9.42678e-002           4.26778e-003           2.67783e-004
                   87.80    341.94232                               18.88376             82.383                                        3.41942e+002           4.19423e+001           1.94232e+000           9.42316e-001           4.23157e-002           2.31568e-003           3.15682e-004
                   87.90    342.57758                               18.89247             82.383                                        3.42578e+002           4.25776e+001           2.57758e+000           5.77580e-001           7.75801e-002           7.58006e-003           5.80059e-004
                   88.00    343.21337                               18.89700             82.383                                        3.43213e+002           4.32134e+001           3.21337e+000           2.13367e-001           1.33672e-002           3.36716e-003           3.67159e-004
                   88.10    343.80311                               18.89873             82.383                                        3.43803e+002           4.38031e+001           3.80311e+000           8.03113e-001           3.11316e-003           3.11316e-003           1.13158e-004
                   88.20    344.23542                               18.89928             82.383                                        3.44235e+002           4.42354e+001           4.23542e+000           2.35418e-001           3.54183e-002           5.41833e-003           4.18329e-004
                   88.30    344.50038                               18.89938             82.383                                        3.44500e+002           4.45004e+001           4.50038e+000           5.00382e-001           3.82078e-004           3.82078e-004           3.82078e-004
                   88.40    344.67903                               18.89938             82.383                                        3.44679e+002           4.46790e+001           4.67903e+000           6.79029e-001           7.90291e-002           9.02909e-003           2.90907e-005
                   88.50    344.80720                               18.89938             82.383                                        3.44807e+002           4.48072e+001           4.80720e+000           8.07204e-001           7.20353e-003           7.20353e-003           2.03530e-004
                   88.60    344.86981                               18.89938             82.383                                        3.44870e+002           4.48698e+001           4.86981e+000           8.69806e-001           6.98055e-002           9.80552e-003           8.05517e-004
                   88.70    344.90334                               18.89938             82.383                                        3.44903e+002           4.49033e+001           4.90334e+000           9.03335e-001           3.33502e-003           3.33502e-003           3.35021e-004
                   88.80    344.94821                               18.89938             82.383                                        3.44948e+002           4.49482e+001           4.94821e+000           9.48211e-001           4.82112e-002           8.21116e-003           2.11164e-004
