~VERSION INFORMATION
VERS                    .            2.0                                    :CWLS LOG ASCII STANDARD
WRAP                    .            NO                                     :ONE LINE PER TIME STEP


~WELL INFORMATION
#MNEM                   .UNIT        DATA                                    DESCRIPTION
#________________________________________________________________________________________
STRTTIME                .HH/MM/SS    01:04:55                               :START TIME
STOPTIME                .HH/MM/SS    01:07:44                               :STOP TIME
STRT                    .s           2.10                                   :START DATA
STOP                    .s           167.40                                 :STOP DATA
STEP                    .s           0.10                                   :MEASUREMENT TIME INTERVAL
NULL                    .            -999.25                                :NULL VALUE
COMP                    .            Statoil ASA                            :COMPANY
FLD                     .            Volve                                  :FIELD
WELL                    .            15/9-F-1 C                             :WELL
RUN                     .            4                                      :RUN
LOC                     .                                                   :LOCATION
PROV                    .            na                                     :PROVINCE
SRVC                    .            Baker Hughes INTEQ                     :SERVICE COMPANY
DATE                    .YY/MM/DD    14/03/15                               :LOG DATE
UWI                     .                                                   :UNIQUE WELL ID
DEPTHMD                 .m           3720.1                                 :MEASURED DEPTH
DEPTHTVD                .m           3050.6                                 :TRUE VERTICAL DEPTH


~CURVE INFORMATION
#MNEM                   .UNIT        API CODES                               DESCRIPTION
#________________________________________________________________________________________
TIME                    .s                                                  :01 TIME
DD_PRESS                .bar                                                :02 DRAW DOWN PRESSURE
DD_VOLUME               .cm3                                                :03 INCREMENTAL DRAW DOWN VOLUME
TEMP                    .degC                                               :04 TRANSDUCER TEMPERATURE
DD_PRESS_MOD_1000       .bar                                                :05 DRAW DOWN PRESSURE MOD 1000
DD_PRESS_MOD_100        .bar                                                :06 DRAW DOWN PRESSURE MOD 100
DD_PRESS_MOD_10         .bar                                                :07 DRAW DOWN PRESSURE MOD 10
DD_PRESS_MOD_1          .bar                                                :08 DRAW DOWN PRESSURE MOD 1
DD_PRESS_MOD_01         .bar                                                :09 DRAW DOWN PRESSURE MOD 01
DD_PRESS_MOD_001        .bar                                                :10 DRAW DOWN PRESSURE MOD 001
DD_PRESS_MOD_0001       .bar                                                :11 DRAW DOWN PRESSURE MOD 0001


~PARAMETER INFORMATION
#MNEM                   .UNIT        VALUE                                   DESCRIPTION
#________________________________________________________________________________________
TOOLFACE                .deg         134.6                                  :01 TOOLFACE
PUMP_CAPACITY           .bar         400                                    :02 NOMINAL DRAW DOWN PUMP CAPACITY
PUMP_LIMIT              .bar         240                                    :03 DOWNLINK PUMP LIMIT
TIME_LIMIT              .min         10                                     :04 DOWNLINK MAX TIME
TEST_TYPE               .            REPEAT                                 :05 DOWNLINK
TEST_TYPE               .            HIGH MOBILITY                          :06 DOWNLINK
DD_PIST_A               .cm2         3.1416                                 :07 DRAW DOWN PISTON AREA
V_SYS                   .cm3         131.0000                               :08 SYSTEM VOLUME
PROBE_ID                .cm          1.2700                                 :09 TTK PROBE ID
G0                      .            4.6700                                 :10 GEOMETRY FACTOR


~A                  TIME     DD_PRESS                              DD_VOLUME               TEMP                                   DD_PRESS_MOD_1000       DD_PRESS_MOD_100        DD_PRESS_MOD_10         DD_PRESS_MOD_1        DD_PRESS_MOD_01       DD_PRESS_MOD_001      DD_PRESS_MOD_0001
# ...
                  142.10    348.85278                                0.00000             87.219                                        3.48853e+002           4.88528e+001           8.85278e+000           8.52780e-001           5.27797e-002           2.77972e-003           7.79718e-004
                  142.20    352.19504                                0.00000             87.219                                        3.52195e+002           5.21950e+001           2.19504e+000           1.95036e-001           9.50362e-002           5.03621e-003           3.62118e-005
                  142.30    358.75841                                0.00000             87.219                                        3.58758e+002           5.87584e+001           8.75841e+000           7.58409e-001           5.84089e-002           8.40890e-003           4.08897e-004
                  142.40    366.57179                                0.00000             87.219                                        3.66572e+002           6.65718e+001           6.57179e+000           5.71790e-001           7.17902e-002           1.79020e-003           7.90203e-004
                  142.50    374.37838                                0.00000             87.219                                        3.74378e+002           7.43784e+001           4.37838e+000           3.78378e-001           7.83780e-002           8.37797e-003           3.77975e-004
                  142.60    382.05779                                0.00000             87.219                                        3.82058e+002           8.20578e+001           2.05779e+000           5.77880e-002           5.77880e-002           7.78800e-003           7.88001e-004
                  142.70    389.62318                                0.00000             87.219                                        3.89623e+002           8.96232e+001           9.62318e+000           6.23185e-001           2.31849e-002           3.18492e-003           1.84922e-004
                  142.80    397.06144                                0.00000             87.219                                        3.97061e+002           9.70614e+001           7.06144e+000           6.14368e-002           6.14368e-002           1.43681e-003           4.36810e-004
                  142.90    404.25428                                0.00000             87.219                                        4.04254e+002           4.25428e+000           4.25428e+000           2.54280e-001           5.42797e-002           4.27971e-003           2.79709e-004
                  143.00    411.15014                                0.00000             87.219                                        4.11150e+002           1.11501e+001           1.15014e+000           1.50135e-001           5.01354e-002           1.35359e-004           1.35359e-004
                  143.10    417.69796                                0.00000             87.219                                        4.17698e+002           1.76980e+001           7.69796e+000           6.97961e-001           9.79606e-002           7.96063e-003           9.60630e-004
                  143.20    423.83429                                0.00000             87.219                                        4.23834e+002           2.38343e+001           3.83429e+000           8.34295e-001           3.42947e-002           4.29469e-003           2.94690e-004
                  143.30    429.13163                                0.00000             87.219                                        4.29132e+002           2.91316e+001           9.13163e+000           1.31628e-001           3.16284e-002           1.62839e-003           6.28390e-004
                  143.40    432.97852                                0.00000             87.219                                        4.32979e+002           3.29785e+001           2.97852e+000           9.78519e-001           7.85193e-002           8.51933e-003           5.19335e-004
                  143.50    436.32096                                0.00000             87.219                                        4.36321e+002           3.63210e+001           6.32096e+000           3.20959e-001           2.09589e-002           9.58914e-004           9.58914e-004
                  143.60    440.14826                                0.00000             87.219                                        4.40148e+002           4.01483e+001           1.48257e-001           1.48257e-001           4.82570e-002           8.25700e-003           2.57004e-004
                  143.70    443.64944                                0.00000             87.219                                        4.43649e+002           4.36494e+001           3.64944e+000           6.49438e-001           4.94378e-002           9.43782e-003           4.37815e-004
                  143.80    445.92876                                0.00000             87.219                                        4.45929e+002           4.59288e+001           5.92876e+000           9.28759e-001           2.87586e-002           8.75862e-003           7.58621e-004
                  143.90    447.23490                                0.00000             87.219                                        4.47235e+002           4.72349e+001           7.23490e+000           2.34900e-001           3.49002e-002           4.90018e-003           9.00175e-004
                  144.00    448.15460                                0.00000             87.219                                        4.48155e+002           4.81546e+001           8.15460e+000           1.54604e-001           5.46039e-002           4.60390e-003           6.03896e-004
                  144.10    448.83655                                0.00000             87.219                                        4.48837e+002           4.88365e+001           8.83655e+000           8.36545e-001           3.65455e-002           6.54548e-003           5.45481e-004
                  144.20    449.07945                                0.00000             87.219                                        4.49079e+002           4.90794e+001           9.07945e+000           7.94480e-002           7.94480e-002           9.44805e-003           4.48047e-004
                  144.30    448.68296                                0.00000             87.219                                        4.48683e+002           4.86830e+001           8.68296e+000           6.82960e-001           8.29601e-002           2.96010e-003           9.60104e-004
                  144.40    447.96824                                0.00000             87.221                                        4.47968e+002           4.79682e+001           7.96824e+000           9.68241e-001           6.82412e-002           8.24115e-003           2.41151e-004
                  144.50    447.14564                                0.00000             87.225                                        4.47146e+002           4.71456e+001           7.14564e+000           1.45638e-001           4.56382e-002           5.63819e-003           6.38191e-004
                  144.60    446.37309                                0.00000             87.227                                        4.46373e+002           4.63731e+001           6.37309e+000           3.73089e-001           7.30894e-002           3.08942e-003           8.94189e-005
                  144.70    445.99374                                0.00000             87.227                                        4.45994e+002           4.59937e+001           5.99374e+000           9.93742e-001           9.37423e-002           3.74234e-003           7.42344e-004
                  144.80    445.46194                                0.00000             87.227                                        4.45462e+002           4.54619e+001           5.46194e+000           4.61941e-001           6.19413e-002           1.94128e-003           9.41280e-004
