~VERSION INFORMATION
VERS                    .            2.0                                    :CWLS LOG ASCII STANDARD
WRAP                    .            NO                                     :ONE LINE PER TIME STEP


~WELL INFORMATION
#MNEM                   .UNIT        DATA                                    DESCRIPTION
#________________________________________________________________________________________
STRTTIME                .HH/MM/SS    11:07:04                               :START TIME
STOPTIME                .HH/MM/SS    11:10:49                               :STOP TIME
STRT                    .s           2.10                                   :START DATA
STOP                    .s           223.10                                 :STOP DATA
STEP                    .s           0.10                                   :MEASUREMENT TIME INTERVAL
NULL                    .            -999.25                                :NULL VALUE
COMP                    .            Statoil ASA                            :COMPANY
FLD                     .            Volve                                  :FIELD
WELL                    .            15/9-F-11 A                            :WELL
RUN                     .            8                                      :RUN
LOC                     .            Maersk Inspirer                        :LOCATION
PROV                    .            na                                     :PROVINCE
SRVC                    .            Baker Hughes INTEQ                     :SERVICE COMPANY
DATE                    .YY/MM/DD    13/05/21                               :LOG DATE
UWI                     .                                                   :UNIQUE WELL ID
DEPTHMD                 .m           3632.0                                 :MEASURED DEPTH
DEPTHTVD                .m           3026.9                                 :TRUE VERTICAL DEPTH


~CURVE INFORMATION
#MNEM                   .UNIT        API CODES                               DESCRIPTION
#________________________________________________________________________________________
TIME                    .s                                                  :01 TIME
DD_PRESS                .bar                                                :02 DRAW DOWN PRESSURE
DD_VOLUME               .cm3                                                :03 INCREMENTAL DRAW DOWN VOLUME
TEMP                    .degC                                               :04 TRANSDUCER TEMPERATURE
DD_PRESS_MOD_1000       .bar                                                :05 DRAW DOWN PRESSURE MOD 1000
DD_PRESS_MOD_100        .bar                                                :06 DRAW DOWN PRESSURE MOD 100
DD_PRESS_MOD_10         .bar                                                :07 DRAW DOWN PRESSURE MOD 10
DD_PRESS_MOD_1          .bar                                                :08 DRAW DOWN PRESSURE MOD 1
DD_PRESS_MOD_01         .bar                                                :09 DRAW DOWN PRESSURE MOD 01
DD_PRESS_MOD_001        .bar                                                :10 DRAW DOWN PRESSURE MOD 001
DD_PRESS_MOD_0001       .bar                                                :11 DRAW DOWN PRESSURE MOD 0001


~PARAMETER INFORMATION
#MNEM                   .UNIT        VALUE                                   DESCRIPTION
#________________________________________________________________________________________
TOOLFACE                .deg         66.7                                   :01 TOOLFACE
PUMP_CAPACITY           .bar         400                                    :02 NOMINAL DRAW DOWN PUMP CAPACITY
PUMP_LIMIT              .bar         240                                    :03 DOWNLINK PUMP LIMIT
TIME_LIMIT              .min         10                                     :04 DOWNLINK MAX TIME
TEST_TYPE               .            REPEAT                                 :05 DOWNLINK
TEST_TYPE               .            HIGH MOBILITY                          :06 DOWNLINK
DD_PIST_A               .cm2         3.1416                                 :07 DRAW DOWN PISTON AREA
V_SYS                   .cm3         131.0000                               :08 SYSTEM VOLUME
PROBE_ID                .cm          1.2700                                 :09 TTK PROBE ID
G0                      .            4.6700                                 :10 GEOMETRY FACTOR


~A                  TIME     DD_PRESS                              DD_VOLUME               TEMP                                   DD_PRESS_MOD_1000       DD_PRESS_MOD_100        DD_PRESS_MOD_10         DD_PRESS_MOD_1        DD_PRESS_MOD_01       DD_PRESS_MOD_001      DD_PRESS_MOD_0001
# ...
                   88.90    342.73694                               10.50478             80.602                                        3.42737e+002           4.27369e+001           2.73694e+000           7.36942e-001           3.69423e-002           6.94229e-003           9.42290e-004
                   89.00    342.72483                               10.50490             80.602                                        3.42725e+002           4.27248e+001           2.72483e+000           7.24831e-001           2.48311e-002           4.83110e-003           8.31098e-004
                   89.10    342.71096                               10.50498             80.602                                        3.42711e+002           4.27110e+001           2.71096e+000           7.10964e-001           1.09639e-002           9.63894e-004           9.63894e-004
                   89.20    342.72982                               10.50499             80.602                                        3.42730e+002           4.27298e+001           2.72982e+000           7.29821e-001           2.98214e-002           9.82144e-003           8.21436e-004
                   89.30    342.73999                               10.50526             80.602                                        3.42740e+002           4.27400e+001           2.73999e+000           7.39993e-001           3.99933e-002           9.99328e-003           9.93279e-004
                   89.40    342.69991                               10.50582             80.602                                        3.42700e+002           4.26999e+001           2.69991e+000           6.99909e-001           9.99089e-002           9.90890e-003           9.08902e-004
                   89.50    342.68801                               10.50579             80.602                                        3.42688e+002           4.26880e+001           2.68801e+000           6.88010e-001           8.80095e-002           8.00950e-003           9.50331e-006
                   89.60    342.65845                               10.50621             80.602                                        3.42658e+002           4.26584e+001           2.65845e+000           6.58447e-001           5.84468e-002           8.44683e-003           4.46831e-004
                   89.70    342.59853                               10.50713             80.602                                        3.42599e+002           4.25985e+001           2.59853e+000           5.98530e-001           9.85300e-002           8.53003e-003           5.30029e-004
                   89.80    342.53315                               10.50797             80.602                                        3.42533e+002           4.25332e+001           2.53315e+000           5.33150e-001           3.31501e-002           3.15007e-003           1.50067e-004
                   89.90    342.46857                               10.50907             80.602                                        3.42469e+002           4.24686e+001           2.46857e+000           4.68569e-001           6.85691e-002           8.56909e-003           5.69089e-004
                   90.00    342.39279                               10.51059             80.602                                        3.42393e+002           4.23928e+001           2.39279e+000           3.92792e-001           9.27915e-002           2.79151e-003           7.91505e-004
                   90.10    342.30707                               10.51225             80.602                                        3.42307e+002           4.23071e+001           2.30707e+000           3.07066e-001           7.06635e-003           7.06635e-003           6.63484e-005
                   90.20    342.21638                               10.51406             80.602                                        3.42216e+002           4.22164e+001           2.21638e+000           2.16375e-001           1.63754e-002           6.37540e-003           3.75399e-004
                   90.30    342.11679                               10.51623             80.602                                        3.42117e+002           4.21168e+001           2.11679e+000           1.16795e-001           1.67945e-002           6.79455e-003           7.94546e-004
                   90.40    341.99829                               10.51877             80.602                                        3.41998e+002           4.19983e+001           1.99829e+000           9.98288e-001           9.82885e-002           8.28849e-003           2.88486e-004
                   90.50    341.86862                               10.52147             80.602                                        3.41869e+002           4.18686e+001           1.86862e+000           8.68621e-001           6.86212e-002           8.62117e-003           6.21173e-004
                   90.60    341.73512                               10.52434             80.602                                        3.41735e+002           4.17351e+001           1.73512e+000           7.35124e-001           3.51243e-002           5.12433e-003           1.24327e-004
                   90.70    341.59829                               10.52763             80.602                                        3.41598e+002           4.15983e+001           1.59829e+000           5.98289e-001           9.82888e-002           8.28881e-003           2.88808e-004
                   90.80    341.44895                               10.53140             80.602                                        3.41449e+002           4.14490e+001           1.44895e+000           4.48952e-001           4.89520e-002           8.95197e-003           9.51972e-004
                   90.90    341.28445                               10.53544             80.602                                        3.41284e+002           4.12845e+001           1.28445e+000           2.84451e-001           8.44510e-002           4.45103e-003           4.51033e-004
                   91.00    341.11801                               10.53969             80.602                                        3.41118e+002           4.11180e+001           1.11801e+000           1.18006e-001           1.80056e-002           8.00556e-003           5.56021e-006
                   91.10    340.94741                               10.54444             80.602                                        3.40947e+002           4.09474e+001           9.47411e-001           9.47411e-001           4.74109e-002           7.41086e-003           4.10857e-004
                   91.20    340.75525                               10.54992             80.602                                        3.40755e+002           4.07552e+001           7.55245e-001           7.55245e-001           5.52451e-002           5.24513e-003           2.45133e-004
                   91.30    340.55999                               10.55541             80.602                                        3.40560e+002           4.05600e+001           5.59990e-001           5.59990e-001           5.99899e-002           9.98986e-003           9.89863e-004
                   91.40    340.37759                               10.56093             80.602                                        3.40378e+002           4.03776e+001           3.77586e-001           3.77586e-001           7.75857e-002           7.58573e-003           5.85730e-004
                   91.50    340.18262                               10.56701             80.602                                        3.40183e+002           4.01826e+001           1.82615e-001           1.82615e-001           8.26154e-002           2.61543e-003           6.15425e-004
                   91.60    339.95842                               10.57395             80.602                                        3.39958e+002           3.99584e+001           9.95842e+000           9.58417e-001           5.84170e-002           8.41697e-003           4.16975e-004
