~VERSION INFORMATION
VERS                    .            2.0                                    :CWLS LOG ASCII STANDARD
WRAP                    .            NO                                     :ONE LINE PER TIME STEP


~WELL INFORMATION
#MNEM                   .UNIT        DATA                                    DESCRIPTION
#________________________________________________________________________________________
STRTTIME                .HH/MM/SS    10:02:47                               :START TIME
STOPTIME                .HH/MM/SS    10:07:04                               :STOP TIME
STRT                    .s           2.10                                   :START DATA
STOP                    .s           255.20                                 :STOP DATA
STEP                    .s           0.10                                   :MEASUREMENT TIME INTERVAL
NULL                    .            -999.25                                :NULL VALUE
COMP                    .            Statoil ASA                            :COMPANY
FLD                     .            Volve                                  :FIELD
WELL                    .            15/9-F-11 A                            :WELL
RUN                     .            8                                      :RUN
LOC                     .            Maersk Inspirer                        :LOCATION
PROV                    .            na                                     :PROVINCE
SRVC                    .            Baker Hughes INTEQ                     :SERVICE COMPANY
DATE                    .YY/MM/DD    13/05/21                               :LOG DATE
UWI                     .                                                   :UNIQUE WELL ID
DEPTHMD                 .m           3657.3                                 :MEASURED DEPTH
DEPTHTVD                .m           3046.2                                 :TRUE VERTICAL DEPTH


~CURVE INFORMATION
#MNEM                   .UNIT        API CODES                               DESCRIPTION
#________________________________________________________________________________________
TIME                    .s                                                  :01 TIME
DD_PRESS                .bar                                                :02 DRAW DOWN PRESSURE
DD_VOLUME               .cm3                                                :03 INCREMENTAL DRAW DOWN VOLUME
TEMP                    .degC                                               :04 TRANSDUCER TEMPERATURE
DD_PRESS_MOD_1000       .bar                                                :05 DRAW DOWN PRESSURE MOD 1000
DD_PRESS_MOD_100        .bar                                                :06 DRAW DOWN PRESSURE MOD 100
DD_PRESS_MOD_10         .bar                                                :07 DRAW DOWN PRESSURE MOD 10
DD_PRESS_MOD_1          .bar                                                :08 DRAW DOWN PRESSURE MOD 1
DD_PRESS_MOD_01         .bar                                                :09 DRAW DOWN PRESSURE MOD 01
DD_PRESS_MOD_001        .bar                                                :10 DRAW DOWN PRESSURE MOD 001
DD_PRESS_MOD_0001       .bar                                                :11 DRAW DOWN PRESSURE MOD 0001


~PARAMETER INFORMATION
#MNEM                   .UNIT        VALUE                                   DESCRIPTION
#________________________________________________________________________________________
TOOLFACE                .deg         60.1                                   :01 TOOLFACE
PUMP_CAPACITY           .bar         400                                    :02 NOMINAL DRAW DOWN PUMP CAPACITY
PUMP_LIMIT              .bar         240                                    :03 DOWNLINK PUMP LIMIT
TIME_LIMIT              .min         10                                     :04 DOWNLINK MAX TIME
TEST_TYPE               .            REPEAT                                 :05 DOWNLINK
TEST_TYPE               .            HIGH MOBILITY                          :06 DOWNLINK
DD_PIST_A               .cm2         3.1416                                 :07 DRAW DOWN PISTON AREA
V_SYS                   .cm3         131.0000                               :08 SYSTEM VOLUME
PROBE_ID                .cm          1.2700                                 :09 TTK PROBE ID
G0                      .            4.6700                                 :10 GEOMETRY FACTOR


~A                  TIME     DD_PRESS                              DD_VOLUME               TEMP                                   DD_PRESS_MOD_1000       DD_PRESS_MOD_100        DD_PRESS_MOD_10         DD_PRESS_MOD_1        DD_PRESS_MOD_01       DD_PRESS_MOD_001      DD_PRESS_MOD_0001
# ...
                   52.50    344.35647                               10.48171             82.172                                        3.44356e+002           4.43565e+001           4.35647e+000           3.56467e-001           5.64668e-002           6.46676e-003           4.66764e-004
                   52.60    344.35484                               10.48171             82.172                                        3.44355e+002           4.43548e+001           4.35484e+000           3.54838e-001           5.48381e-002           4.83806e-003           8.38055e-004
                   52.70    344.34760                               10.48171             82.172                                        3.44348e+002           4.43476e+001           4.34760e+000           3.47604e-001           4.76037e-002           7.60368e-003           6.03682e-004
                   52.80    344.34682                               10.48171             82.172                                        3.44347e+002           4.43468e+001           4.34682e+000           3.46821e-001           4.68211e-002           6.82111e-003           8.21108e-004
                   52.90    344.35504                               10.48171             82.172                                        3.44355e+002           4.43550e+001           4.35504e+000           3.55041e-001           5.50414e-002           5.04135e-003           4.13533e-005
                   53.00    344.36141                               10.48171             82.170                                        3.44361e+002           4.43614e+001           4.36141e+000           3.61406e-001           6.14059e-002           1.40594e-003           4.05939e-004
                   53.10    344.35843                               10.48171             82.166                                        3.44358e+002           4.43584e+001           4.35843e+000           3.58428e-001           5.84280e-002           8.42803e-003           4.28029e-004
                   53.20    344.35156                               10.48171             82.164                                        3.44352e+002           4.43516e+001           4.35156e+000           3.51557e-001           5.15571e-002           1.55706e-003           5.57058e-004
                   53.30    344.34820                               10.48171             82.166                                        3.44348e+002           4.43482e+001           4.34820e+000           3.48198e-001           4.81976e-002           8.19764e-003           1.97638e-004
                   53.40    344.35373                               10.48171             82.170                                        3.44354e+002           4.43537e+001           4.35373e+000           3.53731e-001           5.37312e-002           3.73122e-003           7.31217e-004
                   53.50    344.35351                               10.48171             82.172                                        3.44354e+002           4.43535e+001           4.35351e+000           3.53513e-001           5.35128e-002           3.51276e-003           5.12757e-004
                   53.60    344.34303                               10.48171             82.172                                        3.44343e+002           4.43430e+001           4.34303e+000           3.43026e-001           4.30261e-002           3.02614e-003           2.61352e-005
                   53.70    344.33818                               10.48171             82.172                                        3.44338e+002           4.43382e+001           4.33818e+000           3.38182e-001           3.81818e-002           8.18181e-003           1.81812e-004
                   53.80    344.34885                               10.48171             82.172                                        3.44349e+002           4.43488e+001           4.34885e+000           3.48845e-001           4.88453e-002           8.84532e-003           8.45319e-004
                   53.90    344.35466                               10.48171             82.170                                        3.44355e+002           4.43547e+001           4.35466e+000           3.54662e-001           5.46624e-002           4.66241e-003           6.62411e-004
                   54.00    344.35054                               10.48171             82.166                                        3.44351e+002           4.43505e+001           4.35054e+000           3.50539e-001           5.05387e-002           5.38710e-004           5.38710e-004
                   54.10    344.35174                               10.48171             82.166                                        3.44352e+002           4.43517e+001           4.35174e+000           3.51737e-001           5.17373e-002           1.73726e-003           7.37256e-004
                   54.20    344.36359                               10.48171             82.170                                        3.44364e+002           4.43636e+001           4.36359e+000           3.63590e-001           6.35902e-002           3.59021e-003           5.90211e-004
                   54.30    344.36706                               10.48171             82.172                                        3.44367e+002           4.43671e+001           4.36706e+000           3.67062e-001           6.70619e-002           7.06191e-003           6.19075e-005
                   54.40    344.35772                               10.48171             82.170                                        3.44358e+002           4.43577e+001           4.35772e+000           3.57721e-001           5.77212e-002           7.72116e-003           7.21157e-004
                   54.50    344.34972                               10.48171             82.166                                        3.44350e+002           4.43497e+001           4.34972e+000           3.49716e-001           4.97161e-002           9.71615e-003           7.16148e-004
                   54.60    344.35419                               10.48171             82.164                                        3.44354e+002           4.43542e+001           4.35419e+000           3.54189e-001           5.41888e-002           4.18876e-003           1.88763e-004
                   54.70    344.36561                               10.48171             82.164                                        3.44366e+002           4.43656e+001           4.36561e+000           3.65605e-001           6.56050e-002           5.60503e-003           6.05029e-004
                   54.80    344.35999                               10.48171             82.164                                        3.44360e+002           4.43600e+001           4.35999e+000           3.59994e-001           5.99942e-002           9.99419e-003           9.94187e-004
                   54.90    344.34594                               10.48171             82.164                                        3.44346e+002           4.43459e+001           4.34594e+000           3.45941e-001           4.59406e-002           5.94065e-003           9.40646e-004
                   55.00    344.34882                               10.48171             82.164                                        3.44349e+002           4.43488e+001           4.34882e+000           3.48818e-001           4.88184e-002           8.81844e-003           8.18439e-004
                   55.10    344.36411                               10.48171             82.164                                        3.44364e+002           4.43641e+001           4.36411e+000           3.64113e-001           6.41133e-002           4.11327e-003           1.13271e-004
                   55.20    344.36574                               10.48171             82.164                                        3.44366e+002           4.43657e+001           4.36574e+000           3.65736e-001           6.57363e-002           5.73626e-003           7.36264e-004
