~VERSION INFORMATION
VERS                    .            2.0                                    :CWLS LOG ASCII STANDARD
WRAP                    .            NO                                     :ONE LINE PER TIME STEP


~WELL INFORMATION
#MNEM                   .UNIT        DATA                                    DESCRIPTION
#________________________________________________________________________________________
STRTTIME                .HH/MM/SS    10:02:47                               :START TIME
STOPTIME                .HH/MM/SS    10:07:04                               :STOP TIME
STRT                    .s           2.10                                   :START DATA
STOP                    .s           255.20                                 :STOP DATA
STEP                    .s           0.10                                   :MEASUREMENT TIME INTERVAL
NULL                    .            -999.25                                :NULL VALUE
COMP                    .            Statoil ASA                            :COMPANY
FLD                     .            Volve                                  :FIELD
WELL                    .            15/9-F-11 A                            :WELL
RUN                     .            8                                      :RUN
LOC                     .            Maersk Inspirer                        :LOCATION
PROV                    .            na                                     :PROVINCE
SRVC                    .            Baker Hughes INTEQ                     :SERVICE COMPANY
DATE                    .YY/MM/DD    13/05/21                               :LOG DATE
UWI                     .                                                   :UNIQUE WELL ID
DEPTHMD                 .m           3657.3                                 :MEASURED DEPTH
DEPTHTVD                .m           3046.2                                 :TRUE VERTICAL DEPTH


~CURVE INFORMATION
#MNEM                   .UNIT        API CODES                               DESCRIPTION
#________________________________________________________________________________________
TIME                    .s                                                  :01 TIME
DD_PRESS                .bar                                                :02 DRAW DOWN PRESSURE
DD_VOLUME               .cm3                                                :03 INCREMENTAL DRAW DOWN VOLUME
TEMP                    .degC                                               :04 TRANSDUCER TEMPERATURE
DD_PRESS_MOD_1000       .bar                                                :05 DRAW DOWN PRESSURE MOD 1000
DD_PRESS_MOD_100        .bar                                                :06 DRAW DOWN PRESSURE MOD 100
DD_PRESS_MOD_10         .bar                                                :07 DRAW DOWN PRESSURE MOD 10
DD_PRESS_MOD_1          .bar                                                :08 DRAW DOWN PRESSURE MOD 1
DD_PRESS_MOD_01         .bar                                                :09 DRAW DOWN PRESSURE MOD 01
DD_PRESS_MOD_001        .bar                                                :10 DRAW DOWN PRESSURE MOD 001
DD_PRESS_MOD_0001       .bar                                                :11 DRAW DOWN PRESSURE MOD 0001


~PARAMETER INFORMATION
#MNEM                   .UNIT        VALUE                                   DESCRIPTION
#________________________________________________________________________________________
TOOLFACE                .deg         60.1                                   :01 TOOLFACE
PUMP_CAPACITY           .bar         400                                    :02 NOMINAL DRAW DOWN PUMP CAPACITY
PUMP_LIMIT              .bar         240                                    :03 DOWNLINK PUMP LIMIT
TIME_LIMIT              .min         10                                     :04 DOWNLINK MAX TIME
TEST_TYPE               .            REPEAT                                 :05 DOWNLINK
TEST_TYPE               .            HIGH MOBILITY                          :06 DOWNLINK
DD_PIST_A               .cm2         3.1416                                 :07 DRAW DOWN PISTON AREA
V_SYS                   .cm3         131.0000                               :08 SYSTEM VOLUME
PROBE_ID                .cm          1.2700                                 :09 TTK PROBE ID
G0                      .            4.6700                                 :10 GEOMETRY FACTOR


~A                  TIME     DD_PRESS                              DD_VOLUME               TEMP                                   DD_PRESS_MOD_1000       DD_PRESS_MOD_100        DD_PRESS_MOD_10         DD_PRESS_MOD_1        DD_PRESS_MOD_01       DD_PRESS_MOD_001      DD_PRESS_MOD_0001
# ...
                  234.50    344.39756                               13.65670             82.102                                        3.44398e+002           4.43976e+001           4.39756e+000           3.97560e-001           9.75599e-002           7.55987e-003           5.59871e-004
                  234.60    344.39963                               13.65670             82.102                                        3.44400e+002           4.43996e+001           4.39963e+000           3.99630e-001           9.96298e-002           9.62982e-003           6.29821e-004
                  234.70    344.39928                               13.65670             82.102                                        3.44399e+002           4.43993e+001           4.39928e+000           3.99281e-001           9.92811e-002           9.28113e-003           2.81130e-004
                  234.80    344.39716                               13.65670             82.102                                        3.44397e+002           4.43972e+001           4.39716e+000           3.97156e-001           9.71561e-002           7.15610e-003           1.56099e-004
                  234.90    344.39558                               13.65670             82.102                                        3.44396e+002           4.43956e+001           4.39558e+000           3.95584e-001           9.55836e-002           5.58365e-003           5.83650e-004
                  235.00    344.39762                               13.65670             82.102                                        3.44398e+002           4.43976e+001           4.39762e+000           3.97619e-001           9.76190e-002           7.61897e-003           6.18972e-004
                  235.10    344.40011                               13.65670             82.102                                        3.44400e+002           4.44001e+001           4.40011e+000           4.00113e-001           1.13366e-004           1.13366e-004           1.13366e-004
                  235.20    344.39337                               13.65670             82.102                                        3.44393e+002           4.43934e+001           4.39337e+000           3.93373e-001           9.33735e-002           3.37347e-003           3.73469e-004
                  235.30    344.38935                               13.65670             82.102                                        3.44389e+002           4.43894e+001           4.38935e+000           3.89351e-001           8.93509e-002           9.35090e-003           3.50896e-004
                  235.40    344.39148                               13.65670             82.102                                        3.44391e+002           4.43915e+001           4.39148e+000           3.91484e-001           9.14843e-002           1.48434e-003           4.84338e-004
                  235.50    344.39414                               13.65670             82.102                                        3.44394e+002           4.43941e+001           4.39414e+000           3.94138e-001           9.41375e-002           4.13751e-003           1.37510e-004
                  235.60    344.38532                               13.65670             82.102                                        3.44385e+002           4.43853e+001           4.38532e+000           3.85323e-001           8.53225e-002           5.32251e-003           3.22505e-004
                  235.70    344.38391                               13.65670             82.102                                        3.44384e+002           4.43839e+001           4.38391e+000           3.83905e-001           8.39051e-002           3.90510e-003           9.05102e-004
                  235.80    344.39623                               13.65670             82.102                                        3.44396e+002           4.43962e+001           4.39623e+000           3.96233e-001           9.62334e-002           6.23335e-003           2.33351e-004
                  235.90    344.40377                               13.65670             82.102                                        3.44404e+002           4.44038e+001           4.40377e+000           4.03774e-001           3.77422e-003           3.77422e-003           7.74225e-004
                  236.00    344.39534                               13.65670             82.102                                        3.44395e+002           4.43953e+001           4.39534e+000           3.95344e-001           9.53444e-002           5.34438e-003           3.44377e-004
                  236.10    344.39157                               13.65670             82.102                                        3.44392e+002           4.43916e+001           4.39157e+000           3.91569e-001           9.15693e-002           1.56935e-003           5.69348e-004
                  236.20    344.40224                               13.65670             82.102                                        3.44402e+002           4.44022e+001           4.40224e+000           4.02237e-001           2.23703e-003           2.23703e-003           2.37027e-004
                  236.30    344.40408                               13.65670             82.102                                        3.44404e+002           4.44041e+001           4.40408e+000           4.04078e-001           4.07784e-003           4.07784e-003           7.78395e-005
                  236.40    344.38803                               13.65670             82.102                                        3.44388e+002           4.43880e+001           4.38803e+000           3.88031e-001           8.80309e-002           8.03091e-003           3.09118e-005
                  236.50    344.38276                               13.65670             82.102                                        3.44383e+002           4.43828e+001           4.38276e+000           3.82764e-001           8.27640e-002           2.76402e-003           7.64015e-004
                  236.60    344.40056                               13.65670             82.102                                        3.44401e+002           4.44006e+001           4.40056e+000           4.00562e-001           5.61667e-004           5.61667e-004           5.61667e-004
                  236.70    344.41185                               13.65670             82.102                                        3.44412e+002           4.44118e+001           4.41185e+000           4.11846e-001           1.18462e-002           1.84619e-003           8.46193e-004
                  236.80    344.40237                               13.65670             82.102                                        3.44402e+002           4.44024e+001           4.40237e+000           4.02366e-001           2.36639e-003           2.36639e-003           3.66388e-004
                  236.90    344.39116                               13.65670             82.102                                        3.44391e+002           4.43912e+001           4.39116e+000           3.91163e-001           9.11625e-002           1.16253e-003           1.62529e-004
                  237.00    344.39351                               13.65670             82.102                                        3.44394e+002           4.43935e+001           4.39351e+000           3.93512e-001           9.35122e-002           3.51225e-003           5.12248e-004
                  237.10    344.39847                               13.65670             82.102                                        3.44398e+002           4.43985e+001           4.39847e+000           3.98470e-001           9.84695e-002           8.46954e-003           4.69541e-004
                  237.20    344.39753                               13.65670             82.102                                        3.44398e+002           4.43975e+001           4.39753e+000           3.97528e-001           9.75278e-002           7.52778e-003           5.27780e-004
