~VERSION INFORMATION
VERS                    .            2.0                                    :CWLS LOG ASCII STANDARD
WRAP                    .            NO                                     :ONE LINE PER TIME STEP


~WELL INFORMATION
#MNEM                   .UNIT        DATA                                    DESCRIPTION
#________________________________________________________________________________________
STRTTIME                .HH/MM/SS    01:04:55                               :START TIME
STOPTIME                .HH/MM/SS    01:07:44                               :STOP TIME
STRT                    .s           2.10                                   :START DATA
STOP                    .s           167.40                                 :STOP DATA
STEP                    .s           0.10                                   :MEASUREMENT TIME INTERVAL
NULL                    .            -999.25                                :NULL VALUE
COMP                    .            Statoil ASA                            :COMPANY
FLD                     .            Volve                                  :FIELD
WELL                    .            15/9-F-1 C                             :WELL
RUN                     .            4                                      :RUN
LOC                     .                                                   :LOCATION
PROV                    .            na                                     :PROVINCE
SRVC                    .            Baker Hughes INTEQ                     :SERVICE COMPANY
DATE                    .YY/MM/DD    14/03/15                               :LOG DATE
UWI                     .                                                   :UNIQUE WELL ID
DEPTHMD                 .m           3720.1                                 :MEASURED DEPTH
DEPTHTVD                .m           3050.6                                 :TRUE VERTICAL DEPTH


~CURVE INFORMATION
#MNEM                   .UNIT        API CODES                               DESCRIPTION
#________________________________________________________________________________________
TIME                    .s                                                  :01 TIME
DD_PRESS                .bar                                                :02 DRAW DOWN PRESSURE
DD_VOLUME               .cm3                                                :03 INCREMENTAL DRAW DOWN VOLUME
TEMP                    .degC                                               :04 TRANSDUCER TEMPERATURE
DD_PRESS_MOD_1000       .bar                                                :05 DRAW DOWN PRESSURE MOD 1000
DD_PRESS_MOD_100        .bar                                                :06 DRAW DOWN PRESSURE MOD 100
DD_PRESS_MOD_10         .bar                                                :07 DRAW DOWN PRESSURE MOD 10
DD_PRESS_MOD_1          .bar                                                :08 DRAW DOWN PRESSURE MOD 1
DD_PRESS_MOD_01         .bar                                                :09 DRAW DOWN PRESSURE MOD 01
DD_PRESS_MOD_001        .bar                                                :10 DRAW DOWN PRESSURE MOD 001
DD_PRESS_MOD_0001       .bar                                                :11 DRAW DOWN PRESSURE MOD 0001


~PARAMETER INFORMATION
#MNEM                   .UNIT        VALUE                                   DESCRIPTION
#________________________________________________________________________________________
TOOLFACE                .deg         134.6                                  :01 TOOLFACE
PUMP_CAPACITY           .bar         400                                    :02 NOMINAL DRAW DOWN PUMP CAPACITY
PUMP_LIMIT              .bar         240                                    :03 DOWNLINK PUMP LIMIT
TIME_LIMIT              .min         10                                     :04 DOWNLINK MAX TIME
TEST_TYPE               .            REPEAT                                 :05 DOWNLINK
TEST_TYPE               .            HIGH MOBILITY                          :06 DOWNLINK
DD_PIST_A               .cm2         3.1416                                 :07 DRAW DOWN PISTON AREA
V_SYS                   .cm3         131.0000                               :08 SYSTEM VOLUME
PROBE_ID                .cm          1.2700                                 :09 TTK PROBE ID
G0                      .            4.6700                                 :10 GEOMETRY FACTOR


~A                  TIME     DD_PRESS                              DD_VOLUME               TEMP                                   DD_PRESS_MOD_1000       DD_PRESS_MOD_100        DD_PRESS_MOD_10         DD_PRESS_MOD_1        DD_PRESS_MOD_01       DD_PRESS_MOD_001      DD_PRESS_MOD_0001
# ...
                   88.90    348.27580                               19.92776             87.250                                        3.48276e+002           4.82758e+001           8.27580e+000           2.75805e-001           7.58047e-002           5.80470e-003           8.04698e-004
                   89.00    348.27512                               19.92776             87.250                                        3.48275e+002           4.82751e+001           8.27512e+000           2.75116e-001           7.51163e-002           5.11633e-003           1.16328e-004
                   89.10    348.27454                               19.92776             87.250                                        3.48275e+002           4.82745e+001           8.27454e+000           2.74541e-001           7.45411e-002           4.54106e-003           5.41058e-004
                   89.20    348.27376                               19.92776             87.250                                        3.48274e+002           4.82738e+001           8.27376e+000           2.73762e-001           7.37620e-002           3.76198e-003           7.61981e-004
                   89.30    348.27408                               19.92776             87.248                                        3.48274e+002           4.82741e+001           8.27408e+000           2.74082e-001           7.40816e-002           4.08164e-003           8.16449e-005
                   89.40    348.27498                               19.92776             87.244                                        3.48275e+002           4.82750e+001           8.27498e+000           2.74975e-001           7.49752e-002           4.97516e-003           9.75159e-004
                   89.50    348.27541                               19.92776             87.242                                        3.48275e+002           4.82754e+001           8.27541e+000           2.75414e-001           7.54138e-002           5.41384e-003           4.13836e-004
                   89.60    348.27619                               19.92776             87.242                                        3.48276e+002           4.82762e+001           8.27619e+000           2.76191e-001           7.61910e-002           6.19098e-003           1.90976e-004
                   89.70    348.27619                               19.92776             87.242                                        3.48276e+002           4.82762e+001           8.27619e+000           2.76190e-001           7.61903e-002           6.19026e-003           1.90262e-004
                   89.80    348.27598                               19.92776             87.242                                        3.48276e+002           4.82760e+001           8.27598e+000           2.75983e-001           7.59834e-002           5.98338e-003           9.83378e-004
                   89.90    348.27530                               19.92776             87.242                                        3.48275e+002           4.82753e+001           8.27530e+000           2.75305e-001           7.53045e-002           5.30451e-003           3.04508e-004
                   90.00    348.27518                               19.92776             87.242                                        3.48275e+002           4.82752e+001           8.27518e+000           2.75179e-001           7.51788e-002           5.17883e-003           1.78826e-004
                   90.10    348.27577                               19.92776             87.242                                        3.48276e+002           4.82758e+001           8.27577e+000           2.75772e-001           7.57720e-002           5.77197e-003           7.71966e-004
                   90.20    348.27599                               19.92776             87.242                                        3.48276e+002           4.82760e+001           8.27599e+000           2.75985e-001           7.59852e-002           5.98516e-003           9.85158e-004
                   90.30    348.27613                               19.92776             87.242                                        3.48276e+002           4.82761e+001           8.27613e+000           2.76128e-001           7.61277e-002           6.12767e-003           1.27672e-004
                   90.40    348.27531                               19.92776             87.242                                        3.48275e+002           4.82753e+001           8.27531e+000           2.75311e-001           7.53106e-002           5.31064e-003           3.10639e-004
                   90.50    348.27424                               19.92776             87.242                                        3.48274e+002           4.82742e+001           8.27424e+000           2.74237e-001           7.42366e-002           4.23657e-003           2.36565e-004
                   90.60    348.27393                               19.92776             87.242                                        3.48274e+002           4.82739e+001           8.27393e+000           2.73933e-001           7.39326e-002           3.93260e-003           9.32599e-004
                   90.70    348.27410                               19.92776             87.242                                        3.48274e+002           4.82741e+001           8.27410e+000           2.74099e-001           7.40986e-002           4.09856e-003           9.85643e-005
                   90.80    348.27418                               19.92776             87.242                                        3.48274e+002           4.82742e+001           8.27418e+000           2.74179e-001           7.41793e-002           4.17926e-003           1.79261e-004
                   90.90    348.27488                               19.92776             87.242                                        3.48275e+002           4.82749e+001           8.27488e+000           2.74880e-001           7.48801e-002           4.88007e-003           8.80073e-004
                   91.00    348.27525                               19.92776             87.242                                        3.48275e+002           4.82753e+001           8.27525e+000           2.75250e-001           7.52500e-002           5.25002e-003           2.50018e-004
                   91.10    348.27514                               19.92776             87.242                                        3.48275e+002           4.82751e+001           8.27514e+000           2.75136e-001           7.51359e-002           5.13588e-003           1.35880e-004
                   91.20    348.27550                               19.92776             87.242                                        3.48275e+002           4.82755e+001           8.27550e+000           2.75496e-001           7.54962e-002           5.49620e-003           4.96196e-004
                   91.30    348.27597                               19.92776             87.242                                        3.48276e+002           4.82760e+001           8.27597e+000           2.75974e-001           7.59736e-002           5.97361e-003           9.73608e-004
                   91.40    348.27621                               19.92776             87.242                                        3.48276e+002           4.82762e+001           8.27621e+000           2.76214e-001           7.62138e-002           6.21376e-003           2.13760e-004
                   91.50    348.27577                               19.92776             87.242                                        3.48276e+002           4.82758e+001           8.27577e+000           2.75772e-001           7.57718e-002           5.77179e-003           7.71793e-004
                   91.60    348.27542                               19.92776             87.242                                        3.48275e+002           4.82754e+001           8.27542e+000           2.75422e-001           7.54219e-002           5.42188e-003           4.21881e-004
