~VERSION INFORMATION
VERS                    .            2.0                                    :CWLS LOG ASCII STANDARD
WRAP                    .            NO                                     :ONE LINE PER TIME STEP


~WELL INFORMATION
#MNEM                   .UNIT        DATA                                    DESCRIPTION
#________________________________________________________________________________________
STRTTIME                .HH/MM/SS    03:28:02                               :START TIME
STOPTIME                .HH/MM/SS    03:30:44                               :STOP TIME
STRT                    .s           2.10                                   :START DATA
STOP                    .s           160.80                                 :STOP DATA
STEP                    .s           0.10                                   :MEASUREMENT TIME INTERVAL
NULL                    .            -999.25                                :NULL VALUE
COMP                    .            Statoil ASA                            :COMPANY
FLD                     .            Volve                                  :FIELD
WELL                    .            15/9-F-1 C                             :WELL
RUN                     .            4                                      :RUN
LOC                     .                                                   :LOCATION
PROV                    .            na                                     :PROVINCE
SRVC                    .            Baker Hughes INTEQ                     :SERVICE COMPANY
DATE                    .YY/MM/DD    14/03/15                               :LOG DATE
UWI                     .                                                   :UNIQUE WELL ID
DEPTHMD                 .m           3493.0                                 :MEASURED DEPTH
DEPTHTVD                .m           2980.2                                 :TRUE VERTICAL DEPTH


~CURVE INFORMATION
#MNEM                   .UNIT        API CODES                               DESCRIPTION
#________________________________________________________________________________________
TIME                    .s                                                  :01 TIME
DD_PRESS                .bar                                                :02 DRAW DOWN PRESSURE
DD_VOLUME               .cm3                                                :03 INCREMENTAL DRAW DOWN VOLUME
TEMP                    .degC                                               :04 TRANSDUCER TEMPERATURE
DD_PRESS_MOD_1000       .bar                                                :05 DRAW DOWN PRESSURE MOD 1000
DD_PRESS_MOD_100        .bar                                                :06 DRAW DOWN PRESSURE MOD 100
DD_PRESS_MOD_10         .bar                                                :07 DRAW DOWN PRESSURE MOD 10
DD_PRESS_MOD_1          .bar                                                :08 DRAW DOWN PRESSURE MOD 1
DD_PRESS_MOD_01         .bar                                                :09 DRAW DOWN PRESSURE MOD 01
DD_PRESS_MOD_001        .bar                                                :10 DRAW DOWN PRESSURE MOD 001
DD_PRESS_MOD_0001       .bar                                                :11 DRAW DOWN PRESSURE MOD 0001


~PARAMETER INFORMATION
#MNEM                   .UNIT        VALUE                                   DESCRIPTION
#________________________________________________________________________________________
TOOLFACE                .deg         89.6                                   :01 TOOLFACE
PUMP_CAPACITY           .bar         400                                    :02 NOMINAL DRAW DOWN PUMP CAPACITY
PUMP_LIMIT              .bar         240                                    :03 DOWNLINK PUMP LIMIT
TIME_LIMIT              .min         10                                     :04 DOWNLINK MAX TIME
TEST_TYPE               .            REPEAT                                 :05 DOWNLINK
TEST_TYPE               .            HIGH MOBILITY                          :06 DOWNLINK
DD_PIST_A               .cm2         3.1416                                 :07 DRAW DOWN PISTON AREA
V_SYS                   .cm3         131.0000                               :08 SYSTEM VOLUME
PROBE_ID                .cm          1.2700                                 :09 TTK PROBE ID
G0                      .            4.6700                                 :10 GEOMETRY FACTOR


~A                  TIME     DD_PRESS                              DD_VOLUME               TEMP                                   DD_PRESS_MOD_1000       DD_PRESS_MOD_100        DD_PRESS_MOD_10         DD_PRESS_MOD_1        DD_PRESS_MOD_01       DD_PRESS_MOD_001      DD_PRESS_MOD_0001
# ...
                   86.10    340.45051                               19.84034             83.719                                        3.40451e+002           4.04505e+001           4.50512e-001           4.50512e-001           5.05121e-002           5.12096e-004           5.12096e-004
                   86.20    340.45029                               19.84034             83.719                                        3.40450e+002           4.04503e+001           4.50288e-001           4.50288e-001           5.02876e-002           2.87582e-004           2.87582e-004
                   86.30    340.45046                               19.84034             83.719                                        3.40450e+002           4.04505e+001           4.50462e-001           4.50462e-001           5.04618e-002           4.61822e-004           4.61822e-004
                   86.40    340.45077                               19.84034             83.719                                        3.40451e+002           4.04508e+001           4.50769e-001           4.50769e-001           5.07688e-002           7.68846e-004           7.68846e-004
                   86.50    340.45092                               19.84034             83.719                                        3.40451e+002           4.04509e+001           4.50922e-001           4.50922e-001           5.09225e-002           9.22498e-004           9.22498e-004
                   86.60    340.45107                               19.84034             83.719                                        3.40451e+002           4.04511e+001           4.51068e-001           4.51068e-001           5.10679e-002           1.06790e-003           6.78974e-005
                   86.70    340.45092                               19.84034             83.719                                        3.40451e+002           4.04509e+001           4.50920e-001           4.50920e-001           5.09201e-002           9.20120e-004           9.20120e-004
                   86.80    340.45082                               19.84034             83.719                                        3.40451e+002           4.04508e+001           4.50821e-001           4.50821e-001           5.08207e-002           8.20741e-004           8.20741e-004
                   86.90    340.45080                               19.84034             83.719                                        3.40451e+002           4.04508e+001           4.50800e-001           4.50800e-001           5.08000e-002           7.99991e-004           7.99991e-004
                   87.00    340.45060                               19.84034             83.719                                        3.40451e+002           4.04506e+001           4.50603e-001           4.50603e-001           5.06026e-002           6.02646e-004           6.02646e-004
                   87.10    340.45059                               19.84034             83.719                                        3.40451e+002           4.04506e+001           4.50595e-001           4.50595e-001           5.05947e-002           5.94680e-004           5.94680e-004
                   87.20    340.45021                               19.84034             83.719                                        3.40450e+002           4.04502e+001           4.50208e-001           4.50208e-001           5.02076e-002           2.07595e-004           2.07595e-004
                   87.30    340.45004                               19.84034             83.719                                        3.40450e+002           4.04500e+001           4.50040e-001           4.50040e-001           5.00401e-002           4.00741e-005           4.00741e-005
                   87.40    340.45029                               19.84034             83.719                                        3.40450e+002           4.04503e+001           4.50287e-001           4.50287e-001           5.02870e-002           2.87008e-004           2.87008e-004
                   87.50    340.45058                               19.84034             83.719                                        3.40451e+002           4.04506e+001           4.50580e-001           4.50580e-001           5.05797e-002           5.79656e-004           5.79656e-004
                   87.60    340.45200                               19.84034             83.719                                        3.40452e+002           4.04520e+001           4.52005e-001           4.52005e-001           5.20045e-002           2.00451e-003           4.50901e-006
                   87.70    340.45238                               19.84034             83.719                                        3.40452e+002           4.04524e+001           4.52376e-001           4.52376e-001           5.23757e-002           2.37574e-003           3.75739e-004
                   87.80    340.45153                               19.84034             83.719                                        3.40452e+002           4.04515e+001           4.51529e-001           4.51529e-001           5.15294e-002           1.52943e-003           5.29433e-004
                   87.90    340.45181                               19.84034             83.719                                        3.40452e+002           4.04518e+001           4.51814e-001           4.51814e-001           5.18137e-002           1.81369e-003           8.13694e-004
                   88.00    340.45187                               19.84034             83.719                                        3.40452e+002           4.04519e+001           4.51868e-001           4.51868e-001           5.18678e-002           1.86778e-003           8.67783e-004
                   88.10    340.45094                               19.84034             83.719                                        3.40451e+002           4.04509e+001           4.50937e-001           4.50937e-001           5.09373e-002           9.37291e-004           9.37291e-004
                   88.20    340.45153                               19.84034             83.716                                        3.40452e+002           4.04515e+001           4.51525e-001           4.51525e-001           5.15252e-002           1.52519e-003           5.25191e-004
                   88.30    340.45220                               19.84034             83.715                                        3.40452e+002           4.04522e+001           4.52195e-001           4.52195e-001           5.21955e-002           2.19549e-003           1.95490e-004
                   88.40    340.45169                               19.84034             83.714                                        3.40452e+002           4.04517e+001           4.51690e-001           4.51690e-001           5.16904e-002           1.69037e-003           6.90366e-004
                   88.50    340.45071                               19.84034             83.713                                        3.40451e+002           4.04507e+001           4.50714e-001           4.50714e-001           5.07139e-002           7.13884e-004           7.13884e-004
                   88.60    340.45097                               19.84034             83.711                                        3.40451e+002           4.04510e+001           4.50969e-001           4.50969e-001           5.09690e-002           9.69001e-004           9.69001e-004
                   88.70    340.45251                               19.84034             83.711                                        3.40453e+002           4.04525e+001           4.52509e-001           4.52509e-001           5.25091e-002           2.50908e-003           5.09078e-004
                   88.80    340.45172                               19.84034             83.711                                        3.40452e+002           4.04517e+001           4.51723e-001           4.51723e-001           5.17228e-002           1.72281e-003           7.22808e-004
