~VERSION INFORMATION
VERS                    .            2.0                                    :CWLS LOG ASCII STANDARD
WRAP                    .            NO                                     :ONE LINE PER TIME STEP


~WELL INFORMATION
#MNEM                   .UNIT        DATA                                    DESCRIPTION
#________________________________________________________________________________________
STRTTIME                .HH/MM/SS    10:48:38                               :START TIME
STOPTIME                .HH/MM/SS    10:51:35                               :STOP TIME
STRT                    .s           2.10                                   :START DATA
STOP                    .s           175.10                                 :STOP DATA
STEP                    .s           0.10                                   :MEASUREMENT TIME INTERVAL
NULL                    .            -999.25                                :NULL VALUE
COMP                    .            Statoil ASA                            :COMPANY
FLD                     .            Volve                                  :FIELD
WELL                    .            15/9-F-11 A                            :WELL
RUN                     .            8                                      :RUN
LOC                     .            Maersk Inspirer                        :LOCATION
PROV                    .            na                                     :PROVINCE
SRVC                    .            Baker Hughes INTEQ                     :SERVICE COMPANY
DATE                    .YY/MM/DD    13/05/21                               :LOG DATE
UWI                     .                                                   :UNIQUE WELL ID
DEPTHMD                 .m           3635.2                                 :MEASURED DEPTH
DEPTHTVD                .m           3029.3                                 :TRUE VERTICAL DEPTH


~CURVE INFORMATION
#MNEM                   .UNIT        API CODES                               DESCRIPTION
#________________________________________________________________________________________
TIME                    .s                                                  :01 TIME
DD_PRESS                .bar                                                :02 DRAW DOWN PRESSURE
DD_VOLUME               .cm3                                                :03 INCREMENTAL DRAW DOWN VOLUME
TEMP                    .degC                                               :04 TRANSDUCER TEMPERATURE
DD_PRESS_MOD_1000       .bar                                                :05 DRAW DOWN PRESSURE MOD 1000
DD_PRESS_MOD_100        .bar                                                :06 DRAW DOWN PRESSURE MOD 100
DD_PRESS_MOD_10         .bar                                                :07 DRAW DOWN PRESSURE MOD 10
DD_PRESS_MOD_1          .bar                                                :08 DRAW DOWN PRESSURE MOD 1
DD_PRESS_MOD_01         .bar                                                :09 DRAW DOWN PRESSURE MOD 01
DD_PRESS_MOD_001        .bar                                                :10 DRAW DOWN PRESSURE MOD 001
DD_PRESS_MOD_0001       .bar                                                :11 DRAW DOWN PRESSURE MOD 0001


~PARAMETER INFORMATION
#MNEM                   .UNIT        VALUE                                   DESCRIPTION
#________________________________________________________________________________________
TOOLFACE                .deg         69.1                                   :01 TOOLFACE
PUMP_CAPACITY           .bar         400                                    :02 NOMINAL DRAW DOWN PUMP CAPACITY
PUMP_LIMIT              .bar         240                                    :03 DOWNLINK PUMP LIMIT
TIME_LIMIT              .min         10                                     :04 DOWNLINK MAX TIME
TEST_TYPE               .            REPEAT                                 :05 DOWNLINK
TEST_TYPE               .            HIGH MOBILITY                          :06 DOWNLINK
DD_PIST_A               .cm2         3.1416                                 :07 DRAW DOWN PISTON AREA
V_SYS                   .cm3         131.0000                               :08 SYSTEM VOLUME
PROBE_ID                .cm          1.2700                                 :09 TTK PROBE ID
G0                      .            4.6700                                 :10 GEOMETRY FACTOR


~A                  TIME     DD_PRESS                              DD_VOLUME               TEMP                                   DD_PRESS_MOD_1000       DD_PRESS_MOD_100        DD_PRESS_MOD_10         DD_PRESS_MOD_1        DD_PRESS_MOD_01       DD_PRESS_MOD_001      DD_PRESS_MOD_0001
# ...
                  172.90    416.22992                                0.00000             80.711                                        4.16230e+002           1.62299e+001           6.22992e+000           2.29919e-001           2.99189e-002           9.91886e-003           9.18857e-004
                  173.00    416.24979                                0.00000             80.711                                        4.16250e+002           1.62498e+001           6.24979e+000           2.49793e-001           4.97935e-002           9.79348e-003           7.93477e-004
                  173.10    416.26066                                0.00000             80.711                                        4.16261e+002           1.62607e+001           6.26066e+000           2.60656e-001           6.06564e-002           6.56356e-004           6.56356e-004
                  173.20    416.24261                                0.00000             80.711                                        4.16243e+002           1.62426e+001           6.24261e+000           2.42605e-001           4.26054e-002           2.60541e-003           6.05413e-004
                  173.30    416.23640                                0.00000             80.711                                        4.16236e+002           1.62364e+001           6.23640e+000           2.36403e-001           3.64034e-002           6.40345e-003           4.03446e-004
                  173.40    416.25873                                0.00000             80.711                                        4.16259e+002           1.62587e+001           6.25873e+000           2.58734e-001           5.87342e-002           8.73422e-003           7.34218e-004
                  173.50    416.27380                                0.00000             80.711                                        4.16274e+002           1.62738e+001           6.27380e+000           2.73796e-001           7.37964e-002           3.79645e-003           7.96447e-004
                  173.60    416.26470                                0.00000             80.711                                        4.16265e+002           1.62647e+001           6.26470e+000           2.64700e-001           6.47002e-002           4.70023e-003           7.00232e-004
                  173.70    416.25926                                0.00000             80.711                                        4.16259e+002           1.62593e+001           6.25926e+000           2.59263e-001           5.92625e-002           9.26251e-003           2.62512e-004
                  173.80    416.27371                                0.00000             80.711                                        4.16274e+002           1.62737e+001           6.27371e+000           2.73708e-001           7.37081e-002           3.70810e-003           7.08099e-004
                  173.90    416.26432                                0.00000             80.711                                        4.16264e+002           1.62643e+001           6.26432e+000           2.64322e-001           6.43215e-002           4.32152e-003           3.21523e-004
                  174.00    416.24275                                0.00000             80.711                                        4.16243e+002           1.62428e+001           6.24275e+000           2.42750e-001           4.27505e-002           2.75047e-003           7.50470e-004
                  174.10    416.24784                                0.00000             80.711                                        4.16248e+002           1.62478e+001           6.24784e+000           2.47842e-001           4.78419e-002           7.84190e-003           8.41900e-004
                  174.20    416.27153                                0.00000             80.711                                        4.16272e+002           1.62715e+001           6.27153e+000           2.71531e-001           7.15307e-002           1.53069e-003           5.30693e-004
                  174.30    416.26538                                0.00000             80.711                                        4.16265e+002           1.62654e+001           6.26538e+000           2.65381e-001           6.53806e-002           5.38059e-003           3.80585e-004
                  174.40    416.25557                                0.00000             80.711                                        4.16256e+002           1.62556e+001           6.25557e+000           2.55571e-001           5.55715e-002           5.57146e-003           5.71456e-004
                  174.50    416.27189                                0.00000             80.711                                        4.16272e+002           1.62719e+001           6.27189e+000           2.71888e-001           7.18882e-002           1.88821e-003           8.88206e-004
                  174.60    416.29523                                0.00000             80.711                                        4.16295e+002           1.62952e+001           6.29523e+000           2.95232e-001           9.52322e-002           5.23221e-003           2.32209e-004
                  174.70    416.27306                                0.00000             80.711                                        4.16273e+002           1.62731e+001           6.27306e+000           2.73062e-001           7.30617e-002           3.06167e-003           6.16732e-005
                  174.80    416.24281                                0.00000             80.711                                        4.16243e+002           1.62428e+001           6.24281e+000           2.42812e-001           4.28115e-002           2.81155e-003           8.11549e-004
                  174.90    416.24470                                0.00000             80.711                                        4.16245e+002           1.62447e+001           6.24470e+000           2.44700e-001           4.46997e-002           4.69968e-003           6.99682e-004
                  175.00    416.25069                                0.00000             80.711                                        4.16251e+002           1.62507e+001           6.25069e+000           2.50690e-001           5.06903e-002           6.90294e-004           6.90294e-004
                  175.10    416.23317                                0.00000             80.711                                        4.16233e+002           1.62332e+001           6.23317e+000           2.33168e-001           3.31676e-002           3.16763e-003           1.67628e-004
