~VERSION INFORMATION
VERS                    .            2.0                                    :CWLS LOG ASCII STANDARD
WRAP                    .            NO                                     :ONE LINE PER TIME STEP


~WELL INFORMATION
#MNEM                   .UNIT        DATA                                    DESCRIPTION
#________________________________________________________________________________________
STRTTIME                .HH/MM/SS    01:04:55                               :START TIME
STOPTIME                .HH/MM/SS    01:07:44                               :STOP TIME
STRT                    .s           2.10                                   :START DATA
STOP                    .s           167.40                                 :STOP DATA
STEP                    .s           0.10                                   :MEASUREMENT TIME INTERVAL
NULL                    .            -999.25                                :NULL VALUE
COMP                    .            Statoil ASA                            :COMPANY
FLD                     .            Volve                                  :FIELD
WELL                    .            15/9-F-1 C                             :WELL
RUN                     .            4                                      :RUN
LOC                     .                                                   :LOCATION
PROV                    .            na                                     :PROVINCE
SRVC                    .            Baker Hughes INTEQ                     :SERVICE COMPANY
DATE                    .YY/MM/DD    14/03/15                               :LOG DATE
UWI                     .                                                   :UNIQUE WELL ID
DEPTHMD                 .m           3720.1                                 :MEASURED DEPTH
DEPTHTVD                .m           3050.6                                 :TRUE VERTICAL DEPTH


~CURVE INFORMATION
#MNEM                   .UNIT        API CODES                               DESCRIPTION
#________________________________________________________________________________________
TIME                    .s                                                  :01 TIME
DD_PRESS                .bar                                                :02 DRAW DOWN PRESSURE
DD_VOLUME               .cm3                                                :03 INCREMENTAL DRAW DOWN VOLUME
TEMP                    .degC                                               :04 TRANSDUCER TEMPERATURE
DD_PRESS_MOD_1000       .bar                                                :05 DRAW DOWN PRESSURE MOD 1000
DD_PRESS_MOD_100        .bar                                                :06 DRAW DOWN PRESSURE MOD 100
DD_PRESS_MOD_10         .bar                                                :07 DRAW DOWN PRESSURE MOD 10
DD_PRESS_MOD_1          .bar                                                :08 DRAW DOWN PRESSURE MOD 1
DD_PRESS_MOD_01         .bar                                                :09 DRAW DOWN PRESSURE MOD 01
DD_PRESS_MOD_001        .bar                                                :10 DRAW DOWN PRESSURE MOD 001
DD_PRESS_MOD_0001       .bar                                                :11 DRAW DOWN PRESSURE MOD 0001


~PARAMETER INFORMATION
#MNEM                   .UNIT        VALUE                                   DESCRIPTION
#________________________________________________________________________________________
TOOLFACE                .deg         134.6                                  :01 TOOLFACE
PUMP_CAPACITY           .bar         400                                    :02 NOMINAL DRAW DOWN PUMP CAPACITY
PUMP_LIMIT              .bar         240                                    :03 DOWNLINK PUMP LIMIT
TIME_LIMIT              .min         10                                     :04 DOWNLINK MAX TIME
TEST_TYPE               .            REPEAT                                 :05 DOWNLINK
TEST_TYPE               .            HIGH MOBILITY                          :06 DOWNLINK
DD_PIST_A               .cm2         3.1416                                 :07 DRAW DOWN PISTON AREA
V_SYS                   .cm3         131.0000                               :08 SYSTEM VOLUME
PROBE_ID                .cm          1.2700                                 :09 TTK PROBE ID
G0                      .            4.6700                                 :10 GEOMETRY FACTOR


~A                  TIME     DD_PRESS                              DD_VOLUME               TEMP                                   DD_PRESS_MOD_1000       DD_PRESS_MOD_100        DD_PRESS_MOD_10         DD_PRESS_MOD_1        DD_PRESS_MOD_01       DD_PRESS_MOD_001      DD_PRESS_MOD_0001
# ...
                  130.90    348.27516                               29.43330             87.227                                        3.48275e+002           4.82752e+001           8.27516e+000           2.75156e-001           7.51565e-002           5.15648e-003           1.56481e-004
                  131.00    348.27434                               29.43330             87.227                                        3.48274e+002           4.82743e+001           8.27434e+000           2.74339e-001           7.43389e-002           4.33885e-003           3.38851e-004
                  131.10    348.27320                               29.43330             87.227                                        3.48273e+002           4.82732e+001           8.27320e+000           2.73195e-001           7.31953e-002           3.19525e-003           1.95255e-004
                  131.20    348.27224                               29.43330             87.227                                        3.48272e+002           4.82722e+001           8.27224e+000           2.72238e-001           7.22384e-002           2.23841e-003           2.38411e-004
                  131.30    348.27212                               29.43330             87.227                                        3.48272e+002           4.82721e+001           8.27212e+000           2.72123e-001           7.21233e-002           2.12330e-003           1.23302e-004
                  131.40    348.27371                               29.43330             87.227                                        3.48274e+002           4.82737e+001           8.27371e+000           2.73714e-001           7.37141e-002           3.71408e-003           7.14080e-004
                  131.50    348.27497                               29.43330             87.227                                        3.48275e+002           4.82750e+001           8.27497e+000           2.74968e-001           7.49676e-002           4.96759e-003           9.67592e-004
                  131.60    348.27421                               29.43330             87.227                                        3.48274e+002           4.82742e+001           8.27421e+000           2.74205e-001           7.42051e-002           4.20515e-003           2.05147e-004
                  131.70    348.27357                               29.43330             87.227                                        3.48274e+002           4.82736e+001           8.27357e+000           2.73572e-001           7.35722e-002           3.57215e-003           5.72154e-004
                  131.80    348.27389                               29.43330             87.227                                        3.48274e+002           4.82739e+001           8.27389e+000           2.73888e-001           7.38882e-002           3.88820e-003           8.88202e-004
                  131.90    348.27434                               29.43330             87.227                                        3.48274e+002           4.82743e+001           8.27434e+000           2.74340e-001           7.43398e-002           4.33983e-003           3.39832e-004
                  132.00    348.27388                               29.43330             87.227                                        3.48274e+002           4.82739e+001           8.27388e+000           2.73876e-001           7.38763e-002           3.87629e-003           8.76290e-004
                  132.10    348.27382                               29.43330             87.227                                        3.48274e+002           4.82738e+001           8.27382e+000           2.73817e-001           7.38171e-002           3.81711e-003           8.17107e-004
                  132.20    348.27443                               29.43330             87.227                                        3.48274e+002           4.82744e+001           8.27443e+000           2.74429e-001           7.44292e-002           4.42916e-003           4.29159e-004
                  132.30    348.27463                               29.43330             87.227                                        3.48275e+002           4.82746e+001           8.27463e+000           2.74626e-001           7.46261e-002           4.62609e-003           6.26094e-004
                  132.40    348.27406                               29.43330             87.227                                        3.48274e+002           4.82741e+001           8.27406e+000           2.74057e-001           7.40568e-002           4.05680e-003           5.67975e-005
                  132.50    348.27427                               29.43330             87.227                                        3.48274e+002           4.82743e+001           8.27427e+000           2.74271e-001           7.42708e-002           4.27078e-003           2.70784e-004
                  132.60    348.27465                               29.43330             87.227                                        3.48275e+002           4.82747e+001           8.27465e+000           2.74653e-001           7.46527e-002           4.65269e-003           6.52694e-004
                  132.70    348.27442                               29.43330             87.227                                        3.48274e+002           4.82744e+001           8.27442e+000           2.74422e-001           7.44224e-002           4.42237e-003           4.22366e-004
                  132.80    348.27461                               29.43330             87.227                                        3.48275e+002           4.82746e+001           8.27461e+000           2.74615e-001           7.46149e-002           4.61491e-003           6.14909e-004
                  132.90    348.27477                               29.43330             87.227                                        3.48275e+002           4.82748e+001           8.27477e+000           2.74770e-001           7.47698e-002           4.76977e-003           7.69770e-004
                  133.00    348.27435                               29.43330             87.227                                        3.48274e+002           4.82744e+001           8.27435e+000           2.74353e-001           7.43527e-002           4.35273e-003           3.52732e-004
                  133.10    348.27414                               29.43330             87.227                                        3.48274e+002           4.82741e+001           8.27414e+000           2.74137e-001           7.41370e-002           4.13695e-003           1.36951e-004
                  133.20    348.27409                               29.43330             87.227                                        3.48274e+002           4.82741e+001           8.27409e+000           2.74086e-001           7.40861e-002           4.08608e-003           8.60821e-005
                  133.30    348.27393                               29.43330             87.227                                        3.48274e+002           4.82739e+001           8.27393e+000           2.73927e-001           7.39272e-002           3.92719e-003           9.27188e-004
                  133.40    348.27324                               29.43330             87.227                                        3.48273e+002           4.82732e+001           8.27324e+000           2.73241e-001           7.32409e-002           3.24087e-003           2.40874e-004
                  133.50    348.27223                               29.43330             87.227                                        3.48272e+002           4.82722e+001           8.27223e+000           2.72233e-001           7.22335e-002           2.23349e-003           2.33493e-004
                  133.60    348.27228                               29.43330             87.227                                        3.48272e+002           4.82723e+001           8.27228e+000           2.72276e-001           7.22763e-002           2.27627e-003           2.76268e-004
