~VERSION INFORMATION
VERS                    .            2.0                                    :CWLS LOG ASCII STANDARD
WRAP                    .            NO                                     :ONE LINE PER TIME STEP


~WELL INFORMATION
#MNEM                   .UNIT        DATA                                    DESCRIPTION
#________________________________________________________________________________________
STRTTIME                .HH/MM/SS    22:05:32                               :START TIME
STOPTIME                .HH/MM/SS    22:09:32                               :STOP TIME
STRT                    .s           2.10                                   :START DATA
STOP                    .s           238.90                                 :STOP DATA
STEP                    .s           0.10                                   :MEASUREMENT TIME INTERVAL
NULL                    .            -999.25                                :NULL VALUE
COMP                    .            Statoil                                :COMPANY
FLD                     .            Volve                                  :FIELD
WELL                    .            15/9-F-11 T2                           :WELL
RUN                     .            7                                      :RUN
LOC                     .            Maersk Inspirer                        :LOCATION
PROV                    .            na                                     :PROVINCE
SRVC                    .            Baker Hughes INTEQ                     :SERVICE COMPANY
DATE                    .YY/MM/DD    13/05/04                               :LOG DATE
UWI                     .                                                   :UNIQUE WELL ID
DEPTHMD                 .m           4490.1                                 :MEASURED DEPTH
DEPTHTVD                .m           3328.5                                 :TRUE VERTICAL DEPTH


~CURVE INFORMATION
#MNEM                   .UNIT        API CODES                               DESCRIPTION
#________________________________________________________________________________________
TIME                    .s                                                  :01 TIME
DD_PRESS                .bar                                                :02 DRAW DOWN PRESSURE
DD_VOLUME               .cm3                                                :03 INCREMENTAL DRAW DOWN VOLUME
TEMP                    .degC                                               :04 TRANSDUCER TEMPERATURE
DD_PRESS_MOD_1000       .bar                                                :05 DRAW DOWN PRESSURE MOD 1000
DD_PRESS_MOD_100        .bar                                                :06 DRAW DOWN PRESSURE MOD 100
DD_PRESS_MOD_10         .bar                                                :07 DRAW DOWN PRESSURE MOD 10
DD_PRESS_MOD_1          .bar                                                :08 DRAW DOWN PRESSURE MOD 1
DD_PRESS_MOD_01         .bar                                                :09 DRAW DOWN PRESSURE MOD 01
DD_PRESS_MOD_001        .bar                                                :10 DRAW DOWN PRESSURE MOD 001
DD_PRESS_MOD_0001       .bar                                                :11 DRAW DOWN PRESSURE MOD 0001


~PARAMETER INFORMATION
#MNEM                   .UNIT        VALUE                                   DESCRIPTION
#________________________________________________________________________________________
TOOLFACE                .deg         na                                     :01 TOOLFACE
PUMP_CAPACITY           .bar         400                                    :02 NOMINAL DRAW DOWN PUMP CAPACITY
PUMP_LIMIT              .bar         240                                    :03 DOWNLINK PUMP LIMIT
TIME_LIMIT              .min         10                                     :04 DOWNLINK MAX TIME
TEST_TYPE               .            HIGH MOBILITY                          :05 DOWNLINK
DD_PIST_A               .cm2         3.1416                                 :06 DRAW DOWN PISTON AREA
V_SYS                   .cm3         131.0000                               :07 SYSTEM VOLUME
PROBE_ID                .cm          1.2700                                 :08 TTK PROBE ID
G0                      .            4.6700                                 :09 GEOMETRY FACTOR


~A                  TIME     DD_PRESS                              DD_VOLUME               TEMP                                   DD_PRESS_MOD_1000       DD_PRESS_MOD_100        DD_PRESS_MOD_10         DD_PRESS_MOD_1        DD_PRESS_MOD_01       DD_PRESS_MOD_001      DD_PRESS_MOD_0001
# ...
                   97.30    367.55412                               11.09486             97.250                                        3.67554e+002           6.75541e+001           7.55412e+000           5.54119e-001           5.41191e-002           4.11913e-003           1.19126e-004
                   97.40    367.52420                               11.09486             97.250                                        3.67524e+002           6.75242e+001           7.52420e+000           5.24197e-001           2.41965e-002           4.19653e-003           1.96532e-004
                   97.50    367.48826                               11.09486             97.250                                        3.67488e+002           6.74883e+001           7.48826e+000           4.88257e-001           8.82565e-002           8.25655e-003           2.56549e-004
                   97.60    367.47413                               11.09486             97.250                                        3.67474e+002           6.74741e+001           7.47413e+000           4.74134e-001           7.41336e-002           4.13364e-003           1.33637e-004
                   97.70    367.47936                               11.09486             97.250                                        3.67479e+002           6.74794e+001           7.47936e+000           4.79362e-001           7.93618e-002           9.36185e-003           3.61849e-004
                   97.80    367.49325                               11.09486             97.250                                        3.67493e+002           6.74933e+001           7.49325e+000           4.93254e-001           9.32545e-002           3.25445e-003           2.54452e-004
                   97.90    367.47885                               11.09486             97.250                                        3.67479e+002           6.74789e+001           7.47885e+000           4.78852e-001           7.88524e-002           8.85239e-003           8.52388e-004
                   98.00    367.45586                               11.09486             97.250                                        3.67456e+002           6.74559e+001           7.45586e+000           4.55862e-001           5.58620e-002           5.86203e-003           8.62032e-004
                   98.10    367.49561                               11.09486             97.250                                        3.67496e+002           6.74956e+001           7.49561e+000           4.95607e-001           9.56067e-002           5.60668e-003           6.06677e-004
                   98.20    367.53522                               11.09486             97.250                                        3.67535e+002           6.75352e+001           7.53522e+000           5.35219e-001           3.52193e-002           5.21930e-003           2.19300e-004
                   98.30    367.54707                               11.09486             97.250                                        3.67547e+002           6.75471e+001           7.54707e+000           5.47068e-001           4.70679e-002           7.06792e-003           6.79190e-005
                   98.40    367.53383                               11.09486             97.250                                        3.67534e+002           6.75338e+001           7.53383e+000           5.33834e-001           3.38341e-002           3.83412e-003           8.34117e-004
                   98.50    367.49295                               11.09486             97.250                                        3.67493e+002           6.74929e+001           7.49295e+000           4.92947e-001           9.29469e-002           2.94693e-003           9.46930e-004
                   98.60    367.47696                               11.09486             97.250                                        3.67477e+002           6.74770e+001           7.47696e+000           4.76960e-001           7.69604e-002           6.96043e-003           9.60428e-004
                   98.70    367.50033                               11.09486             97.250                                        3.67500e+002           6.75003e+001           7.50033e+000           5.00331e-001           3.30928e-004           3.30928e-004           3.30928e-004
                   98.80    367.51891                               11.09486             97.250                                        3.67519e+002           6.75189e+001           7.51891e+000           5.18915e-001           1.89147e-002           8.91469e-003           9.14692e-004
                   98.90    367.51562                               11.09486             97.250                                        3.67516e+002           6.75156e+001           7.51562e+000           5.15616e-001           1.56163e-002           5.61635e-003           6.16349e-004
                   99.00    367.48787                               11.09486             97.250                                        3.67488e+002           6.74879e+001           7.48787e+000           4.87872e-001           8.78724e-002           7.87241e-003           8.72412e-004
                   99.10    367.44789                               11.09486             97.250                                        3.67448e+002           6.74479e+001           7.44789e+000           4.47889e-001           4.78892e-002           7.88919e-003           8.89189e-004
                   99.20    367.46991                               11.09486             97.250                                        3.67470e+002           6.74699e+001           7.46991e+000           4.69906e-001           6.99065e-002           9.90648e-003           9.06485e-004
                   99.30    367.53715                               11.09486             97.250                                        3.67537e+002           6.75371e+001           7.53715e+000           5.37148e-001           3.71484e-002           7.14845e-003           1.48449e-004
                   99.40    367.54683                               11.09486             97.250                                        3.67547e+002           6.75468e+001           7.54683e+000           5.46825e-001           4.68251e-002           6.82506e-003           8.25064e-004
                   99.50    367.47873                               11.09486             97.250                                        3.67479e+002           6.74787e+001           7.47873e+000           4.78725e-001           7.87253e-002           8.72533e-003           7.25333e-004
                   99.60    367.45221                               11.09486             97.250                                        3.67452e+002           6.74522e+001           7.45221e+000           4.52212e-001           5.22125e-002           2.21245e-003           2.12450e-004
                   99.70    367.51387                               11.09486             97.250                                        3.67514e+002           6.75139e+001           7.51387e+000           5.13872e-001           1.38718e-002           3.87175e-003           8.71752e-004
                   99.80    367.54833                               11.09486             97.250                                        3.67548e+002           6.75483e+001           7.54833e+000           5.48326e-001           4.83258e-002           8.32580e-003           3.25796e-004
                   99.90    367.51145                               11.09486             97.250                                        3.67511e+002           6.75115e+001           7.51145e+000           5.11453e-001           1.14526e-002           1.45256e-003           4.52561e-004
                  100.00    367.49748                               11.09486             97.250                                        3.67497e+002           6.74975e+001           7.49748e+000           4.97477e-001           9.74769e-002           7.47687e-003           4.76867e-004
