~VERSION INFORMATION
VERS                    .            2.0                                    :CWLS LOG ASCII STANDARD
WRAP                    .            NO                                     :ONE LINE PER TIME STEP


~WELL INFORMATION
#MNEM                   .UNIT        DATA                                    DESCRIPTION
#________________________________________________________________________________________
STRTTIME                .HH/MM/SS    04:27:44                               :START TIME
STOPTIME                .HH/MM/SS    04:30:31                               :STOP TIME
STRT                    .s           2.10                                   :START DATA
STOP                    .s           165.30                                 :STOP DATA
STEP                    .s           0.10                                   :MEASUREMENT TIME INTERVAL
NULL                    .            -999.25                                :NULL VALUE
COMP                    .            Statoil ASA                            :COMPANY
FLD                     .            Volve                                  :FIELD
WELL                    .            15/9-F-1 C                             :WELL
RUN                     .            4                                      :RUN
LOC                     .                                                   :LOCATION
PROV                    .            na                                     :PROVINCE
SRVC                    .            Baker Hughes INTEQ                     :SERVICE COMPANY
DATE                    .YY/MM/DD    14/03/15                               :LOG DATE
UWI                     .                                                   :UNIQUE WELL ID
DEPTHMD                 .m           3273.1                                 :MEASURED DEPTH
DEPTHTVD                .m           2948.3                                 :TRUE VERTICAL DEPTH


~CURVE INFORMATION
#MNEM                   .UNIT        API CODES                               DESCRIPTION
#________________________________________________________________________________________
TIME                    .s                                                  :01 TIME
DD_PRESS                .bar                                                :02 DRAW DOWN PRESSURE
DD_VOLUME               .cm3                                                :03 INCREMENTAL DRAW DOWN VOLUME
TEMP                    .degC                                               :04 TRANSDUCER TEMPERATURE
DD_PRESS_MOD_1000       .bar                                                :05 DRAW DOWN PRESSURE MOD 1000
DD_PRESS_MOD_100        .bar                                                :06 DRAW DOWN PRESSURE MOD 100
DD_PRESS_MOD_10         .bar                                                :07 DRAW DOWN PRESSURE MOD 10
DD_PRESS_MOD_1          .bar                                                :08 DRAW DOWN PRESSURE MOD 1
DD_PRESS_MOD_01         .bar                                                :09 DRAW DOWN PRESSURE MOD 01
DD_PRESS_MOD_001        .bar                                                :10 DRAW DOWN PRESSURE MOD 001
DD_PRESS_MOD_0001       .bar                                                :11 DRAW DOWN PRESSURE MOD 0001


~PARAMETER INFORMATION
#MNEM                   .UNIT        VALUE                                   DESCRIPTION
#________________________________________________________________________________________
TOOLFACE                .deg         76.8                                   :01 TOOLFACE
PUMP_CAPACITY           .bar         400                                    :02 NOMINAL DRAW DOWN PUMP CAPACITY
PUMP_LIMIT              .bar         240                                    :03 DOWNLINK PUMP LIMIT
TIME_LIMIT              .min         10                                     :04 DOWNLINK MAX TIME
TEST_TYPE               .            REPEAT                                 :05 DOWNLINK
TEST_TYPE               .            HIGH MOBILITY                          :06 DOWNLINK
DD_PIST_A               .cm2         3.1416                                 :07 DRAW DOWN PISTON AREA
V_SYS                   .cm3         131.0000                               :08 SYSTEM VOLUME
PROBE_ID                .cm          1.2700                                 :09 TTK PROBE ID
G0                      .            4.6700                                 :10 GEOMETRY FACTOR


~A                  TIME     DD_PRESS                              DD_VOLUME               TEMP                                   DD_PRESS_MOD_1000       DD_PRESS_MOD_100        DD_PRESS_MOD_10         DD_PRESS_MOD_1        DD_PRESS_MOD_01       DD_PRESS_MOD_001      DD_PRESS_MOD_0001
# ...
                  161.70    415.76752                                0.00000             84.875                                        4.15768e+002           1.57675e+001           5.76752e+000           7.67523e-001           6.75228e-002           7.52281e-003           5.22813e-004
                  161.80    415.77549                                0.00000             84.875                                        4.15775e+002           1.57755e+001           5.77549e+000           7.75494e-001           7.54937e-002           5.49374e-003           4.93743e-004
                  161.90    415.77941                                0.00000             84.875                                        4.15779e+002           1.57794e+001           5.77941e+000           7.79408e-001           7.94076e-002           9.40764e-003           4.07643e-004
                  162.00    415.77139                                0.00000             84.875                                        4.15771e+002           1.57714e+001           5.77139e+000           7.71393e-001           7.13926e-002           1.39256e-003           3.92559e-004
                  162.10    415.76623                                0.00000             84.875                                        4.15766e+002           1.57662e+001           5.76623e+000           7.66229e-001           6.62288e-002           6.22882e-003           2.28824e-004
                  162.20    415.77756                                0.00000             84.875                                        4.15778e+002           1.57776e+001           5.77756e+000           7.77563e-001           7.75625e-002           7.56251e-003           5.62506e-004
                  162.30    415.79564                                0.00000             84.875                                        4.15796e+002           1.57956e+001           5.79564e+000           7.95637e-001           9.56369e-002           5.63686e-003           6.36856e-004
                  162.40    415.79448                                0.00000             84.875                                        4.15794e+002           1.57945e+001           5.79448e+000           7.94480e-001           9.44798e-002           4.47980e-003           4.79803e-004
                  162.50    415.77292                                0.00000             84.875                                        4.15773e+002           1.57729e+001           5.77292e+000           7.72919e-001           7.29190e-002           2.91895e-003           9.18954e-004
                  162.60    415.76143                                0.00000             84.875                                        4.15761e+002           1.57614e+001           5.76143e+000           7.61426e-001           6.14258e-002           1.42584e-003           4.25845e-004
                  162.70    415.77876                                0.00000             84.875                                        4.15779e+002           1.57788e+001           5.77876e+000           7.78763e-001           7.87628e-002           8.76280e-003           7.62804e-004
                  162.80    415.79844                                0.00000             84.875                                        4.15798e+002           1.57984e+001           5.79844e+000           7.98441e-001           9.84415e-002           8.44148e-003           4.41476e-004
                  162.90    415.79300                                0.00000             84.875                                        4.15793e+002           1.57930e+001           5.79300e+000           7.92999e-001           9.29985e-002           2.99852e-003           9.98518e-004
                  163.00    415.77680                                0.00000             84.875                                        4.15777e+002           1.57768e+001           5.77680e+000           7.76803e-001           7.68026e-002           6.80257e-003           8.02574e-004
                  163.10    415.77828                                0.00000             84.875                                        4.15778e+002           1.57783e+001           5.77828e+000           7.78281e-001           7.82814e-002           8.28140e-003           2.81404e-004
                  163.20    415.79766                                0.00000             84.875                                        4.15798e+002           1.57977e+001           5.79766e+000           7.97660e-001           9.76598e-002           7.65982e-003           6.59816e-004
                  163.30    415.80281                                0.00000             84.875                                        4.15803e+002           1.58028e+001           5.80281e+000           8.02810e-001           2.81006e-003           2.81006e-003           8.10062e-004
                  163.40    415.78678                                0.00000             84.875                                        4.15787e+002           1.57868e+001           5.78678e+000           7.86778e-001           8.67784e-002           6.77841e-003           7.78408e-004
                  163.50    415.77952                                0.00000             84.875                                        4.15780e+002           1.57795e+001           5.77952e+000           7.79519e-001           7.95189e-002           9.51890e-003           5.18900e-004
                  163.60    415.79194                                0.00000             84.875                                        4.15792e+002           1.57919e+001           5.79194e+000           7.91942e-001           9.19418e-002           1.94183e-003           9.41833e-004
                  163.70    415.80199                                0.00000             84.875                                        4.15802e+002           1.58020e+001           5.80199e+000           8.01993e-001           1.99348e-003           1.99348e-003           9.93480e-004
                  163.80    415.79210                                0.00000             84.875                                        4.15792e+002           1.57921e+001           5.79210e+000           7.92105e-001           9.21047e-002           2.10466e-003           1.04660e-004
                  163.90    415.77089                                0.00000             84.875                                        4.15771e+002           1.57709e+001           5.77089e+000           7.70892e-001           7.08925e-002           8.92490e-004           8.92490e-004
                  164.00    415.77235                                0.00000             84.875                                        4.15772e+002           1.57724e+001           5.77235e+000           7.72354e-001           7.23544e-002           2.35438e-003           3.54384e-004
                  164.10    415.78622                                0.00000             84.875                                        4.15786e+002           1.57862e+001           5.78622e+000           7.86220e-001           8.62204e-002           6.22044e-003           2.20442e-004
                  164.20    415.78770                                0.00000             84.875                                        4.15788e+002           1.57877e+001           5.78770e+000           7.87704e-001           8.77041e-002           7.70411e-003           7.04113e-004
                  164.30    415.78296                                0.00000             84.875                                        4.15783e+002           1.57830e+001           5.78296e+000           7.82956e-001           8.29564e-002           2.95644e-003           9.56438e-004
                  164.40    415.78565                                0.00000             84.875                                        4.15786e+002           1.57856e+001           5.78565e+000           7.85648e-001           8.56478e-002           5.64776e-003           6.47763e-004
