~VERSION INFORMATION
VERS                    .            2.0                                    :CWLS LOG ASCII STANDARD
WRAP                    .            NO                                     :ONE LINE PER TIME STEP


~WELL INFORMATION
#MNEM                   .UNIT        DATA                                    DESCRIPTION
#________________________________________________________________________________________
STRTTIME                .HH/MM/SS    15:44:09                               :START TIME
STOPTIME                .HH/MM/SS    15:46:59                               :STOP TIME
STRT                    .s           2.10                                   :START DATA
STOP                    .s           168.10                                 :STOP DATA
STEP                    .s           0.10                                   :MEASUREMENT TIME INTERVAL
NULL                    .            -999.25                                :NULL VALUE
COMP                    .            Statoil ASA                            :COMPANY
FLD                     .            Volve                                  :FIELD
WELL                    .            15/9-F-1 B                             :WELL
RUN                     .            7                                      :RUN
LOC                     .            Maersk Inspirer                        :LOCATION
PROV                    .            na                                     :PROVINCE
SRVC                    .            Baker Hughes INTEQ                     :SERVICE COMPANY
DATE                    .YY/MM/DD    13/09/06                               :LOG DATE
UWI                     .                                                   :UNIQUE WELL ID
DEPTHMD                 .m           3266.5                                 :MEASURED DEPTH
DEPTHTVD                .m           3062.4                                 :TRUE VERTICAL DEPTH


~CURVE INFORMATION
#MNEM                   .UNIT        API CODES                               DESCRIPTION
#________________________________________________________________________________________
TIME                    .s                                                  :01 TIME
DD_PRESS                .bar                                                :02 DRAW DOWN PRESSURE
DD_VOLUME               .cm3                                                :03 INCREMENTAL DRAW DOWN VOLUME
TEMP                    .degC                                               :04 TRANSDUCER TEMPERATURE
DD_PRESS_MOD_1000       .bar                                                :05 DRAW DOWN PRESSURE MOD 1000
DD_PRESS_MOD_100        .bar                                                :06 DRAW DOWN PRESSURE MOD 100
DD_PRESS_MOD_10         .bar                                                :07 DRAW DOWN PRESSURE MOD 10
DD_PRESS_MOD_1          .bar                                                :08 DRAW DOWN PRESSURE MOD 1
DD_PRESS_MOD_01         .bar                                                :09 DRAW DOWN PRESSURE MOD 01
DD_PRESS_MOD_001        .bar                                                :10 DRAW DOWN PRESSURE MOD 001
DD_PRESS_MOD_0001       .bar                                                :11 DRAW DOWN PRESSURE MOD 0001


~PARAMETER INFORMATION
#MNEM                   .UNIT        VALUE                                   DESCRIPTION
#________________________________________________________________________________________
TOOLFACE                .deg         na                                     :01 TOOLFACE
PUMP_CAPACITY           .bar         400                                    :02 NOMINAL DRAW DOWN PUMP CAPACITY
PUMP_LIMIT              .bar         400                                    :03 DOWNLINK PUMP LIMIT
TIME_LIMIT              .min         10                                     :04 DOWNLINK MAX TIME
TEST_TYPE               .            LOW MOBILITY                           :05 DOWNLINK
DD_PIST_A               .cm2         3.1416                                 :06 DRAW DOWN PISTON AREA
V_SYS                   .cm3         131.0000                               :07 SYSTEM VOLUME
PROBE_ID                .cm          1.2700                                 :08 TTK PROBE ID
G0                      .            4.6700                                 :09 GEOMETRY FACTOR


~A                  TIME     DD_PRESS                              DD_VOLUME               TEMP                                   DD_PRESS_MOD_1000       DD_PRESS_MOD_100        DD_PRESS_MOD_10         DD_PRESS_MOD_1        DD_PRESS_MOD_01       DD_PRESS_MOD_001      DD_PRESS_MOD_0001
# ...
                  130.90    346.52778                               29.23190             82.516                                        3.46528e+002           4.65278e+001           6.52778e+000           5.27782e-001           2.77817e-002           7.78169e-003           7.81694e-004
                  131.00    346.52459                               29.23190             82.516                                        3.46525e+002           4.65246e+001           6.52459e+000           5.24594e-001           2.45942e-002           4.59416e-003           5.94164e-004
                  131.10    346.52582                               29.23190             82.516                                        3.46526e+002           4.65258e+001           6.52582e+000           5.25821e-001           2.58207e-002           5.82067e-003           8.20672e-004
                  131.20    346.52733                               29.23190             82.516                                        3.46527e+002           4.65273e+001           6.52733e+000           5.27328e-001           2.73285e-002           7.32846e-003           3.28456e-004
                  131.30    346.52683                               29.23190             82.516                                        3.46527e+002           4.65268e+001           6.52683e+000           5.26834e-001           2.68337e-002           6.83367e-003           8.33669e-004
                  131.40    346.52673                               29.23190             82.516                                        3.46527e+002           4.65267e+001           6.52673e+000           5.26726e-001           2.67259e-002           6.72592e-003           7.25923e-004
                  131.50    346.52669                               29.23190             82.516                                        3.46527e+002           4.65267e+001           6.52669e+000           5.26686e-001           2.66855e-002           6.68552e-003           6.85518e-004
                  131.60    346.52534                               29.23190             82.516                                        3.46525e+002           4.65253e+001           6.52534e+000           5.25343e-001           2.53435e-002           5.34346e-003           3.43460e-004
                  131.70    346.52392                               29.23190             82.516                                        3.46524e+002           4.65239e+001           6.52392e+000           5.23916e-001           2.39160e-002           3.91597e-003           9.15966e-004
                  131.80    346.52433                               29.23190             82.516                                        3.46524e+002           4.65243e+001           6.52433e+000           5.24328e-001           2.43275e-002           4.32753e-003           3.27528e-004
                  131.90    346.53011                               29.23190             82.516                                        3.46530e+002           4.65301e+001           6.53011e+000           5.30110e-001           3.01099e-002           1.09851e-004           1.09851e-004
                  132.00    346.53357                               29.23190             82.516                                        3.46534e+002           4.65336e+001           6.53357e+000           5.33572e-001           3.35724e-002           3.57240e-003           5.72405e-004
                  132.10    346.53038                               29.23190             82.516                                        3.46530e+002           4.65304e+001           6.53038e+000           5.30379e-001           3.03794e-002           3.79391e-004           3.79391e-004
                  132.20    346.52618                               29.23190             82.516                                        3.46526e+002           4.65262e+001           6.52618e+000           5.26177e-001           2.61766e-002           6.17658e-003           1.76583e-004
                  132.30    346.52294                               29.23190             82.516                                        3.46523e+002           4.65229e+001           6.52294e+000           5.22938e-001           2.29377e-002           2.93774e-003           9.37742e-004
                  132.40    346.52294                               29.23190             82.516                                        3.46523e+002           4.65229e+001           6.52294e+000           5.22936e-001           2.29362e-002           2.93624e-003           9.36241e-004
                  132.50    346.52464                               29.23190             82.516                                        3.46525e+002           4.65246e+001           6.52464e+000           5.24636e-001           2.46360e-002           4.63604e-003           6.36038e-004
                  132.60    346.52817                               29.23190             82.516                                        3.46528e+002           4.65282e+001           6.52817e+000           5.28169e-001           2.81688e-002           8.16876e-003           1.68756e-004
                  132.70    346.52921                               29.23190             82.516                                        3.46529e+002           4.65292e+001           6.52921e+000           5.29209e-001           2.92088e-002           9.20876e-003           2.08764e-004
                  132.80    346.52639                               29.23190             82.516                                        3.46526e+002           4.65264e+001           6.52639e+000           5.26390e-001           2.63905e-002           6.39045e-003           3.90453e-004
                  132.90    346.52285                               29.23190             82.516                                        3.46523e+002           4.65228e+001           6.52285e+000           5.22850e-001           2.28495e-002           2.84952e-003           8.49523e-004
                  133.00    346.52306                               29.23190             82.516                                        3.46523e+002           4.65231e+001           6.52306e+000           5.23057e-001           2.30568e-002           3.05684e-003           5.68413e-005
                  133.10    346.52316                               29.23190             82.516                                        3.46523e+002           4.65232e+001           6.52316e+000           5.23165e-001           2.31645e-002           3.16455e-003           1.64548e-004
                  133.20    346.52342                               29.23190             82.516                                        3.46523e+002           4.65234e+001           6.52342e+000           5.23420e-001           2.34195e-002           3.41952e-003           4.19522e-004
                  133.30    346.52380                               29.23190             82.516                                        3.46524e+002           4.65238e+001           6.52380e+000           5.23803e-001           2.38027e-002           3.80267e-003           8.02672e-004
                  133.40    346.52545                               29.23190             82.516                                        3.46525e+002           4.65255e+001           6.52545e+000           5.25451e-001           2.54509e-002           5.45086e-003           4.50864e-004
                  133.50    346.53120                               29.23190             82.516                                        3.46531e+002           4.65312e+001           6.53120e+000           5.31198e-001           3.11984e-002           1.19837e-003           1.98368e-004
                  133.60    346.53468                               29.23190             82.516                                        3.46535e+002           4.65347e+001           6.53468e+000           5.34676e-001           3.46757e-002           4.67572e-003           6.75723e-004
