~VERSION INFORMATION
VERS                    .            2.0                                    :CWLS LOG ASCII STANDARD
WRAP                    .            NO                                     :ONE LINE PER TIME STEP


~WELL INFORMATION
#MNEM                   .UNIT        DATA                                    DESCRIPTION
#________________________________________________________________________________________
STRTTIME                .HH/MM/SS    10:22:55                               :START TIME
STOPTIME                .HH/MM/SS    10:26:06                               :STOP TIME
STRT                    .s           2.10                                   :START DATA
STOP                    .s           189.80                                 :STOP DATA
STEP                    .s           0.10                                   :MEASUREMENT TIME INTERVAL
NULL                    .            -999.25                                :NULL VALUE
COMP                    .            Statoil ASA                            :COMPANY
FLD                     .            Volve                                  :FIELD
WELL                    .            15/9-F-11 A                            :WELL
RUN                     .            8                                      :RUN
LOC                     .            Maersk Inspirer                        :LOCATION
PROV                    .            na                                     :PROVINCE
SRVC                    .            Baker Hughes INTEQ                     :SERVICE COMPANY
DATE                    .YY/MM/DD    13/05/21                               :LOG DATE
UWI                     .                                                   :UNIQUE WELL ID
DEPTHMD                 .m           3651.0                                 :MEASURED DEPTH
DEPTHTVD                .m           3041.4                                 :TRUE VERTICAL DEPTH


~CURVE INFORMATION
#MNEM                   .UNIT        API CODES                               DESCRIPTION
#________________________________________________________________________________________
TIME                    .s                                                  :01 TIME
DD_PRESS                .bar                                                :02 DRAW DOWN PRESSURE
DD_VOLUME               .cm3                                                :03 INCREMENTAL DRAW DOWN VOLUME
TEMP                    .degC                                               :04 TRANSDUCER TEMPERATURE
DD_PRESS_MOD_1000       .bar                                                :05 DRAW DOWN PRESSURE MOD 1000
DD_PRESS_MOD_100        .bar                                                :06 DRAW DOWN PRESSURE MOD 100
DD_PRESS_MOD_10         .bar                                                :07 DRAW DOWN PRESSURE MOD 10
DD_PRESS_MOD_1          .bar                                                :08 DRAW DOWN PRESSURE MOD 1
DD_PRESS_MOD_01         .bar                                                :09 DRAW DOWN PRESSURE MOD 01
DD_PRESS_MOD_001        .bar                                                :10 DRAW DOWN PRESSURE MOD 001
DD_PRESS_MOD_0001       .bar                                                :11 DRAW DOWN PRESSURE MOD 0001


~PARAMETER INFORMATION
#MNEM                   .UNIT        VALUE                                   DESCRIPTION
#________________________________________________________________________________________
TOOLFACE                .deg         61.5                                   :01 TOOLFACE
PUMP_CAPACITY           .bar         400                                    :02 NOMINAL DRAW DOWN PUMP CAPACITY
PUMP_LIMIT              .bar         240                                    :03 DOWNLINK PUMP LIMIT
TIME_LIMIT              .min         10                                     :04 DOWNLINK MAX TIME
TEST_TYPE               .            REPEAT                                 :05 DOWNLINK
TEST_TYPE               .            HIGH MOBILITY                          :06 DOWNLINK
DD_PIST_A               .cm2         3.1416                                 :07 DRAW DOWN PISTON AREA
V_SYS                   .cm3         131.0000                               :08 SYSTEM VOLUME
PROBE_ID                .cm          1.2700                                 :09 TTK PROBE ID
G0                      .            4.6700                                 :10 GEOMETRY FACTOR


~A                  TIME     DD_PRESS                              DD_VOLUME               TEMP                                   DD_PRESS_MOD_1000       DD_PRESS_MOD_100        DD_PRESS_MOD_10         DD_PRESS_MOD_1        DD_PRESS_MOD_01       DD_PRESS_MOD_001      DD_PRESS_MOD_0001
# ...
                  175.70    418.69689                                0.00000             81.133                                        4.18697e+002           1.86969e+001           8.69689e+000           6.96894e-001           9.68938e-002           6.89384e-003           8.93840e-004
                  175.80    418.68931                                0.00000             81.133                                        4.18689e+002           1.86893e+001           8.68931e+000           6.89313e-001           8.93129e-002           9.31287e-003           3.12872e-004
                  175.90    418.68406                                0.00000             81.133                                        4.18684e+002           1.86841e+001           8.68406e+000           6.84062e-001           8.40618e-002           4.06182e-003           6.18247e-005
                  176.00    418.68119                                0.00000             81.133                                        4.18681e+002           1.86812e+001           8.68119e+000           6.81194e-001           8.11935e-002           1.19350e-003           1.93502e-004
                  176.10    418.68437                                0.00000             81.133                                        4.18684e+002           1.86844e+001           8.68437e+000           6.84370e-001           8.43705e-002           4.37049e-003           3.70491e-004
                  176.20    418.68958                                0.00000             81.133                                        4.18690e+002           1.86896e+001           8.68958e+000           6.89578e-001           8.95778e-002           9.57776e-003           5.77757e-004
                  176.30    418.69184                                0.00000             81.133                                        4.18692e+002           1.86918e+001           8.69184e+000           6.91842e-001           9.18423e-002           1.84228e-003           8.42280e-004
                  176.40    418.68901                                0.00000             81.133                                        4.18689e+002           1.86890e+001           8.68901e+000           6.89012e-001           8.90124e-002           9.01242e-003           1.24199e-005
                  176.50    418.69767                                0.00000             81.133                                        4.18698e+002           1.86977e+001           8.69767e+000           6.97674e-001           9.76737e-002           7.67365e-003           6.73651e-004
                  176.60    418.70241                                0.00000             81.133                                        4.18702e+002           1.87024e+001           8.70241e+000           7.02412e-001           2.41180e-003           2.41180e-003           4.11804e-004
                  176.70    418.69371                                0.00000             81.133                                        4.18694e+002           1.86937e+001           8.69371e+000           6.93710e-001           9.37102e-002           3.71015e-003           7.10151e-004
                  176.80    418.68687                                0.00000             81.133                                        4.18687e+002           1.86869e+001           8.68687e+000           6.86872e-001           8.68720e-002           6.87197e-003           8.71965e-004
                  176.90    418.69240                                0.00000             81.133                                        4.18692e+002           1.86924e+001           8.69240e+000           6.92401e-001           9.24012e-002           2.40124e-003           4.01238e-004
                  177.00    418.69692                                0.00000             81.133                                        4.18697e+002           1.86969e+001           8.69692e+000           6.96915e-001           9.69151e-002           6.91505e-003           9.15052e-004
                  177.10    418.68830                                0.00000             81.133                                        4.18688e+002           1.86883e+001           8.68830e+000           6.88301e-001           8.83008e-002           8.30077e-003           3.00769e-004
                  177.20    418.69264                                0.00000             81.133                                        4.18693e+002           1.86926e+001           8.69264e+000           6.92641e-001           9.26410e-002           2.64099e-003           6.40987e-004
                  177.30    418.69691                                0.00000             81.133                                        4.18697e+002           1.86969e+001           8.69691e+000           6.96907e-001           9.69072e-002           6.90716e-003           9.07158e-004
                  177.40    418.69536                                0.00000             81.133                                        4.18695e+002           1.86954e+001           8.69536e+000           6.95365e-001           9.53648e-002           5.36475e-003           3.64754e-004
                  177.50    418.68137                                0.00000             81.133                                        4.18681e+002           1.86814e+001           8.68137e+000           6.81367e-001           8.13665e-002           1.36652e-003           3.66520e-004
                  177.60    418.68016                                0.00000             81.133                                        4.18680e+002           1.86802e+001           8.68016e+000           6.80163e-001           8.01626e-002           1.62572e-004           1.62572e-004
                  177.70    418.69526                                0.00000             81.133                                        4.18695e+002           1.86953e+001           8.69526e+000           6.95264e-001           9.52644e-002           5.26442e-003           2.64421e-004
                  177.80    418.70660                                0.00000             81.133                                        4.18707e+002           1.87066e+001           8.70660e+000           7.06602e-001           6.60163e-003           6.60163e-003           6.01625e-004
                  177.90    418.68744                                0.00000             81.133                                        4.18687e+002           1.86874e+001           8.68744e+000           6.87443e-001           8.74425e-002           7.44254e-003           4.42538e-004
                  178.00    418.66870                                0.00000             81.133                                        4.18669e+002           1.86687e+001           8.66870e+000           6.68702e-001           6.87016e-002           8.70158e-003           7.01575e-004
                  178.10    418.67655                                0.00000             81.133                                        4.18677e+002           1.86765e+001           8.67655e+000           6.76546e-001           7.65461e-002           6.54605e-003           5.46054e-004
                  178.20    418.69307                                0.00000             81.133                                        4.18693e+002           1.86931e+001           8.69307e+000           6.93070e-001           9.30704e-002           3.07045e-003           7.04458e-005
                  178.30    418.68225                                0.00000             81.133                                        4.18682e+002           1.86823e+001           8.68225e+000           6.82252e-001           8.22523e-002           2.25235e-003           2.52347e-004
                  178.40    418.67205                                0.00000             81.133                                        4.18672e+002           1.86721e+001           8.67205e+000           6.72053e-001           7.20532e-002           2.05316e-003           5.31640e-005
