~VERSION INFORMATION
VERS                    .            2.0                                    :CWLS LOG ASCII STANDARD
WRAP                    .            NO                                     :ONE LINE PER TIME STEP


~WELL INFORMATION
#MNEM                   .UNIT        DATA                                    DESCRIPTION
#________________________________________________________________________________________
STRTTIME                .HH/MM/SS    08:48:41                               :START TIME
STOPTIME                .HH/MM/SS    08:51:35                               :STOP TIME
STRT                    .s           2.10                                   :START DATA
STOP                    .s           172.50                                 :STOP DATA
STEP                    .s           0.10                                   :MEASUREMENT TIME INTERVAL
NULL                    .            -999.25                                :NULL VALUE
COMP                    .            Statoil ASA                            :COMPANY
FLD                     .            Volve                                  :FIELD
WELL                    .            15/9-F-11 A                            :WELL
RUN                     .            8                                      :RUN
LOC                     .            Maersk Inspirer                        :LOCATION
PROV                    .            na                                     :PROVINCE
SRVC                    .            Baker Hughes INTEQ                     :SERVICE COMPANY
DATE                    .YY/MM/DD    13/05/21                               :LOG DATE
UWI                     .                                                   :UNIQUE WELL ID
DEPTHMD                 .m           3681.0                                 :MEASURED DEPTH
DEPTHTVD                .m           3064.4                                 :TRUE VERTICAL DEPTH


~CURVE INFORMATION
#MNEM                   .UNIT        API CODES                               DESCRIPTION
#________________________________________________________________________________________
TIME                    .s                                                  :01 TIME
DD_PRESS                .bar                                                :02 DRAW DOWN PRESSURE
DD_VOLUME               .cm3                                                :03 INCREMENTAL DRAW DOWN VOLUME
TEMP                    .degC                                               :04 TRANSDUCER TEMPERATURE
DD_PRESS_MOD_1000       .bar                                                :05 DRAW DOWN PRESSURE MOD 1000
DD_PRESS_MOD_100        .bar                                                :06 DRAW DOWN PRESSURE MOD 100
DD_PRESS_MOD_10         .bar                                                :07 DRAW DOWN PRESSURE MOD 10
DD_PRESS_MOD_1          .bar                                                :08 DRAW DOWN PRESSURE MOD 1
DD_PRESS_MOD_01         .bar                                                :09 DRAW DOWN PRESSURE MOD 01
DD_PRESS_MOD_001        .bar                                                :10 DRAW DOWN PRESSURE MOD 001
DD_PRESS_MOD_0001       .bar                                                :11 DRAW DOWN PRESSURE MOD 0001


~PARAMETER INFORMATION
#MNEM                   .UNIT        VALUE                                   DESCRIPTION
#________________________________________________________________________________________
TOOLFACE                .deg         -59.5                                  :01 TOOLFACE
PUMP_CAPACITY           .bar         400                                    :02 NOMINAL DRAW DOWN PUMP CAPACITY
PUMP_LIMIT              .bar         240                                    :03 DOWNLINK PUMP LIMIT
TIME_LIMIT              .min         10                                     :04 DOWNLINK MAX TIME
TEST_TYPE               .            REPEAT                                 :05 DOWNLINK
TEST_TYPE               .            HIGH MOBILITY                          :06 DOWNLINK
DD_PIST_A               .cm2         3.1416                                 :07 DRAW DOWN PISTON AREA
V_SYS                   .cm3         131.0000                               :08 SYSTEM VOLUME
PROBE_ID                .cm          1.2700                                 :09 TTK PROBE ID
G0                      .            4.6700                                 :10 GEOMETRY FACTOR


~A                  TIME     DD_PRESS                              DD_VOLUME               TEMP                                   DD_PRESS_MOD_1000       DD_PRESS_MOD_100        DD_PRESS_MOD_10         DD_PRESS_MOD_1        DD_PRESS_MOD_01       DD_PRESS_MOD_001      DD_PRESS_MOD_0001
# ...
                   13.30    423.90470                                0.00000             82.656                                        4.23905e+002           2.39047e+001           3.90470e+000           9.04699e-001           4.69941e-003           4.69941e-003           6.99406e-004
                   13.40    423.91246                                0.00000             82.656                                        4.23912e+002           2.39125e+001           3.91246e+000           9.12461e-001           1.24615e-002           2.46146e-003           4.61456e-004
                   13.50    423.92218                                0.00000             82.656                                        4.23922e+002           2.39222e+001           3.92218e+000           9.22176e-001           2.21762e-002           2.17622e-003           1.76221e-004
                   13.60    423.93772                                0.00000             82.656                                        4.23938e+002           2.39377e+001           3.93772e+000           9.37721e-001           3.77214e-002           7.72136e-003           7.21358e-004
                   13.70    423.94511                                0.00000             82.656                                        4.23945e+002           2.39451e+001           3.94511e+000           9.45112e-001           4.51121e-002           5.11211e-003           1.12111e-004
                   13.80    423.95619                                0.00000             82.656                                        4.23956e+002           2.39562e+001           3.95619e+000           9.56188e-001           5.61884e-002           6.18839e-003           1.88391e-004
                   13.90    423.97039                                0.00000             82.656                                        4.23970e+002           2.39704e+001           3.97039e+000           9.70390e-001           7.03898e-002           3.89819e-004           3.89819e-004
                   14.00    423.97272                                0.00000             82.656                                        4.23973e+002           2.39727e+001           3.97272e+000           9.72721e-001           7.27208e-002           2.72079e-003           7.20792e-004
                   14.10    423.97187                                0.00000             82.656                                        4.23972e+002           2.39719e+001           3.97187e+000           9.71875e-001           7.18750e-002           1.87497e-003           8.74972e-004
                   14.20    423.99263                                0.00000             82.656                                        4.23993e+002           2.39926e+001           3.99263e+000           9.92631e-001           9.26314e-002           2.63142e-003           6.31416e-004
                   14.30    424.00397                                0.00000             82.656                                        4.24004e+002           2.40040e+001           4.00397e+000           3.96503e-003           3.96503e-003           3.96503e-003           9.65026e-004
                   14.40    423.99649                                0.00000             82.656                                        4.23996e+002           2.39965e+001           3.99649e+000           9.96490e-001           9.64903e-002           6.49032e-003           4.90320e-004
                   14.50    423.98893                                0.00000             82.654                                        4.23989e+002           2.39889e+001           3.98893e+000           9.88935e-001           8.89346e-002           8.93459e-003           9.34594e-004
                   14.60    424.01397                                0.00000             82.650                                        4.24014e+002           2.40140e+001           4.01397e+000           1.39666e-002           1.39666e-002           3.96659e-003           9.66594e-004
                   14.70    424.03689                                0.00000             82.651                                        4.24037e+002           2.40369e+001           4.03689e+000           3.68878e-002           3.68878e-002           6.88782e-003           8.87819e-004
                   14.80    424.03963                                0.00000             82.654                                        4.24040e+002           2.40396e+001           4.03963e+000           3.96334e-002           3.96334e-002           9.63338e-003           6.33384e-004
                   14.90    424.02709                                0.00000             82.656                                        4.24027e+002           2.40271e+001           4.02709e+000           2.70943e-002           2.70943e-002           7.09430e-003           9.42996e-005
                   15.00    424.03503                                0.00000             82.656                                        4.24035e+002           2.40350e+001           4.03503e+000           3.50304e-002           3.50304e-002           5.03041e-003           3.04103e-005
                   15.10    424.05437                                0.00000             82.654                                        4.24054e+002           2.40544e+001           4.05437e+000           5.43705e-002           5.43705e-002           4.37045e-003           3.70451e-004
                   15.20    424.06642                                0.00000             82.650                                        4.24066e+002           2.40664e+001           4.06642e+000           6.64198e-002           6.64198e-002           6.41984e-003           4.19841e-004
                   15.30    424.06526                                0.00000             82.648                                        4.24065e+002           2.40653e+001           4.06526e+000           6.52585e-002           6.52585e-002           5.25854e-003           2.58541e-004
                   15.40    424.06145                                0.00000             82.651                                        4.24061e+002           2.40615e+001           4.06145e+000           6.14548e-002           6.14548e-002           1.45484e-003           4.54840e-004
                   15.50    424.06551                                0.00000             82.654                                        4.24066e+002           2.40655e+001           4.06551e+000           6.55055e-002           6.55055e-002           5.50545e-003           5.05453e-004
                   15.60    424.06982                                0.00000             82.656                                        4.24070e+002           2.40698e+001           4.06982e+000           6.98220e-002           6.98220e-002           9.82197e-003           8.21966e-004
                   15.70    424.08183                                0.00000             82.654                                        4.24082e+002           2.40818e+001           4.08183e+000           8.18338e-002           8.18338e-002           1.83383e-003           8.33831e-004
                   15.80    424.08815                                0.00000             82.650                                        4.24088e+002           2.40882e+001           4.08815e+000           8.81531e-002           8.81531e-002           8.15309e-003           1.53093e-004
                   15.90    424.09256                                0.00000             82.648                                        4.24093e+002           2.40926e+001           4.09256e+000           9.25635e-002           9.25635e-002           2.56345e-003           5.63454e-004
                   16.00    424.09630                                0.00000             82.648                                        4.24096e+002           2.40963e+001           4.09630e+000           9.63016e-002           9.63016e-002           6.30162e-003           3.01624e-004
