~VERSION INFORMATION
VERS                    .            2.0                                    :CWLS LOG ASCII STANDARD
WRAP                    .            NO                                     :ONE LINE PER TIME STEP


~WELL INFORMATION
#MNEM                   .UNIT        DATA                                    DESCRIPTION
#________________________________________________________________________________________
STRTTIME                .HH/MM/SS    22:05:32                               :START TIME
STOPTIME                .HH/MM/SS    22:09:32                               :STOP TIME
STRT                    .s           2.10                                   :START DATA
STOP                    .s           238.90                                 :STOP DATA
STEP                    .s           0.10                                   :MEASUREMENT TIME INTERVAL
NULL                    .            -999.25                                :NULL VALUE
COMP                    .            Statoil                                :COMPANY
FLD                     .            Volve                                  :FIELD
WELL                    .            15/9-F-11 T2                           :WELL
RUN                     .            7                                      :RUN
LOC                     .            Maersk Inspirer                        :LOCATION
PROV                    .            na                                     :PROVINCE
SRVC                    .            Baker Hughes INTEQ                     :SERVICE COMPANY
DATE                    .YY/MM/DD    13/05/04                               :LOG DATE
UWI                     .                                                   :UNIQUE WELL ID
DEPTHMD                 .m           4490.1                                 :MEASURED DEPTH
DEPTHTVD                .m           3328.5                                 :TRUE VERTICAL DEPTH


~CURVE INFORMATION
#MNEM                   .UNIT        API CODES                               DESCRIPTION
#________________________________________________________________________________________
TIME                    .s                                                  :01 TIME
DD_PRESS                .bar                                                :02 DRAW DOWN PRESSURE
DD_VOLUME               .cm3                                                :03 INCREMENTAL DRAW DOWN VOLUME
TEMP                    .degC                                               :04 TRANSDUCER TEMPERATURE
DD_PRESS_MOD_1000       .bar                                                :05 DRAW DOWN PRESSURE MOD 1000
DD_PRESS_MOD_100        .bar                                                :06 DRAW DOWN PRESSURE MOD 100
DD_PRESS_MOD_10         .bar                                                :07 DRAW DOWN PRESSURE MOD 10
DD_PRESS_MOD_1          .bar                                                :08 DRAW DOWN PRESSURE MOD 1
DD_PRESS_MOD_01         .bar                                                :09 DRAW DOWN PRESSURE MOD 01
DD_PRESS_MOD_001        .bar                                                :10 DRAW DOWN PRESSURE MOD 001
DD_PRESS_MOD_0001       .bar                                                :11 DRAW DOWN PRESSURE MOD 0001


~PARAMETER INFORMATION
#MNEM                   .UNIT        VALUE                                   DESCRIPTION
#________________________________________________________________________________________
TOOLFACE                .deg         na                                     :01 TOOLFACE
PUMP_CAPACITY           .bar         400                                    :02 NOMINAL DRAW DOWN PUMP CAPACITY
PUMP_LIMIT              .bar         240                                    :03 DOWNLINK PUMP LIMIT
TIME_LIMIT              .min         10                                     :04 DOWNLINK MAX TIME
TEST_TYPE               .            HIGH MOBILITY                          :05 DOWNLINK
DD_PIST_A               .cm2         3.1416                                 :06 DRAW DOWN PISTON AREA
V_SYS                   .cm3         131.0000                               :07 SYSTEM VOLUME
PROBE_ID                .cm          1.2700                                 :08 TTK PROBE ID
G0                      .            4.6700                                 :09 GEOMETRY FACTOR


~A                  TIME     DD_PRESS                              DD_VOLUME               TEMP                                   DD_PRESS_MOD_1000       DD_PRESS_MOD_100        DD_PRESS_MOD_10         DD_PRESS_MOD_1        DD_PRESS_MOD_01       DD_PRESS_MOD_001      DD_PRESS_MOD_0001
# ...
                  175.70    347.59237                               22.22242             97.242                                        3.47592e+002           4.75924e+001           7.59237e+000           5.92367e-001           9.23668e-002           2.36681e-003           3.66814e-004
                  175.80    347.58391                               22.32116             97.242                                        3.47584e+002           4.75839e+001           7.58391e+000           5.83906e-001           8.39062e-002           3.90624e-003           9.06243e-004
                  175.90    347.59161                               22.42000             97.242                                        3.47592e+002           4.75916e+001           7.59161e+000           5.91606e-001           9.16065e-002           1.60648e-003           6.06482e-004
                  176.00    347.58687                               22.51901             97.242                                        3.47587e+002           4.75869e+001           7.58687e+000           5.86870e-001           8.68702e-002           6.87024e-003           8.70243e-004
                  176.10    347.58135                               22.61784             97.242                                        3.47581e+002           4.75813e+001           7.58135e+000           5.81347e-001           8.13469e-002           1.34694e-003           3.46937e-004
                  176.20    347.59041                               22.71670             97.242                                        3.47590e+002           4.75904e+001           7.59041e+000           5.90412e-001           9.04116e-002           4.11604e-004           4.11604e-004
                  176.30    347.59284                               22.81572             97.242                                        3.47593e+002           4.75928e+001           7.59284e+000           5.92844e-001           9.28444e-002           2.84443e-003           8.44428e-004
                  176.40    347.61281                               22.91481             97.242                                        3.47613e+002           4.76128e+001           7.61281e+000           6.12810e-001           1.28098e-002           2.80980e-003           8.09799e-004
                  176.50    347.62903                               23.01460             97.242                                        3.47629e+002           4.76290e+001           7.62903e+000           6.29034e-001           2.90343e-002           9.03430e-003           3.43017e-005
                  176.60    347.62392                               23.11504             97.242                                        3.47624e+002           4.76239e+001           7.62392e+000           6.23916e-001           2.39159e-002           3.91588e-003           9.15877e-004
                  176.70    347.59719                               23.21519             97.242                                        3.47597e+002           4.75972e+001           7.59719e+000           5.97191e-001           9.71907e-002           7.19070e-003           1.90702e-004
                  176.80    347.58889                               23.31498             97.242                                        3.47589e+002           4.75889e+001           7.58889e+000           5.88885e-001           8.88852e-002           8.88522e-003           8.85216e-004
                  176.90    347.59472                               23.41479             97.242                                        3.47595e+002           4.75947e+001           7.59472e+000           5.94724e-001           9.47241e-002           4.72410e-003           7.24095e-004
                  177.00    347.93084                               23.50952             97.242                                        3.47931e+002           4.79308e+001           7.93084e+000           9.30837e-001           3.08366e-002           8.36569e-004           8.36569e-004
                  177.10    350.19955                               23.57112             97.242                                        3.50200e+002           5.01996e+001           1.99553e-001           1.99553e-001           9.95530e-002           9.55303e-003           5.53031e-004
                  177.20    354.30390                               23.59046             97.240                                        3.54304e+002           5.43039e+001           4.30390e+000           3.03904e-001           3.90378e-003           3.90378e-003           9.03777e-004
                  177.30    358.24225                               23.59084             97.236                                        3.58242e+002           5.82422e+001           8.24225e+000           2.42247e-001           4.22468e-002           2.24684e-003           2.46845e-004
                  177.40    360.96682                               23.59084             97.234                                        3.60967e+002           6.09668e+001           9.66822e-001           9.66822e-001           6.68220e-002           6.82201e-003           8.22010e-004
                  177.50    362.81742                               23.59084             97.237                                        3.62817e+002           6.28174e+001           2.81742e+000           8.17416e-001           1.74165e-002           7.41649e-003           4.16491e-004
                  177.60    364.10868                               23.59084             97.240                                        3.64109e+002           6.41087e+001           4.10868e+000           1.08678e-001           8.67821e-003           8.67821e-003           6.78209e-004
                  177.70    365.03319                               23.59084             97.242                                        3.65033e+002           6.50332e+001           5.03319e+000           3.31886e-002           3.31886e-002           3.18860e-003           1.88597e-004
                  177.80    365.65667                               23.59084             97.240                                        3.65657e+002           6.56567e+001           5.65667e+000           6.56665e-001           5.66654e-002           6.66544e-003           6.65441e-004
                  177.90    366.07365                               23.59084             97.236                                        3.66074e+002           6.60736e+001           6.07365e+000           7.36467e-002           7.36467e-002           3.64666e-003           6.46658e-004
                  178.00    366.35700                               23.59084             97.234                                        3.66357e+002           6.63570e+001           6.35700e+000           3.56997e-001           5.69969e-002           6.99694e-003           9.96944e-004
                  178.10    366.60669                               23.59084             97.234                                        3.66607e+002           6.66067e+001           6.60669e+000           6.06691e-001           6.69101e-003           6.69101e-003           6.91013e-004
                  178.20    366.90873                               23.59084             97.234                                        3.66909e+002           6.69087e+001           6.90873e+000           9.08729e-001           8.72942e-003           8.72942e-003           7.29416e-004
                  178.30    367.17981                               23.59084             97.234                                        3.67180e+002           6.71798e+001           7.17981e+000           1.79806e-001           7.98061e-002           9.80609e-003           8.06091e-004
                  178.40    367.37722                               23.59084             97.234                                        3.67377e+002           6.73772e+001           7.37722e+000           3.77217e-001           7.72170e-002           7.21699e-003           2.16988e-004
