~VERSION INFORMATION
VERS                    .            2.0                                    :CWLS LOG ASCII STANDARD
WRAP                    .            NO                                     :ONE LINE PER TIME STEP


~WELL INFORMATION
#MNEM                   .UNIT        DATA                                    DESCRIPTION
#________________________________________________________________________________________
STRTTIME                .HH/MM/SS    16:02:11                               :START TIME
STOPTIME                .HH/MM/SS    16:05:47                               :STOP TIME
STRT                    .s           2.10                                   :START DATA
STOP                    .s           214.40                                 :STOP DATA
STEP                    .s           0.10                                   :MEASUREMENT TIME INTERVAL
NULL                    .            -999.25                                :NULL VALUE
COMP                    .            Statoil ASA                            :COMPANY
FLD                     .            Volve                                  :FIELD
WELL                    .            15/9-F-1 B                             :WELL
RUN                     .            7                                      :RUN
LOC                     .            Maersk Inspirer                        :LOCATION
PROV                    .            na                                     :PROVINCE
SRVC                    .            Baker Hughes INTEQ                     :SERVICE COMPANY
DATE                    .YY/MM/DD    13/09/06                               :LOG DATE
UWI                     .                                                   :UNIQUE WELL ID
DEPTHMD                 .m           3261.0                                 :MEASURED DEPTH
DEPTHTVD                .m           3057.0                                 :TRUE VERTICAL DEPTH


~CURVE INFORMATION
#MNEM                   .UNIT        API CODES                               DESCRIPTION
#________________________________________________________________________________________
TIME                    .s                                                  :01 TIME
DD_PRESS                .bar                                                :02 DRAW DOWN PRESSURE
DD_VOLUME               .cm3                                                :03 INCREMENTAL DRAW DOWN VOLUME
TEMP                    .degC                                               :04 TRANSDUCER TEMPERATURE
DD_PRESS_MOD_1000       .bar                                                :05 DRAW DOWN PRESSURE MOD 1000
DD_PRESS_MOD_100        .bar                                                :06 DRAW DOWN PRESSURE MOD 100
DD_PRESS_MOD_10         .bar                                                :07 DRAW DOWN PRESSURE MOD 10
DD_PRESS_MOD_1          .bar                                                :08 DRAW DOWN PRESSURE MOD 1
DD_PRESS_MOD_01         .bar                                                :09 DRAW DOWN PRESSURE MOD 01
DD_PRESS_MOD_001        .bar                                                :10 DRAW DOWN PRESSURE MOD 001
DD_PRESS_MOD_0001       .bar                                                :11 DRAW DOWN PRESSURE MOD 0001


~PARAMETER INFORMATION
#MNEM                   .UNIT        VALUE                                   DESCRIPTION
#________________________________________________________________________________________
TOOLFACE                .deg         na                                     :01 TOOLFACE
PUMP_CAPACITY           .bar         400                                    :02 NOMINAL DRAW DOWN PUMP CAPACITY
PUMP_LIMIT              .bar         400                                    :03 DOWNLINK PUMP LIMIT
TIME_LIMIT              .min         10                                     :04 DOWNLINK MAX TIME
TEST_TYPE               .            LOW MOBILITY                           :05 DOWNLINK
DD_PIST_A               .cm2         3.1416                                 :06 DRAW DOWN PISTON AREA
V_SYS                   .cm3         131.0000                               :07 SYSTEM VOLUME
PROBE_ID                .cm          1.2700                                 :08 TTK PROBE ID
G0                      .            4.6700                                 :09 GEOMETRY FACTOR


~A                  TIME     DD_PRESS                              DD_VOLUME               TEMP                                   DD_PRESS_MOD_1000       DD_PRESS_MOD_100        DD_PRESS_MOD_10         DD_PRESS_MOD_1        DD_PRESS_MOD_01       DD_PRESS_MOD_001      DD_PRESS_MOD_0001
# ...
                  114.10    345.61016                               19.92291             82.070                                        3.45610e+002           4.56102e+001           5.61016e+000           6.10163e-001           1.01632e-002           1.63171e-004           1.63171e-004
                  114.20    345.60164                               19.92291             82.070                                        3.45602e+002           4.56016e+001           5.60164e+000           6.01643e-001           1.64270e-003           1.64270e-003           6.42700e-004
                  114.30    345.59088                               19.92291             82.070                                        3.45591e+002           4.55909e+001           5.59088e+000           5.90876e-001           9.08763e-002           8.76298e-004           8.76298e-004
                  114.40    345.59573                               19.92291             82.070                                        3.45596e+002           4.55957e+001           5.59573e+000           5.95727e-001           9.57270e-002           5.72701e-003           7.27011e-004
                  114.50    345.60350                               19.92291             82.070                                        3.45603e+002           4.56035e+001           5.60350e+000           6.03498e-001           3.49797e-003           3.49797e-003           4.97972e-004
                  114.60    345.59602                               19.92291             82.070                                        3.45596e+002           4.55960e+001           5.59602e+000           5.96020e-001           9.60198e-002           6.01981e-003           1.98110e-005
                  114.70    345.59241                               19.92291             82.070                                        3.45592e+002           4.55924e+001           5.59241e+000           5.92407e-001           9.24067e-002           2.40671e-003           4.06706e-004
                  114.80    345.60421                               19.92291             82.070                                        3.45604e+002           4.56042e+001           5.60421e+000           6.04211e-001           4.21106e-003           4.21106e-003           2.11056e-004
                  114.90    345.60621                               19.92291             82.070                                        3.45606e+002           4.56062e+001           5.60621e+000           6.06208e-001           6.20781e-003           6.20781e-003           2.07812e-004
                  115.00    345.59463                               19.92291             82.070                                        3.45595e+002           4.55946e+001           5.59463e+000           5.94630e-001           9.46300e-002           4.63003e-003           6.30034e-004
                  115.10    345.59139                               19.92291             82.070                                        3.45591e+002           4.55914e+001           5.59139e+000           5.91385e-001           9.13852e-002           1.38515e-003           3.85152e-004
                  115.20    345.60451                               19.92291             82.070                                        3.45605e+002           4.56045e+001           5.60451e+000           6.04506e-001           4.50564e-003           4.50564e-003           5.05644e-004
                  115.30    345.60792                               19.92291             82.070                                        3.45608e+002           4.56079e+001           5.60792e+000           6.07918e-001           7.91845e-003           7.91845e-003           9.18452e-004
                  115.40    345.59905                               19.92291             82.070                                        3.45599e+002           4.55990e+001           5.59905e+000           5.99049e-001           9.90493e-002           9.04929e-003           4.92880e-005
                  115.50    345.59560                               19.92291             82.070                                        3.45596e+002           4.55956e+001           5.59560e+000           5.95604e-001           9.56040e-002           5.60402e-003           6.04025e-004
                  115.60    345.60244                               19.92291             82.070                                        3.45602e+002           4.56024e+001           5.60244e+000           6.02442e-001           2.44176e-003           2.44176e-003           4.41764e-004
                  115.70    345.60524                               19.92291             82.070                                        3.45605e+002           4.56052e+001           5.60524e+000           6.05242e-001           5.24238e-003           5.24238e-003           2.42383e-004
                  115.80    345.59864                               19.92291             82.070                                        3.45599e+002           4.55986e+001           5.59864e+000           5.98638e-001           9.86379e-002           8.63793e-003           6.37930e-004
                  115.90    345.59695                               19.92291             82.070                                        3.45597e+002           4.55969e+001           5.59695e+000           5.96947e-001           9.69469e-002           6.94688e-003           9.46876e-004
                  116.00    345.59910                               19.92291             82.070                                        3.45599e+002           4.55991e+001           5.59910e+000           5.99098e-001           9.90979e-002           9.09789e-003           9.78890e-005
                  116.10    345.59876                               19.92291             82.070                                        3.45599e+002           4.55988e+001           5.59876e+000           5.98757e-001           9.87575e-002           8.75750e-003           7.57497e-004
                  116.20    345.59007                               19.92291             82.070                                        3.45590e+002           4.55901e+001           5.59007e+000           5.90074e-001           9.00738e-002           7.37589e-005           7.37589e-005
                  116.30    345.59268                               19.92291             82.070                                        3.45593e+002           4.55927e+001           5.59268e+000           5.92679e-001           9.26793e-002           2.67928e-003           6.79279e-004
                  116.40    345.60555                               19.92291             82.070                                        3.45606e+002           4.56056e+001           5.60555e+000           6.05554e-001           5.55353e-003           5.55353e-003           5.53525e-004
                  116.50    345.60750                               19.92291             82.070                                        3.45607e+002           4.56075e+001           5.60750e+000           6.07498e-001           7.49826e-003           7.49826e-003           4.98256e-004
                  116.60    345.59940                               19.92291             82.070                                        3.45599e+002           4.55994e+001           5.59940e+000           5.99401e-001           9.94008e-002           9.40079e-003           4.00794e-004
                  116.70    345.60071                               19.92291             82.070                                        3.45601e+002           4.56007e+001           5.60071e+000           6.00707e-001           7.06771e-004           7.06771e-004           7.06771e-004
                  116.80    345.60437                               19.92291             82.070                                        3.45604e+002           4.56044e+001           5.60437e+000           6.04366e-001           4.36614e-003           4.36614e-003           3.66140e-004
