~VERSION INFORMATION
VERS                    .            2.0                                    :CWLS LOG ASCII STANDARD
WRAP                    .            NO                                     :ONE LINE PER TIME STEP


~WELL INFORMATION
#MNEM                   .UNIT        DATA                                    DESCRIPTION
#________________________________________________________________________________________
STRTTIME                .HH/MM/SS    08:48:41                               :START TIME
STOPTIME                .HH/MM/SS    08:51:35                               :STOP TIME
STRT                    .s           2.10                                   :START DATA
STOP                    .s           172.50                                 :STOP DATA
STEP                    .s           0.10                                   :MEASUREMENT TIME INTERVAL
NULL                    .            -999.25                                :NULL VALUE
COMP                    .            Statoil ASA                            :COMPANY
FLD                     .            Volve                                  :FIELD
WELL                    .            15/9-F-11 A                            :WELL
RUN                     .            8                                      :RUN
LOC                     .            Maersk Inspirer                        :LOCATION
PROV                    .            na                                     :PROVINCE
SRVC                    .            Baker Hughes INTEQ                     :SERVICE COMPANY
DATE                    .YY/MM/DD    13/05/21                               :LOG DATE
UWI                     .                                                   :UNIQUE WELL ID
DEPTHMD                 .m           3681.0                                 :MEASURED DEPTH
DEPTHTVD                .m           3064.4                                 :TRUE VERTICAL DEPTH


~CURVE INFORMATION
#MNEM                   .UNIT        API CODES                               DESCRIPTION
#________________________________________________________________________________________
TIME                    .s                                                  :01 TIME
DD_PRESS                .bar                                                :02 DRAW DOWN PRESSURE
DD_VOLUME               .cm3                                                :03 INCREMENTAL DRAW DOWN VOLUME
TEMP                    .degC                                               :04 TRANSDUCER TEMPERATURE
DD_PRESS_MOD_1000       .bar                                                :05 DRAW DOWN PRESSURE MOD 1000
DD_PRESS_MOD_100        .bar                                                :06 DRAW DOWN PRESSURE MOD 100
DD_PRESS_MOD_10         .bar                                                :07 DRAW DOWN PRESSURE MOD 10
DD_PRESS_MOD_1          .bar                                                :08 DRAW DOWN PRESSURE MOD 1
DD_PRESS_MOD_01         .bar                                                :09 DRAW DOWN PRESSURE MOD 01
DD_PRESS_MOD_001        .bar                                                :10 DRAW DOWN PRESSURE MOD 001
DD_PRESS_MOD_0001       .bar                                                :11 DRAW DOWN PRESSURE MOD 0001


~PARAMETER INFORMATION
#MNEM                   .UNIT        VALUE                                   DESCRIPTION
#________________________________________________________________________________________
TOOLFACE                .deg         -59.5                                  :01 TOOLFACE
PUMP_CAPACITY           .bar         400                                    :02 NOMINAL DRAW DOWN PUMP CAPACITY
PUMP_LIMIT              .bar         240                                    :03 DOWNLINK PUMP LIMIT
TIME_LIMIT              .min         10                                     :04 DOWNLINK MAX TIME
TEST_TYPE               .            REPEAT                                 :05 DOWNLINK
TEST_TYPE               .            HIGH MOBILITY                          :06 DOWNLINK
DD_PIST_A               .cm2         3.1416                                 :07 DRAW DOWN PISTON AREA
V_SYS                   .cm3         131.0000                               :08 SYSTEM VOLUME
PROBE_ID                .cm          1.2700                                 :09 TTK PROBE ID
G0                      .            4.6700                                 :10 GEOMETRY FACTOR


~A                  TIME     DD_PRESS                              DD_VOLUME               TEMP                                   DD_PRESS_MOD_1000       DD_PRESS_MOD_100        DD_PRESS_MOD_10         DD_PRESS_MOD_1        DD_PRESS_MOD_01       DD_PRESS_MOD_001      DD_PRESS_MOD_0001
# ...
                   35.70    341.65709                                8.62143             82.602                                        3.41657e+002           4.16571e+001           1.65709e+000           6.57090e-001           5.70899e-002           7.08989e-003           8.98851e-005
                   35.80    341.71753                                8.70646             82.602                                        3.41718e+002           4.17175e+001           1.71753e+000           7.17528e-001           1.75280e-002           7.52798e-003           5.27979e-004
                   35.90    341.77279                                8.79042             82.602                                        3.41773e+002           4.17728e+001           1.77279e+000           7.72790e-001           7.27901e-002           2.79012e-003           7.90120e-004
                   36.00    341.81426                                8.87327             82.602                                        3.41814e+002           4.18143e+001           1.81426e+000           8.14258e-001           1.42583e-002           4.25827e-003           2.58275e-004
                   36.10    341.85959                                8.95507             82.602                                        3.41860e+002           4.18596e+001           1.85959e+000           8.59587e-001           5.95873e-002           9.58731e-003           5.87315e-004
                   36.20    341.91549                                9.03575             82.602                                        3.41915e+002           4.19155e+001           1.91549e+000           9.15488e-001           1.54884e-002           5.48841e-003           4.88410e-004
                   36.30    341.97847                                9.11513             82.602                                        3.41978e+002           4.19785e+001           1.97847e+000           9.78469e-001           7.84691e-002           8.46905e-003           4.69050e-004
                   36.40    342.02718                                9.19334             82.602                                        3.42027e+002           4.20272e+001           2.02718e+000           2.71766e-002           2.71766e-002           7.17664e-003           1.76637e-004
                   36.50    342.07851                                9.27028             82.602                                        3.42079e+002           4.20785e+001           2.07851e+000           7.85094e-002           7.85094e-002           8.50940e-003           5.09396e-004
                   36.60    342.14129                                9.34589             82.602                                        3.42141e+002           4.21413e+001           2.14129e+000           1.41290e-001           4.12904e-002           1.29035e-003           2.90351e-004
                   36.70    342.20736                                9.42012             82.602                                        3.42207e+002           4.22074e+001           2.20736e+000           2.07356e-001           7.35615e-003           7.35615e-003           3.56151e-004
                   36.80    342.26645                                9.49316             82.602                                        3.42266e+002           4.22665e+001           2.26645e+000           2.66453e-001           6.64529e-002           6.45286e-003           4.52861e-004
                   36.90    342.32187                                9.56487             82.602                                        3.42322e+002           4.23219e+001           2.32187e+000           3.21875e-001           2.18749e-002           1.87491e-003           8.74912e-004
                   37.00    342.38265                                9.63514             82.602                                        3.42383e+002           4.23826e+001           2.38265e+000           3.82647e-001           8.26472e-002           2.64715e-003           6.47152e-004
                   37.10    342.44239                                9.70398             82.602                                        3.42442e+002           4.24424e+001           2.44239e+000           4.42387e-001           4.23867e-002           2.38669e-003           3.86695e-004
                   37.20    342.50169                                9.77129             82.602                                        3.42502e+002           4.25017e+001           2.50169e+000           5.01691e-001           1.69127e-003           1.69127e-003           6.91267e-004
                   37.30    342.56605                                9.83709             82.602                                        3.42566e+002           4.25661e+001           2.56605e+000           5.66053e-001           6.60526e-002           6.05258e-003           5.25767e-005
                   37.40    342.62896                                9.90148             82.602                                        3.42629e+002           4.26290e+001           2.62896e+000           6.28956e-001           2.89560e-002           8.95603e-003           9.56030e-004
                   37.50    342.70810                                9.96447             82.602                                        3.42708e+002           4.27081e+001           2.70810e+000           7.08098e-001           8.09759e-003           8.09759e-003           9.75874e-005
                   37.60    342.78951                               10.02574             82.602                                        3.42790e+002           4.27895e+001           2.78951e+000           7.89509e-001           8.95093e-002           9.50926e-003           5.09256e-004
                   37.70    342.85922                               10.08541             82.599                                        3.42859e+002           4.28592e+001           2.85922e+000           8.59223e-001           5.92226e-002           9.22263e-003           2.22626e-004
                   37.80    342.92370                               10.14351             82.596                                        3.42924e+002           4.29237e+001           2.92370e+000           9.23704e-001           2.37044e-002           3.70440e-003           7.04403e-004
                   37.90    342.98922                               10.19992             82.594                                        3.42989e+002           4.29892e+001           2.98922e+000           9.89218e-001           8.92178e-002           9.21783e-003           2.17830e-004
                   38.00    343.05111                               10.25464             82.594                                        3.43051e+002           4.30511e+001           3.05111e+000           5.11058e-002           5.11058e-002           1.10585e-003           1.05847e-004
                   38.10    343.13681                               10.30781             82.594                                        3.43137e+002           4.31368e+001           3.13681e+000           1.36813e-001           3.68134e-002           6.81342e-003           8.13419e-004
                   38.20    343.24077                               10.35918             82.594                                        3.43241e+002           4.32408e+001           3.24077e+000           2.40772e-001           4.07718e-002           7.71770e-004           7.71770e-004
                   38.30    343.32221                               10.40874             82.594                                        3.43322e+002           4.33222e+001           3.32221e+000           3.22215e-001           2.22146e-002           2.21464e-003           2.14641e-004
                   38.40    343.39060                               10.45676             82.594                                        3.43391e+002           4.33906e+001           3.39060e+000           3.90598e-001           9.05980e-002           5.98041e-004           5.98041e-004
