~VERSION INFORMATION
VERS                    .            2.0                                    :CWLS LOG ASCII STANDARD
WRAP                    .            NO                                     :ONE LINE PER TIME STEP


~WELL INFORMATION
#MNEM                   .UNIT        DATA                                    DESCRIPTION
#________________________________________________________________________________________
STRTTIME                .HH/MM/SS    11:44:47                               :START TIME
STOPTIME                .HH/MM/SS    11:47:33                               :STOP TIME
STRT                    .s           2.10                                   :START DATA
STOP                    .s           164.50                                 :STOP DATA
STEP                    .s           0.10                                   :MEASUREMENT TIME INTERVAL
NULL                    .            -999.25                                :NULL VALUE
COMP                    .            Statoil ASA                            :COMPANY
FLD                     .            Volve                                  :FIELD
WELL                    .            15/9-F-11 A                            :WELL
RUN                     .            8                                      :RUN
LOC                     .            Maersk Inspirer                        :LOCATION
PROV                    .            na                                     :PROVINCE
SRVC                    .            Baker Hughes INTEQ                     :SERVICE COMPANY
DATE                    .YY/MM/DD    13/05/21                               :LOG DATE
UWI                     .                                                   :UNIQUE WELL ID
DEPTHMD                 .m           3624.0                                 :MEASURED DEPTH
DEPTHTVD                .m           3020.7                                 :TRUE VERTICAL DEPTH


~CURVE INFORMATION
#MNEM                   .UNIT        API CODES                               DESCRIPTION
#________________________________________________________________________________________
TIME                    .s                                                  :01 TIME
DD_PRESS                .bar                                                :02 DRAW DOWN PRESSURE
DD_VOLUME               .cm3                                                :03 INCREMENTAL DRAW DOWN VOLUME
TEMP                    .degC                                               :04 TRANSDUCER TEMPERATURE
DD_PRESS_MOD_1000       .bar                                                :05 DRAW DOWN PRESSURE MOD 1000
DD_PRESS_MOD_100        .bar                                                :06 DRAW DOWN PRESSURE MOD 100
DD_PRESS_MOD_10         .bar                                                :07 DRAW DOWN PRESSURE MOD 10
DD_PRESS_MOD_1          .bar                                                :08 DRAW DOWN PRESSURE MOD 1
DD_PRESS_MOD_01         .bar                                                :09 DRAW DOWN PRESSURE MOD 01
DD_PRESS_MOD_001        .bar                                                :10 DRAW DOWN PRESSURE MOD 001
DD_PRESS_MOD_0001       .bar                                                :11 DRAW DOWN PRESSURE MOD 0001


~PARAMETER INFORMATION
#MNEM                   .UNIT        VALUE                                   DESCRIPTION
#________________________________________________________________________________________
TOOLFACE                .deg         61.7                                   :01 TOOLFACE
PUMP_CAPACITY           .bar         400                                    :02 NOMINAL DRAW DOWN PUMP CAPACITY
PUMP_LIMIT              .bar         240                                    :03 DOWNLINK PUMP LIMIT
TIME_LIMIT              .min         10                                     :04 DOWNLINK MAX TIME
TEST_TYPE               .            REPEAT                                 :05 DOWNLINK
TEST_TYPE               .            HIGH MOBILITY                          :06 DOWNLINK
DD_PIST_A               .cm2         3.1416                                 :07 DRAW DOWN PISTON AREA
V_SYS                   .cm3         131.0000                               :08 SYSTEM VOLUME
PROBE_ID                .cm          1.2700                                 :09 TTK PROBE ID
G0                      .            4.6700                                 :10 GEOMETRY FACTOR


~A                  TIME     DD_PRESS                              DD_VOLUME               TEMP                                   DD_PRESS_MOD_1000       DD_PRESS_MOD_100        DD_PRESS_MOD_10         DD_PRESS_MOD_1        DD_PRESS_MOD_01       DD_PRESS_MOD_001      DD_PRESS_MOD_0001
# ...
                  119.70    342.13619                               29.42480             81.430                                        3.42136e+002           4.21362e+001           2.13619e+000           1.36189e-001           3.61888e-002           6.18877e-003           1.88769e-004
                  119.80    342.13555                               29.42480             81.430                                        3.42136e+002           4.21356e+001           2.13555e+000           1.35554e-001           3.55538e-002           5.55379e-003           5.53792e-004
                  119.90    342.13460                               29.42480             81.430                                        3.42135e+002           4.21346e+001           2.13460e+000           1.34603e-001           3.46034e-002           4.60344e-003           6.03440e-004
                  120.00    342.13236                               29.42480             81.430                                        3.42132e+002           4.21324e+001           2.13236e+000           1.32363e-001           3.23631e-002           2.36305e-003           3.63053e-004
                  120.10    342.13280                               29.42480             81.430                                        3.42133e+002           4.21328e+001           2.13280e+000           1.32803e-001           3.28029e-002           2.80290e-003           8.02896e-004
                  120.20    342.13523                               29.42480             81.430                                        3.42135e+002           4.21352e+001           2.13523e+000           1.35225e-001           3.52251e-002           5.22508e-003           2.25084e-004
                  120.30    342.13527                               29.42480             81.430                                        3.42135e+002           4.21353e+001           2.13527e+000           1.35269e-001           3.52690e-002           5.26897e-003           2.68972e-004
                  120.40    342.13469                               29.42480             81.430                                        3.42135e+002           4.21347e+001           2.13469e+000           1.34694e-001           3.46942e-002           4.69417e-003           6.94170e-004
                  120.50    342.13522                               29.42480             81.430                                        3.42135e+002           4.21352e+001           2.13522e+000           1.35220e-001           3.52198e-002           5.21979e-003           2.19786e-004
                  120.60    342.13595                               29.42480             81.430                                        3.42136e+002           4.21359e+001           2.13595e+000           1.35945e-001           3.59452e-002           5.94519e-003           9.45195e-004
                  120.70    342.13650                               29.42480             81.430                                        3.42137e+002           4.21365e+001           2.13650e+000           1.36502e-001           3.65020e-002           6.50199e-003           5.01987e-004
                  120.80    342.13600                               29.42480             81.430                                        3.42136e+002           4.21360e+001           2.13600e+000           1.35996e-001           3.59964e-002           5.99645e-003           9.96448e-004
                  120.90    342.13574                               29.42480             81.430                                        3.42136e+002           4.21357e+001           2.13574e+000           1.35740e-001           3.57399e-002           5.73987e-003           7.39873e-004
                  121.00    342.13526                               29.42480             81.430                                        3.42135e+002           4.21353e+001           2.13526e+000           1.35259e-001           3.52593e-002           5.25928e-003           2.59283e-004
                  121.10    342.13466                               29.42480             81.430                                        3.42135e+002           4.21347e+001           2.13466e+000           1.34661e-001           3.46614e-002           4.66136e-003           6.61362e-004
                  121.20    342.13451                               29.42480             81.430                                        3.42135e+002           4.21345e+001           2.13451e+000           1.34511e-001           3.45109e-002           4.51086e-003           5.10855e-004
                  121.30    342.13353                               29.42480             81.430                                        3.42134e+002           4.21335e+001           2.13353e+000           1.33527e-001           3.35267e-002           3.52665e-003           5.26651e-004
                  121.40    342.13341                               29.42480             81.430                                        3.42133e+002           4.21334e+001           2.13341e+000           1.33415e-001           3.34146e-002           3.41458e-003           4.14582e-004
                  121.50    342.13434                               29.42480             81.430                                        3.42134e+002           4.21343e+001           2.13434e+000           1.34344e-001           3.43436e-002           4.34356e-003           3.43559e-004
                  121.60    342.13496                               29.42480             81.430                                        3.42135e+002           4.21350e+001           2.13496e+000           1.34963e-001           3.49626e-002           4.96264e-003           9.62643e-004
                  121.70    342.13551                               29.42480             81.430                                        3.42136e+002           4.21355e+001           2.13551e+000           1.35512e-001           3.55121e-002           5.51205e-003           5.12053e-004
                  121.80    342.13568                               29.42480             81.430                                        3.42136e+002           4.21357e+001           2.13568e+000           1.35684e-001           3.56836e-002           5.68363e-003           6.83626e-004
                  121.90    342.13543                               29.42480             81.430                                        3.42135e+002           4.21354e+001           2.13543e+000           1.35430e-001           3.54297e-002           5.42974e-003           4.29742e-004
                  122.00    342.13422                               29.42480             81.430                                        3.42134e+002           4.21342e+001           2.13422e+000           1.34221e-001           3.42208e-002           4.22076e-003           2.20757e-004
                  122.10    342.13324                               29.42480             81.430                                        3.42133e+002           4.21332e+001           2.13324e+000           1.33239e-001           3.32388e-002           3.23877e-003           2.38768e-004
                  122.20    342.13290                               29.42480             81.430                                        3.42133e+002           4.21329e+001           2.13290e+000           1.32904e-001           3.29036e-002           2.90364e-003           9.03638e-004
                  122.30    342.13413                               29.42480             81.430                                        3.42134e+002           4.21341e+001           2.13413e+000           1.34132e-001           3.41316e-002           4.13158e-003           1.31584e-004
                  122.40    342.13308                               29.42480             81.430                                        3.42133e+002           4.21331e+001           2.13308e+000           1.33081e-001           3.30811e-002           3.08105e-003           8.10522e-005
