~VERSION INFORMATION
VERS                    .            2.0                                    :CWLS LOG ASCII STANDARD
WRAP                    .            NO                                     :ONE LINE PER TIME STEP


~WELL INFORMATION
#MNEM                   .UNIT        DATA                                    DESCRIPTION
#________________________________________________________________________________________
STRTTIME                .HH/MM/SS    13:32:32                               :START TIME
STOPTIME                .HH/MM/SS    13:36:23                               :STOP TIME
STRT                    .s           2.10                                   :START DATA
STOP                    .s           229.20                                 :STOP DATA
STEP                    .s           0.10                                   :MEASUREMENT TIME INTERVAL
NULL                    .            -999.25                                :NULL VALUE
COMP                    .            Statoil ASA                            :COMPANY
FLD                     .            Volve                                  :FIELD
WELL                    .            15/9-F-1 B                             :WELL
RUN                     .            7                                      :RUN
LOC                     .            Maersk Inspirer                        :LOCATION
PROV                    .            na                                     :PROVINCE
SRVC                    .            Baker Hughes INTEQ                     :SERVICE COMPANY
DATE                    .YY/MM/DD    13/09/06                               :LOG DATE
UWI                     .                                                   :UNIQUE WELL ID
DEPTHMD                 .m           3301.5                                 :MEASURED DEPTH
DEPTHTVD                .m           3096.9                                 :TRUE VERTICAL DEPTH


~CURVE INFORMATION
#MNEM                   .UNIT        API CODES                               DESCRIPTION
#________________________________________________________________________________________
TIME                    .s                                                  :01 TIME
DD_PRESS                .bar                                                :02 DRAW DOWN PRESSURE
DD_VOLUME               .cm3                                                :03 INCREMENTAL DRAW DOWN VOLUME
TEMP                    .degC                                               :04 TRANSDUCER TEMPERATURE
DD_PRESS_MOD_1000       .bar                                                :05 DRAW DOWN PRESSURE MOD 1000
DD_PRESS_MOD_100        .bar                                                :06 DRAW DOWN PRESSURE MOD 100
DD_PRESS_MOD_10         .bar                                                :07 DRAW DOWN PRESSURE MOD 10
DD_PRESS_MOD_1          .bar                                                :08 DRAW DOWN PRESSURE MOD 1
DD_PRESS_MOD_01         .bar                                                :09 DRAW DOWN PRESSURE MOD 01
DD_PRESS_MOD_001        .bar                                                :10 DRAW DOWN PRESSURE MOD 001
DD_PRESS_MOD_0001       .bar                                                :11 DRAW DOWN PRESSURE MOD 0001


~PARAMETER INFORMATION
#MNEM                   .UNIT        VALUE                                   DESCRIPTION
#________________________________________________________________________________________
TOOLFACE                .deg         na                                     :01 TOOLFACE
PUMP_CAPACITY           .bar         400                                    :02 NOMINAL DRAW DOWN PUMP CAPACITY
PUMP_LIMIT              .bar         400                                    :03 DOWNLINK PUMP LIMIT
TIME_LIMIT              .min         10                                     :04 DOWNLINK MAX TIME
TEST_TYPE               .            LOW MOBILITY                           :05 DOWNLINK
DD_PIST_A               .cm2         3.1416                                 :06 DRAW DOWN PISTON AREA
V_SYS                   .cm3         131.0000                               :07 SYSTEM VOLUME
PROBE_ID                .cm          1.2700                                 :08 TTK PROBE ID
G0                      .            4.6700                                 :09 GEOMETRY FACTOR


~A                  TIME     DD_PRESS                              DD_VOLUME               TEMP                                   DD_PRESS_MOD_1000       DD_PRESS_MOD_100        DD_PRESS_MOD_10         DD_PRESS_MOD_1        DD_PRESS_MOD_01       DD_PRESS_MOD_001      DD_PRESS_MOD_0001
# ...
                  150.60    346.45131                               14.69851             85.336                                        3.46451e+002           4.64513e+001           6.45131e+000           4.51308e-001           5.13084e-002           1.30836e-003           3.08364e-004
                  150.70    346.23143                               14.70668             85.336                                        3.46231e+002           4.62314e+001           6.23143e+000           2.31430e-001           3.14302e-002           1.43018e-003           4.30185e-004
                  150.80    346.01386                               14.71557             85.336                                        3.46014e+002           4.60139e+001           6.01386e+000           1.38570e-002           1.38570e-002           3.85704e-003           8.57035e-004
                  150.90    345.77821                               14.72554             85.336                                        3.45778e+002           4.57782e+001           5.77821e+000           7.78213e-001           7.82132e-002           8.21321e-003           2.13214e-004
                  151.00    345.51984                               14.73618             85.336                                        3.45520e+002           4.55198e+001           5.51984e+000           5.19844e-001           1.98436e-002           9.84357e-003           8.43572e-004
                  151.10    345.25634                               14.74692             85.336                                        3.45256e+002           4.52563e+001           5.25634e+000           2.56336e-001           5.63364e-002           6.33640e-003           3.36404e-004
                  151.20    345.00316                               14.75845             85.336                                        3.45003e+002           4.50032e+001           5.00316e+000           3.16432e-003           3.16432e-003           3.16432e-003           1.64321e-004
                  151.30    344.74617                               14.77090             85.336                                        3.44746e+002           4.47462e+001           4.74617e+000           7.46167e-001           4.61673e-002           6.16728e-003           1.67277e-004
                  151.40    344.46386                               14.78387             85.336                                        3.44464e+002           4.44639e+001           4.46386e+000           4.63864e-001           6.38638e-002           3.86384e-003           8.63841e-004
                  151.50    344.18106                               14.79702             85.336                                        3.44181e+002           4.41811e+001           4.18106e+000           1.81063e-001           8.10630e-002           1.06302e-003           6.30182e-005
                  151.60    343.91726                               14.81088             85.336                                        3.43917e+002           4.39173e+001           3.91726e+000           9.17257e-001           1.72568e-002           7.25680e-003           2.56797e-004
                  151.70    343.65302                               14.82571             85.336                                        3.43653e+002           4.36530e+001           3.65302e+000           6.53022e-001           5.30215e-002           3.02154e-003           2.15356e-005
                  151.80    343.35394                               14.84127             85.336                                        3.43354e+002           4.33539e+001           3.35394e+000           3.53939e-001           5.39392e-002           3.93916e-003           9.39164e-004
                  151.90    343.07671                               14.85734             85.336                                        3.43077e+002           4.30767e+001           3.07671e+000           7.67143e-002           7.67143e-002           6.71434e-003           7.14343e-004
                  152.00    342.79958                               14.87456             85.336                                        3.42800e+002           4.27996e+001           2.79958e+000           7.99579e-001           9.95794e-002           9.57938e-003           5.79385e-004
                  152.10    342.48239                               14.89275             85.336                                        3.42482e+002           4.24824e+001           2.48239e+000           4.82385e-001           8.23852e-002           2.38520e-003           3.85199e-004
                  152.20    342.17476                               14.91086             85.336                                        3.42175e+002           4.21748e+001           2.17476e+000           1.74762e-001           7.47621e-002           4.76208e-003           7.62082e-004
                  152.30    341.90148                               14.92936             85.334                                        3.41901e+002           4.19015e+001           1.90148e+000           9.01481e-001           1.48093e-003           1.48093e-003           4.80925e-004
                  152.40    341.61367                               14.94906             85.330                                        3.41614e+002           4.16137e+001           1.61367e+000           6.13671e-001           1.36707e-002           3.67070e-003           6.70704e-004
                  152.50    341.29839                               14.96960             85.328                                        3.41298e+002           4.12984e+001           1.29839e+000           2.98387e-001           9.83866e-002           8.38657e-003           3.86571e-004
                  152.60    340.98826                               14.99079             85.328                                        3.40988e+002           4.09883e+001           9.88265e-001           9.88265e-001           8.82645e-002           8.26452e-003           2.64519e-004
                  152.70    340.68421                               15.01279             85.328                                        3.40684e+002           4.06842e+001           6.84209e-001           6.84209e-001           8.42095e-002           4.20949e-003           2.09490e-004
                  152.80    340.36793                               15.03571             85.328                                        3.40368e+002           4.03679e+001           3.67932e-001           3.67932e-001           6.79319e-002           7.93186e-003           9.31863e-004
                  152.90    340.03280                               15.05931             85.328                                        3.40033e+002           4.00328e+001           3.28009e-002           3.28009e-002           3.28009e-002           2.80086e-003           8.00855e-004
                  153.00    339.69833                               15.08339             85.328                                        3.39698e+002           3.96983e+001           9.69833e+000           6.98335e-001           9.83349e-002           8.33486e-003           3.34857e-004
                  153.10    339.37956                               15.10819             85.330                                        3.39380e+002           3.93796e+001           9.37956e+000           3.79558e-001           7.95584e-002           9.55844e-003           5.58441e-004
                  153.20    339.08390                               15.13370             85.332                                        3.39084e+002           3.90839e+001           9.08390e+000           8.39011e-002           8.39011e-002           3.90114e-003           9.01144e-004
                  153.30    338.79662                               15.15983             85.330                                        3.38797e+002           3.87966e+001           8.79662e+000           7.96621e-001           9.66207e-002           6.62071e-003           6.20714e-004
