~VERSION INFORMATION
VERS                    .            2.0                                    :CWLS LOG ASCII STANDARD
WRAP                    .            NO                                     :ONE LINE PER TIME STEP


~WELL INFORMATION
#MNEM                   .UNIT        DATA                                    DESCRIPTION
#________________________________________________________________________________________
STRTTIME                .HH/MM/SS    14:50:05                               :START TIME
STOPTIME                .HH/MM/SS    14:53:18                               :STOP TIME
STRT                    .s           2.10                                   :START DATA
STOP                    .s           191.60                                 :STOP DATA
STEP                    .s           0.10                                   :MEASUREMENT TIME INTERVAL
NULL                    .            -999.25                                :NULL VALUE
COMP                    .            Statoil ASA                            :COMPANY
FLD                     .            Volve                                  :FIELD
WELL                    .            15/9-F-1 B                             :WELL
RUN                     .            7                                      :RUN
LOC                     .            Maersk Inspirer                        :LOCATION
PROV                    .            na                                     :PROVINCE
SRVC                    .            Baker Hughes INTEQ                     :SERVICE COMPANY
DATE                    .YY/MM/DD    13/09/06                               :LOG DATE
UWI                     .                                                   :UNIQUE WELL ID
DEPTHMD                 .m           3280.5                                 :MEASURED DEPTH
DEPTHTVD                .m           3076.1                                 :TRUE VERTICAL DEPTH


~CURVE INFORMATION
#MNEM                   .UNIT        API CODES                               DESCRIPTION
#________________________________________________________________________________________
TIME                    .s                                                  :01 TIME
DD_PRESS                .bar                                                :02 DRAW DOWN PRESSURE
DD_VOLUME               .cm3                                                :03 INCREMENTAL DRAW DOWN VOLUME
TEMP                    .degC                                               :04 TRANSDUCER TEMPERATURE
DD_PRESS_MOD_1000       .bar                                                :05 DRAW DOWN PRESSURE MOD 1000
DD_PRESS_MOD_100        .bar                                                :06 DRAW DOWN PRESSURE MOD 100
DD_PRESS_MOD_10         .bar                                                :07 DRAW DOWN PRESSURE MOD 10
DD_PRESS_MOD_1          .bar                                                :08 DRAW DOWN PRESSURE MOD 1
DD_PRESS_MOD_01         .bar                                                :09 DRAW DOWN PRESSURE MOD 01
DD_PRESS_MOD_001        .bar                                                :10 DRAW DOWN PRESSURE MOD 001
DD_PRESS_MOD_0001       .bar                                                :11 DRAW DOWN PRESSURE MOD 0001


~PARAMETER INFORMATION
#MNEM                   .UNIT        VALUE                                   DESCRIPTION
#________________________________________________________________________________________
TOOLFACE                .deg         na                                     :01 TOOLFACE
PUMP_CAPACITY           .bar         400                                    :02 NOMINAL DRAW DOWN PUMP CAPACITY
PUMP_LIMIT              .bar         400                                    :03 DOWNLINK PUMP LIMIT
TIME_LIMIT              .min         10                                     :04 DOWNLINK MAX TIME
TEST_TYPE               .            LOW MOBILITY                           :05 DOWNLINK
DD_PIST_A               .cm2         3.1416                                 :06 DRAW DOWN PISTON AREA
V_SYS                   .cm3         131.0000                               :07 SYSTEM VOLUME
PROBE_ID                .cm          1.2700                                 :08 TTK PROBE ID
G0                      .            4.6700                                 :09 GEOMETRY FACTOR


~A                  TIME     DD_PRESS                              DD_VOLUME               TEMP                                   DD_PRESS_MOD_1000       DD_PRESS_MOD_100        DD_PRESS_MOD_10         DD_PRESS_MOD_1        DD_PRESS_MOD_01       DD_PRESS_MOD_001      DD_PRESS_MOD_0001
# ...
                   88.90    346.79821                               11.05966             82.492                                        3.46798e+002           4.67982e+001           6.79821e+000           7.98212e-001           9.82121e-002           8.21213e-003           2.12126e-004
                   89.00    346.68713                               11.08607             82.490                                        3.46687e+002           4.66871e+001           6.68713e+000           6.87132e-001           8.71320e-002           7.13202e-003           1.32018e-004
                   89.10    346.58739                               11.11596             82.486                                        3.46587e+002           4.65874e+001           6.58739e+000           5.87395e-001           8.73946e-002           7.39461e-003           3.94612e-004
                   89.20    346.45377                               11.14945             82.484                                        3.46454e+002           4.64538e+001           6.45377e+000           4.53774e-001           5.37736e-002           3.77359e-003           7.73590e-004
                   89.30    346.30930                               11.18691             82.487                                        3.46309e+002           4.63093e+001           6.30930e+000           3.09295e-001           9.29537e-003           9.29537e-003           2.95369e-004
                   89.40    346.17296                               11.22876             82.490                                        3.46173e+002           4.61730e+001           6.17296e+000           1.72962e-001           7.29623e-002           2.96231e-003           9.62312e-004
                   89.50    346.01670                               11.27551             82.492                                        3.46017e+002           4.60167e+001           6.01670e+000           1.67038e-002           1.67038e-002           6.70377e-003           7.03767e-004
                   89.60    345.85600                               11.32707             82.492                                        3.45856e+002           4.58560e+001           5.85600e+000           8.55996e-001           5.59965e-002           5.99649e-003           9.96486e-004
                   89.70    345.70278                               11.38354             82.492                                        3.45703e+002           4.57028e+001           5.70278e+000           7.02782e-001           2.78155e-003           2.78155e-003           7.81545e-004
                   89.80    345.53750                               11.44529             82.492                                        3.45537e+002           4.55375e+001           5.53750e+000           5.37499e-001           3.74989e-002           7.49895e-003           4.98946e-004
                   89.90    345.37082                               11.51242             82.492                                        3.45371e+002           4.53708e+001           5.37082e+000           3.70825e-001           7.08250e-002           8.24953e-004           8.24953e-004
                   90.00    345.19466                               11.58496             82.490                                        3.45195e+002           4.51947e+001           5.19466e+000           1.94656e-001           9.46564e-002           4.65640e-003           6.56399e-004
                   90.10    345.00582                               11.66330             82.486                                        3.45006e+002           4.50058e+001           5.00582e+000           5.81676e-003           5.81676e-003           5.81676e-003           8.16763e-004
                   90.20    344.80870                               11.74823             82.487                                        3.44809e+002           4.48087e+001           4.80870e+000           8.08699e-001           8.69866e-003           8.69866e-003           6.98662e-004
                   90.30    344.60567                               11.83990             82.490                                        3.44606e+002           4.46057e+001           4.60567e+000           6.05673e-001           5.67288e-003           5.67288e-003           6.72884e-004
                   90.40    344.39484                               11.93810             82.492                                        3.44395e+002           4.43948e+001           4.39484e+000           3.94838e-001           9.48377e-002           4.83766e-003           8.37659e-004
                   90.50    344.18070                               12.04305             82.490                                        3.44181e+002           4.41807e+001           4.18070e+000           1.80699e-001           8.06991e-002           6.99058e-004           6.99058e-004
                   90.60    343.97553                               12.15516             82.486                                        3.43976e+002           4.39755e+001           3.97553e+000           9.75534e-001           7.55341e-002           5.53410e-003           5.34100e-004
                   90.70    343.76589                               12.27489             82.484                                        3.43766e+002           4.37659e+001           3.76589e+000           7.65893e-001           6.58930e-002           5.89295e-003           8.92950e-004
                   90.80    343.53603                               12.40233             82.484                                        3.43536e+002           4.35360e+001           3.53603e+000           5.36030e-001           3.60299e-002           6.02990e-003           2.98962e-005
                   90.90    343.29702                               12.53756             82.484                                        3.43297e+002           4.32970e+001           3.29702e+000           2.97022e-001           9.70223e-002           7.02227e-003           2.22665e-005
                   91.00    343.06594                               12.68071             82.484                                        3.43066e+002           4.30659e+001           3.06594e+000           6.59416e-002           6.59416e-002           5.94162e-003           9.41616e-004
                   91.10    342.82840                               12.83230             82.484                                        3.42828e+002           4.28284e+001           2.82840e+000           8.28400e-001           2.84004e-002           8.40042e-003           4.00422e-004
                   91.20    342.58174                               12.99249             82.484                                        3.42582e+002           4.25817e+001           2.58174e+000           5.81740e-001           8.17403e-002           1.74035e-003           7.40349e-004
                   91.30    342.33783                               13.16118             82.484                                        3.42338e+002           4.23378e+001           2.33783e+000           3.37832e-001           3.78320e-002           7.83200e-003           8.31999e-004
                   91.40    342.09081                               13.33873             82.484                                        3.42091e+002           4.20908e+001           2.09081e+000           9.08141e-002           9.08141e-002           8.14143e-004           8.14143e-004
                   91.50    341.83810                               13.52564             82.484                                        3.41838e+002           4.18381e+001           1.83810e+000           8.38099e-001           3.80990e-002           8.09898e-003           9.89783e-005
                   91.60    341.58433                               13.72175             82.484                                        3.41584e+002           4.15843e+001           1.58433e+000           5.84332e-001           8.43324e-002           4.33245e-003           3.32446e-004
