~VERSION INFORMATION
VERS                    .            2.0                                    :CWLS LOG ASCII STANDARD
WRAP                    .            NO                                     :ONE LINE PER TIME STEP


~WELL INFORMATION
#MNEM                   .UNIT        DATA                                    DESCRIPTION
#________________________________________________________________________________________
STRTTIME                .HH/MM/SS    18:24:11                               :START TIME
STOPTIME                .HH/MM/SS    18:26:54                               :STOP TIME
STRT                    .s           2.10                                   :START DATA
STOP                    .s           161.30                                 :STOP DATA
STEP                    .s           0.10                                   :MEASUREMENT TIME INTERVAL
NULL                    .            -999.25                                :NULL VALUE
COMP                    .            Statoil ASA                            :COMPANY
FLD                     .            Volve                                  :FIELD
WELL                    .            15/9-F-11 A                            :WELL
RUN                     .            8                                      :RUN
LOC                     .            Maersk Inspirer                        :LOCATION
PROV                    .            na                                     :PROVINCE
SRVC                    .            Baker Hughes INTEQ                     :SERVICE COMPANY
DATE                    .YY/MM/DD    13/05/23                               :LOG DATE
UWI                     .                                                   :UNIQUE WELL ID
DEPTHMD                 .m           3681.0                                 :MEASURED DEPTH
DEPTHTVD                .m           3064.4                                 :TRUE VERTICAL DEPTH


~CURVE INFORMATION
#MNEM                   .UNIT        API CODES                               DESCRIPTION
#________________________________________________________________________________________
TIME                    .s                                                  :01 TIME
DD_PRESS                .bar                                                :02 DRAW DOWN PRESSURE
DD_VOLUME               .cm3                                                :03 INCREMENTAL DRAW DOWN VOLUME
TEMP                    .degC                                               :04 TRANSDUCER TEMPERATURE
DD_PRESS_MOD_1000       .bar                                                :05 DRAW DOWN PRESSURE MOD 1000
DD_PRESS_MOD_100        .bar                                                :06 DRAW DOWN PRESSURE MOD 100
DD_PRESS_MOD_10         .bar                                                :07 DRAW DOWN PRESSURE MOD 10
DD_PRESS_MOD_1          .bar                                                :08 DRAW DOWN PRESSURE MOD 1
DD_PRESS_MOD_01         .bar                                                :09 DRAW DOWN PRESSURE MOD 01
DD_PRESS_MOD_001        .bar                                                :10 DRAW DOWN PRESSURE MOD 001
DD_PRESS_MOD_0001       .bar                                                :11 DRAW DOWN PRESSURE MOD 0001


~PARAMETER INFORMATION
#MNEM                   .UNIT        VALUE                                   DESCRIPTION
#________________________________________________________________________________________
TOOLFACE                .deg         -38.1                                  :01 TOOLFACE
PUMP_CAPACITY           .bar         400                                    :02 NOMINAL DRAW DOWN PUMP CAPACITY
PUMP_LIMIT              .bar         240                                    :03 DOWNLINK PUMP LIMIT
TIME_LIMIT              .min         10                                     :04 DOWNLINK MAX TIME
TEST_TYPE               .            HIGH MOBILITY                          :05 DOWNLINK
DD_PIST_A               .cm2         3.1416                                 :06 DRAW DOWN PISTON AREA
V_SYS                   .cm3         131.0000                               :07 SYSTEM VOLUME
PROBE_ID                .cm          1.2700                                 :08 TTK PROBE ID
G0                      .            4.6700                                 :09 GEOMETRY FACTOR


~A                  TIME     DD_PRESS                              DD_VOLUME               TEMP                                   DD_PRESS_MOD_1000       DD_PRESS_MOD_100        DD_PRESS_MOD_10         DD_PRESS_MOD_1        DD_PRESS_MOD_01       DD_PRESS_MOD_001      DD_PRESS_MOD_0001
# ...
                  128.10    345.14953                               29.45759             75.080                                        3.45150e+002           4.51495e+001           5.14953e+000           1.49532e-001           4.95321e-002           9.53212e-003           5.32120e-004
                  128.20    345.15125                               29.45759             75.084                                        3.45151e+002           4.51513e+001           5.15125e+000           1.51251e-001           5.12515e-002           1.25146e-003           2.51462e-004
                  128.30    345.15815                               29.45759             75.084                                        3.45158e+002           4.51581e+001           5.15815e+000           1.58148e-001           5.81476e-002           8.14760e-003           1.47599e-004
                  128.40    345.15820                               29.45759             75.080                                        3.45158e+002           4.51582e+001           5.15820e+000           1.58199e-001           5.81989e-002           8.19890e-003           1.98904e-004
                  128.50    345.15447                               29.45759             75.078                                        3.45154e+002           4.51545e+001           5.15447e+000           1.54470e-001           5.44699e-002           4.46988e-003           4.69884e-004
                  128.60    345.15612                               29.45759             75.078                                        3.45156e+002           4.51561e+001           5.15612e+000           1.56121e-001           5.61210e-002           6.12102e-003           1.21023e-004
                  128.70    345.15491                               29.45759             75.078                                        3.45155e+002           4.51549e+001           5.15491e+000           1.54907e-001           5.49067e-002           4.90672e-003           9.06716e-004
                  128.80    345.15520                               29.45759             75.078                                        3.45155e+002           4.51552e+001           5.15520e+000           1.55199e-001           5.51989e-002           5.19889e-003           1.98891e-004
                  128.90    345.15453                               29.45759             75.078                                        3.45155e+002           4.51545e+001           5.15453e+000           1.54526e-001           5.45264e-002           4.52643e-003           5.26427e-004
                  129.00    345.15130                               29.45759             75.078                                        3.45151e+002           4.51513e+001           5.15130e+000           1.51303e-001           5.13025e-002           1.30251e-003           3.02511e-004
                  129.10    345.15399                               29.45759             75.078                                        3.45154e+002           4.51540e+001           5.15399e+000           1.53986e-001           5.39860e-002           3.98597e-003           9.85969e-004
                  129.20    345.16176                               29.45759             75.078                                        3.45162e+002           4.51618e+001           5.16176e+000           1.61760e-001           6.17595e-002           1.75953e-003           7.59529e-004
                  129.30    345.16134                               29.45759             75.078                                        3.45161e+002           4.51613e+001           5.16134e+000           1.61338e-001           6.13378e-002           1.33780e-003           3.37797e-004
                  129.40    345.15493                               29.45759             75.078                                        3.45155e+002           4.51549e+001           5.15493e+000           1.54929e-001           5.49285e-002           4.92853e-003           9.28530e-004
                  129.50    345.15343                               29.45759             75.078                                        3.45153e+002           4.51534e+001           5.15343e+000           1.53426e-001           5.34261e-002           3.42609e-003           4.26092e-004
                  129.60    345.15480                               29.45759             75.078                                        3.45155e+002           4.51548e+001           5.15480e+000           1.54800e-001           5.47998e-002           4.79977e-003           7.99772e-004
                  129.70    345.15687                               29.45759             75.078                                        3.45157e+002           4.51569e+001           5.15687e+000           1.56873e-001           5.68725e-002           6.87250e-003           8.72501e-004
                  129.80    345.15693                               29.45759             75.078                                        3.45157e+002           4.51569e+001           5.15693e+000           1.56934e-001           5.69344e-002           6.93444e-003           9.34436e-004
                  129.90    345.15643                               29.45759             75.078                                        3.45156e+002           4.51564e+001           5.15643e+000           1.56425e-001           5.64253e-002           6.42528e-003           4.25277e-004
                  130.00    345.15275                               29.45759             75.078                                        3.45153e+002           4.51527e+001           5.15275e+000           1.52749e-001           5.27488e-002           2.74885e-003           7.48847e-004
                  130.10    345.14873                               29.45759             75.078                                        3.45149e+002           4.51487e+001           5.14873e+000           1.48734e-001           4.87343e-002           8.73433e-003           7.34327e-004
                  130.20    345.15068                               29.45759             75.078                                        3.45151e+002           4.51507e+001           5.15068e+000           1.50681e-001           5.06811e-002           6.81149e-004           6.81149e-004
                  130.30    345.15735                               29.45759             75.078                                        3.45157e+002           4.51573e+001           5.15735e+000           1.57347e-001           5.73471e-002           7.34714e-003           3.47140e-004
                  130.40    345.15698                               29.45759             75.078                                        3.45157e+002           4.51570e+001           5.15698e+000           1.56980e-001           5.69798e-002           6.97982e-003           9.79824e-004
                  130.50    345.15092                               29.45759             75.078                                        3.45151e+002           4.51509e+001           5.15092e+000           1.50921e-001           5.09206e-002           9.20554e-004           9.20554e-004
                  130.60    345.15252                               29.45759             75.078                                        3.45153e+002           4.51525e+001           5.15252e+000           1.52516e-001           5.25161e-002           2.51608e-003           5.16083e-004
                  130.70    345.15946                               29.45759             75.078                                        3.45159e+002           4.51595e+001           5.15946e+000           1.59457e-001           5.94567e-002           9.45674e-003           4.56740e-004
                  130.80    345.16058                               29.45759             75.078                                        3.45161e+002           4.51606e+001           5.16058e+000           1.60583e-001           6.05830e-002           5.83038e-004           5.83038e-004
