~VERSION INFORMATION
VERS                    .            2.0                                    :CWLS LOG ASCII STANDARD
WRAP                    .            NO                                     :ONE LINE PER TIME STEP


~WELL INFORMATION
#MNEM                   .UNIT        DATA                                    DESCRIPTION
#________________________________________________________________________________________
STRTTIME                .HH/MM/SS    16:37:30                               :START TIME
STOPTIME                .HH/MM/SS    16:40:36                               :STOP TIME
STRT                    .s           2.10                                   :START DATA
STOP                    .s           184.70                                 :STOP DATA
STEP                    .s           0.10                                   :MEASUREMENT TIME INTERVAL
NULL                    .            -999.25                                :NULL VALUE
COMP                    .            Statoil ASA                            :COMPANY
FLD                     .            Volve                                  :FIELD
WELL                    .            15/9-F-1 B                             :WELL
RUN                     .            7                                      :RUN
LOC                     .            Maersk Inspirer                        :LOCATION
PROV                    .            na                                     :PROVINCE
SRVC                    .            Baker Hughes INTEQ                     :SERVICE COMPANY
DATE                    .YY/MM/DD    13/09/06                               :LOG DATE
UWI                     .                                                   :UNIQUE WELL ID
DEPTHMD                 .m           3247.0                                 :MEASURED DEPTH
DEPTHTVD                .m           3043.3                                 :TRUE VERTICAL DEPTH


~CURVE INFORMATION
#MNEM                   .UNIT        API CODES                               DESCRIPTION
#________________________________________________________________________________________
TIME                    .s                                                  :01 TIME
DD_PRESS                .bar                                                :02 DRAW DOWN PRESSURE
DD_VOLUME               .cm3                                                :03 INCREMENTAL DRAW DOWN VOLUME
TEMP                    .degC                                               :04 TRANSDUCER TEMPERATURE
DD_PRESS_MOD_1000       .bar                                                :05 DRAW DOWN PRESSURE MOD 1000
DD_PRESS_MOD_100        .bar                                                :06 DRAW DOWN PRESSURE MOD 100
DD_PRESS_MOD_10         .bar                                                :07 DRAW DOWN PRESSURE MOD 10
DD_PRESS_MOD_1          .bar                                                :08 DRAW DOWN PRESSURE MOD 1
DD_PRESS_MOD_01         .bar                                                :09 DRAW DOWN PRESSURE MOD 01
DD_PRESS_MOD_001        .bar                                                :10 DRAW DOWN PRESSURE MOD 001
DD_PRESS_MOD_0001       .bar                                                :11 DRAW DOWN PRESSURE MOD 0001


~PARAMETER INFORMATION
#MNEM                   .UNIT        VALUE                                   DESCRIPTION
#________________________________________________________________________________________
TOOLFACE                .deg         na                                     :01 TOOLFACE
PUMP_CAPACITY           .bar         400                                    :02 NOMINAL DRAW DOWN PUMP CAPACITY
PUMP_LIMIT              .bar         400                                    :03 DOWNLINK PUMP LIMIT
TIME_LIMIT              .min         10                                     :04 DOWNLINK MAX TIME
TEST_TYPE               .            LOW MOBILITY                           :05 DOWNLINK
DD_PIST_A               .cm2         3.1416                                 :06 DRAW DOWN PISTON AREA
V_SYS                   .cm3         131.0000                               :07 SYSTEM VOLUME
PROBE_ID                .cm          1.2700                                 :08 TTK PROBE ID
G0                      .            4.6700                                 :09 GEOMETRY FACTOR


~A                  TIME     DD_PRESS                              DD_VOLUME               TEMP                                   DD_PRESS_MOD_1000       DD_PRESS_MOD_100        DD_PRESS_MOD_10         DD_PRESS_MOD_1        DD_PRESS_MOD_01       DD_PRESS_MOD_001      DD_PRESS_MOD_0001
# ...
                   97.30    344.54862                               19.95717             81.531                                        3.44549e+002           4.45486e+001           4.54862e+000           5.48620e-001           4.86200e-002           8.61996e-003           6.19955e-004
                   97.40    344.55822                               19.95717             81.531                                        3.44558e+002           4.45582e+001           4.55822e+000           5.58223e-001           5.82231e-002           8.22308e-003           2.23082e-004
                   97.50    344.56602                               19.95717             81.531                                        3.44566e+002           4.45660e+001           4.56602e+000           5.66016e-001           6.60165e-002           6.01645e-003           1.64513e-005
                   97.60    344.55498                               19.95717             81.531                                        3.44555e+002           4.45550e+001           4.55498e+000           5.54984e-001           5.49836e-002           4.98362e-003           9.83617e-004
                   97.70    344.54738                               19.95717             81.531                                        3.44547e+002           4.45474e+001           4.54738e+000           5.47380e-001           4.73803e-002           7.38032e-003           3.80317e-004
                   97.80    344.56352                               19.95717             81.531                                        3.44564e+002           4.45635e+001           4.56352e+000           5.63516e-001           6.35158e-002           3.51579e-003           5.15794e-004
                   97.90    344.57876                               19.95717             81.531                                        3.44579e+002           4.45788e+001           4.57876e+000           5.78758e-001           7.87575e-002           8.75751e-003           7.57506e-004
                   98.00    344.56447                               19.95717             81.531                                        3.44564e+002           4.45645e+001           4.56447e+000           5.64466e-001           6.44658e-002           4.46584e-003           4.65835e-004
                   98.10    344.54242                               19.95717             81.531                                        3.44542e+002           4.45424e+001           4.54242e+000           5.42424e-001           4.24238e-002           2.42375e-003           4.23754e-004
                   98.20    344.54702                               19.95717             81.531                                        3.44547e+002           4.45470e+001           4.54702e+000           5.47024e-001           4.70245e-002           7.02449e-003           2.44876e-005
                   98.30    344.56499                               19.95717             81.531                                        3.44565e+002           4.45650e+001           4.56499e+000           5.64986e-001           6.49860e-002           4.98601e-003           9.86006e-004
                   98.40    344.55891                               19.95717             81.531                                        3.44559e+002           4.45589e+001           4.55891e+000           5.58915e-001           5.89147e-002           8.91466e-003           9.14657e-004
                   98.50    344.54528                               19.95717             81.531                                        3.44545e+002           4.45453e+001           4.54528e+000           5.45277e-001           4.52770e-002           5.27698e-003           2.76977e-004
                   98.60    344.55290                               19.95717             81.531                                        3.44553e+002           4.45529e+001           4.55290e+000           5.52899e-001           5.28991e-002           2.89909e-003           8.99091e-004
                   98.70    344.56687                               19.95717             81.531                                        3.44567e+002           4.45669e+001           4.56687e+000           5.66865e-001           6.68651e-002           6.86512e-003           8.65122e-004
                   98.80    344.55650                               19.95717             81.531                                        3.44557e+002           4.45565e+001           4.55650e+000           5.56503e-001           5.65032e-002           6.50318e-003           5.03184e-004
                   98.90    344.54215                               19.95717             81.531                                        3.44542e+002           4.45422e+001           4.54215e+000           5.42155e-001           4.21548e-002           2.15483e-003           1.54827e-004
                   99.00    344.55314                               19.95717             81.531                                        3.44553e+002           4.45531e+001           4.55314e+000           5.53143e-001           5.31434e-002           3.14345e-003           1.43446e-004
                   99.10    344.57346                               19.95717             81.531                                        3.44573e+002           4.45735e+001           4.57346e+000           5.73458e-001           7.34584e-002           3.45839e-003           4.58391e-004
                   99.20    344.56563                               19.95717             81.531                                        3.44566e+002           4.45656e+001           4.56563e+000           5.65628e-001           6.56280e-002           5.62804e-003           6.28039e-004
                   99.30    344.54624                               19.95717             81.531                                        3.44546e+002           4.45462e+001           4.54624e+000           5.46239e-001           4.62393e-002           6.23928e-003           2.39284e-004
                   99.40    344.54793                               19.95717             81.531                                        3.44548e+002           4.45479e+001           4.54793e+000           5.47925e-001           4.79253e-002           7.92534e-003           9.25344e-004
                   99.50    344.56076                               19.95717             81.531                                        3.44561e+002           4.45608e+001           4.56076e+000           5.60761e-001           6.07605e-002           7.60511e-004           7.60511e-004
                   99.60    344.55160                               19.95717             81.531                                        3.44552e+002           4.45516e+001           4.55160e+000           5.51604e-001           5.16044e-002           1.60444e-003           6.04440e-004
                   99.70    344.54804                               19.95717             81.531                                        3.44548e+002           4.45480e+001           4.54804e+000           5.48045e-001           4.80448e-002           8.04484e-003           4.48444e-005
                   99.80    344.56082                               19.95717             81.531                                        3.44561e+002           4.45608e+001           4.56082e+000           5.60818e-001           6.08181e-002           8.18066e-004           8.18066e-004
                   99.90    344.56606                               19.95717             81.531                                        3.44566e+002           4.45661e+001           4.56606e+000           5.66057e-001           6.60569e-002           6.05686e-003           5.68604e-005
                  100.00    344.55383                               19.95717             81.531                                        3.44554e+002           4.45538e+001           4.55383e+000           5.53829e-001           5.38288e-002           3.82883e-003           8.28833e-004
