~VERSION INFORMATION
VERS                    .            2.0                                    :CWLS LOG ASCII STANDARD
WRAP                    .            NO                                     :ONE LINE PER TIME STEP


~WELL INFORMATION
#MNEM                   .UNIT        DATA                                    DESCRIPTION
#________________________________________________________________________________________
STRTTIME                .HH/MM/SS    19:20:48                               :START TIME
STOPTIME                .HH/MM/SS    19:23:33                               :STOP TIME
STRT                    .s           2.10                                   :START DATA
STOP                    .s           164.00                                 :STOP DATA
STEP                    .s           0.10                                   :MEASUREMENT TIME INTERVAL
NULL                    .            -999.25                                :NULL VALUE
COMP                    .            Statoil ASA                            :COMPANY
FLD                     .            Volve                                  :FIELD
WELL                    .            15/9-F-11 A                            :WELL
RUN                     .            8                                      :RUN
LOC                     .            Maersk Inspirer                        :LOCATION
PROV                    .            na                                     :PROVINCE
SRVC                    .            Baker Hughes INTEQ                     :SERVICE COMPANY
DATE                    .YY/MM/DD    13/05/23                               :LOG DATE
UWI                     .                                                   :UNIQUE WELL ID
DEPTHMD                 .m           3617.0                                 :MEASURED DEPTH
DEPTHTVD                .m           3015.4                                 :TRUE VERTICAL DEPTH


~CURVE INFORMATION
#MNEM                   .UNIT        API CODES                               DESCRIPTION
#________________________________________________________________________________________
TIME                    .s                                                  :01 TIME
DD_PRESS                .bar                                                :02 DRAW DOWN PRESSURE
DD_VOLUME               .cm3                                                :03 INCREMENTAL DRAW DOWN VOLUME
TEMP                    .degC                                               :04 TRANSDUCER TEMPERATURE
DD_PRESS_MOD_1000       .bar                                                :05 DRAW DOWN PRESSURE MOD 1000
DD_PRESS_MOD_100        .bar                                                :06 DRAW DOWN PRESSURE MOD 100
DD_PRESS_MOD_10         .bar                                                :07 DRAW DOWN PRESSURE MOD 10
DD_PRESS_MOD_1          .bar                                                :08 DRAW DOWN PRESSURE MOD 1
DD_PRESS_MOD_01         .bar                                                :09 DRAW DOWN PRESSURE MOD 01
DD_PRESS_MOD_001        .bar                                                :10 DRAW DOWN PRESSURE MOD 001
DD_PRESS_MOD_0001       .bar                                                :11 DRAW DOWN PRESSURE MOD 0001


~PARAMETER INFORMATION
#MNEM                   .UNIT        VALUE                                   DESCRIPTION
#________________________________________________________________________________________
TOOLFACE                .deg         -39.9                                  :01 TOOLFACE
PUMP_CAPACITY           .bar         400                                    :02 NOMINAL DRAW DOWN PUMP CAPACITY
PUMP_LIMIT              .bar         240                                    :03 DOWNLINK PUMP LIMIT
TIME_LIMIT              .min         10                                     :04 DOWNLINK MAX TIME
TEST_TYPE               .            REPEAT                                 :05 DOWNLINK
TEST_TYPE               .            HIGH MOBILITY                          :06 DOWNLINK
DD_PIST_A               .cm2         3.1416                                 :07 DRAW DOWN PISTON AREA
V_SYS                   .cm3         131.0000                               :08 SYSTEM VOLUME
PROBE_ID                .cm          1.2700                                 :09 TTK PROBE ID
G0                      .            4.6700                                 :10 GEOMETRY FACTOR


~A                  TIME     DD_PRESS                              DD_VOLUME               TEMP                                   DD_PRESS_MOD_1000       DD_PRESS_MOD_100        DD_PRESS_MOD_10         DD_PRESS_MOD_1        DD_PRESS_MOD_01       DD_PRESS_MOD_001      DD_PRESS_MOD_0001
# ...
                   77.70    340.75179                               10.76592             72.102                                        3.40752e+002           4.07518e+001           7.51789e-001           7.51789e-001           5.17894e-002           1.78941e-003           7.89405e-004
                   77.80    340.71597                               10.78078             72.102                                        3.40716e+002           4.07160e+001           7.15969e-001           7.15969e-001           1.59686e-002           5.96858e-003           9.68577e-004
                   77.90    340.66652                               10.79891             72.102                                        3.40667e+002           4.06665e+001           6.66515e-001           6.66515e-001           6.65151e-002           6.51507e-003           5.15071e-004
                   78.00    340.60762                               10.82031             72.102                                        3.40608e+002           4.06076e+001           6.07624e-001           6.07624e-001           7.62382e-003           7.62382e-003           6.23824e-004
                   78.10    340.54806                               10.84521             72.102                                        3.40548e+002           4.05481e+001           5.48063e-001           5.48063e-001           4.80626e-002           8.06265e-003           6.26455e-005
                   78.20    340.48030                               10.87469             72.102                                        3.40480e+002           4.04803e+001           4.80305e-001           4.80305e-001           8.03049e-002           3.04948e-004           3.04948e-004
                   78.30    340.39829                               10.90887             72.102                                        3.40398e+002           4.03983e+001           3.98285e-001           3.98285e-001           9.82851e-002           8.28514e-003           2.85141e-004
                   78.40    340.29790                               10.94734             72.102                                        3.40298e+002           4.02979e+001           2.97898e-001           2.97898e-001           9.78984e-002           7.89845e-003           8.98447e-004
                   78.50    340.18671                               10.99040             72.102                                        3.40187e+002           4.01867e+001           1.86709e-001           1.86709e-001           8.67086e-002           6.70858e-003           7.08579e-004
                   78.60    340.06254                               11.03808             72.102                                        3.40063e+002           4.00625e+001           6.25394e-002           6.25394e-002           6.25394e-002           2.53937e-003           5.39369e-004
                   78.70    339.93159                               11.09004             72.102                                        3.39932e+002           3.99316e+001           9.93159e+000           9.31591e-001           3.15915e-002           1.59149e-003           5.91489e-004
                   78.80    339.79458                               11.14685             72.102                                        3.39795e+002           3.97946e+001           9.79458e+000           7.94582e-001           9.45817e-002           4.58174e-003           5.81744e-004
                   78.90    339.66240                               11.20901             72.102                                        3.39662e+002           3.96624e+001           9.66240e+000           6.62401e-001           6.24011e-002           2.40114e-003           4.01136e-004
                   79.00    339.52106                               11.27672             72.102                                        3.39521e+002           3.95211e+001           9.52106e+000           5.21063e-001           2.10634e-002           1.06340e-003           6.33970e-005
                   79.10    339.35748                               11.35002             72.102                                        3.39357e+002           3.93575e+001           9.35748e+000           3.57484e-001           5.74840e-002           7.48403e-003           4.84032e-004
                   79.20    339.18141                               11.42899             72.102                                        3.39181e+002           3.91814e+001           9.18141e+000           1.81408e-001           8.14077e-002           1.40768e-003           4.07675e-004
                   79.30    339.00652                               11.51395             72.102                                        3.39007e+002           3.90065e+001           9.00652e+000           6.51649e-003           6.51649e-003           6.51649e-003           5.16495e-004
                   79.40    338.82582                               11.60507             72.102                                        3.38826e+002           3.88258e+001           8.82582e+000           8.25820e-001           2.58199e-002           5.81988e-003           8.19879e-004
                   79.50    338.63139                               11.70265             72.102                                        3.38631e+002           3.86314e+001           8.63139e+000           6.31391e-001           3.13914e-002           1.39138e-003           3.91375e-004
                   79.60    338.42712                               11.80681             72.102                                        3.38427e+002           3.84271e+001           8.42712e+000           4.27125e-001           2.71249e-002           7.12495e-003           1.24948e-004
                   79.70    338.21590                               11.91741             72.102                                        3.38216e+002           3.82159e+001           8.21590e+000           2.15897e-001           1.58969e-002           5.89694e-003           8.96935e-004
                   79.80    338.04470                               12.03511             72.102                                        3.38045e+002           3.80447e+001           8.04470e+000           4.47019e-002           4.47019e-002           4.70193e-003           7.01932e-004
                   79.90    337.90217                               12.16181             72.102                                        3.37902e+002           3.79022e+001           7.90217e+000           9.02172e-001           2.17181e-003           2.17181e-003           1.71808e-004
                   80.00    337.76340                               12.29884             72.102                                        3.37763e+002           3.77634e+001           7.76340e+000           7.63399e-001           6.33988e-002           3.39885e-003           3.98846e-004
                   80.10    337.64709                               12.44727             72.102                                        3.37647e+002           3.76471e+001           7.64709e+000           6.47094e-001           4.70935e-002           7.09350e-003           9.35047e-005
                   80.20    337.51452                               12.60812             72.102                                        3.37515e+002           3.75145e+001           7.51452e+000           5.14523e-001           1.45226e-002           4.52261e-003           5.22609e-004
                   80.30    337.32503                               12.78104             72.102                                        3.37325e+002           3.73250e+001           7.32503e+000           3.25030e-001           2.50296e-002           5.02962e-003           2.96241e-005
                   80.40    337.23750                               12.96568             72.102                                        3.37238e+002           3.72375e+001           7.23750e+000           2.37502e-001           3.75017e-002           7.50165e-003           5.01654e-004
