~VERSION INFORMATION
VERS                    .            2.0                                    :CWLS LOG ASCII STANDARD
WRAP                    .            NO                                     :ONE LINE PER TIME STEP


~WELL INFORMATION
#MNEM                   .UNIT        DATA                                    DESCRIPTION
#________________________________________________________________________________________
STRTTIME                .HH/MM/SS    15:31:36                               :START TIME
STOPTIME                .HH/MM/SS    15:34:21                               :STOP TIME
STRT                    .s           2.10                                   :START DATA
STOP                    .s           163.50                                 :STOP DATA
STEP                    .s           0.10                                   :MEASUREMENT TIME INTERVAL
NULL                    .            -999.25                                :NULL VALUE
COMP                    .            Statoil ASA                            :COMPANY
FLD                     .            Volve                                  :FIELD
WELL                    .            15/9-F-11 A                            :WELL
RUN                     .            8                                      :RUN
LOC                     .            Maersk Inspirer                        :LOCATION
PROV                    .            na                                     :PROVINCE
SRVC                    .            Baker Hughes INTEQ                     :SERVICE COMPANY
DATE                    .YY/MM/DD    13/05/21                               :LOG DATE
UWI                     .                                                   :UNIQUE WELL ID
DEPTHMD                 .m           3617.2                                 :MEASURED DEPTH
DEPTHTVD                .m           3015.5                                 :TRUE VERTICAL DEPTH


~CURVE INFORMATION
#MNEM                   .UNIT        API CODES                               DESCRIPTION
#________________________________________________________________________________________
TIME                    .s                                                  :01 TIME
DD_PRESS                .bar                                                :02 DRAW DOWN PRESSURE
DD_VOLUME               .cm3                                                :03 INCREMENTAL DRAW DOWN VOLUME
TEMP                    .degC                                               :04 TRANSDUCER TEMPERATURE
DD_PRESS_MOD_1000       .bar                                                :05 DRAW DOWN PRESSURE MOD 1000
DD_PRESS_MOD_100        .bar                                                :06 DRAW DOWN PRESSURE MOD 100
DD_PRESS_MOD_10         .bar                                                :07 DRAW DOWN PRESSURE MOD 10
DD_PRESS_MOD_1          .bar                                                :08 DRAW DOWN PRESSURE MOD 1
DD_PRESS_MOD_01         .bar                                                :09 DRAW DOWN PRESSURE MOD 01
DD_PRESS_MOD_001        .bar                                                :10 DRAW DOWN PRESSURE MOD 001
DD_PRESS_MOD_0001       .bar                                                :11 DRAW DOWN PRESSURE MOD 0001


~PARAMETER INFORMATION
#MNEM                   .UNIT        VALUE                                   DESCRIPTION
#________________________________________________________________________________________
TOOLFACE                .deg         63.0                                   :01 TOOLFACE
PUMP_CAPACITY           .bar         400                                    :02 NOMINAL DRAW DOWN PUMP CAPACITY
PUMP_LIMIT              .bar         240                                    :03 DOWNLINK PUMP LIMIT
TIME_LIMIT              .min         10                                     :04 DOWNLINK MAX TIME
TEST_TYPE               .            HIGH MOBILITY                          :05 DOWNLINK
DD_PIST_A               .cm2         3.1416                                 :06 DRAW DOWN PISTON AREA
V_SYS                   .cm3         131.0000                               :07 SYSTEM VOLUME
PROBE_ID                .cm          1.2700                                 :08 TTK PROBE ID
G0                      .            4.6700                                 :09 GEOMETRY FACTOR


~A                  TIME     DD_PRESS                              DD_VOLUME               TEMP                                   DD_PRESS_MOD_1000       DD_PRESS_MOD_100        DD_PRESS_MOD_10         DD_PRESS_MOD_1        DD_PRESS_MOD_01       DD_PRESS_MOD_001      DD_PRESS_MOD_0001
# ...
                   77.70    341.44909                               11.01005             80.133                                        3.41449e+002           4.14491e+001           1.44909e+000           4.49087e-001           4.90870e-002           9.08696e-003           8.69649e-005
                   77.80    341.39705                               11.03326             80.133                                        3.41397e+002           4.13970e+001           1.39705e+000           3.97046e-001           9.70455e-002           7.04550e-003           4.55028e-005
                   77.90    341.33773                               11.06086             80.133                                        3.41338e+002           4.13377e+001           1.33773e+000           3.37734e-001           3.77344e-002           7.73439e-003           7.34391e-004
                   78.00    341.27102                               11.09331             80.133                                        3.41271e+002           4.12710e+001           1.27102e+000           2.71018e-001           7.10177e-002           1.01772e-003           1.77184e-005
                   78.10    341.20136                               11.13085             80.133                                        3.41201e+002           4.12014e+001           1.20136e+000           2.01363e-001           1.36267e-003           1.36267e-003           3.62666e-004
                   78.20    341.12626                               11.17374             80.133                                        3.41126e+002           4.11263e+001           1.12626e+000           1.26261e-001           2.62611e-002           6.26107e-003           2.61069e-004
                   78.30    341.03973                               11.22246             80.133                                        3.41040e+002           4.10397e+001           1.03973e+000           3.97337e-002           3.97337e-002           9.73366e-003           7.33661e-004
                   78.40    340.95223                               11.27775             80.133                                        3.40952e+002           4.09522e+001           9.52229e-001           9.52229e-001           5.22292e-002           2.22916e-003           2.29156e-004
                   78.50    340.85804                               11.34007             80.133                                        3.40858e+002           4.08580e+001           8.58039e-001           8.58039e-001           5.80390e-002           8.03901e-003           3.90098e-005
                   78.60    340.75311                               11.40964             80.133                                        3.40753e+002           4.07531e+001           7.53110e-001           7.53110e-001           5.31100e-002           3.10998e-003           1.09983e-004
                   78.70    340.64409                               11.48685             80.133                                        3.40644e+002           4.06441e+001           6.44090e-001           6.44090e-001           4.40897e-002           4.08973e-003           8.97340e-005
                   78.80    340.52944                               11.57218             80.133                                        3.40529e+002           4.05294e+001           5.29439e-001           5.29439e-001           2.94386e-002           9.43864e-003           4.38639e-004
                   78.90    340.40168                               11.66614             80.133                                        3.40402e+002           4.04017e+001           4.01677e-001           4.01677e-001           1.67693e-003           1.67693e-003           6.76929e-004
                   79.00    340.26708                               11.76896             80.133                                        3.40267e+002           4.02671e+001           2.67081e-001           2.67081e-001           6.70809e-002           7.08092e-003           8.09215e-005
                   79.10    340.12439                               11.88062             80.133                                        3.40124e+002           4.01244e+001           1.24392e-001           1.24392e-001           2.43923e-002           4.39234e-003           3.92338e-004
                   79.20    339.97050                               12.00168             80.133                                        3.39971e+002           3.99705e+001           9.97050e+000           9.70501e-001           7.05013e-002           5.01326e-004           5.01326e-004
                   79.30    339.82136                               12.13303             80.133                                        3.39821e+002           3.98214e+001           9.82136e+000           8.21358e-001           2.13577e-002           1.35774e-003           3.57742e-004
                   79.40    339.69799                               12.27557             80.133                                        3.39698e+002           3.96980e+001           9.69799e+000           6.97990e-001           9.79897e-002           7.98971e-003           9.89709e-004
                   79.50    339.58023                               12.43052             80.133                                        3.39580e+002           3.95802e+001           9.58023e+000           5.80226e-001           8.02258e-002           2.25840e-004           2.25840e-004
                   79.60    339.44055                               12.59855             80.133                                        3.39441e+002           3.94405e+001           9.44055e+000           4.40548e-001           4.05484e-002           5.48450e-004           5.48450e-004
                   79.70    339.28951                               12.77947             80.133                                        3.39290e+002           3.92895e+001           9.28951e+000           2.89512e-001           8.95118e-002           9.51176e-003           5.11761e-004
                   79.80    339.14779                               12.97374             80.135                                        3.39148e+002           3.91478e+001           9.14779e+000           1.47791e-001           4.77908e-002           7.79082e-003           7.90815e-004
                   79.90    339.01995                               13.18279             80.139                                        3.39020e+002           3.90200e+001           9.01995e+000           1.99547e-002           1.99547e-002           9.95465e-003           9.54654e-004
                   80.00    338.88945                               13.40770             80.141                                        3.38889e+002           3.88895e+001           8.88945e+000           8.89452e-001           8.94521e-002           9.45208e-003           4.52076e-004
                   80.10    338.75027                               13.64865             80.141                                        3.38750e+002           3.87503e+001           8.75027e+000           7.50269e-001           5.02694e-002           2.69360e-004           2.69360e-004
                   80.20    338.62557                               13.90695             80.141                                        3.38626e+002           3.86256e+001           8.62557e+000           6.25570e-001           2.55702e-002           5.57024e-003           5.70243e-004
                   80.30    338.50573                               14.18331             80.141                                        3.38506e+002           3.85057e+001           8.50573e+000           5.05728e-001           5.72825e-003           5.72825e-003           7.28246e-004
                   80.40    338.42979                               14.47284             80.141                                        3.38430e+002           3.84298e+001           8.42979e+000           4.29786e-001           2.97861e-002           9.78609e-003           7.86093e-004
