~VERSION INFORMATION
VERS                    .            2.0                                    :CWLS LOG ASCII STANDARD
WRAP                    .            NO                                     :ONE LINE PER TIME STEP


~WELL INFORMATION
#MNEM                   .UNIT        DATA                                    DESCRIPTION
#________________________________________________________________________________________
STRTTIME                .HH/MM/SS    09:43:23                               :START TIME
STOPTIME                .HH/MM/SS    09:46:50                               :STOP TIME
STRT                    .s           2.10                                   :START DATA
STOP                    .s           205.20                                 :STOP DATA
STEP                    .s           0.10                                   :MEASUREMENT TIME INTERVAL
NULL                    .            -999.25                                :NULL VALUE
COMP                    .            Statoil ASA                            :COMPANY
FLD                     .            Volve                                  :FIELD
WELL                    .            15/9-F-11 A                            :WELL
RUN                     .            8                                      :RUN
LOC                     .            Maersk Inspirer                        :LOCATION
PROV                    .            na                                     :PROVINCE
SRVC                    .            Baker Hughes INTEQ                     :SERVICE COMPANY
DATE                    .YY/MM/DD    13/05/21                               :LOG DATE
UWI                     .                                                   :UNIQUE WELL ID
DEPTHMD                 .m           3665.9                                 :MEASURED DEPTH
DEPTHTVD                .m           3052.8                                 :TRUE VERTICAL DEPTH


~CURVE INFORMATION
#MNEM                   .UNIT        API CODES                               DESCRIPTION
#________________________________________________________________________________________
TIME                    .s                                                  :01 TIME
DD_PRESS                .bar                                                :02 DRAW DOWN PRESSURE
DD_VOLUME               .cm3                                                :03 INCREMENTAL DRAW DOWN VOLUME
TEMP                    .degC                                               :04 TRANSDUCER TEMPERATURE
DD_PRESS_MOD_1000       .bar                                                :05 DRAW DOWN PRESSURE MOD 1000
DD_PRESS_MOD_100        .bar                                                :06 DRAW DOWN PRESSURE MOD 100
DD_PRESS_MOD_10         .bar                                                :07 DRAW DOWN PRESSURE MOD 10
DD_PRESS_MOD_1          .bar                                                :08 DRAW DOWN PRESSURE MOD 1
DD_PRESS_MOD_01         .bar                                                :09 DRAW DOWN PRESSURE MOD 01
DD_PRESS_MOD_001        .bar                                                :10 DRAW DOWN PRESSURE MOD 001
DD_PRESS_MOD_0001       .bar                                                :11 DRAW DOWN PRESSURE MOD 0001


~PARAMETER INFORMATION
#MNEM                   .UNIT        VALUE                                   DESCRIPTION
#________________________________________________________________________________________
TOOLFACE                .deg         60.0                                   :01 TOOLFACE
PUMP_CAPACITY           .bar         400                                    :02 NOMINAL DRAW DOWN PUMP CAPACITY
PUMP_LIMIT              .bar         240                                    :03 DOWNLINK PUMP LIMIT
TIME_LIMIT              .min         10                                     :04 DOWNLINK MAX TIME
TEST_TYPE               .            REPEAT                                 :05 DOWNLINK
TEST_TYPE               .            HIGH MOBILITY                          :06 DOWNLINK
DD_PIST_A               .cm2         3.1416                                 :07 DRAW DOWN PISTON AREA
V_SYS                   .cm3         131.0000                               :08 SYSTEM VOLUME
PROBE_ID                .cm          1.2700                                 :09 TTK PROBE ID
G0                      .            4.6700                                 :10 GEOMETRY FACTOR


~A                  TIME     DD_PRESS                              DD_VOLUME               TEMP                                   DD_PRESS_MOD_1000       DD_PRESS_MOD_100        DD_PRESS_MOD_10         DD_PRESS_MOD_1        DD_PRESS_MOD_01       DD_PRESS_MOD_001      DD_PRESS_MOD_0001
# ...
                   69.30    344.71986                               10.66748             83.164                                        3.44720e+002           4.47199e+001           4.71986e+000           7.19860e-001           1.98603e-002           9.86034e-003           8.60343e-004
                   69.40    344.72577                               10.66748             83.164                                        3.44726e+002           4.47258e+001           4.72577e+000           7.25772e-001           2.57719e-002           5.77187e-003           7.71874e-004
                   69.50    344.73049                               10.66748             83.164                                        3.44730e+002           4.47305e+001           4.73049e+000           7.30493e-001           3.04933e-002           4.93335e-004           4.93335e-004
                   69.60    344.72542                               10.66748             83.164                                        3.44725e+002           4.47254e+001           4.72542e+000           7.25424e-001           2.54236e-002           5.42356e-003           4.23563e-004
                   69.70    344.72133                               10.66748             83.164                                        3.44721e+002           4.47213e+001           4.72133e+000           7.21331e-001           2.13308e-002           1.33081e-003           3.30805e-004
                   69.80    344.72619                               10.66748             83.166                                        3.44726e+002           4.47262e+001           4.72619e+000           7.26187e-001           2.61873e-002           6.18733e-003           1.87327e-004
                   69.90    344.73306                               10.66748             83.168                                        3.44733e+002           4.47331e+001           4.73306e+000           7.33057e-001           3.30569e-002           3.05692e-003           5.69233e-005
                   70.00    344.73070                               10.66748             83.166                                        3.44731e+002           4.47307e+001           4.73070e+000           7.30699e-001           3.06986e-002           6.98637e-004           6.98637e-004
                   70.10    344.73236                               10.66748             83.164                                        3.44732e+002           4.47324e+001           4.73236e+000           7.32362e-001           3.23623e-002           2.36235e-003           3.62349e-004
                   70.20    344.73454                               10.66748             83.164                                        3.44735e+002           4.47345e+001           4.73454e+000           7.34536e-001           3.45363e-002           4.53632e-003           5.36318e-004
                   70.30    344.72924                               10.66748             83.164                                        3.44729e+002           4.47292e+001           4.72924e+000           7.29241e-001           2.92407e-002           9.24070e-003           2.40701e-004
                   70.40    344.72572                               10.66748             83.164                                        3.44726e+002           4.47257e+001           4.72572e+000           7.25723e-001           2.57228e-002           5.72276e-003           7.22758e-004
                   70.50    344.72635                               10.66748             83.164                                        3.44726e+002           4.47264e+001           4.72635e+000           7.26351e-001           2.63514e-002           6.35140e-003           3.51403e-004
                   70.60    344.73149                               10.66748             83.164                                        3.44731e+002           4.47315e+001           4.73149e+000           7.31487e-001           3.14874e-002           1.48736e-003           4.87357e-004
                   70.70    344.73093                               10.66748             83.164                                        3.44731e+002           4.47309e+001           4.73093e+000           7.30929e-001           3.09289e-002           9.28906e-004           9.28906e-004
                   70.80    344.73109                               10.66748             83.164                                        3.44731e+002           4.47311e+001           4.73109e+000           7.31086e-001           3.10857e-002           1.08573e-003           8.57342e-005
                   70.90    344.73084                               10.66748             83.164                                        3.44731e+002           4.47308e+001           4.73084e+000           7.30840e-001           3.08402e-002           8.40176e-004           8.40176e-004
                   71.00    344.72791                               10.66748             83.164                                        3.44728e+002           4.47279e+001           4.72791e+000           7.27914e-001           2.79140e-002           7.91402e-003           9.14015e-004
                   71.10    344.72416                               10.66748             83.164                                        3.44724e+002           4.47242e+001           4.72416e+000           7.24161e-001           2.41613e-002           4.16129e-003           1.61288e-004
                   71.20    344.71798                               10.66748             83.164                                        3.44718e+002           4.47180e+001           4.71798e+000           7.17982e-001           1.79817e-002           7.98166e-003           9.81660e-004
                   71.30    344.72312                               10.66748             83.164                                        3.44723e+002           4.47231e+001           4.72312e+000           7.23121e-001           2.31209e-002           3.12091e-003           1.20907e-004
                   71.40    344.73615                               10.66748             83.164                                        3.44736e+002           4.47362e+001           4.73615e+000           7.36153e-001           3.61527e-002           6.15268e-003           1.52680e-004
                   71.50    344.73147                               10.66748             83.164                                        3.44731e+002           4.47315e+001           4.73147e+000           7.31471e-001           3.14706e-002           1.47057e-003           4.70574e-004
                   71.60    344.72346                               10.66748             83.164                                        3.44723e+002           4.47235e+001           4.72346e+000           7.23456e-001           2.34563e-002           3.45629e-003           4.56292e-004
                   71.70    344.73642                               10.66748             83.164                                        3.44736e+002           4.47364e+001           4.73642e+000           7.36423e-001           3.64232e-002           6.42318e-003           4.23182e-004
                   71.80    344.74852                               10.66748             83.164                                        3.44749e+002           4.47485e+001           4.74852e+000           7.48521e-001           4.85208e-002           8.52084e-003           5.20841e-004
                   71.90    344.74203                               10.66748             83.164                                        3.44742e+002           4.47420e+001           4.74203e+000           7.42028e-001           4.20278e-002           2.02777e-003           2.77734e-005
                   72.00    344.72901                               10.66748             83.164                                        3.44729e+002           4.47290e+001           4.72901e+000           7.29006e-001           2.90061e-002           9.00615e-003           6.14788e-006
