~VERSION INFORMATION
VERS                    .            2.0                                    :CWLS LOG ASCII STANDARD
WRAP                    .            NO                                     :ONE LINE PER TIME STEP


~WELL INFORMATION
#MNEM                   .UNIT        DATA                                    DESCRIPTION
#________________________________________________________________________________________
STRTTIME                .HH/MM/SS    15:44:09                               :START TIME
STOPTIME                .HH/MM/SS    15:46:59                               :STOP TIME
STRT                    .s           2.10                                   :START DATA
STOP                    .s           168.10                                 :STOP DATA
STEP                    .s           0.10                                   :MEASUREMENT TIME INTERVAL
NULL                    .            -999.25                                :NULL VALUE
COMP                    .            Statoil ASA                            :COMPANY
FLD                     .            Volve                                  :FIELD
WELL                    .            15/9-F-1 B                             :WELL
RUN                     .            7                                      :RUN
LOC                     .            Maersk Inspirer                        :LOCATION
PROV                    .            na                                     :PROVINCE
SRVC                    .            Baker Hughes INTEQ                     :SERVICE COMPANY
DATE                    .YY/MM/DD    13/09/06                               :LOG DATE
UWI                     .                                                   :UNIQUE WELL ID
DEPTHMD                 .m           3266.5                                 :MEASURED DEPTH
DEPTHTVD                .m           3062.4                                 :TRUE VERTICAL DEPTH


~CURVE INFORMATION
#MNEM                   .UNIT        API CODES                               DESCRIPTION
#________________________________________________________________________________________
TIME                    .s                                                  :01 TIME
DD_PRESS                .bar                                                :02 DRAW DOWN PRESSURE
DD_VOLUME               .cm3                                                :03 INCREMENTAL DRAW DOWN VOLUME
TEMP                    .degC                                               :04 TRANSDUCER TEMPERATURE
DD_PRESS_MOD_1000       .bar                                                :05 DRAW DOWN PRESSURE MOD 1000
DD_PRESS_MOD_100        .bar                                                :06 DRAW DOWN PRESSURE MOD 100
DD_PRESS_MOD_10         .bar                                                :07 DRAW DOWN PRESSURE MOD 10
DD_PRESS_MOD_1          .bar                                                :08 DRAW DOWN PRESSURE MOD 1
DD_PRESS_MOD_01         .bar                                                :09 DRAW DOWN PRESSURE MOD 01
DD_PRESS_MOD_001        .bar                                                :10 DRAW DOWN PRESSURE MOD 001
DD_PRESS_MOD_0001       .bar                                                :11 DRAW DOWN PRESSURE MOD 0001


~PARAMETER INFORMATION
#MNEM                   .UNIT        VALUE                                   DESCRIPTION
#________________________________________________________________________________________
TOOLFACE                .deg         na                                     :01 TOOLFACE
PUMP_CAPACITY           .bar         400                                    :02 NOMINAL DRAW DOWN PUMP CAPACITY
PUMP_LIMIT              .bar         400                                    :03 DOWNLINK PUMP LIMIT
TIME_LIMIT              .min         10                                     :04 DOWNLINK MAX TIME
TEST_TYPE               .            LOW MOBILITY                           :05 DOWNLINK
DD_PIST_A               .cm2         3.1416                                 :06 DRAW DOWN PISTON AREA
V_SYS                   .cm3         131.0000                               :07 SYSTEM VOLUME
PROBE_ID                .cm          1.2700                                 :08 TTK PROBE ID
G0                      .            4.6700                                 :09 GEOMETRY FACTOR


~A                  TIME     DD_PRESS                              DD_VOLUME               TEMP                                   DD_PRESS_MOD_1000       DD_PRESS_MOD_100        DD_PRESS_MOD_10         DD_PRESS_MOD_1        DD_PRESS_MOD_01       DD_PRESS_MOD_001      DD_PRESS_MOD_0001
# ...
                  100.10    346.52171                               19.87570             82.523                                        3.46522e+002           4.65217e+001           6.52171e+000           5.21706e-001           2.17063e-002           1.70630e-003           7.06299e-004
                  100.20    346.52183                               19.87570             82.526                                        3.46522e+002           4.65218e+001           6.52183e+000           5.21829e-001           2.18292e-002           1.82920e-003           8.29198e-004
                  100.30    346.52210                               19.87570             82.529                                        3.46522e+002           4.65221e+001           6.52210e+000           5.22096e-001           2.20962e-002           2.09619e-003           9.61937e-005
                  100.40    346.52213                               19.87570             82.531                                        3.46522e+002           4.65221e+001           6.52213e+000           5.22127e-001           2.21273e-002           2.12727e-003           1.27266e-004
                  100.50    346.52188                               19.87570             82.529                                        3.46522e+002           4.65219e+001           6.52188e+000           5.21880e-001           2.18798e-002           1.87980e-003           8.79797e-004
                  100.60    346.52174                               19.87570             82.528                                        3.46522e+002           4.65217e+001           6.52174e+000           5.21740e-001           2.17397e-002           1.73972e-003           7.39720e-004
                  100.70    346.52177                               19.87570             82.529                                        3.46522e+002           4.65218e+001           6.52177e+000           5.21774e-001           2.17740e-002           1.77396e-003           7.73960e-004
                  100.80    346.52180                               19.87570             82.531                                        3.46522e+002           4.65218e+001           6.52180e+000           5.21799e-001           2.17990e-002           1.79901e-003           7.99006e-004
                  100.90    346.52182                               19.87570             82.531                                        3.46522e+002           4.65218e+001           6.52182e+000           5.21822e-001           2.18223e-002           1.82226e-003           8.22260e-004
                  101.00    346.52193                               19.87570             82.531                                        3.46522e+002           4.65219e+001           6.52193e+000           5.21926e-001           2.19256e-002           1.92561e-003           9.25611e-004
                  101.10    346.52199                               19.87570             82.529                                        3.46522e+002           4.65220e+001           6.52199e+000           5.21992e-001           2.19916e-002           1.99158e-003           9.91582e-004
                  101.20    346.52210                               19.87570             82.525                                        3.46522e+002           4.65221e+001           6.52210e+000           5.22099e-001           2.20993e-002           2.09934e-003           9.93398e-005
                  101.30    346.52209                               19.87570             82.523                                        3.46522e+002           4.65221e+001           6.52209e+000           5.22091e-001           2.20912e-002           2.09118e-003           9.11757e-005
                  101.40    346.52191                               19.87570             82.523                                        3.46522e+002           4.65219e+001           6.52191e+000           5.21906e-001           2.19056e-002           1.90561e-003           9.05607e-004
                  101.50    346.52194                               19.87570             82.523                                        3.46522e+002           4.65219e+001           6.52194e+000           5.21941e-001           2.19411e-002           1.94111e-003           9.41113e-004
                  101.60    346.52216                               19.87570             82.523                                        3.46522e+002           4.65222e+001           6.52216e+000           5.22156e-001           2.21564e-002           2.15635e-003           1.56353e-004
                  101.70    346.52206                               19.87570             82.523                                        3.46522e+002           4.65221e+001           6.52206e+000           5.22062e-001           2.20623e-002           2.06227e-003           6.22729e-005
                  101.80    346.52196                               19.87570             82.523                                        3.46522e+002           4.65220e+001           6.52196e+000           5.21956e-001           2.19556e-002           1.95563e-003           9.55631e-004
                  101.90    346.52193                               19.87570             82.523                                        3.46522e+002           4.65219e+001           6.52193e+000           5.21927e-001           2.19266e-002           1.92660e-003           9.26602e-004
                  102.00    346.52190                               19.87570             82.523                                        3.46522e+002           4.65219e+001           6.52190e+000           5.21900e-001           2.18995e-002           1.89954e-003           8.99540e-004
                  102.10    346.52181                               19.87570             82.523                                        3.46522e+002           4.65218e+001           6.52181e+000           5.21808e-001           2.18076e-002           1.80763e-003           8.07634e-004
                  102.20    346.52172                               19.87570             82.523                                        3.46522e+002           4.65217e+001           6.52172e+000           5.21719e-001           2.17192e-002           1.71923e-003           7.19232e-004
                  102.30    346.52180                               19.87570             82.526                                        3.46522e+002           4.65218e+001           6.52180e+000           5.21801e-001           2.18011e-002           1.80107e-003           8.01067e-004
                  102.40    346.52190                               19.87570             82.529                                        3.46522e+002           4.65219e+001           6.52190e+000           5.21897e-001           2.18967e-002           1.89666e-003           8.96657e-004
                  102.50    346.52199                               19.87570             82.531                                        3.46522e+002           4.65220e+001           6.52199e+000           5.21987e-001           2.19873e-002           1.98733e-003           9.87330e-004
                  102.60    346.52203                               19.87570             82.529                                        3.46522e+002           4.65220e+001           6.52203e+000           5.22034e-001           2.20343e-002           2.03433e-003           3.43329e-005
                  102.70    346.52209                               19.87570             82.525                                        3.46522e+002           4.65221e+001           6.52209e+000           5.22092e-001           2.20918e-002           2.09177e-003           9.17724e-005
                  102.80    346.52202                               19.87570             82.523                                        3.46522e+002           4.65220e+001           6.52202e+000           5.22016e-001           2.20162e-002           2.01625e-003           1.62495e-005
