~VERSION INFORMATION
VERS                    .            2.0                                    :CWLS LOG ASCII STANDARD
WRAP                    .            NO                                     :ONE LINE PER TIME STEP


~WELL INFORMATION
#MNEM                   .UNIT        DATA                                    DESCRIPTION
#________________________________________________________________________________________
STRTTIME                .HH/MM/SS    09:08:53                               :START TIME
STOPTIME                .HH/MM/SS    09:11:57                               :STOP TIME
STRT                    .s           2.10                                   :START DATA
STOP                    .s           182.80                                 :STOP DATA
STEP                    .s           0.10                                   :MEASUREMENT TIME INTERVAL
NULL                    .            -999.25                                :NULL VALUE
COMP                    .            Statoil ASA                            :COMPANY
FLD                     .            Volve                                  :FIELD
WELL                    .            15/9-F-11 A                            :WELL
RUN                     .            8                                      :RUN
LOC                     .            Maersk Inspirer                        :LOCATION
PROV                    .            na                                     :PROVINCE
SRVC                    .            Baker Hughes INTEQ                     :SERVICE COMPANY
DATE                    .YY/MM/DD    13/05/21                               :LOG DATE
UWI                     .                                                   :UNIQUE WELL ID
DEPTHMD                 .m           3671.1                                 :MEASURED DEPTH
DEPTHTVD                .m           3056.7                                 :TRUE VERTICAL DEPTH


~CURVE INFORMATION
#MNEM                   .UNIT        API CODES                               DESCRIPTION
#________________________________________________________________________________________
TIME                    .s                                                  :01 TIME
DD_PRESS                .bar                                                :02 DRAW DOWN PRESSURE
DD_VOLUME               .cm3                                                :03 INCREMENTAL DRAW DOWN VOLUME
TEMP                    .degC                                               :04 TRANSDUCER TEMPERATURE
DD_PRESS_MOD_1000       .bar                                                :05 DRAW DOWN PRESSURE MOD 1000
DD_PRESS_MOD_100        .bar                                                :06 DRAW DOWN PRESSURE MOD 100
DD_PRESS_MOD_10         .bar                                                :07 DRAW DOWN PRESSURE MOD 10
DD_PRESS_MOD_1          .bar                                                :08 DRAW DOWN PRESSURE MOD 1
DD_PRESS_MOD_01         .bar                                                :09 DRAW DOWN PRESSURE MOD 01
DD_PRESS_MOD_001        .bar                                                :10 DRAW DOWN PRESSURE MOD 001
DD_PRESS_MOD_0001       .bar                                                :11 DRAW DOWN PRESSURE MOD 0001


~PARAMETER INFORMATION
#MNEM                   .UNIT        VALUE                                   DESCRIPTION
#________________________________________________________________________________________
TOOLFACE                .deg         -56.2                                  :01 TOOLFACE
PUMP_CAPACITY           .bar         400                                    :02 NOMINAL DRAW DOWN PUMP CAPACITY
PUMP_LIMIT              .bar         240                                    :03 DOWNLINK PUMP LIMIT
TIME_LIMIT              .min         10                                     :04 DOWNLINK MAX TIME
TEST_TYPE               .            REPEAT                                 :05 DOWNLINK
TEST_TYPE               .            HIGH MOBILITY                          :06 DOWNLINK
DD_PIST_A               .cm2         3.1416                                 :07 DRAW DOWN PISTON AREA
V_SYS                   .cm3         131.0000                               :08 SYSTEM VOLUME
PROBE_ID                .cm          1.2700                                 :09 TTK PROBE ID
G0                      .            4.6700                                 :10 GEOMETRY FACTOR


~A                  TIME     DD_PRESS                              DD_VOLUME               TEMP                                   DD_PRESS_MOD_1000       DD_PRESS_MOD_100        DD_PRESS_MOD_10         DD_PRESS_MOD_1        DD_PRESS_MOD_01       DD_PRESS_MOD_001      DD_PRESS_MOD_0001
# ...
                  181.30    423.08748                                0.00000             82.469                                        4.23087e+002           2.30875e+001           3.08748e+000           8.74808e-002           8.74808e-002           7.48080e-003           4.80803e-004
                  181.40    423.10739                                0.00000             82.469                                        4.23107e+002           2.31074e+001           3.10739e+000           1.07391e-001           7.39091e-003           7.39091e-003           3.90914e-004
                  181.50    423.10145                                0.00000             82.469                                        4.23101e+002           2.31014e+001           3.10145e+000           1.01448e-001           1.44780e-003           1.44780e-003           4.47800e-004
                  181.60    423.08480                                0.00000             82.469                                        4.23085e+002           2.30848e+001           3.08480e+000           8.47994e-002           8.47994e-002           4.79936e-003           7.99358e-004
                  181.70    423.08630                                0.00000             82.469                                        4.23086e+002           2.30863e+001           3.08630e+000           8.62984e-002           8.62984e-002           6.29839e-003           2.98395e-004
                  181.80    423.10546                                0.00000             82.469                                        4.23105e+002           2.31055e+001           3.10546e+000           1.05458e-001           5.45764e-003           5.45764e-003           4.57637e-004
                  181.90    423.10175                                0.00000             82.469                                        4.23102e+002           2.31017e+001           3.10175e+000           1.01746e-001           1.74593e-003           1.74593e-003           7.45930e-004
                  182.00    423.07648                                0.00000             82.469                                        4.23076e+002           2.30765e+001           3.07648e+000           7.64754e-002           7.64754e-002           6.47544e-003           4.75444e-004
                  182.10    423.06128                                0.00000             82.469                                        4.23061e+002           2.30613e+001           3.06128e+000           6.12844e-002           6.12844e-002           1.28439e-003           2.84389e-004
                  182.20    423.08091                                0.00000             82.469                                        4.23081e+002           2.30809e+001           3.08091e+000           8.09128e-002           8.09128e-002           9.12774e-004           9.12774e-004
                  182.30    423.09175                                0.00000             82.469                                        4.23092e+002           2.30917e+001           3.09175e+000           9.17497e-002           9.17497e-002           1.74974e-003           7.49739e-004
                  182.40    423.07314                                0.00000             82.469                                        4.23073e+002           2.30731e+001           3.07314e+000           7.31442e-002           7.31442e-002           3.14423e-003           1.44225e-004
                  182.50    423.06162                                0.00000             82.469                                        4.23062e+002           2.30616e+001           3.06162e+000           6.16219e-002           6.16219e-002           1.62189e-003           6.21892e-004
                  182.60    423.06343                                0.00000             82.469                                        4.23063e+002           2.30634e+001           3.06343e+000           6.34288e-002           6.34288e-002           3.42877e-003           4.28770e-004
                  182.70    423.06596                                0.00000             82.469                                        4.23066e+002           2.30660e+001           3.06596e+000           6.59609e-002           6.59609e-002           5.96091e-003           9.60910e-004
                  182.80    423.07412                                0.00000             82.469                                        4.23074e+002           2.30741e+001           3.07412e+000           7.41166e-002           7.41166e-002           4.11664e-003           1.16638e-004
