~VERSION INFORMATION
VERS                    .            2.0                                    :CWLS LOG ASCII STANDARD
WRAP                    .            NO                                     :ONE LINE PER TIME STEP


~WELL INFORMATION
#MNEM                   .UNIT        DATA                                    DESCRIPTION
#________________________________________________________________________________________
STRTTIME                .HH/MM/SS    23:39:21                               :START TIME
STOPTIME                .HH/MM/SS    23:43:19                               :STOP TIME
STRT                    .s           2.10                                   :START DATA
STOP                    .s           236.60                                 :STOP DATA
STEP                    .s           0.10                                   :MEASUREMENT TIME INTERVAL
NULL                    .            -999.25                                :NULL VALUE
COMP                    .            Statoil                                :COMPANY
FLD                     .            Volve                                  :FIELD
WELL                    .            15/9-F-11 T2                           :WELL
RUN                     .            7                                      :RUN
LOC                     .            Maersk Inspirer                        :LOCATION
PROV                    .            na                                     :PROVINCE
SRVC                    .            Baker Hughes INTEQ                     :SERVICE COMPANY
DATE                    .YY/MM/DD    13/05/04                               :LOG DATE
UWI                     .                                                   :UNIQUE WELL ID
DEPTHMD                 .m           4417.0                                 :MEASURED DEPTH
DEPTHTVD                .m           3257.6                                 :TRUE VERTICAL DEPTH


~CURVE INFORMATION
#MNEM                   .UNIT        API CODES                               DESCRIPTION
#________________________________________________________________________________________
TIME                    .s                                                  :01 TIME
DD_PRESS                .bar                                                :02 DRAW DOWN PRESSURE
DD_VOLUME               .cm3                                                :03 INCREMENTAL DRAW DOWN VOLUME
TEMP                    .degC                                               :04 TRANSDUCER TEMPERATURE
DD_PRESS_MOD_1000       .bar                                                :05 DRAW DOWN PRESSURE MOD 1000
DD_PRESS_MOD_100        .bar                                                :06 DRAW DOWN PRESSURE MOD 100
DD_PRESS_MOD_10         .bar                                                :07 DRAW DOWN PRESSURE MOD 10
DD_PRESS_MOD_1          .bar                                                :08 DRAW DOWN PRESSURE MOD 1
DD_PRESS_MOD_01         .bar                                                :09 DRAW DOWN PRESSURE MOD 01
DD_PRESS_MOD_001        .bar                                                :10 DRAW DOWN PRESSURE MOD 001
DD_PRESS_MOD_0001       .bar                                                :11 DRAW DOWN PRESSURE MOD 0001


~PARAMETER INFORMATION
#MNEM                   .UNIT        VALUE                                   DESCRIPTION
#________________________________________________________________________________________
TOOLFACE                .deg         na                                     :01 TOOLFACE
PUMP_CAPACITY           .bar         400                                    :02 NOMINAL DRAW DOWN PUMP CAPACITY
PUMP_LIMIT              .bar         240                                    :03 DOWNLINK PUMP LIMIT
TIME_LIMIT              .min         10                                     :04 DOWNLINK MAX TIME
TEST_TYPE               .            REPEAT                                 :05 DOWNLINK
TEST_TYPE               .            HIGH MOBILITY                          :06 DOWNLINK
DD_PIST_A               .cm2         3.1416                                 :07 DRAW DOWN PISTON AREA
V_SYS                   .cm3         131.0000                               :08 SYSTEM VOLUME
PROBE_ID                .cm          1.2700                                 :09 TTK PROBE ID
G0                      .            4.6700                                 :10 GEOMETRY FACTOR


~A                  TIME     DD_PRESS                              DD_VOLUME               TEMP                                   DD_PRESS_MOD_1000       DD_PRESS_MOD_100        DD_PRESS_MOD_10         DD_PRESS_MOD_1        DD_PRESS_MOD_01       DD_PRESS_MOD_001      DD_PRESS_MOD_0001
# ...
                   80.50    361.09717                               10.82289             96.039                                        3.61097e+002           6.10972e+001           1.09717e+000           9.71695e-002           9.71695e-002           7.16952e-003           1.69525e-004
                   80.60    361.08890                               10.82289             96.039                                        3.61089e+002           6.10889e+001           1.08890e+000           8.88958e-002           8.88958e-002           8.89576e-003           8.95762e-004
                   80.70    361.07905                               10.82289             96.039                                        3.61079e+002           6.10790e+001           1.07905e+000           7.90483e-002           7.90483e-002           9.04835e-003           4.83493e-005
                   80.80    361.09437                               10.82289             96.039                                        3.61094e+002           6.10944e+001           1.09437e+000           9.43672e-002           9.43672e-002           4.36723e-003           3.67232e-004
                   80.90    361.09995                               10.82289             96.039                                        3.61100e+002           6.10999e+001           1.09995e+000           9.99493e-002           9.99493e-002           9.94931e-003           9.49311e-004
                   81.00    361.08289                               10.82289             96.039                                        3.61083e+002           6.10829e+001           1.08289e+000           8.28941e-002           8.28941e-002           2.89413e-003           8.94132e-004
                   81.10    361.08062                               10.82289             96.039                                        3.61081e+002           6.10806e+001           1.08062e+000           8.06185e-002           8.06185e-002           6.18528e-004           6.18528e-004
                   81.20    361.09089                               10.82289             96.039                                        3.61091e+002           6.10909e+001           1.09089e+000           9.08921e-002           9.08921e-002           8.92053e-004           8.92053e-004
                   81.30    361.08411                               10.82289             96.039                                        3.61084e+002           6.10841e+001           1.08411e+000           8.41066e-002           8.41066e-002           4.10655e-003           1.06550e-004
                   81.40    361.07242                               10.82289             96.039                                        3.61072e+002           6.10724e+001           1.07242e+000           7.24244e-002           7.24244e-002           2.42444e-003           4.24443e-004
                   81.50    361.08674                               10.82289             96.039                                        3.61087e+002           6.10867e+001           1.08674e+000           8.67414e-002           8.67414e-002           6.74142e-003           7.41416e-004
                   81.60    361.10366                               10.82289             96.039                                        3.61104e+002           6.11037e+001           1.10366e+000           1.03664e-001           3.66369e-003           3.66369e-003           6.63694e-004
                   81.70    361.09864                               10.82289             96.039                                        3.61099e+002           6.10986e+001           1.09864e+000           9.86445e-002           9.86445e-002           8.64446e-003           6.44455e-004
                   81.80    361.08619                               10.82289             96.039                                        3.61086e+002           6.10862e+001           1.08619e+000           8.61907e-002           8.61907e-002           6.19074e-003           1.90736e-004
                   81.90    361.08480                               10.82289             96.039                                        3.61085e+002           6.10848e+001           1.08480e+000           8.48012e-002           8.48012e-002           4.80117e-003           8.01172e-004
                   82.00    361.08993                               10.82289             96.039                                        3.61090e+002           6.10899e+001           1.08993e+000           8.99284e-002           8.99284e-002           9.92839e-003           9.28391e-004
                   82.10    361.09626                               10.82289             96.039                                        3.61096e+002           6.10963e+001           1.09626e+000           9.62551e-002           9.62551e-002           6.25513e-003           2.55126e-004
                   82.20    361.09226                               10.82289             96.039                                        3.61092e+002           6.10923e+001           1.09226e+000           9.22566e-002           9.22566e-002           2.25664e-003           2.56643e-004
                   82.30    361.08735                               10.82289             96.039                                        3.61087e+002           6.10874e+001           1.08735e+000           8.73515e-002           8.73515e-002           7.35148e-003           3.51483e-004
                   82.40    361.09027                               10.82289             96.039                                        3.61090e+002           6.10903e+001           1.09027e+000           9.02706e-002           9.02706e-002           2.70626e-004           2.70626e-004
                   82.50    361.09331                               10.82289             96.039                                        3.61093e+002           6.10933e+001           1.09331e+000           9.33096e-002           9.33096e-002           3.30963e-003           3.09632e-004
                   82.60    361.08731                               10.82289             96.039                                        3.61087e+002           6.10873e+001           1.08731e+000           8.73094e-002           8.73094e-002           7.30942e-003           3.09421e-004
                   82.70    361.08265                               10.82289             96.039                                        3.61083e+002           6.10826e+001           1.08265e+000           8.26474e-002           8.26474e-002           2.64741e-003           6.47406e-004
                   82.80    361.08593                               10.82289             96.039                                        3.61086e+002           6.10859e+001           1.08593e+000           8.59273e-002           8.59273e-002           5.92734e-003           9.27340e-004
                   82.90    361.08102                               10.82289             96.039                                        3.61081e+002           6.10810e+001           1.08102e+000           8.10197e-002           8.10197e-002           1.01968e-003           1.96779e-005
                   83.00    361.07591                               10.82289             96.039                                        3.61076e+002           6.10759e+001           1.07591e+000           7.59140e-002           7.59140e-002           5.91401e-003           9.14012e-004
                   83.10    361.09419                               10.82289             96.039                                        3.61094e+002           6.10942e+001           1.09419e+000           9.41867e-002           9.41867e-002           4.18674e-003           1.86739e-004
                   83.20    361.10361                               10.82289             96.039                                        3.61104e+002           6.11036e+001           1.10361e+000           1.03615e-001           3.61483e-003           3.61483e-003           6.14833e-004
