~VERSION INFORMATION
VERS                    .            2.0                                    :CWLS LOG ASCII STANDARD
WRAP                    .            NO                                     :ONE LINE PER TIME STEP


~WELL INFORMATION
#MNEM                   .UNIT        DATA                                    DESCRIPTION
#________________________________________________________________________________________
STRTTIME                .HH/MM/SS    11:44:47                               :START TIME
STOPTIME                .HH/MM/SS    11:47:33                               :STOP TIME
STRT                    .s           2.10                                   :START DATA
STOP                    .s           164.50                                 :STOP DATA
STEP                    .s           0.10                                   :MEASUREMENT TIME INTERVAL
NULL                    .            -999.25                                :NULL VALUE
COMP                    .            Statoil ASA                            :COMPANY
FLD                     .            Volve                                  :FIELD
WELL                    .            15/9-F-11 A                            :WELL
RUN                     .            8                                      :RUN
LOC                     .            Maersk Inspirer                        :LOCATION
PROV                    .            na                                     :PROVINCE
SRVC                    .            Baker Hughes INTEQ                     :SERVICE COMPANY
DATE                    .YY/MM/DD    13/05/21                               :LOG DATE
UWI                     .                                                   :UNIQUE WELL ID
DEPTHMD                 .m           3624.0                                 :MEASURED DEPTH
DEPTHTVD                .m           3020.7                                 :TRUE VERTICAL DEPTH


~CURVE INFORMATION
#MNEM                   .UNIT        API CODES                               DESCRIPTION
#________________________________________________________________________________________
TIME                    .s                                                  :01 TIME
DD_PRESS                .bar                                                :02 DRAW DOWN PRESSURE
DD_VOLUME               .cm3                                                :03 INCREMENTAL DRAW DOWN VOLUME
TEMP                    .degC                                               :04 TRANSDUCER TEMPERATURE
DD_PRESS_MOD_1000       .bar                                                :05 DRAW DOWN PRESSURE MOD 1000
DD_PRESS_MOD_100        .bar                                                :06 DRAW DOWN PRESSURE MOD 100
DD_PRESS_MOD_10         .bar                                                :07 DRAW DOWN PRESSURE MOD 10
DD_PRESS_MOD_1          .bar                                                :08 DRAW DOWN PRESSURE MOD 1
DD_PRESS_MOD_01         .bar                                                :09 DRAW DOWN PRESSURE MOD 01
DD_PRESS_MOD_001        .bar                                                :10 DRAW DOWN PRESSURE MOD 001
DD_PRESS_MOD_0001       .bar                                                :11 DRAW DOWN PRESSURE MOD 0001


~PARAMETER INFORMATION
#MNEM                   .UNIT        VALUE                                   DESCRIPTION
#________________________________________________________________________________________
TOOLFACE                .deg         61.7                                   :01 TOOLFACE
PUMP_CAPACITY           .bar         400                                    :02 NOMINAL DRAW DOWN PUMP CAPACITY
PUMP_LIMIT              .bar         240                                    :03 DOWNLINK PUMP LIMIT
TIME_LIMIT              .min         10                                     :04 DOWNLINK MAX TIME
TEST_TYPE               .            REPEAT                                 :05 DOWNLINK
TEST_TYPE               .            HIGH MOBILITY                          :06 DOWNLINK
DD_PIST_A               .cm2         3.1416                                 :07 DRAW DOWN PISTON AREA
V_SYS                   .cm3         131.0000                               :08 SYSTEM VOLUME
PROBE_ID                .cm          1.2700                                 :09 TTK PROBE ID
G0                      .            4.6700                                 :10 GEOMETRY FACTOR


~A                  TIME     DD_PRESS                              DD_VOLUME               TEMP                                   DD_PRESS_MOD_1000       DD_PRESS_MOD_100        DD_PRESS_MOD_10         DD_PRESS_MOD_1        DD_PRESS_MOD_01       DD_PRESS_MOD_001      DD_PRESS_MOD_0001
# ...
                   55.30    342.14442                               10.64927             81.453                                        3.42144e+002           4.21444e+001           2.14442e+000           1.44424e-001           4.44238e-002           4.42382e-003           4.23823e-004
                   55.40    342.14548                               10.64927             81.453                                        3.42145e+002           4.21455e+001           2.14548e+000           1.45478e-001           4.54778e-002           5.47781e-003           4.77814e-004
                   55.50    342.14565                               10.64927             81.453                                        3.42146e+002           4.21456e+001           2.14565e+000           1.45647e-001           4.56467e-002           5.64672e-003           6.46721e-004
                   55.60    342.14218                               10.64927             81.453                                        3.42142e+002           4.21422e+001           2.14218e+000           1.42176e-001           4.21760e-002           2.17599e-003           1.75986e-004
                   55.70    342.13759                               10.64927             81.453                                        3.42138e+002           4.21376e+001           2.13759e+000           1.37589e-001           3.75893e-002           7.58933e-003           5.89331e-004
                   55.80    342.13621                               10.64927             81.453                                        3.42136e+002           4.21362e+001           2.13621e+000           1.36207e-001           3.62067e-002           6.20670e-003           2.06695e-004
                   55.90    342.13725                               10.64927             81.455                                        3.42137e+002           4.21373e+001           2.13725e+000           1.37250e-001           3.72501e-002           7.25009e-003           2.50086e-004
                   56.00    342.13823                               10.64927             81.459                                        3.42138e+002           4.21382e+001           2.13823e+000           1.38233e-001           3.82329e-002           8.23292e-003           2.32925e-004
                   56.10    342.13796                               10.64927             81.461                                        3.42138e+002           4.21380e+001           2.13796e+000           1.37964e-001           3.79638e-002           7.96383e-003           9.63835e-004
                   56.20    342.13700                               10.64927             81.459                                        3.42137e+002           4.21370e+001           2.13700e+000           1.36998e-001           3.69979e-002           6.99794e-003           9.97941e-004
                   56.30    342.13811                               10.64927             81.455                                        3.42138e+002           4.21381e+001           2.13811e+000           1.38105e-001           3.81052e-002           8.10520e-003           1.05198e-004
                   56.40    342.13958                               10.64927             81.453                                        3.42140e+002           4.21396e+001           2.13958e+000           1.39584e-001           3.95842e-002           9.58420e-003           5.84197e-004
                   56.50    342.14020                               10.64927             81.455                                        3.42140e+002           4.21402e+001           2.14020e+000           1.40198e-001           4.01982e-002           1.98245e-004           1.98245e-004
                   56.60    342.14014                               10.64927             81.457                                        3.42140e+002           4.21401e+001           2.14014e+000           1.40143e-001           4.01427e-002           1.42708e-004           1.42708e-004
                   56.70    342.14268                               10.64927             81.455                                        3.42143e+002           4.21427e+001           2.14268e+000           1.42676e-001           4.26761e-002           2.67610e-003           6.76100e-004
                   56.80    342.14541                               10.64927             81.453                                        3.42145e+002           4.21454e+001           2.14541e+000           1.45407e-001           4.54065e-002           5.40653e-003           4.06529e-004
                   56.90    342.14442                               10.64927             81.453                                        3.42144e+002           4.21444e+001           2.14442e+000           1.44416e-001           4.44160e-002           4.41602e-003           4.16020e-004
                   57.00    342.14243                               10.64927             81.453                                        3.42142e+002           4.21424e+001           2.14243e+000           1.42428e-001           4.24281e-002           2.42806e-003           4.28058e-004
                   57.10    342.14214                               10.64927             81.453                                        3.42142e+002           4.21421e+001           2.14214e+000           1.42141e-001           4.21410e-002           2.14101e-003           1.41005e-004
                   57.20    342.14255                               10.64927             81.453                                        3.42143e+002           4.21425e+001           2.14255e+000           1.42549e-001           4.25490e-002           2.54898e-003           5.48981e-004
                   57.30    342.14121                               10.64927             81.453                                        3.42141e+002           4.21412e+001           2.14121e+000           1.41205e-001           4.12055e-002           1.20547e-003           2.05467e-004
                   57.40    342.13897                               10.64927             81.453                                        3.42139e+002           4.21390e+001           2.13897e+000           1.38970e-001           3.89696e-002           8.96958e-003           9.69578e-004
                   57.50    342.13925                               10.64927             81.453                                        3.42139e+002           4.21392e+001           2.13925e+000           1.39250e-001           3.92496e-002           9.24963e-003           2.49627e-004
                   57.60    342.13873                               10.64927             81.453                                        3.42139e+002           4.21387e+001           2.13873e+000           1.38727e-001           3.87272e-002           8.72718e-003           7.27184e-004
                   57.70    342.13856                               10.64927             81.453                                        3.42139e+002           4.21386e+001           2.13856e+000           1.38563e-001           3.85630e-002           8.56300e-003           5.62997e-004
                   57.80    342.13971                               10.64927             81.453                                        3.42140e+002           4.21397e+001           2.13971e+000           1.39714e-001           3.97138e-002           9.71375e-003           7.13754e-004
                   57.90    342.14159                               10.64927             81.453                                        3.42142e+002           4.21416e+001           2.14159e+000           1.41589e-001           4.15893e-002           1.58933e-003           5.89332e-004
                   58.00    342.14139                               10.64927             81.453                                        3.42141e+002           4.21414e+001           2.14139e+000           1.41386e-001           4.13863e-002           1.38627e-003           3.86275e-004
