~VERSION INFORMATION
VERS                    .            2.0                                    :CWLS LOG ASCII STANDARD
WRAP                    .            NO                                     :ONE LINE PER TIME STEP


~WELL INFORMATION
#MNEM                   .UNIT        DATA                                    DESCRIPTION
#________________________________________________________________________________________
STRTTIME                .HH/MM/SS    03:09:23                               :START TIME
STOPTIME                .HH/MM/SS    03:12:09                               :STOP TIME
STRT                    .s           2.10                                   :START DATA
STOP                    .s           164.80                                 :STOP DATA
STEP                    .s           0.10                                   :MEASUREMENT TIME INTERVAL
NULL                    .            -999.25                                :NULL VALUE
COMP                    .            Statoil ASA                            :COMPANY
FLD                     .            Volve                                  :FIELD
WELL                    .            15/9-F-1 C                             :WELL
RUN                     .            4                                      :RUN
LOC                     .                                                   :LOCATION
PROV                    .            na                                     :PROVINCE
SRVC                    .            Baker Hughes INTEQ                     :SERVICE COMPANY
DATE                    .YY/MM/DD    14/03/15                               :LOG DATE
UWI                     .                                                   :UNIQUE WELL ID
DEPTHMD                 .m           3523.2                                 :MEASURED DEPTH
DEPTHTVD                .m           2986.7                                 :TRUE VERTICAL DEPTH


~CURVE INFORMATION
#MNEM                   .UNIT        API CODES                               DESCRIPTION
#________________________________________________________________________________________
TIME                    .s                                                  :01 TIME
DD_PRESS                .bar                                                :02 DRAW DOWN PRESSURE
DD_VOLUME               .cm3                                                :03 INCREMENTAL DRAW DOWN VOLUME
TEMP                    .degC                                               :04 TRANSDUCER TEMPERATURE
DD_PRESS_MOD_1000       .bar                                                :05 DRAW DOWN PRESSURE MOD 1000
DD_PRESS_MOD_100        .bar                                                :06 DRAW DOWN PRESSURE MOD 100
DD_PRESS_MOD_10         .bar                                                :07 DRAW DOWN PRESSURE MOD 10
DD_PRESS_MOD_1          .bar                                                :08 DRAW DOWN PRESSURE MOD 1
DD_PRESS_MOD_01         .bar                                                :09 DRAW DOWN PRESSURE MOD 01
DD_PRESS_MOD_001        .bar                                                :10 DRAW DOWN PRESSURE MOD 001
DD_PRESS_MOD_0001       .bar                                                :11 DRAW DOWN PRESSURE MOD 0001


~PARAMETER INFORMATION
#MNEM                   .UNIT        VALUE                                   DESCRIPTION
#________________________________________________________________________________________
TOOLFACE                .deg         104.9                                  :01 TOOLFACE
PUMP_CAPACITY           .bar         400                                    :02 NOMINAL DRAW DOWN PUMP CAPACITY
PUMP_LIMIT              .bar         240                                    :03 DOWNLINK PUMP LIMIT
TIME_LIMIT              .min         10                                     :04 DOWNLINK MAX TIME
TEST_TYPE               .            REPEAT                                 :05 DOWNLINK
TEST_TYPE               .            HIGH MOBILITY                          :06 DOWNLINK
DD_PIST_A               .cm2         3.1416                                 :07 DRAW DOWN PISTON AREA
V_SYS                   .cm3         131.0000                               :08 SYSTEM VOLUME
PROBE_ID                .cm          1.2700                                 :09 TTK PROBE ID
G0                      .            4.6700                                 :10 GEOMETRY FACTOR


~A                  TIME     DD_PRESS                              DD_VOLUME               TEMP                                   DD_PRESS_MOD_1000       DD_PRESS_MOD_100        DD_PRESS_MOD_10         DD_PRESS_MOD_1        DD_PRESS_MOD_01       DD_PRESS_MOD_001      DD_PRESS_MOD_0001
# ...
                   13.30    421.33226                                0.00000             84.578                                        4.21332e+002           2.13323e+001           1.33226e+000           3.32256e-001           3.22556e-002           2.25562e-003           2.55622e-004
                   13.40    421.34224                                0.00000             84.578                                        4.21342e+002           2.13422e+001           1.34224e+000           3.42237e-001           4.22368e-002           2.23683e-003           2.36830e-004
                   13.50    421.35301                                0.00000             84.578                                        4.21353e+002           2.13530e+001           1.35301e+000           3.53013e-001           5.30133e-002           3.01328e-003           1.32766e-005
                   13.60    421.35545                                0.00000             84.578                                        4.21355e+002           2.13555e+001           1.35545e+000           3.55450e-001           5.54501e-002           5.45013e-003           4.50126e-004
                   13.70    421.35815                                0.00000             84.578                                        4.21358e+002           2.13581e+001           1.35815e+000           3.58149e-001           5.81490e-002           8.14900e-003           1.49002e-004
                   13.80    421.36749                                0.00000             84.578                                        4.21367e+002           2.13675e+001           1.36749e+000           3.67494e-001           6.74936e-002           7.49364e-003           4.93639e-004
                   13.90    421.37000                                0.00000             84.578                                        4.21370e+002           2.13700e+001           1.37000e+000           3.69999e-001           6.99987e-002           9.99868e-003           9.98678e-004
                   14.00    421.35985                                0.00000             84.578                                        4.21360e+002           2.13598e+001           1.35985e+000           3.59848e-001           5.98482e-002           9.84823e-003           8.48225e-004
                   14.10    421.35796                                0.00000             84.578                                        4.21358e+002           2.13580e+001           1.35796e+000           3.57965e-001           5.79649e-002           7.96492e-003           9.64921e-004
                   14.20    421.37122                                0.00000             84.578                                        4.21371e+002           2.13712e+001           1.37122e+000           3.71216e-001           7.12163e-002           1.21626e-003           2.16264e-004
                   14.30    421.37559                                0.00000             84.578                                        4.21376e+002           2.13756e+001           1.37559e+000           3.75595e-001           7.55946e-002           5.59459e-003           5.94588e-004
                   14.40    421.36684                                0.00000             84.578                                        4.21367e+002           2.13668e+001           1.36684e+000           3.66840e-001           6.68402e-002           6.84020e-003           8.40203e-004
                   14.50    421.36157                                0.00000             84.578                                        4.21362e+002           2.13616e+001           1.36157e+000           3.61567e-001           6.15668e-002           1.56682e-003           5.66825e-004
                   14.60    421.37439                                0.00000             84.578                                        4.21374e+002           2.13744e+001           1.37439e+000           3.74390e-001           7.43905e-002           4.39046e-003           3.90462e-004
                   14.70    421.38989                                0.00000             84.578                                        4.21390e+002           2.13899e+001           1.38989e+000           3.89893e-001           8.98934e-002           9.89340e-003           8.93402e-004
                   14.80    421.38841                                0.00000             84.578                                        4.21388e+002           2.13884e+001           1.38841e+000           3.88414e-001           8.84140e-002           8.41401e-003           4.14008e-004
                   14.90    421.37794                                0.00000             84.578                                        4.21378e+002           2.13779e+001           1.37794e+000           3.77937e-001           7.79368e-002           7.93677e-003           9.36768e-004
                   15.00    421.38400                                0.00000             84.578                                        4.21384e+002           2.13840e+001           1.38400e+000           3.83999e-001           8.39991e-002           3.99909e-003           9.99091e-004
                   15.10    421.40170                                0.00000             84.578                                        4.21402e+002           2.14017e+001           1.40170e+000           4.01703e-001           1.70283e-003           1.70283e-003           7.02829e-004
                   15.20    421.40579                                0.00000             84.578                                        4.21406e+002           2.14058e+001           1.40579e+000           4.05786e-001           5.78619e-003           5.78619e-003           7.86195e-004
                   15.30    421.39837                                0.00000             84.578                                        4.21398e+002           2.13984e+001           1.39837e+000           3.98374e-001           9.83740e-002           8.37399e-003           3.73985e-004
                   15.40    421.40187                                0.00000             84.578                                        4.21402e+002           2.14019e+001           1.40187e+000           4.01870e-001           1.86981e-003           1.86981e-003           8.69813e-004
                   15.50    421.41341                                0.00000             84.578                                        4.21413e+002           2.14134e+001           1.41341e+000           4.13407e-001           1.34074e-002           3.40736e-003           4.07364e-004
                   15.60    421.42231                                0.00000             84.578                                        4.21422e+002           2.14223e+001           1.42231e+000           4.22311e-001           2.23111e-002           2.31110e-003           3.11097e-004
                   15.70    421.41288                                0.00000             84.578                                        4.21413e+002           2.14129e+001           1.41288e+000           4.12884e-001           1.28838e-002           2.88383e-003           8.83832e-004
                   15.80    421.39426                                0.00000             84.578                                        4.21394e+002           2.13943e+001           1.39426e+000           3.94261e-001           9.42612e-002           4.26120e-003           2.61200e-004
                   15.90    421.38900                                0.00000             84.578                                        4.21389e+002           2.13890e+001           1.38900e+000           3.89003e-001           8.90029e-002           9.00287e-003           2.87142e-006
                   16.00    421.40794                                0.00000             84.578                                        4.21408e+002           2.14079e+001           1.40794e+000           4.07938e-001           7.93820e-003           7.93820e-003           9.38198e-004
