~VERSION INFORMATION
VERS                    .            2.0                                    :CWLS LOG ASCII STANDARD
WRAP                    .            NO                                     :ONE LINE PER TIME STEP


~WELL INFORMATION
#MNEM                   .UNIT        DATA                                    DESCRIPTION
#________________________________________________________________________________________
STRTTIME                .HH/MM/SS    03:09:23                               :START TIME
STOPTIME                .HH/MM/SS    03:12:09                               :STOP TIME
STRT                    .s           2.10                                   :START DATA
STOP                    .s           164.80                                 :STOP DATA
STEP                    .s           0.10                                   :MEASUREMENT TIME INTERVAL
NULL                    .            -999.25                                :NULL VALUE
COMP                    .            Statoil ASA                            :COMPANY
FLD                     .            Volve                                  :FIELD
WELL                    .            15/9-F-1 C                             :WELL
RUN                     .            4                                      :RUN
LOC                     .                                                   :LOCATION
PROV                    .            na                                     :PROVINCE
SRVC                    .            Baker Hughes INTEQ                     :SERVICE COMPANY
DATE                    .YY/MM/DD    14/03/15                               :LOG DATE
UWI                     .                                                   :UNIQUE WELL ID
DEPTHMD                 .m           3523.2                                 :MEASURED DEPTH
DEPTHTVD                .m           2986.7                                 :TRUE VERTICAL DEPTH


~CURVE INFORMATION
#MNEM                   .UNIT        API CODES                               DESCRIPTION
#________________________________________________________________________________________
TIME                    .s                                                  :01 TIME
DD_PRESS                .bar                                                :02 DRAW DOWN PRESSURE
DD_VOLUME               .cm3                                                :03 INCREMENTAL DRAW DOWN VOLUME
TEMP                    .degC                                               :04 TRANSDUCER TEMPERATURE
DD_PRESS_MOD_1000       .bar                                                :05 DRAW DOWN PRESSURE MOD 1000
DD_PRESS_MOD_100        .bar                                                :06 DRAW DOWN PRESSURE MOD 100
DD_PRESS_MOD_10         .bar                                                :07 DRAW DOWN PRESSURE MOD 10
DD_PRESS_MOD_1          .bar                                                :08 DRAW DOWN PRESSURE MOD 1
DD_PRESS_MOD_01         .bar                                                :09 DRAW DOWN PRESSURE MOD 01
DD_PRESS_MOD_001        .bar                                                :10 DRAW DOWN PRESSURE MOD 001
DD_PRESS_MOD_0001       .bar                                                :11 DRAW DOWN PRESSURE MOD 0001


~PARAMETER INFORMATION
#MNEM                   .UNIT        VALUE                                   DESCRIPTION
#________________________________________________________________________________________
TOOLFACE                .deg         104.9                                  :01 TOOLFACE
PUMP_CAPACITY           .bar         400                                    :02 NOMINAL DRAW DOWN PUMP CAPACITY
PUMP_LIMIT              .bar         240                                    :03 DOWNLINK PUMP LIMIT
TIME_LIMIT              .min         10                                     :04 DOWNLINK MAX TIME
TEST_TYPE               .            REPEAT                                 :05 DOWNLINK
TEST_TYPE               .            HIGH MOBILITY                          :06 DOWNLINK
DD_PIST_A               .cm2         3.1416                                 :07 DRAW DOWN PISTON AREA
V_SYS                   .cm3         131.0000                               :08 SYSTEM VOLUME
PROBE_ID                .cm          1.2700                                 :09 TTK PROBE ID
G0                      .            4.6700                                 :10 GEOMETRY FACTOR


~A                  TIME     DD_PRESS                              DD_VOLUME               TEMP                                   DD_PRESS_MOD_1000       DD_PRESS_MOD_100        DD_PRESS_MOD_10         DD_PRESS_MOD_1        DD_PRESS_MOD_01       DD_PRESS_MOD_001      DD_PRESS_MOD_0001
# ...
                  161.70    421.86230                                0.00000             84.492                                        4.21862e+002           2.18623e+001           1.86230e+000           8.62298e-001           6.22980e-002           2.29799e-003           2.97987e-004
                  161.80    421.84746                                0.00000             84.492                                        4.21847e+002           2.18475e+001           1.84746e+000           8.47455e-001           4.74554e-002           7.45543e-003           4.55430e-004
                  161.90    421.82256                                0.00000             84.492                                        4.21823e+002           2.18226e+001           1.82256e+000           8.22556e-001           2.25564e-002           2.55640e-003           5.56397e-004
                  162.00    421.82832                                0.00000             84.492                                        4.21828e+002           2.18283e+001           1.82832e+000           8.28317e-001           2.83168e-002           8.31681e-003           3.16814e-004
                  162.10    421.85413                                0.00000             84.492                                        4.21854e+002           2.18541e+001           1.85413e+000           8.54128e-001           5.41277e-002           4.12775e-003           1.27749e-004
                  162.20    421.86082                                0.00000             84.492                                        4.21861e+002           2.18608e+001           1.86082e+000           8.60817e-001           6.08173e-002           8.17334e-004           8.17334e-004
                  162.30    421.84223                                0.00000             84.492                                        4.21842e+002           2.18422e+001           1.84223e+000           8.42228e-001           4.22279e-002           2.22794e-003           2.27945e-004
                  162.40    421.83119                                0.00000             84.492                                        4.21831e+002           2.18312e+001           1.83119e+000           8.31187e-001           3.11873e-002           1.18730e-003           1.87305e-004
                  162.50    421.83600                                0.00000             84.492                                        4.21836e+002           2.18360e+001           1.83600e+000           8.36002e-001           3.60023e-002           6.00227e-003           2.27209e-006
                  162.60    421.84761                                0.00000             84.492                                        4.21848e+002           2.18476e+001           1.84761e+000           8.47614e-001           4.76141e-002           7.61409e-003           6.14088e-004
                  162.70    421.84607                                0.00000             84.492                                        4.21846e+002           2.18461e+001           1.84607e+000           8.46066e-001           4.60661e-002           6.06606e-003           6.60594e-005
                  162.80    421.83456                                0.00000             84.492                                        4.21835e+002           2.18346e+001           1.83456e+000           8.34560e-001           3.45602e-002           4.56020e-003           5.60197e-004
                  162.90    421.83292                                0.00000             84.492                                        4.21833e+002           2.18329e+001           1.83292e+000           8.32925e-001           3.29246e-002           2.92460e-003           9.24596e-004
                  163.00    421.84501                                0.00000             84.492                                        4.21845e+002           2.18450e+001           1.84501e+000           8.45014e-001           4.50138e-002           5.01381e-003           1.38069e-005
                  163.10    421.85474                                0.00000             84.492                                        4.21855e+002           2.18547e+001           1.85474e+000           8.54741e-001           5.47410e-002           4.74097e-003           7.40974e-004
                  163.20    421.84673                                0.00000             84.490                                        4.21847e+002           2.18467e+001           1.84673e+000           8.46727e-001           4.67270e-002           6.72699e-003           7.26992e-004
                  163.30    421.83611                                0.00000             84.486                                        4.21836e+002           2.18361e+001           1.83611e+000           8.36114e-001           3.61137e-002           6.11371e-003           1.13711e-004
                  163.40    421.84263                                0.00000             84.484                                        4.21843e+002           2.18426e+001           1.84263e+000           8.42632e-001           4.26318e-002           2.63176e-003           6.31756e-004
                  163.50    421.85641                                0.00000             84.484                                        4.21856e+002           2.18564e+001           1.85641e+000           8.56409e-001           5.64095e-002           6.40948e-003           4.09476e-004
                  163.60    421.85722                                0.00000             84.484                                        4.21857e+002           2.18572e+001           1.85722e+000           8.57218e-001           5.72175e-002           7.21754e-003           2.17542e-004
                  163.70    421.84852                                0.00000             84.484                                        4.21849e+002           2.18485e+001           1.84852e+000           8.48521e-001           4.85206e-002           8.52055e-003           5.20553e-004
                  163.80    421.84593                                0.00000             84.484                                        4.21846e+002           2.18459e+001           1.84593e+000           8.45933e-001           4.59335e-002           5.93348e-003           9.33480e-004
                  163.90    421.85543                                0.00000             84.484                                        4.21855e+002           2.18554e+001           1.85543e+000           8.55434e-001           5.54335e-002           5.43350e-003           4.33503e-004
                  164.00    421.85541                                0.00000             84.484                                        4.21855e+002           2.18554e+001           1.85541e+000           8.55410e-001           5.54100e-002           5.41004e-003           4.10040e-004
                  164.10    421.84331                                0.00000             84.484                                        4.21843e+002           2.18433e+001           1.84331e+000           8.43311e-001           4.33106e-002           3.31061e-003           3.10608e-004
                  164.20    421.83390                                0.00000             84.484                                        4.21834e+002           2.18339e+001           1.83390e+000           8.33900e-001           3.38998e-002           3.89976e-003           8.99756e-004
                  164.30    421.84277                                0.00000             84.484                                        4.21843e+002           2.18428e+001           1.84277e+000           8.42767e-001           4.27674e-002           2.76743e-003           7.67428e-004
                  164.40    421.85304                                0.00000             84.484                                        4.21853e+002           2.18530e+001           1.85304e+000           8.53040e-001           5.30396e-002           3.03959e-003           3.95935e-005
