~VERSION INFORMATION
VERS                    .            2.0                                    :CWLS LOG ASCII STANDARD
WRAP                    .            NO                                     :ONE LINE PER TIME STEP


~WELL INFORMATION
#MNEM                   .UNIT        DATA                                    DESCRIPTION
#________________________________________________________________________________________
STRTTIME                .HH/MM/SS    03:28:02                               :START TIME
STOPTIME                .HH/MM/SS    03:30:44                               :STOP TIME
STRT                    .s           2.10                                   :START DATA
STOP                    .s           160.80                                 :STOP DATA
STEP                    .s           0.10                                   :MEASUREMENT TIME INTERVAL
NULL                    .            -999.25                                :NULL VALUE
COMP                    .            Statoil ASA                            :COMPANY
FLD                     .            Volve                                  :FIELD
WELL                    .            15/9-F-1 C                             :WELL
RUN                     .            4                                      :RUN
LOC                     .                                                   :LOCATION
PROV                    .            na                                     :PROVINCE
SRVC                    .            Baker Hughes INTEQ                     :SERVICE COMPANY
DATE                    .YY/MM/DD    14/03/15                               :LOG DATE
UWI                     .                                                   :UNIQUE WELL ID
DEPTHMD                 .m           3493.0                                 :MEASURED DEPTH
DEPTHTVD                .m           2980.2                                 :TRUE VERTICAL DEPTH


~CURVE INFORMATION
#MNEM                   .UNIT        API CODES                               DESCRIPTION
#________________________________________________________________________________________
TIME                    .s                                                  :01 TIME
DD_PRESS                .bar                                                :02 DRAW DOWN PRESSURE
DD_VOLUME               .cm3                                                :03 INCREMENTAL DRAW DOWN VOLUME
TEMP                    .degC                                               :04 TRANSDUCER TEMPERATURE
DD_PRESS_MOD_1000       .bar                                                :05 DRAW DOWN PRESSURE MOD 1000
DD_PRESS_MOD_100        .bar                                                :06 DRAW DOWN PRESSURE MOD 100
DD_PRESS_MOD_10         .bar                                                :07 DRAW DOWN PRESSURE MOD 10
DD_PRESS_MOD_1          .bar                                                :08 DRAW DOWN PRESSURE MOD 1
DD_PRESS_MOD_01         .bar                                                :09 DRAW DOWN PRESSURE MOD 01
DD_PRESS_MOD_001        .bar                                                :10 DRAW DOWN PRESSURE MOD 001
DD_PRESS_MOD_0001       .bar                                                :11 DRAW DOWN PRESSURE MOD 0001


~PARAMETER INFORMATION
#MNEM                   .UNIT        VALUE                                   DESCRIPTION
#________________________________________________________________________________________
TOOLFACE                .deg         89.6                                   :01 TOOLFACE
PUMP_CAPACITY           .bar         400                                    :02 NOMINAL DRAW DOWN PUMP CAPACITY
PUMP_LIMIT              .bar         240                                    :03 DOWNLINK PUMP LIMIT
TIME_LIMIT              .min         10                                     :04 DOWNLINK MAX TIME
TEST_TYPE               .            REPEAT                                 :05 DOWNLINK
TEST_TYPE               .            HIGH MOBILITY                          :06 DOWNLINK
DD_PIST_A               .cm2         3.1416                                 :07 DRAW DOWN PISTON AREA
V_SYS                   .cm3         131.0000                               :08 SYSTEM VOLUME
PROBE_ID                .cm          1.2700                                 :09 TTK PROBE ID
G0                      .            4.6700                                 :10 GEOMETRY FACTOR


~A                  TIME     DD_PRESS                              DD_VOLUME               TEMP                                   DD_PRESS_MOD_1000       DD_PRESS_MOD_100        DD_PRESS_MOD_10         DD_PRESS_MOD_1        DD_PRESS_MOD_01       DD_PRESS_MOD_001      DD_PRESS_MOD_0001
# ...
                   21.70    425.13470                                0.00000             83.820                                        4.25135e+002           2.51347e+001           5.13470e+000           1.34699e-001           3.46986e-002           4.69860e-003           6.98604e-004
                   21.80    425.30142                                0.00000             83.820                                        4.25301e+002           2.53014e+001           5.30142e+000           3.01424e-001           1.42420e-003           1.42420e-003           4.24205e-004
                   21.90    424.52785                                0.00000             83.820                                        4.24528e+002           2.45278e+001           4.52785e+000           5.27846e-001           2.78459e-002           7.84585e-003           8.45854e-004
                   22.00    423.37403                                0.00000             83.820                                        4.23374e+002           2.33740e+001           3.37403e+000           3.74032e-001           7.40317e-002           4.03170e-003           3.17036e-005
                   22.10    422.74694                                0.00000             83.818                                        4.22747e+002           2.27469e+001           2.74694e+000           7.46938e-001           4.69383e-002           6.93833e-003           9.38332e-004
                   22.20    422.47873                                0.00000             83.817                                        4.22479e+002           2.24787e+001           2.47873e+000           4.78731e-001           7.87312e-002           8.73116e-003           7.31156e-004
                   22.30    422.25284                                0.00000             83.818                                        4.22253e+002           2.22528e+001           2.25284e+000           2.52840e-001           5.28402e-002           2.84025e-003           8.40248e-004
                   22.40    421.88592                                0.00000             83.820                                        4.21886e+002           2.18859e+001           1.88592e+000           8.85918e-001           8.59184e-002           5.91844e-003           9.18440e-004
                   22.50    421.45138                                0.00000             83.818                                        4.21451e+002           2.14514e+001           1.45138e+000           4.51379e-001           5.13788e-002           1.37880e-003           3.78796e-004
                   22.60    421.19799                                0.00000             83.814                                        4.21198e+002           2.11980e+001           1.19799e+000           1.97986e-001           9.79858e-002           7.98578e-003           9.85782e-004
                   22.70    421.19614                                0.00000             83.813                                        4.21196e+002           2.11961e+001           1.19614e+000           1.96136e-001           9.61356e-002           6.13563e-003           1.35630e-004
                   22.80    421.26448                                0.00000             83.813                                        4.21264e+002           2.12645e+001           1.26448e+000           2.64483e-001           6.44826e-002           4.48255e-003           4.82551e-004
                   22.90    421.16163                                0.00000             83.813                                        4.21162e+002           2.11616e+001           1.16163e+000           1.61629e-001           6.16293e-002           1.62926e-003           6.29264e-004
                   23.00    421.01638                                0.00000             83.813                                        4.21016e+002           2.10164e+001           1.01638e+000           1.63792e-002           1.63792e-002           6.37917e-003           3.79166e-004
                   23.10    421.01223                                0.00000             83.813                                        4.21012e+002           2.10122e+001           1.01223e+000           1.22323e-002           1.22323e-002           2.23228e-003           2.32279e-004
                   23.20    421.09164                                0.00000             83.813                                        4.21092e+002           2.10916e+001           1.09164e+000           9.16443e-002           9.16443e-002           1.64433e-003           6.44329e-004
                   23.30    421.19858                                0.00000             83.813                                        4.21199e+002           2.11986e+001           1.19858e+000           1.98579e-001           9.85789e-002           8.57886e-003           5.78865e-004
                   23.40    421.27164                                0.00000             83.813                                        4.21272e+002           2.12716e+001           1.27164e+000           2.71644e-001           7.16437e-002           1.64371e-003           6.43714e-004
                   23.50    421.29051                                0.00000             83.813                                        4.21291e+002           2.12905e+001           1.29051e+000           2.90514e-001           9.05138e-002           5.13812e-004           5.13812e-004
                   23.60    421.31388                                0.00000             83.813                                        4.21314e+002           2.13139e+001           1.31388e+000           3.13882e-001           1.38817e-002           3.88168e-003           8.81684e-004
                   23.70    421.36418                                0.00000             83.813                                        4.21364e+002           2.13642e+001           1.36418e+000           3.64177e-001           6.41765e-002           4.17651e-003           1.76514e-004
                   23.80    421.41437                                0.00000             83.813                                        4.21414e+002           2.14144e+001           1.41437e+000           4.14375e-001           1.43746e-002           4.37456e-003           3.74564e-004
                   23.90    421.43415                                0.00000             83.813                                        4.21434e+002           2.14341e+001           1.43415e+000           4.34147e-001           3.41472e-002           4.14719e-003           1.47191e-004
                   24.00    421.45121                                0.00000             83.813                                        4.21451e+002           2.14512e+001           1.45121e+000           4.51210e-001           5.12101e-002           1.21015e-003           2.10149e-004
                   24.10    421.47391                                0.00000             83.813                                        4.21474e+002           2.14739e+001           1.47391e+000           4.73908e-001           7.39079e-002           3.90785e-003           9.07855e-004
                   24.20    421.48726                                0.00000             83.813                                        4.21487e+002           2.14873e+001           1.48726e+000           4.87259e-001           8.72589e-002           7.25885e-003           2.58850e-004
                   24.30    421.51602                                0.00000             83.813                                        4.21516e+002           2.15160e+001           1.51602e+000           5.16021e-001           1.60213e-002           6.02132e-003           2.13214e-005
                   24.40    421.55532                                0.00000             83.813                                        4.21555e+002           2.15553e+001           1.55532e+000           5.55320e-001           5.53200e-002           5.31996e-003           3.19961e-004
