~VERSION INFORMATION
VERS                    .            2.0                                    :CWLS LOG ASCII STANDARD
WRAP                    .            NO                                     :ONE LINE PER TIME STEP


~WELL INFORMATION
#MNEM                   .UNIT        DATA                                    DESCRIPTION
#________________________________________________________________________________________
STRTTIME                .HH/MM/SS    08:48:41                               :START TIME
STOPTIME                .HH/MM/SS    08:51:35                               :STOP TIME
STRT                    .s           2.10                                   :START DATA
STOP                    .s           172.50                                 :STOP DATA
STEP                    .s           0.10                                   :MEASUREMENT TIME INTERVAL
NULL                    .            -999.25                                :NULL VALUE
COMP                    .            Statoil ASA                            :COMPANY
FLD                     .            Volve                                  :FIELD
WELL                    .            15/9-F-11 A                            :WELL
RUN                     .            8                                      :RUN
LOC                     .            Maersk Inspirer                        :LOCATION
PROV                    .            na                                     :PROVINCE
SRVC                    .            Baker Hughes INTEQ                     :SERVICE COMPANY
DATE                    .YY/MM/DD    13/05/21                               :LOG DATE
UWI                     .                                                   :UNIQUE WELL ID
DEPTHMD                 .m           3681.0                                 :MEASURED DEPTH
DEPTHTVD                .m           3064.4                                 :TRUE VERTICAL DEPTH


~CURVE INFORMATION
#MNEM                   .UNIT        API CODES                               DESCRIPTION
#________________________________________________________________________________________
TIME                    .s                                                  :01 TIME
DD_PRESS                .bar                                                :02 DRAW DOWN PRESSURE
DD_VOLUME               .cm3                                                :03 INCREMENTAL DRAW DOWN VOLUME
TEMP                    .degC                                               :04 TRANSDUCER TEMPERATURE
DD_PRESS_MOD_1000       .bar                                                :05 DRAW DOWN PRESSURE MOD 1000
DD_PRESS_MOD_100        .bar                                                :06 DRAW DOWN PRESSURE MOD 100
DD_PRESS_MOD_10         .bar                                                :07 DRAW DOWN PRESSURE MOD 10
DD_PRESS_MOD_1          .bar                                                :08 DRAW DOWN PRESSURE MOD 1
DD_PRESS_MOD_01         .bar                                                :09 DRAW DOWN PRESSURE MOD 01
DD_PRESS_MOD_001        .bar                                                :10 DRAW DOWN PRESSURE MOD 001
DD_PRESS_MOD_0001       .bar                                                :11 DRAW DOWN PRESSURE MOD 0001


~PARAMETER INFORMATION
#MNEM                   .UNIT        VALUE                                   DESCRIPTION
#________________________________________________________________________________________
TOOLFACE                .deg         -59.5                                  :01 TOOLFACE
PUMP_CAPACITY           .bar         400                                    :02 NOMINAL DRAW DOWN PUMP CAPACITY
PUMP_LIMIT              .bar         240                                    :03 DOWNLINK PUMP LIMIT
TIME_LIMIT              .min         10                                     :04 DOWNLINK MAX TIME
TEST_TYPE               .            REPEAT                                 :05 DOWNLINK
TEST_TYPE               .            HIGH MOBILITY                          :06 DOWNLINK
DD_PIST_A               .cm2         3.1416                                 :07 DRAW DOWN PISTON AREA
V_SYS                   .cm3         131.0000                               :08 SYSTEM VOLUME
PROBE_ID                .cm          1.2700                                 :09 TTK PROBE ID
G0                      .            4.6700                                 :10 GEOMETRY FACTOR


~A                  TIME     DD_PRESS                              DD_VOLUME               TEMP                                   DD_PRESS_MOD_1000       DD_PRESS_MOD_100        DD_PRESS_MOD_10         DD_PRESS_MOD_1        DD_PRESS_MOD_01       DD_PRESS_MOD_001      DD_PRESS_MOD_0001
                    2.10    423.96897                                0.00000             82.664                                        4.23969e+002           2.39690e+001           3.96897e+000           9.68974e-001           6.89735e-002           8.97353e-003           9.73527e-004
                    2.20    423.92173                                0.00000             82.664                                        4.23922e+002           2.39217e+001           3.92173e+000           9.21726e-001           2.17261e-002           1.72609e-003           7.26089e-004
                    2.30    423.92022                                0.00000             82.664                                        4.23920e+002           2.39202e+001           3.92022e+000           9.20219e-001           2.02190e-002           2.18995e-004           2.18995e-004
                    2.40    423.94259                                0.00000             82.664                                        4.23943e+002           2.39426e+001           3.94259e+000           9.42594e-001           4.25938e-002           2.59380e-003           5.93804e-004
                    2.50    423.96228                                0.00000             82.664                                        4.23962e+002           2.39623e+001           3.96228e+000           9.62279e-001           6.22790e-002           2.27900e-003           2.78996e-004
                    2.60    423.99826                                0.00000             82.664                                        4.23998e+002           2.39983e+001           3.99826e+000           9.98260e-001           9.82597e-002           8.25968e-003           2.59680e-004
                    2.70    424.05586                                0.00000             82.664                                        4.24056e+002           2.40559e+001           4.05586e+000           5.58633e-002           5.58633e-002           5.86330e-003           8.63301e-004
                    2.80    424.11286                                0.00000             82.664                                        4.24113e+002           2.41129e+001           4.11286e+000           1.12858e-001           1.28579e-002           2.85792e-003           8.57918e-004
                    2.90    424.13831                                0.00000             82.664                                        4.24138e+002           2.41383e+001           4.13831e+000           1.38308e-001           3.83079e-002           8.30792e-003           3.07921e-004
                    3.00    424.15023                                0.00000             82.664                                        4.24150e+002           2.41502e+001           4.15023e+000           1.50230e-001           5.02295e-002           2.29520e-004           2.29520e-004
                    3.10    424.16091                                0.00000             82.664                                        4.24161e+002           2.41609e+001           4.16091e+000           1.60913e-001           6.09126e-002           9.12569e-004           9.12569e-004
                    3.20    424.16520                                0.00000             82.664                                        4.24165e+002           2.41652e+001           4.16520e+000           1.65205e-001           6.52050e-002           5.20495e-003           2.04955e-004
                    3.30    424.15500                                0.00000             82.664                                        4.24155e+002           2.41550e+001           4.15500e+000           1.55001e-001           5.50007e-002           5.00067e-003           6.70544e-007
                    3.40    424.11791                                0.00000             82.664                                        4.24118e+002           2.41179e+001           4.11791e+000           1.17907e-001           1.79071e-002           7.90709e-003           9.07087e-004
                    3.50    424.06215                                0.00000             82.664                                        4.24062e+002           2.40621e+001           4.06215e+000           6.21484e-002           6.21484e-002           2.14845e-003           1.48447e-004
                    3.60    424.01031                                0.00000             82.664                                        4.24010e+002           2.40103e+001           4.01031e+000           1.03117e-002           1.03117e-002           3.11675e-004           3.11675e-004
                    3.70    423.96796                                0.00000             82.664                                        4.23968e+002           2.39680e+001           3.96796e+000           9.67956e-001           6.79560e-002           7.95605e-003           9.56045e-004
                    3.80    423.91570                                0.00000             82.664                                        4.23916e+002           2.39157e+001           3.91570e+000           9.15699e-001           1.56991e-002           5.69914e-003           6.99139e-004
                    3.90    423.87899                                0.00000             82.664                                        4.23879e+002           2.38790e+001           3.87899e+000           8.78988e-001           7.89881e-002           8.98815e-003           9.88150e-004
                    4.00    423.86413                                0.00000             82.664                                        4.23864e+002           2.38641e+001           3.86413e+000           8.64125e-001           6.41255e-002           4.12550e-003           1.25500e-004
                    4.10    423.88025                                0.00000             82.664                                        4.23880e+002           2.38802e+001           3.88025e+000           8.80248e-001           8.02478e-002           2.47761e-004           2.47761e-004
                    4.20    423.89473                                0.00000             82.664                                        4.23895e+002           2.38947e+001           3.89473e+000           8.94730e-001           9.47305e-002           4.73045e-003           7.30452e-004
                    4.30    423.90826                                0.00000             82.664                                        4.23908e+002           2.39083e+001           3.90826e+000           9.08263e-001           8.26262e-003           8.26262e-003           2.62624e-004
                    4.40    423.91676                                0.00000             82.664                                        4.23917e+002           2.39168e+001           3.91676e+000           9.16757e-001           1.67572e-002           6.75721e-003           7.57205e-004
                    4.50    423.93642                                0.00000             82.664                                        4.23936e+002           2.39364e+001           3.93642e+000           9.36422e-001           3.64218e-002           6.42181e-003           4.21806e-004
                    4.60    423.94294                                0.00000             82.664                                        4.23943e+002           2.39429e+001           3.94294e+000           9.42940e-001           4.29399e-002           2.93995e-003           9.39946e-004
                    4.70    423.93595                                0.00000             82.664                                        4.23936e+002           2.39360e+001           3.93595e+000           9.35955e-001           3.59549e-002           5.95488e-003           9.54877e-004
                    4.80    423.93629                                0.00000             82.664                                        4.23936e+002           2.39363e+001           3.93629e+000           9.36293e-001           3.62935e-002           6.29346e-003           2.93460e-004
