~VERSION INFORMATION
VERS                    .            2.0                                    :CWLS LOG ASCII STANDARD
WRAP                    .            NO                                     :ONE LINE PER TIME STEP


~WELL INFORMATION
#MNEM                   .UNIT        DATA                                    DESCRIPTION
#________________________________________________________________________________________
STRTTIME                .HH/MM/SS    02:14:19                               :START TIME
STOPTIME                .HH/MM/SS    02:17:23                               :STOP TIME
STRT                    .s           2.10                                   :START DATA
STOP                    .s           182.70                                 :STOP DATA
STEP                    .s           0.10                                   :MEASUREMENT TIME INTERVAL
NULL                    .            -999.25                                :NULL VALUE
COMP                    .            Statoil ASA                            :COMPANY
FLD                     .            Volve                                  :FIELD
WELL                    .            15/9-F-1 C                             :WELL
RUN                     .            4                                      :RUN
LOC                     .                                                   :LOCATION
PROV                    .            na                                     :PROVINCE
SRVC                    .            Baker Hughes INTEQ                     :SERVICE COMPANY
DATE                    .YY/MM/DD    14/03/15                               :LOG DATE
UWI                     .                                                   :UNIQUE WELL ID
DEPTHMD                 .m           3603.0                                 :MEASURED DEPTH
DEPTHTVD                .m           3006.7                                 :TRUE VERTICAL DEPTH


~CURVE INFORMATION
#MNEM                   .UNIT        API CODES                               DESCRIPTION
#________________________________________________________________________________________
TIME                    .s                                                  :01 TIME
DD_PRESS                .bar                                                :02 DRAW DOWN PRESSURE
DD_VOLUME               .cm3                                                :03 INCREMENTAL DRAW DOWN VOLUME
TEMP                    .degC                                               :04 TRANSDUCER TEMPERATURE
DD_PRESS_MOD_1000       .bar                                                :05 DRAW DOWN PRESSURE MOD 1000
DD_PRESS_MOD_100        .bar                                                :06 DRAW DOWN PRESSURE MOD 100
DD_PRESS_MOD_10         .bar                                                :07 DRAW DOWN PRESSURE MOD 10
DD_PRESS_MOD_1          .bar                                                :08 DRAW DOWN PRESSURE MOD 1
DD_PRESS_MOD_01         .bar                                                :09 DRAW DOWN PRESSURE MOD 01
DD_PRESS_MOD_001        .bar                                                :10 DRAW DOWN PRESSURE MOD 001
DD_PRESS_MOD_0001       .bar                                                :11 DRAW DOWN PRESSURE MOD 0001


~PARAMETER INFORMATION
#MNEM                   .UNIT        VALUE                                   DESCRIPTION
#________________________________________________________________________________________
TOOLFACE                .deg         109.6                                  :01 TOOLFACE
PUMP_CAPACITY           .bar         400                                    :02 NOMINAL DRAW DOWN PUMP CAPACITY
PUMP_LIMIT              .bar         240                                    :03 DOWNLINK PUMP LIMIT
TIME_LIMIT              .min         10                                     :04 DOWNLINK MAX TIME
TEST_TYPE               .            REPEAT                                 :05 DOWNLINK
TEST_TYPE               .            HIGH MOBILITY                          :06 DOWNLINK
DD_PIST_A               .cm2         3.1416                                 :07 DRAW DOWN PISTON AREA
V_SYS                   .cm3         131.0000                               :08 SYSTEM VOLUME
PROBE_ID                .cm          1.2700                                 :09 TTK PROBE ID
G0                      .            4.6700                                 :10 GEOMETRY FACTOR


~A                  TIME     DD_PRESS                              DD_VOLUME               TEMP                                   DD_PRESS_MOD_1000       DD_PRESS_MOD_100        DD_PRESS_MOD_10         DD_PRESS_MOD_1        DD_PRESS_MOD_01       DD_PRESS_MOD_001      DD_PRESS_MOD_0001
# ...
                   13.30    426.49571                                0.00000             86.211                                        4.26496e+002           2.64957e+001           6.49571e+000           4.95713e-001           9.57132e-002           5.71323e-003           7.13233e-004
                   13.40    426.51994                                0.00000             86.211                                        4.26520e+002           2.65199e+001           6.51994e+000           5.19935e-001           1.99355e-002           9.93549e-003           9.35491e-004
                   13.50    426.51403                                0.00000             86.211                                        4.26514e+002           2.65140e+001           6.51403e+000           5.14026e-001           1.40265e-002           4.02649e-003           2.64891e-005
                   13.60    426.48629                                0.00000             86.211                                        4.26486e+002           2.64863e+001           6.48629e+000           4.86291e-001           8.62911e-002           6.29110e-003           2.91096e-004
                   13.70    426.47643                                0.00000             86.211                                        4.26476e+002           2.64764e+001           6.47643e+000           4.76428e-001           7.64284e-002           6.42842e-003           4.28415e-004
                   13.80    426.49528                                0.00000             86.211                                        4.26495e+002           2.64953e+001           6.49528e+000           4.95280e-001           9.52804e-002           5.28037e-003           2.80375e-004
                   13.90    426.51923                                0.00000             86.211                                        4.26519e+002           2.65192e+001           6.51923e+000           5.19233e-001           1.92325e-002           9.23254e-003           2.32537e-004
                   14.00    426.51754                                0.00000             86.211                                        4.26518e+002           2.65175e+001           6.51754e+000           5.17542e-001           1.75420e-002           7.54197e-003           5.41966e-004
                   14.10    426.50017                                0.00000             86.211                                        4.26500e+002           2.65002e+001           6.50017e+000           5.00168e-001           1.67685e-004           1.67685e-004           1.67685e-004
                   14.20    426.49483                                0.00000             86.211                                        4.26495e+002           2.64948e+001           6.49483e+000           4.94829e-001           9.48289e-002           4.82885e-003           8.28852e-004
                   14.30    426.50684                                0.00000             86.211                                        4.26507e+002           2.65068e+001           6.50684e+000           5.06837e-001           6.83731e-003           6.83731e-003           8.37305e-004
                   14.40    426.51067                                0.00000             86.211                                        4.26511e+002           2.65107e+001           6.51067e+000           5.10674e-001           1.06743e-002           6.74328e-004           6.74328e-004
                   14.50    426.50269                                0.00000             86.211                                        4.26503e+002           2.65027e+001           6.50269e+000           5.02689e-001           2.68915e-003           2.68915e-003           6.89147e-004
                   14.60    426.50190                                0.00000             86.211                                        4.26502e+002           2.65019e+001           6.50190e+000           5.01896e-001           1.89603e-003           1.89603e-003           8.96032e-004
                   14.70    426.51556                                0.00000             86.211                                        4.26516e+002           2.65156e+001           6.51556e+000           5.15561e-001           1.55605e-002           5.56051e-003           5.60507e-004
                   14.80    426.51940                                0.00000             86.211                                        4.26519e+002           2.65194e+001           6.51940e+000           5.19404e-001           1.94035e-002           9.40355e-003           4.03547e-004
                   14.90    426.50893                                0.00000             86.209                                        4.26509e+002           2.65089e+001           6.50893e+000           5.08927e-001           8.92697e-003           8.92697e-003           9.26975e-004
                   15.00    426.50649                                0.00000             86.205                                        4.26506e+002           2.65065e+001           6.50649e+000           5.06491e-001           6.49093e-003           6.49093e-003           4.90929e-004
                   15.10    426.52723                                0.00000             86.203                                        4.26527e+002           2.65272e+001           6.52723e+000           5.27234e-001           2.72343e-002           7.23434e-003           2.34338e-004
                   15.20    426.54328                                0.00000             86.203                                        4.26543e+002           2.65433e+001           6.54328e+000           5.43282e-001           4.32817e-002           3.28171e-003           2.81707e-004
                   15.30    426.53587                                0.00000             86.203                                        4.26536e+002           2.65359e+001           6.53587e+000           5.35866e-001           3.58664e-002           5.86644e-003           8.66435e-004
                   15.40    426.51787                                0.00000             86.203                                        4.26518e+002           2.65179e+001           6.51787e+000           5.17866e-001           1.78663e-002           7.86631e-003           8.66307e-004
                   15.50    426.52265                                0.00000             86.203                                        4.26523e+002           2.65226e+001           6.52265e+000           5.22646e-001           2.26463e-002           2.64632e-003           6.46322e-004
                   15.60    426.54103                                0.00000             86.203                                        4.26541e+002           2.65410e+001           6.54103e+000           5.41025e-001           4.10251e-002           1.02507e-003           2.50703e-005
                   15.70    426.54051                                0.00000             86.203                                        4.26541e+002           2.65405e+001           6.54051e+000           5.40511e-001           4.05107e-002           5.10668e-004           5.10668e-004
                   15.80    426.52887                                0.00000             86.203                                        4.26529e+002           2.65289e+001           6.52887e+000           5.28868e-001           2.88679e-002           8.86785e-003           8.67851e-004
                   15.90    426.53215                                0.00000             86.203                                        4.26532e+002           2.65321e+001           6.53215e+000           5.32150e-001           3.21496e-002           2.14956e-003           1.49564e-004
                   16.00    426.54679                                0.00000             86.203                                        4.26547e+002           2.65468e+001           6.54679e+000           5.46791e-001           4.67910e-002           6.79097e-003           7.90968e-004
