~VERSION INFORMATION
VERS                    .            2.0                                    :CWLS LOG ASCII STANDARD
WRAP                    .            NO                                     :ONE LINE PER TIME STEP


~WELL INFORMATION
#MNEM                   .UNIT        DATA                                    DESCRIPTION
#________________________________________________________________________________________
STRTTIME                .HH/MM/SS    18:24:11                               :START TIME
STOPTIME                .HH/MM/SS    18:26:54                               :STOP TIME
STRT                    .s           2.10                                   :START DATA
STOP                    .s           161.30                                 :STOP DATA
STEP                    .s           0.10                                   :MEASUREMENT TIME INTERVAL
NULL                    .            -999.25                                :NULL VALUE
COMP                    .            Statoil ASA                            :COMPANY
FLD                     .            Volve                                  :FIELD
WELL                    .            15/9-F-11 A                            :WELL
RUN                     .            8                                      :RUN
LOC                     .            Maersk Inspirer                        :LOCATION
PROV                    .            na                                     :PROVINCE
SRVC                    .            Baker Hughes INTEQ                     :SERVICE COMPANY
DATE                    .YY/MM/DD    13/05/23                               :LOG DATE
UWI                     .                                                   :UNIQUE WELL ID
DEPTHMD                 .m           3681.0                                 :MEASURED DEPTH
DEPTHTVD                .m           3064.4                                 :TRUE VERTICAL DEPTH


~CURVE INFORMATION
#MNEM                   .UNIT        API CODES                               DESCRIPTION
#________________________________________________________________________________________
TIME                    .s                                                  :01 TIME
DD_PRESS                .bar                                                :02 DRAW DOWN PRESSURE
DD_VOLUME               .cm3                                                :03 INCREMENTAL DRAW DOWN VOLUME
TEMP                    .degC                                               :04 TRANSDUCER TEMPERATURE
DD_PRESS_MOD_1000       .bar                                                :05 DRAW DOWN PRESSURE MOD 1000
DD_PRESS_MOD_100        .bar                                                :06 DRAW DOWN PRESSURE MOD 100
DD_PRESS_MOD_10         .bar                                                :07 DRAW DOWN PRESSURE MOD 10
DD_PRESS_MOD_1          .bar                                                :08 DRAW DOWN PRESSURE MOD 1
DD_PRESS_MOD_01         .bar                                                :09 DRAW DOWN PRESSURE MOD 01
DD_PRESS_MOD_001        .bar                                                :10 DRAW DOWN PRESSURE MOD 001
DD_PRESS_MOD_0001       .bar                                                :11 DRAW DOWN PRESSURE MOD 0001


~PARAMETER INFORMATION
#MNEM                   .UNIT        VALUE                                   DESCRIPTION
#________________________________________________________________________________________
TOOLFACE                .deg         -38.1                                  :01 TOOLFACE
PUMP_CAPACITY           .bar         400                                    :02 NOMINAL DRAW DOWN PUMP CAPACITY
PUMP_LIMIT              .bar         240                                    :03 DOWNLINK PUMP LIMIT
TIME_LIMIT              .min         10                                     :04 DOWNLINK MAX TIME
TEST_TYPE               .            HIGH MOBILITY                          :05 DOWNLINK
DD_PIST_A               .cm2         3.1416                                 :06 DRAW DOWN PISTON AREA
V_SYS                   .cm3         131.0000                               :07 SYSTEM VOLUME
PROBE_ID                .cm          1.2700                                 :08 TTK PROBE ID
G0                      .            4.6700                                 :09 GEOMETRY FACTOR


~A                  TIME     DD_PRESS                              DD_VOLUME               TEMP                                   DD_PRESS_MOD_1000       DD_PRESS_MOD_100        DD_PRESS_MOD_10         DD_PRESS_MOD_1        DD_PRESS_MOD_01       DD_PRESS_MOD_001      DD_PRESS_MOD_0001
# ...
                   44.10    345.14986                               10.69783             75.219                                        3.45150e+002           4.51499e+001           5.14986e+000           1.49861e-001           4.98606e-002           9.86057e-003           8.60575e-004
                   44.20    345.15199                               10.69783             75.219                                        3.45152e+002           4.51520e+001           5.15199e+000           1.51992e-001           5.19923e-002           1.99226e-003           9.92261e-004
                   44.30    345.15344                               10.69783             75.219                                        3.45153e+002           4.51534e+001           5.15344e+000           1.53438e-001           5.34377e-002           3.43772e-003           4.37717e-004
                   44.40    345.15255                               10.69783             75.219                                        3.45153e+002           4.51525e+001           5.15255e+000           1.52550e-001           5.25496e-002           2.54958e-003           5.49579e-004
                   44.50    345.15429                               10.69783             75.219                                        3.45154e+002           4.51543e+001           5.15429e+000           1.54295e-001           5.42946e-002           4.29462e-003           2.94616e-004
                   44.60    345.15478                               10.69783             75.219                                        3.45155e+002           4.51548e+001           5.15478e+000           1.54780e-001           5.47802e-002           4.78020e-003           7.80203e-004
                   44.70    345.15372                               10.69783             75.219                                        3.45154e+002           4.51537e+001           5.15372e+000           1.53724e-001           5.37245e-002           3.72450e-003           7.24498e-004
                   44.80    345.15245                               10.69783             75.219                                        3.45152e+002           4.51524e+001           5.15245e+000           1.52449e-001           5.24487e-002           2.44870e-003           4.48696e-004
                   44.90    345.15637                               10.69783             75.219                                        3.45156e+002           4.51564e+001           5.15637e+000           1.56371e-001           5.63713e-002           6.37129e-003           3.71292e-004
                   45.00    345.15532                               10.69783             75.219                                        3.45155e+002           4.51553e+001           5.15532e+000           1.55320e-001           5.53204e-002           5.32044e-003           3.20443e-004
                   45.10    345.15263                               10.69783             75.219                                        3.45153e+002           4.51526e+001           5.15263e+000           1.52626e-001           5.26256e-002           2.62555e-003           6.25555e-004
                   45.20    345.15639                               10.69783             75.219                                        3.45156e+002           4.51564e+001           5.15639e+000           1.56386e-001           5.63861e-002           6.38614e-003           3.86140e-004
                   45.30    345.15974                               10.69783             75.219                                        3.45160e+002           4.51597e+001           5.15974e+000           1.59735e-001           5.97355e-002           9.73546e-003           7.35463e-004
                   45.40    345.15524                               10.69783             75.219                                        3.45155e+002           4.51552e+001           5.15524e+000           1.55240e-001           5.52401e-002           5.24014e-003           2.40136e-004
                   45.50    345.14805                               10.69783             75.219                                        3.45148e+002           4.51481e+001           5.14805e+000           1.48054e-001           4.80537e-002           8.05368e-003           5.36781e-005
                   45.60    345.15236                               10.69783             75.219                                        3.45152e+002           4.51524e+001           5.15236e+000           1.52364e-001           5.23637e-002           2.36368e-003           3.63681e-004
                   45.70    345.16136                               10.69783             75.219                                        3.45161e+002           4.51614e+001           5.16136e+000           1.61359e-001           6.13594e-002           1.35942e-003           3.59423e-004
                   45.80    345.15871                               10.69783             75.219                                        3.45159e+002           4.51587e+001           5.15871e+000           1.58713e-001           5.87134e-002           8.71335e-003           7.13352e-004
                   45.90    345.15046                               10.69783             75.219                                        3.45150e+002           4.51505e+001           5.15046e+000           1.50460e-001           5.04603e-002           4.60253e-004           4.60253e-004
                   46.00    345.15267                               10.69783             75.219                                        3.45153e+002           4.51527e+001           5.15267e+000           1.52668e-001           5.26681e-002           2.66815e-003           6.68149e-004
                   46.10    345.16052                               10.69783             75.219                                        3.45161e+002           4.51605e+001           5.16052e+000           1.60522e-001           6.05218e-002           5.21818e-004           5.21818e-004
                   46.20    345.15513                               10.69783             75.219                                        3.45155e+002           4.51551e+001           5.15513e+000           1.55127e-001           5.51267e-002           5.12669e-003           1.26694e-004
                   46.30    345.15179                               10.69783             75.219                                        3.45152e+002           4.51518e+001           5.15179e+000           1.51793e-001           5.17927e-002           1.79275e-003           7.92747e-004
                   46.40    345.15778                               10.69783             75.219                                        3.45158e+002           4.51578e+001           5.15778e+000           1.57783e-001           5.77832e-002           7.78323e-003           7.83232e-004
                   46.50    345.16292                               10.69783             75.219                                        3.45163e+002           4.51629e+001           5.16292e+000           1.62915e-001           6.29154e-002           2.91544e-003           9.15438e-004
                   46.60    345.15855                               10.69783             75.219                                        3.45159e+002           4.51585e+001           5.15855e+000           1.58546e-001           5.85462e-002           8.54624e-003           5.46244e-004
                   46.70    345.14877                               10.69783             75.219                                        3.45149e+002           4.51488e+001           5.14877e+000           1.48774e-001           4.87742e-002           8.77424e-003           7.74240e-004
                   46.80    345.15192                               10.69783             75.219                                        3.45152e+002           4.51519e+001           5.15192e+000           1.51917e-001           5.19174e-002           1.91744e-003           9.17435e-004
