~VERSION INFORMATION
VERS                    .            2.0                                    :CWLS LOG ASCII STANDARD
WRAP                    .            NO                                     :ONE LINE PER TIME STEP


~WELL INFORMATION
#MNEM                   .UNIT        DATA                                    DESCRIPTION
#________________________________________________________________________________________
STRTTIME                .HH/MM/SS    01:04:55                               :START TIME
STOPTIME                .HH/MM/SS    01:07:44                               :STOP TIME
STRT                    .s           2.10                                   :START DATA
STOP                    .s           167.40                                 :STOP DATA
STEP                    .s           0.10                                   :MEASUREMENT TIME INTERVAL
NULL                    .            -999.25                                :NULL VALUE
COMP                    .            Statoil ASA                            :COMPANY
FLD                     .            Volve                                  :FIELD
WELL                    .            15/9-F-1 C                             :WELL
RUN                     .            4                                      :RUN
LOC                     .                                                   :LOCATION
PROV                    .            na                                     :PROVINCE
SRVC                    .            Baker Hughes INTEQ                     :SERVICE COMPANY
DATE                    .YY/MM/DD    14/03/15                               :LOG DATE
UWI                     .                                                   :UNIQUE WELL ID
DEPTHMD                 .m           3720.1                                 :MEASURED DEPTH
DEPTHTVD                .m           3050.6                                 :TRUE VERTICAL DEPTH


~CURVE INFORMATION
#MNEM                   .UNIT        API CODES                               DESCRIPTION
#________________________________________________________________________________________
TIME                    .s                                                  :01 TIME
DD_PRESS                .bar                                                :02 DRAW DOWN PRESSURE
DD_VOLUME               .cm3                                                :03 INCREMENTAL DRAW DOWN VOLUME
TEMP                    .degC                                               :04 TRANSDUCER TEMPERATURE
DD_PRESS_MOD_1000       .bar                                                :05 DRAW DOWN PRESSURE MOD 1000
DD_PRESS_MOD_100        .bar                                                :06 DRAW DOWN PRESSURE MOD 100
DD_PRESS_MOD_10         .bar                                                :07 DRAW DOWN PRESSURE MOD 10
DD_PRESS_MOD_1          .bar                                                :08 DRAW DOWN PRESSURE MOD 1
DD_PRESS_MOD_01         .bar                                                :09 DRAW DOWN PRESSURE MOD 01
DD_PRESS_MOD_001        .bar                                                :10 DRAW DOWN PRESSURE MOD 001
DD_PRESS_MOD_0001       .bar                                                :11 DRAW DOWN PRESSURE MOD 0001


~PARAMETER INFORMATION
#MNEM                   .UNIT        VALUE                                   DESCRIPTION
#________________________________________________________________________________________
TOOLFACE                .deg         134.6                                  :01 TOOLFACE
PUMP_CAPACITY           .bar         400                                    :02 NOMINAL DRAW DOWN PUMP CAPACITY
PUMP_LIMIT              .bar         240                                    :03 DOWNLINK PUMP LIMIT
TIME_LIMIT              .min         10                                     :04 DOWNLINK MAX TIME
TEST_TYPE               .            REPEAT                                 :05 DOWNLINK
TEST_TYPE               .            HIGH MOBILITY                          :06 DOWNLINK
DD_PIST_A               .cm2         3.1416                                 :07 DRAW DOWN PISTON AREA
V_SYS                   .cm3         131.0000                               :08 SYSTEM VOLUME
PROBE_ID                .cm          1.2700                                 :09 TTK PROBE ID
G0                      .            4.6700                                 :10 GEOMETRY FACTOR


~A                  TIME     DD_PRESS                              DD_VOLUME               TEMP                                   DD_PRESS_MOD_1000       DD_PRESS_MOD_100        DD_PRESS_MOD_10         DD_PRESS_MOD_1        DD_PRESS_MOD_01       DD_PRESS_MOD_001      DD_PRESS_MOD_0001
# ...
                   55.30    348.27619                               10.92852             87.273                                        3.48276e+002           4.82762e+001           8.27619e+000           2.76193e-001           7.61926e-002           6.19258e-003           1.92578e-004
                   55.40    348.27802                               10.92852             87.273                                        3.48278e+002           4.82780e+001           8.27802e+000           2.78016e-001           7.80162e-002           8.01619e-003           1.61870e-005
                   55.50    348.27797                               10.92852             87.273                                        3.48278e+002           4.82780e+001           8.27797e+000           2.77973e-001           7.79727e-002           7.97268e-003           9.72679e-004
                   55.60    348.27602                               10.92852             87.273                                        3.48276e+002           4.82760e+001           8.27602e+000           2.76019e-001           7.60192e-002           6.01921e-003           1.92061e-005
                   55.70    348.27584                               10.92852             87.273                                        3.48276e+002           4.82758e+001           8.27584e+000           2.75845e-001           7.58448e-002           5.84479e-003           8.44788e-004
                   55.80    348.27531                               10.92852             87.273                                        3.48275e+002           4.82753e+001           8.27531e+000           2.75309e-001           7.53090e-002           5.30900e-003           3.09000e-004
                   55.90    348.27523                               10.92852             87.273                                        3.48275e+002           4.82752e+001           8.27523e+000           2.75230e-001           7.52303e-002           5.23033e-003           2.30331e-004
                   56.00    348.27639                               10.92852             87.273                                        3.48276e+002           4.82764e+001           8.27639e+000           2.76394e-001           7.63942e-002           6.39423e-003           3.94233e-004
                   56.10    348.27664                               10.92852             87.273                                        3.48277e+002           4.82766e+001           8.27664e+000           2.76644e-001           7.66441e-002           6.64410e-003           6.44096e-004
                   56.20    348.27605                               10.92852             87.273                                        3.48276e+002           4.82761e+001           8.27605e+000           2.76050e-001           7.60501e-002           6.05014e-003           5.01400e-005
                   56.30    348.27567                               10.92852             87.273                                        3.48276e+002           4.82757e+001           8.27567e+000           2.75672e-001           7.56724e-002           5.67244e-003           6.72442e-004
                   56.40    348.27584                               10.92852             87.273                                        3.48276e+002           4.82758e+001           8.27584e+000           2.75838e-001           7.58377e-002           5.83765e-003           8.37650e-004
                   56.50    348.27597                               10.92852             87.273                                        3.48276e+002           4.82760e+001           8.27597e+000           2.75966e-001           7.59663e-002           5.96634e-003           9.66344e-004
                   56.60    348.27700                               10.92852             87.273                                        3.48277e+002           4.82770e+001           8.27700e+000           2.77004e-001           7.70039e-002           7.00392e-003           3.91707e-006
                   56.70    348.27746                               10.92852             87.273                                        3.48277e+002           4.82775e+001           8.27746e+000           2.77462e-001           7.74622e-002           7.46224e-003           4.62244e-004
                   56.80    348.27798                               10.92852             87.273                                        3.48278e+002           4.82780e+001           8.27798e+000           2.77983e-001           7.79834e-002           7.98340e-003           9.83396e-004
                   56.90    348.27942                               10.92852             87.273                                        3.48279e+002           4.82794e+001           8.27942e+000           2.79416e-001           7.94158e-002           9.41578e-003           4.15782e-004
                   57.00    348.28031                               10.92852             87.273                                        3.48280e+002           4.82803e+001           8.28031e+000           2.80308e-001           8.03083e-002           3.08277e-004           3.08277e-004
                   57.10    348.27881                               10.92852             87.273                                        3.48279e+002           4.82788e+001           8.27881e+000           2.78808e-001           7.88076e-002           8.80764e-003           8.07641e-004
                   57.20    348.27753                               10.92852             87.273                                        3.48278e+002           4.82775e+001           8.27753e+000           2.77530e-001           7.75304e-002           7.53043e-003           5.30427e-004
                   57.30    348.27751                               10.92852             87.273                                        3.48278e+002           4.82775e+001           8.27751e+000           2.77509e-001           7.75088e-002           7.50881e-003           5.08814e-004
                   57.40    348.27669                               10.92852             87.273                                        3.48277e+002           4.82767e+001           8.27669e+000           2.76689e-001           7.66887e-002           6.68872e-003           6.88721e-004
                   57.50    348.27569                               10.92852             87.273                                        3.48276e+002           4.82757e+001           8.27569e+000           2.75691e-001           7.56911e-002           5.69106e-003           6.91061e-004
                   57.60    348.27584                               10.92852             87.273                                        3.48276e+002           4.82758e+001           8.27584e+000           2.75843e-001           7.58431e-002           5.84306e-003           8.43058e-004
                   57.70    348.27630                               10.92852             87.273                                        3.48276e+002           4.82763e+001           8.27630e+000           2.76299e-001           7.62994e-002           6.29941e-003           2.99414e-004
                   57.80    348.27623                               10.92852             87.273                                        3.48276e+002           4.82762e+001           8.27623e+000           2.76231e-001           7.62310e-002           6.23095e-003           2.30953e-004
                   57.90    348.27587                               10.92852             87.273                                        3.48276e+002           4.82759e+001           8.27587e+000           2.75868e-001           7.58681e-002           5.86809e-003           8.68088e-004
                   58.00    348.27576                               10.92852             87.273                                        3.48276e+002           4.82758e+001           8.27576e+000           2.75765e-001           7.57646e-002           5.76464e-003           7.64642e-004
