~VERSION INFORMATION
VERS                    .            2.0                                    :CWLS LOG ASCII STANDARD
WRAP                    .            NO                                     :ONE LINE PER TIME STEP


~WELL INFORMATION
#MNEM                   .UNIT        DATA                                    DESCRIPTION
#________________________________________________________________________________________
STRTTIME                .HH/MM/SS    08:08:34                               :START TIME
STOPTIME                .HH/MM/SS    08:11:25                               :STOP TIME
STRT                    .s           2.10                                   :START DATA
STOP                    .s           169.10                                 :STOP DATA
STEP                    .s           0.10                                   :MEASUREMENT TIME INTERVAL
NULL                    .            -999.25                                :NULL VALUE
COMP                    .            Statoil ASA                            :COMPANY
FLD                     .            Volve                                  :FIELD
WELL                    .            15/9-F-11 A                            :WELL
RUN                     .            8                                      :RUN
LOC                     .            Maersk Inspirer                        :LOCATION
PROV                    .            na                                     :PROVINCE
SRVC                    .            Baker Hughes INTEQ                     :SERVICE COMPANY
DATE                    .YY/MM/DD    13/05/21                               :LOG DATE
UWI                     .                                                   :UNIQUE WELL ID
DEPTHMD                 .m           3694.5                                 :MEASURED DEPTH
DEPTHTVD                .m           3074.7                                 :TRUE VERTICAL DEPTH


~CURVE INFORMATION
#MNEM                   .UNIT        API CODES                               DESCRIPTION
#________________________________________________________________________________________
TIME                    .s                                                  :01 TIME
DD_PRESS                .bar                                                :02 DRAW DOWN PRESSURE
DD_VOLUME               .cm3                                                :03 INCREMENTAL DRAW DOWN VOLUME
TEMP                    .degC                                               :04 TRANSDUCER TEMPERATURE
DD_PRESS_MOD_1000       .bar                                                :05 DRAW DOWN PRESSURE MOD 1000
DD_PRESS_MOD_100        .bar                                                :06 DRAW DOWN PRESSURE MOD 100
DD_PRESS_MOD_10         .bar                                                :07 DRAW DOWN PRESSURE MOD 10
DD_PRESS_MOD_1          .bar                                                :08 DRAW DOWN PRESSURE MOD 1
DD_PRESS_MOD_01         .bar                                                :09 DRAW DOWN PRESSURE MOD 01
DD_PRESS_MOD_001        .bar                                                :10 DRAW DOWN PRESSURE MOD 001
DD_PRESS_MOD_0001       .bar                                                :11 DRAW DOWN PRESSURE MOD 0001


~PARAMETER INFORMATION
#MNEM                   .UNIT        VALUE                                   DESCRIPTION
#________________________________________________________________________________________
TOOLFACE                .deg         -107.9                                 :01 TOOLFACE
PUMP_CAPACITY           .bar         400                                    :02 NOMINAL DRAW DOWN PUMP CAPACITY
PUMP_LIMIT              .bar         240                                    :03 DOWNLINK PUMP LIMIT
TIME_LIMIT              .min         10                                     :04 DOWNLINK MAX TIME
TEST_TYPE               .            HIGH MOBILITY                          :05 DOWNLINK
DD_PIST_A               .cm2         3.1416                                 :06 DRAW DOWN PISTON AREA
V_SYS                   .cm3         131.0000                               :07 SYSTEM VOLUME
PROBE_ID                .cm          1.2700                                 :08 TTK PROBE ID
G0                      .            4.6700                                 :09 GEOMETRY FACTOR


~A                  TIME     DD_PRESS                              DD_VOLUME               TEMP                                   DD_PRESS_MOD_1000       DD_PRESS_MOD_100        DD_PRESS_MOD_10         DD_PRESS_MOD_1        DD_PRESS_MOD_01       DD_PRESS_MOD_001      DD_PRESS_MOD_0001
# ...
                  156.10    425.57090                                0.00000             84.891                                        4.25571e+002           2.55709e+001           5.57090e+000           5.70902e-001           7.09015e-002           9.01515e-004           9.01515e-004
                  156.20    425.56268                                0.00000             84.891                                        4.25563e+002           2.55627e+001           5.56268e+000           5.62682e-001           6.26816e-002           2.68156e-003           6.81565e-004
                  156.30    425.56828                                0.00000             84.891                                        4.25568e+002           2.55683e+001           5.56828e+000           5.68278e-001           6.82780e-002           8.27801e-003           2.78014e-004
                  156.40    425.57586                                0.00000             84.891                                        4.25576e+002           2.55759e+001           5.57586e+000           5.75860e-001           7.58600e-002           5.85999e-003           8.59993e-004
                  156.50    425.56264                                0.00000             84.891                                        4.25563e+002           2.55626e+001           5.56264e+000           5.62637e-001           6.26374e-002           2.63740e-003           6.37397e-004
                  156.60    425.55267                                0.00000             84.891                                        4.25553e+002           2.55527e+001           5.55267e+000           5.52672e-001           5.26722e-002           2.67218e-003           6.72179e-004
                  156.70    425.56452                                0.00000             84.891                                        4.25565e+002           2.55645e+001           5.56452e+000           5.64518e-001           6.45176e-002           4.51765e-003           5.17649e-004
                  156.80    425.57626                                0.00000             84.891                                        4.25576e+002           2.55763e+001           5.57626e+000           5.76263e-001           7.62628e-002           6.26276e-003           2.62765e-004
                  156.90    425.56490                                0.00000             84.891                                        4.25565e+002           2.55649e+001           5.56490e+000           5.64905e-001           6.49047e-002           4.90472e-003           9.04724e-004
                  157.00    425.54321                                0.00000             84.891                                        4.25543e+002           2.55432e+001           5.54321e+000           5.43212e-001           4.32120e-002           3.21199e-003           2.11990e-004
                  157.10    425.54585                                0.00000             84.891                                        4.25546e+002           2.55459e+001           5.54585e+000           5.45852e-001           4.58516e-002           5.85163e-003           8.51628e-004
                  157.20    425.56094                                0.00000             84.891                                        4.25561e+002           2.55609e+001           5.56094e+000           5.60940e-001           6.09397e-002           9.39673e-004           9.39673e-004
                  157.30    425.55566                                0.00000             84.891                                        4.25556e+002           2.55557e+001           5.55566e+000           5.55662e-001           5.56618e-002           5.66176e-003           6.61763e-004
                  157.40    425.53736                                0.00000             84.891                                        4.25537e+002           2.55374e+001           5.53736e+000           5.37364e-001           3.73642e-002           7.36422e-003           3.64222e-004
                  157.50    425.54299                                0.00000             84.891                                        4.25543e+002           2.55430e+001           5.54299e+000           5.42989e-001           4.29892e-002           2.98923e-003           9.89232e-004
                  157.60    425.55024                                0.00000             84.891                                        4.25550e+002           2.55502e+001           5.55024e+000           5.50243e-001           5.02429e-002           2.42935e-004           2.42935e-004
                  157.70    425.53973                                0.00000             84.891                                        4.25540e+002           2.55397e+001           5.53973e+000           5.39734e-001           3.97339e-002           9.73390e-003           7.33900e-004
                  157.80    425.54072                                0.00000             84.891                                        4.25541e+002           2.55407e+001           5.54072e+000           5.40717e-001           4.07172e-002           7.17222e-004           7.17222e-004
                  157.90    425.57129                                0.00000             84.891                                        4.25571e+002           2.55713e+001           5.57129e+000           5.71294e-001           7.12938e-002           1.29383e-003           2.93827e-004
                  158.00    425.58686                                0.00000             84.891                                        4.25587e+002           2.55869e+001           5.58686e+000           5.86865e-001           8.68647e-002           6.86466e-003           8.64665e-004
                  158.10    425.57854                                0.00000             84.891                                        4.25579e+002           2.55785e+001           5.57854e+000           5.78537e-001           7.85370e-002           8.53702e-003           5.37021e-004
                  158.20    425.57800                                0.00000             84.891                                        4.25578e+002           2.55780e+001           5.57800e+000           5.78003e-001           7.80035e-002           8.00348e-003           3.47854e-006
                  158.30    425.59633                                0.00000             84.891                                        4.25596e+002           2.55963e+001           5.59633e+000           5.96329e-001           9.63287e-002           6.32875e-003           3.28750e-004
                  158.40    425.60897                                0.00000             84.891                                        4.25609e+002           2.56090e+001           5.60897e+000           6.08968e-001           8.96799e-003           8.96799e-003           9.67989e-004
                  158.50    425.59545                                0.00000             84.891                                        4.25595e+002           2.55954e+001           5.59545e+000           5.95447e-001           9.54473e-002           5.44726e-003           4.47256e-004
                  158.60    425.58414                                0.00000             84.891                                        4.25584e+002           2.55841e+001           5.58414e+000           5.84140e-001           8.41398e-002           4.13979e-003           1.39790e-004
                  158.70    425.59231                                0.00000             84.891                                        4.25592e+002           2.55923e+001           5.59231e+000           5.92309e-001           9.23094e-002           2.30944e-003           3.09441e-004
                  158.80    425.58159                                0.00000             84.891                                        4.25582e+002           2.55816e+001           5.58159e+000           5.81586e-001           8.15858e-002           1.58579e-003           5.85793e-004
