~VERSION INFORMATION
VERS                    .            2.0                                    :CWLS LOG ASCII STANDARD
WRAP                    .            NO                                     :ONE LINE PER TIME STEP


~WELL INFORMATION
#MNEM                   .UNIT        DATA                                    DESCRIPTION
#________________________________________________________________________________________
STRTTIME                .HH/MM/SS    09:43:23                               :START TIME
STOPTIME                .HH/MM/SS    09:46:50                               :STOP TIME
STRT                    .s           2.10                                   :START DATA
STOP                    .s           205.20                                 :STOP DATA
STEP                    .s           0.10                                   :MEASUREMENT TIME INTERVAL
NULL                    .            -999.25                                :NULL VALUE
COMP                    .            Statoil ASA                            :COMPANY
FLD                     .            Volve                                  :FIELD
WELL                    .            15/9-F-11 A                            :WELL
RUN                     .            8                                      :RUN
LOC                     .            Maersk Inspirer                        :LOCATION
PROV                    .            na                                     :PROVINCE
SRVC                    .            Baker Hughes INTEQ                     :SERVICE COMPANY
DATE                    .YY/MM/DD    13/05/21                               :LOG DATE
UWI                     .                                                   :UNIQUE WELL ID
DEPTHMD                 .m           3665.9                                 :MEASURED DEPTH
DEPTHTVD                .m           3052.8                                 :TRUE VERTICAL DEPTH


~CURVE INFORMATION
#MNEM                   .UNIT        API CODES                               DESCRIPTION
#________________________________________________________________________________________
TIME                    .s                                                  :01 TIME
DD_PRESS                .bar                                                :02 DRAW DOWN PRESSURE
DD_VOLUME               .cm3                                                :03 INCREMENTAL DRAW DOWN VOLUME
TEMP                    .degC                                               :04 TRANSDUCER TEMPERATURE
DD_PRESS_MOD_1000       .bar                                                :05 DRAW DOWN PRESSURE MOD 1000
DD_PRESS_MOD_100        .bar                                                :06 DRAW DOWN PRESSURE MOD 100
DD_PRESS_MOD_10         .bar                                                :07 DRAW DOWN PRESSURE MOD 10
DD_PRESS_MOD_1          .bar                                                :08 DRAW DOWN PRESSURE MOD 1
DD_PRESS_MOD_01         .bar                                                :09 DRAW DOWN PRESSURE MOD 01
DD_PRESS_MOD_001        .bar                                                :10 DRAW DOWN PRESSURE MOD 001
DD_PRESS_MOD_0001       .bar                                                :11 DRAW DOWN PRESSURE MOD 0001


~PARAMETER INFORMATION
#MNEM                   .UNIT        VALUE                                   DESCRIPTION
#________________________________________________________________________________________
TOOLFACE                .deg         60.0                                   :01 TOOLFACE
PUMP_CAPACITY           .bar         400                                    :02 NOMINAL DRAW DOWN PUMP CAPACITY
PUMP_LIMIT              .bar         240                                    :03 DOWNLINK PUMP LIMIT
TIME_LIMIT              .min         10                                     :04 DOWNLINK MAX TIME
TEST_TYPE               .            REPEAT                                 :05 DOWNLINK
TEST_TYPE               .            HIGH MOBILITY                          :06 DOWNLINK
DD_PIST_A               .cm2         3.1416                                 :07 DRAW DOWN PISTON AREA
V_SYS                   .cm3         131.0000                               :08 SYSTEM VOLUME
PROBE_ID                .cm          1.2700                                 :09 TTK PROBE ID
G0                      .            4.6700                                 :10 GEOMETRY FACTOR


~A                  TIME     DD_PRESS                              DD_VOLUME               TEMP                                   DD_PRESS_MOD_1000       DD_PRESS_MOD_100        DD_PRESS_MOD_10         DD_PRESS_MOD_1        DD_PRESS_MOD_01       DD_PRESS_MOD_001      DD_PRESS_MOD_0001
# ...
                   97.30    331.23263                               12.81508             83.141                                        3.31233e+002           3.12326e+001           1.23263e+000           2.32633e-001           3.26333e-002           2.63330e-003           6.33302e-004
                   97.40    331.60625                               12.82981             83.141                                        3.31606e+002           3.16062e+001           1.60625e+000           6.06249e-001           6.24925e-003           6.24925e-003           2.49248e-004
                   97.50    331.96911                               12.84399             83.141                                        3.31969e+002           3.19691e+001           1.96911e+000           9.69108e-001           6.91082e-002           9.10820e-003           1.08201e-004
                   97.60    332.34880                               12.85754             83.141                                        3.32349e+002           3.23488e+001           2.34880e+000           3.48796e-001           4.87961e-002           8.79612e-003           7.96124e-004
                   97.70    332.74142                               12.87063             83.141                                        3.32741e+002           3.27414e+001           2.74142e+000           7.41416e-001           4.14159e-002           1.41588e-003           4.15878e-004
                   97.80    333.12281                               12.88318             83.141                                        3.33123e+002           3.31228e+001           3.12281e+000           1.22813e-001           2.28132e-002           2.81320e-003           8.13204e-004
                   97.90    333.49635                               12.89497             83.141                                        3.33496e+002           3.34964e+001           3.49635e+000           4.96352e-001           9.63522e-002           6.35222e-003           3.52223e-004
                   98.00    333.88146                               12.90615             83.141                                        3.33881e+002           3.38815e+001           3.88146e+000           8.81463e-001           8.14633e-002           1.46332e-003           4.63317e-004
                   98.10    334.27135                               12.91690             83.141                                        3.34271e+002           3.42713e+001           4.27135e+000           2.71347e-001           7.13473e-002           1.34728e-003           3.47280e-004
                   98.20    334.66649                               12.92714             83.141                                        3.34666e+002           3.46665e+001           4.66649e+000           6.66491e-001           6.64907e-002           6.49073e-003           4.90734e-004
                   98.30    335.04623                               12.93692             83.141                                        3.35046e+002           3.50462e+001           5.04623e+000           4.62253e-002           4.62253e-002           6.22529e-003           2.25293e-004
                   98.40    335.41924                               12.94615             83.141                                        3.35419e+002           3.54192e+001           5.41924e+000           4.19237e-001           1.92373e-002           9.23734e-003           2.37339e-004
                   98.50    335.80692                               12.95481             83.141                                        3.35807e+002           3.58069e+001           5.80692e+000           8.06920e-001           6.91985e-003           6.91985e-003           9.19851e-004
                   98.60    336.20408                               12.96285             83.141                                        3.36204e+002           3.62041e+001           6.20408e+000           2.04084e-001           4.08368e-003           4.08368e-003           8.36807e-005
                   98.70    336.59607                               12.97034             83.141                                        3.36596e+002           3.65961e+001           6.59607e+000           5.96074e-001           9.60741e-002           6.07407e-003           7.40665e-005
                   98.80    336.98198                               12.97725             83.141                                        3.36982e+002           3.69820e+001           6.98198e+000           9.81981e-001           8.19808e-002           1.98080e-003           9.80797e-004
                   98.90    337.35737                               12.98364             83.141                                        3.37357e+002           3.73574e+001           7.35737e+000           3.57368e-001           5.73684e-002           7.36837e-003           3.68374e-004
                   99.00    337.73513                               12.98947             83.141                                        3.37735e+002           3.77351e+001           7.73513e+000           7.35131e-001           3.51315e-002           5.13148e-003           1.31480e-004
                   99.10    338.11786                               12.99474             83.141                                        3.38118e+002           3.81179e+001           8.11786e+000           1.17862e-001           1.78620e-002           7.86199e-003           8.61994e-004
                   99.20    338.50768                               12.99952             83.141                                        3.38508e+002           3.85077e+001           8.50768e+000           5.07681e-001           7.68058e-003           7.68058e-003           6.80578e-004
                   99.30    338.88882                               13.00378             83.141                                        3.38889e+002           3.88888e+001           8.88882e+000           8.88822e-001           8.88221e-002           8.82209e-003           8.22087e-004
                   99.40    339.26359                               13.00741             83.141                                        3.39264e+002           3.92636e+001           9.26359e+000           2.63588e-001           6.35882e-002           3.58823e-003           5.88225e-004
                   99.50    339.64094                               13.01046             83.141                                        3.39641e+002           3.96409e+001           9.64094e+000           6.40940e-001           4.09400e-002           9.39984e-004           9.39984e-004
                   99.60    340.02702                               13.01298             83.141                                        3.40027e+002           4.00270e+001           2.70220e-002           2.70220e-002           2.70220e-002           7.02195e-003           2.19525e-005
                   99.70    340.41089                               13.01491             83.141                                        3.40411e+002           4.04109e+001           4.10889e-001           4.10889e-001           1.08888e-002           8.88782e-004           8.88782e-004
                   99.80    340.78918                               13.01619             83.141                                        3.40789e+002           4.07892e+001           7.89181e-001           7.89181e-001           8.91805e-002           9.18050e-003           1.80504e-004
                   99.90    341.16024                               13.01709             83.141                                        3.41160e+002           4.11602e+001           1.16024e+000           1.60237e-001           6.02365e-002           2.36505e-004           2.36505e-004
                  100.00    341.51927                               13.01770             83.141                                        3.41519e+002           4.15193e+001           1.51927e+000           5.19266e-001           1.92660e-002           9.26599e-003           2.65989e-004
