~VERSION INFORMATION
VERS                    .            2.0                                    :CWLS LOG ASCII STANDARD
WRAP                    .            NO                                     :ONE LINE PER TIME STEP


~WELL INFORMATION
#MNEM                   .UNIT        DATA                                    DESCRIPTION
#________________________________________________________________________________________
STRTTIME                .HH/MM/SS    08:31:17                               :START TIME
STOPTIME                .HH/MM/SS    08:34:03                               :STOP TIME
STRT                    .s           2.10                                   :START DATA
STOP                    .s           164.70                                 :STOP DATA
STEP                    .s           0.10                                   :MEASUREMENT TIME INTERVAL
NULL                    .            -999.25                                :NULL VALUE
COMP                    .            Statoil ASA                            :COMPANY
FLD                     .            Volve                                  :FIELD
WELL                    .            15/9-F-11 A                            :WELL
RUN                     .            8                                      :RUN
LOC                     .            Maersk Inspirer                        :LOCATION
PROV                    .            na                                     :PROVINCE
SRVC                    .            Baker Hughes INTEQ                     :SERVICE COMPANY
DATE                    .YY/MM/DD    13/05/21                               :LOG DATE
UWI                     .                                                   :UNIQUE WELL ID
DEPTHMD                 .m           3688.1                                 :MEASURED DEPTH
DEPTHTVD                .m           3069.8                                 :TRUE VERTICAL DEPTH


~CURVE INFORMATION
#MNEM                   .UNIT        API CODES                               DESCRIPTION
#________________________________________________________________________________________
TIME                    .s                                                  :01 TIME
DD_PRESS                .bar                                                :02 DRAW DOWN PRESSURE
DD_VOLUME               .cm3                                                :03 INCREMENTAL DRAW DOWN VOLUME
TEMP                    .degC                                               :04 TRANSDUCER TEMPERATURE
DD_PRESS_MOD_1000       .bar                                                :05 DRAW DOWN PRESSURE MOD 1000
DD_PRESS_MOD_100        .bar                                                :06 DRAW DOWN PRESSURE MOD 100
DD_PRESS_MOD_10         .bar                                                :07 DRAW DOWN PRESSURE MOD 10
DD_PRESS_MOD_1          .bar                                                :08 DRAW DOWN PRESSURE MOD 1
DD_PRESS_MOD_01         .bar                                                :09 DRAW DOWN PRESSURE MOD 01
DD_PRESS_MOD_001        .bar                                                :10 DRAW DOWN PRESSURE MOD 001
DD_PRESS_MOD_0001       .bar                                                :11 DRAW DOWN PRESSURE MOD 0001


~PARAMETER INFORMATION
#MNEM                   .UNIT        VALUE                                   DESCRIPTION
#________________________________________________________________________________________
TOOLFACE                .deg         -78.9                                  :01 TOOLFACE
PUMP_CAPACITY           .bar         400                                    :02 NOMINAL DRAW DOWN PUMP CAPACITY
PUMP_LIMIT              .bar         240                                    :03 DOWNLINK PUMP LIMIT
TIME_LIMIT              .min         10                                     :04 DOWNLINK MAX TIME
TEST_TYPE               .            REPEAT                                 :05 DOWNLINK
TEST_TYPE               .            HIGH MOBILITY                          :06 DOWNLINK
DD_PIST_A               .cm2         3.1416                                 :07 DRAW DOWN PISTON AREA
V_SYS                   .cm3         131.0000                               :08 SYSTEM VOLUME
PROBE_ID                .cm          1.2700                                 :09 TTK PROBE ID
G0                      .            4.6700                                 :10 GEOMETRY FACTOR


~A                  TIME     DD_PRESS                              DD_VOLUME               TEMP                                   DD_PRESS_MOD_1000       DD_PRESS_MOD_100        DD_PRESS_MOD_10         DD_PRESS_MOD_1        DD_PRESS_MOD_01       DD_PRESS_MOD_001      DD_PRESS_MOD_0001
# ...
                   77.70    339.33880                               11.73665             83.273                                        3.39339e+002           3.93388e+001           9.33880e+000           3.38803e-001           3.88027e-002           8.80269e-003           8.02691e-004
                   77.80    339.04659                               11.82338             83.273                                        3.39047e+002           3.90466e+001           9.04659e+000           4.65940e-002           4.65940e-002           6.59399e-003           5.93995e-004
                   77.90    338.75764                               11.91378             83.273                                        3.38758e+002           3.87576e+001           8.75764e+000           7.57636e-001           5.76356e-002           7.63559e-003           6.35594e-004
                   78.00    338.47438                               12.00802             83.273                                        3.38474e+002           3.84744e+001           8.47438e+000           4.74383e-001           7.43827e-002           4.38271e-003           3.82710e-004
                   78.10    338.17946                               12.10643             83.273                                        3.38179e+002           3.81795e+001           8.17946e+000           1.79463e-001           7.94632e-002           9.46317e-003           4.63172e-004
                   78.20    337.86651                               12.20890             83.273                                        3.37867e+002           3.78665e+001           7.86651e+000           8.66512e-001           6.65119e-002           6.51188e-003           5.11875e-004
                   78.30    337.55713                               12.31511             83.273                                        3.37557e+002           3.75571e+001           7.55713e+000           5.57135e-001           5.71350e-002           7.13497e-003           1.34974e-004
                   78.40    337.25834                               12.42519             83.273                                        3.37258e+002           3.72583e+001           7.25834e+000           2.58345e-001           5.83449e-002           8.34485e-003           3.44850e-004
                   78.50    336.97512                               12.53941             83.273                                        3.36975e+002           3.69751e+001           6.97512e+000           9.75124e-001           7.51244e-002           5.12437e-003           1.24373e-004
                   78.60    336.69424                               12.65790             83.273                                        3.36694e+002           3.66942e+001           6.69424e+000           6.94235e-001           9.42350e-002           4.23502e-003           2.35019e-004
                   78.70    336.40145                               12.78063             83.273                                        3.36401e+002           3.64014e+001           6.40145e+000           4.01448e-001           1.44785e-003           1.44785e-003           4.47853e-004
                   78.80    336.09620                               12.90753             83.273                                        3.36096e+002           3.60962e+001           6.09620e+000           9.61981e-002           9.61981e-002           6.19810e-003           1.98097e-004
                   78.90    335.79200                               13.03894             83.273                                        3.35792e+002           3.57920e+001           5.79200e+000           7.92003e-001           9.20033e-002           2.00332e-003           3.32473e-006
                   79.00    335.48411                               13.17497             83.273                                        3.35484e+002           3.54841e+001           5.48411e+000           4.84105e-001           8.41055e-002           4.10550e-003           1.05499e-004
                   79.10    335.17230                               13.31517             83.273                                        3.35172e+002           3.51723e+001           5.17230e+000           1.72304e-001           7.23038e-002           2.30382e-003           3.03824e-004
                   79.20    334.86476                               13.45954             83.273                                        3.34865e+002           3.48648e+001           4.86476e+000           8.64761e-001           6.47606e-002           4.76059e-003           7.60591e-004
                   79.30    334.57765                               13.60838             83.273                                        3.34578e+002           3.45776e+001           4.57765e+000           5.77650e-001           7.76499e-002           7.64993e-003           6.49929e-004
                   79.40    334.29577                               13.76187             83.273                                        3.34296e+002           3.42958e+001           4.29577e+000           2.95771e-001           9.57714e-002           5.77141e-003           7.71414e-004
                   79.50    333.99577                               13.92012             83.273                                        3.33996e+002           3.39958e+001           3.99577e+000           9.95772e-001           9.57724e-002           5.77240e-003           7.72397e-004
                   79.60    333.70385                               14.08313             83.273                                        3.33704e+002           3.37039e+001           3.70385e+000           7.03854e-001           3.85377e-003           3.85377e-003           8.53767e-004
                   79.70    333.43026                               14.25081             83.273                                        3.33430e+002           3.34303e+001           3.43026e+000           4.30261e-001           3.02607e-002           2.60682e-004           2.60682e-004
                   79.80    333.14451                               14.42332             83.273                                        3.33145e+002           3.31445e+001           3.14451e+000           1.44510e-001           4.45105e-002           4.51048e-003           5.10482e-004
                   79.90    332.84441                               14.60033             83.273                                        3.32844e+002           3.28444e+001           2.84441e+000           8.44414e-001           4.44139e-002           4.41393e-003           4.13929e-004
                   80.00    332.55091                               14.78144             83.273                                        3.32551e+002           3.25509e+001           2.55091e+000           5.50912e-001           5.09117e-002           9.11738e-004           9.11738e-004
                   80.10    332.26823                               14.96667             83.273                                        3.32268e+002           3.22682e+001           2.26823e+000           2.68228e-001           6.82284e-002           8.22838e-003           2.28382e-004
                   80.20    331.99067                               15.15638             83.273                                        3.31991e+002           3.19907e+001           1.99067e+000           9.90672e-001           9.06722e-002           6.72186e-004           6.72186e-004
                   80.30    331.71754                               15.35033             83.273                                        3.31718e+002           3.17175e+001           1.71754e+000           7.17538e-001           1.75378e-002           7.53780e-003           5.37805e-004
                   80.40    331.44663                               15.54827             83.273                                        3.31447e+002           3.14466e+001           1.44663e+000           4.46633e-001           4.66332e-002           6.63318e-003           6.33176e-004
