~VERSION INFORMATION
VERS                    .            2.0                                    :CWLS LOG ASCII STANDARD
WRAP                    .            NO                                     :ONE LINE PER TIME STEP


~WELL INFORMATION
#MNEM                   .UNIT        DATA                                    DESCRIPTION
#________________________________________________________________________________________
STRTTIME                .HH/MM/SS    10:48:38                               :START TIME
STOPTIME                .HH/MM/SS    10:51:35                               :STOP TIME
STRT                    .s           2.10                                   :START DATA
STOP                    .s           175.10                                 :STOP DATA
STEP                    .s           0.10                                   :MEASUREMENT TIME INTERVAL
NULL                    .            -999.25                                :NULL VALUE
COMP                    .            Statoil ASA                            :COMPANY
FLD                     .            Volve                                  :FIELD
WELL                    .            15/9-F-11 A                            :WELL
RUN                     .            8                                      :RUN
LOC                     .            Maersk Inspirer                        :LOCATION
PROV                    .            na                                     :PROVINCE
SRVC                    .            Baker Hughes INTEQ                     :SERVICE COMPANY
DATE                    .YY/MM/DD    13/05/21                               :LOG DATE
UWI                     .                                                   :UNIQUE WELL ID
DEPTHMD                 .m           3635.2                                 :MEASURED DEPTH
DEPTHTVD                .m           3029.3                                 :TRUE VERTICAL DEPTH


~CURVE INFORMATION
#MNEM                   .UNIT        API CODES                               DESCRIPTION
#________________________________________________________________________________________
TIME                    .s                                                  :01 TIME
DD_PRESS                .bar                                                :02 DRAW DOWN PRESSURE
DD_VOLUME               .cm3                                                :03 INCREMENTAL DRAW DOWN VOLUME
TEMP                    .degC                                               :04 TRANSDUCER TEMPERATURE
DD_PRESS_MOD_1000       .bar                                                :05 DRAW DOWN PRESSURE MOD 1000
DD_PRESS_MOD_100        .bar                                                :06 DRAW DOWN PRESSURE MOD 100
DD_PRESS_MOD_10         .bar                                                :07 DRAW DOWN PRESSURE MOD 10
DD_PRESS_MOD_1          .bar                                                :08 DRAW DOWN PRESSURE MOD 1
DD_PRESS_MOD_01         .bar                                                :09 DRAW DOWN PRESSURE MOD 01
DD_PRESS_MOD_001        .bar                                                :10 DRAW DOWN PRESSURE MOD 001
DD_PRESS_MOD_0001       .bar                                                :11 DRAW DOWN PRESSURE MOD 0001


~PARAMETER INFORMATION
#MNEM                   .UNIT        VALUE                                   DESCRIPTION
#________________________________________________________________________________________
TOOLFACE                .deg         69.1                                   :01 TOOLFACE
PUMP_CAPACITY           .bar         400                                    :02 NOMINAL DRAW DOWN PUMP CAPACITY
PUMP_LIMIT              .bar         240                                    :03 DOWNLINK PUMP LIMIT
TIME_LIMIT              .min         10                                     :04 DOWNLINK MAX TIME
TEST_TYPE               .            REPEAT                                 :05 DOWNLINK
TEST_TYPE               .            HIGH MOBILITY                          :06 DOWNLINK
DD_PIST_A               .cm2         3.1416                                 :07 DRAW DOWN PISTON AREA
V_SYS                   .cm3         131.0000                               :08 SYSTEM VOLUME
PROBE_ID                .cm          1.2700                                 :09 TTK PROBE ID
G0                      .            4.6700                                 :10 GEOMETRY FACTOR


~A                  TIME     DD_PRESS                              DD_VOLUME               TEMP                                   DD_PRESS_MOD_1000       DD_PRESS_MOD_100        DD_PRESS_MOD_10         DD_PRESS_MOD_1        DD_PRESS_MOD_01       DD_PRESS_MOD_001      DD_PRESS_MOD_0001
# ...
                  116.90    323.01091                               17.79370             80.648                                        3.23011e+002           2.30109e+001           3.01091e+000           1.09088e-002           1.09088e-002           9.08760e-004           9.08760e-004
                  117.00    323.00142                               17.86765             80.648                                        3.23001e+002           2.30014e+001           3.00142e+000           1.42352e-003           1.42352e-003           1.42352e-003           4.23515e-004
                  117.10    322.97507                               17.94173             80.648                                        3.22975e+002           2.29751e+001           2.97507e+000           9.75070e-001           7.50696e-002           5.06964e-003           6.96417e-005
                  117.20    322.94902                               18.01529             80.648                                        3.22949e+002           2.29490e+001           2.94902e+000           9.49018e-001           4.90180e-002           9.01803e-003           1.80279e-005
                  117.30    322.94060                               18.08865             80.646                                        3.22941e+002           2.29406e+001           2.94060e+000           9.40603e-001           4.06033e-002           6.03277e-004           6.03277e-004
                  117.40    322.93841                               18.16221             80.643                                        3.22938e+002           2.29384e+001           2.93841e+000           9.38408e-001           3.84076e-002           8.40756e-003           4.07562e-004
                  117.50    322.93254                               18.23596             80.643                                        3.22933e+002           2.29325e+001           2.93254e+000           9.32540e-001           3.25403e-002           2.54030e-003           5.40302e-004
                  117.60    322.92450                               18.30971             80.646                                        3.22924e+002           2.29245e+001           2.92450e+000           9.24498e-001           2.44981e-002           4.49809e-003           4.98089e-004
                  117.70    322.91274                               18.38351             80.648                                        3.22913e+002           2.29127e+001           2.91274e+000           9.12738e-001           1.27376e-002           2.73765e-003           7.37648e-004
                  117.80    322.91002                               18.45717             80.648                                        3.22910e+002           2.29100e+001           2.91002e+000           9.10016e-001           1.00165e-002           1.64940e-005           1.64940e-005
                  117.90    322.92239                               18.53110             80.648                                        3.22922e+002           2.29224e+001           2.92239e+000           9.22394e-001           2.23937e-002           2.39369e-003           3.93685e-004
                  118.00    322.92120                               18.60552             80.646                                        3.22921e+002           2.29212e+001           2.92120e+000           9.21200e-001           2.12004e-002           1.20038e-003           2.00381e-004
                  118.10    322.89811                               18.67977             80.643                                        3.22898e+002           2.28981e+001           2.89811e+000           8.98110e-001           9.81099e-002           8.10995e-003           1.09946e-004
                  118.20    322.89017                               18.75355             80.643                                        3.22890e+002           2.28902e+001           2.89017e+000           8.90166e-001           9.01657e-002           1.65709e-004           1.65709e-004
                  118.30    322.89763                               18.82758             80.646                                        3.22898e+002           2.28976e+001           2.89763e+000           8.97631e-001           9.76308e-002           7.63079e-003           6.30790e-004
                  118.40    322.89574                               18.90188             80.646                                        3.22896e+002           2.28957e+001           2.89574e+000           8.95740e-001           9.57399e-002           5.73991e-003           7.39912e-004
                  118.50    322.88132                               18.97593             80.643                                        3.22881e+002           2.28813e+001           2.88132e+000           8.81316e-001           8.13162e-002           1.31624e-003           3.16240e-004
                  118.60    322.87724                               19.04987             80.641                                        3.22877e+002           2.28772e+001           2.87724e+000           8.77243e-001           7.72435e-002           7.24350e-003           2.43496e-004
                  118.70    322.88672                               19.12379             80.641                                        3.22887e+002           2.28867e+001           2.88672e+000           8.86725e-001           8.67246e-002           6.72462e-003           7.24617e-004
                  118.80    322.88946                               19.19785             80.641                                        3.22889e+002           2.28895e+001           2.88946e+000           8.89464e-001           8.94642e-002           9.46424e-003           4.64241e-004
                  118.90    322.89058                               19.27182             80.641                                        3.22891e+002           2.28906e+001           2.89058e+000           8.90579e-001           9.05786e-002           5.78615e-004           5.78615e-004
                  119.00    322.88772                               19.34592             80.641                                        3.22888e+002           2.28877e+001           2.88772e+000           8.87724e-001           8.77236e-002           7.72358e-003           7.23576e-004
                  119.10    322.88300                               19.42020             80.641                                        3.22883e+002           2.28830e+001           2.88300e+000           8.83002e-001           8.30016e-002           3.00159e-003           1.59011e-006
                  119.20    322.87055                               19.49419             80.641                                        3.22871e+002           2.28705e+001           2.87055e+000           8.70546e-001           7.05459e-002           5.45900e-004           5.45900e-004
                  119.30    322.87097                               19.56784             80.641                                        3.22871e+002           2.28710e+001           2.87097e+000           8.70966e-001           7.09663e-002           9.66344e-004           9.66344e-004
                  119.40    322.87812                               19.64177             80.641                                        3.22878e+002           2.28781e+001           2.87812e+000           8.78117e-001           7.81170e-002           8.11696e-003           1.16961e-004
                  119.50    322.87635                               19.71586             80.641                                        3.22876e+002           2.28763e+001           2.87635e+000           8.76348e-001           7.63482e-002           6.34816e-003           3.48164e-004
                  119.60    322.87039                               19.78976             80.641                                        3.22870e+002           2.28704e+001           2.87039e+000           8.70392e-001           7.03924e-002           3.92376e-004           3.92376e-004
