~VERSION INFORMATION
VERS                    .            2.0                                    :CWLS LOG ASCII STANDARD
WRAP                    .            NO                                     :ONE LINE PER TIME STEP


~WELL INFORMATION
#MNEM                   .UNIT        DATA                                    DESCRIPTION
#________________________________________________________________________________________
STRTTIME                .HH/MM/SS    14:50:05                               :START TIME
STOPTIME                .HH/MM/SS    14:53:18                               :STOP TIME
STRT                    .s           2.10                                   :START DATA
STOP                    .s           191.60                                 :STOP DATA
STEP                    .s           0.10                                   :MEASUREMENT TIME INTERVAL
NULL                    .            -999.25                                :NULL VALUE
COMP                    .            Statoil ASA                            :COMPANY
FLD                     .            Volve                                  :FIELD
WELL                    .            15/9-F-1 B                             :WELL
RUN                     .            7                                      :RUN
LOC                     .            Maersk Inspirer                        :LOCATION
PROV                    .            na                                     :PROVINCE
SRVC                    .            Baker Hughes INTEQ                     :SERVICE COMPANY
DATE                    .YY/MM/DD    13/09/06                               :LOG DATE
UWI                     .                                                   :UNIQUE WELL ID
DEPTHMD                 .m           3280.5                                 :MEASURED DEPTH
DEPTHTVD                .m           3076.1                                 :TRUE VERTICAL DEPTH


~CURVE INFORMATION
#MNEM                   .UNIT        API CODES                               DESCRIPTION
#________________________________________________________________________________________
TIME                    .s                                                  :01 TIME
DD_PRESS                .bar                                                :02 DRAW DOWN PRESSURE
DD_VOLUME               .cm3                                                :03 INCREMENTAL DRAW DOWN VOLUME
TEMP                    .degC                                               :04 TRANSDUCER TEMPERATURE
DD_PRESS_MOD_1000       .bar                                                :05 DRAW DOWN PRESSURE MOD 1000
DD_PRESS_MOD_100        .bar                                                :06 DRAW DOWN PRESSURE MOD 100
DD_PRESS_MOD_10         .bar                                                :07 DRAW DOWN PRESSURE MOD 10
DD_PRESS_MOD_1          .bar                                                :08 DRAW DOWN PRESSURE MOD 1
DD_PRESS_MOD_01         .bar                                                :09 DRAW DOWN PRESSURE MOD 01
DD_PRESS_MOD_001        .bar                                                :10 DRAW DOWN PRESSURE MOD 001
DD_PRESS_MOD_0001       .bar                                                :11 DRAW DOWN PRESSURE MOD 0001


~PARAMETER INFORMATION
#MNEM                   .UNIT        VALUE                                   DESCRIPTION
#________________________________________________________________________________________
TOOLFACE                .deg         na                                     :01 TOOLFACE
PUMP_CAPACITY           .bar         400                                    :02 NOMINAL DRAW DOWN PUMP CAPACITY
PUMP_LIMIT              .bar         400                                    :03 DOWNLINK PUMP LIMIT
TIME_LIMIT              .min         10                                     :04 DOWNLINK MAX TIME
TEST_TYPE               .            LOW MOBILITY                           :05 DOWNLINK
DD_PIST_A               .cm2         3.1416                                 :06 DRAW DOWN PISTON AREA
V_SYS                   .cm3         131.0000                               :07 SYSTEM VOLUME
PROBE_ID                .cm          1.2700                                 :08 TTK PROBE ID
G0                      .            4.6700                                 :09 GEOMETRY FACTOR


~A                  TIME     DD_PRESS                              DD_VOLUME               TEMP                                   DD_PRESS_MOD_1000       DD_PRESS_MOD_100        DD_PRESS_MOD_10         DD_PRESS_MOD_1        DD_PRESS_MOD_01       DD_PRESS_MOD_001      DD_PRESS_MOD_0001
# ...
                   27.30    436.99137                                1.26551             82.555                                        4.36991e+002           3.69914e+001           6.99137e+000           9.91365e-001           9.13653e-002           1.36526e-003           3.65255e-004
                   27.40    436.18679                                1.27932             82.555                                        4.36187e+002           3.61868e+001           6.18679e+000           1.86788e-001           8.67877e-002           6.78770e-003           7.87696e-004
                   27.50    435.28898                                1.29525             82.555                                        4.35289e+002           3.52890e+001           5.28898e+000           2.88983e-001           8.89829e-002           8.98292e-003           9.82923e-004
                   27.60    434.29164                                1.31312             82.555                                        4.34292e+002           3.42916e+001           4.29164e+000           2.91640e-001           9.16396e-002           1.63964e-003           6.39635e-004
                   27.70    433.20385                                1.33284             82.555                                        4.33204e+002           3.32039e+001           3.20385e+000           2.03853e-001           3.85281e-003           3.85281e-003           8.52814e-004
                   27.80    432.06049                                1.35462             82.555                                        4.32060e+002           3.20605e+001           2.06049e+000           6.04879e-002           6.04879e-002           4.87851e-004           4.87851e-004
                   27.90    430.86234                                1.37825             82.555                                        4.30862e+002           3.08623e+001           8.62336e-001           8.62336e-001           6.23360e-002           2.33600e-003           3.36003e-004
                   28.00    429.60526                                1.40372             82.555                                        4.29605e+002           2.96053e+001           9.60526e+000           6.05265e-001           5.26500e-003           5.26500e-003           2.64999e-004
                   28.10    428.27554                                1.43114             82.555                                        4.28276e+002           2.82755e+001           8.27554e+000           2.75540e-001           7.55399e-002           5.53987e-003           5.39874e-004
                   28.20    426.88841                                1.46054             82.555                                        4.26888e+002           2.68884e+001           6.88841e+000           8.88409e-001           8.84092e-002           8.40923e-003           4.09235e-004
                   28.30    425.40449                                1.49185             82.555                                        4.25404e+002           2.54045e+001           5.40449e+000           4.04492e-001           4.49199e-003           4.49199e-003           4.91991e-004
                   28.40    423.55191                                1.52502             82.555                                        4.23552e+002           2.35519e+001           3.55191e+000           5.51913e-001           5.19129e-002           1.91293e-003           9.12931e-004
                   28.50    421.21238                                1.56006             82.555                                        4.21212e+002           2.12124e+001           1.21238e+000           2.12375e-001           1.23752e-002           2.37523e-003           3.75232e-004
                   28.60    418.59252                                1.59696             82.555                                        4.18593e+002           1.85925e+001           8.59252e+000           5.92525e-001           9.25248e-002           2.52481e-003           5.24811e-004
                   28.70    415.81683                                1.63570             82.555                                        4.15817e+002           1.58168e+001           5.81683e+000           8.16835e-001           1.68345e-002           6.83455e-003           8.34547e-004
                   28.80    412.84522                                1.67620             82.555                                        4.12845e+002           1.28452e+001           2.84522e+000           8.45220e-001           4.52198e-002           5.21985e-003           2.19845e-004
                   28.90    409.68892                                1.71851             82.555                                        4.09689e+002           9.68892e+000           9.68892e+000           6.88918e-001           8.89182e-002           8.91824e-003           9.18245e-004
                   29.00    406.38457                                1.76265             82.555                                        4.06385e+002           6.38457e+000           6.38457e+000           3.84567e-001           8.45675e-002           4.56750e-003           5.67499e-004
                   29.10    402.93238                                1.80850             82.555                                        4.02932e+002           2.93238e+000           2.93238e+000           9.32375e-001           3.23752e-002           2.37518e-003           3.75181e-004
                   29.20    399.28810                                1.85608             82.555                                        3.99288e+002           9.92881e+001           9.28810e+000           2.88098e-001           8.80984e-002           8.09843e-003           9.84287e-005
                   29.30    395.43752                                1.90543             82.555                                        3.95438e+002           9.54375e+001           5.43752e+000           4.37519e-001           3.75188e-002           7.51877e-003           5.18773e-004
                   29.40    391.44583                                1.95656             82.555                                        3.91446e+002           9.14458e+001           1.44583e+000           4.45831e-001           4.58309e-002           5.83088e-003           8.30877e-004
                   29.50    387.32942                                2.00927             82.555                                        3.87329e+002           8.73294e+001           7.32942e+000           3.29420e-001           2.94203e-002           9.42030e-003           4.20303e-004
                   29.60    383.03936                                2.06367             82.555                                        3.83039e+002           8.30394e+001           3.03936e+000           3.93573e-002           3.93573e-002           9.35726e-003           3.57256e-004
                   29.70    378.56577                                2.11979             82.555                                        3.78566e+002           7.85658e+001           8.56577e+000           5.65769e-001           6.57688e-002           5.76882e-003           7.68825e-004
                   29.80    373.96269                                2.17748             82.555                                        3.73963e+002           7.39627e+001           3.96269e+000           9.62689e-001           6.26888e-002           2.68878e-003           6.88781e-004
                   29.90    369.24984                                2.23679             82.555                                        3.69250e+002           6.92498e+001           9.24984e+000           2.49835e-001           4.98353e-002           9.83529e-003           8.35289e-004
                   30.00    364.41789                                2.29759             82.555                                        3.64418e+002           6.44179e+001           4.41789e+000           4.17894e-001           1.78941e-002           7.89409e-003           8.94092e-004
