~VERSION INFORMATION
VERS                    .            2.0                                    :CWLS LOG ASCII STANDARD
WRAP                    .            NO                                     :ONE LINE PER TIME STEP


~WELL INFORMATION
#MNEM                   .UNIT        DATA                                    DESCRIPTION
#________________________________________________________________________________________
STRTTIME                .HH/MM/SS    23:39:21                               :START TIME
STOPTIME                .HH/MM/SS    23:43:19                               :STOP TIME
STRT                    .s           2.10                                   :START DATA
STOP                    .s           236.60                                 :STOP DATA
STEP                    .s           0.10                                   :MEASUREMENT TIME INTERVAL
NULL                    .            -999.25                                :NULL VALUE
COMP                    .            Statoil                                :COMPANY
FLD                     .            Volve                                  :FIELD
WELL                    .            15/9-F-11 T2                           :WELL
RUN                     .            7                                      :RUN
LOC                     .            Maersk Inspirer                        :LOCATION
PROV                    .            na                                     :PROVINCE
SRVC                    .            Baker Hughes INTEQ                     :SERVICE COMPANY
DATE                    .YY/MM/DD    13/05/04                               :LOG DATE
UWI                     .                                                   :UNIQUE WELL ID
DEPTHMD                 .m           4417.0                                 :MEASURED DEPTH
DEPTHTVD                .m           3257.6                                 :TRUE VERTICAL DEPTH


~CURVE INFORMATION
#MNEM                   .UNIT        API CODES                               DESCRIPTION
#________________________________________________________________________________________
TIME                    .s                                                  :01 TIME
DD_PRESS                .bar                                                :02 DRAW DOWN PRESSURE
DD_VOLUME               .cm3                                                :03 INCREMENTAL DRAW DOWN VOLUME
TEMP                    .degC                                               :04 TRANSDUCER TEMPERATURE
DD_PRESS_MOD_1000       .bar                                                :05 DRAW DOWN PRESSURE MOD 1000
DD_PRESS_MOD_100        .bar                                                :06 DRAW DOWN PRESSURE MOD 100
DD_PRESS_MOD_10         .bar                                                :07 DRAW DOWN PRESSURE MOD 10
DD_PRESS_MOD_1          .bar                                                :08 DRAW DOWN PRESSURE MOD 1
DD_PRESS_MOD_01         .bar                                                :09 DRAW DOWN PRESSURE MOD 01
DD_PRESS_MOD_001        .bar                                                :10 DRAW DOWN PRESSURE MOD 001
DD_PRESS_MOD_0001       .bar                                                :11 DRAW DOWN PRESSURE MOD 0001


~PARAMETER INFORMATION
#MNEM                   .UNIT        VALUE                                   DESCRIPTION
#________________________________________________________________________________________
TOOLFACE                .deg         na                                     :01 TOOLFACE
PUMP_CAPACITY           .bar         400                                    :02 NOMINAL DRAW DOWN PUMP CAPACITY
PUMP_LIMIT              .bar         240                                    :03 DOWNLINK PUMP LIMIT
TIME_LIMIT              .min         10                                     :04 DOWNLINK MAX TIME
TEST_TYPE               .            REPEAT                                 :05 DOWNLINK
TEST_TYPE               .            HIGH MOBILITY                          :06 DOWNLINK
DD_PIST_A               .cm2         3.1416                                 :07 DRAW DOWN PISTON AREA
V_SYS                   .cm3         131.0000                               :08 SYSTEM VOLUME
PROBE_ID                .cm          1.2700                                 :09 TTK PROBE ID
G0                      .            4.6700                                 :10 GEOMETRY FACTOR


~A                  TIME     DD_PRESS                              DD_VOLUME               TEMP                                   DD_PRESS_MOD_1000       DD_PRESS_MOD_100        DD_PRESS_MOD_10         DD_PRESS_MOD_1        DD_PRESS_MOD_01       DD_PRESS_MOD_001      DD_PRESS_MOD_0001
# ...
                  203.70    361.08356                               16.44317             96.000                                        3.61084e+002           6.10836e+001           1.08356e+000           8.35600e-002           8.35600e-002           3.55995e-003           5.59953e-004
                  203.80    361.07572                               16.44317             96.000                                        3.61076e+002           6.10757e+001           1.07572e+000           7.57202e-002           7.57202e-002           5.72017e-003           7.20167e-004
                  203.90    361.07912                               16.44317             96.000                                        3.61079e+002           6.10791e+001           1.07912e+000           7.91212e-002           7.91212e-002           9.12119e-003           1.21188e-004
                  204.00    361.08956                               16.44317             96.000                                        3.61090e+002           6.10896e+001           1.08956e+000           8.95587e-002           8.95587e-002           9.55869e-003           5.58690e-004
                  204.10    361.09293                               16.44317             96.000                                        3.61093e+002           6.10929e+001           1.09293e+000           9.29287e-002           9.29287e-002           2.92866e-003           9.28658e-004
                  204.20    361.08482                               16.44317             96.000                                        3.61085e+002           6.10848e+001           1.08482e+000           8.48246e-002           8.48246e-002           4.82456e-003           8.24564e-004
                  204.30    361.07972                               16.44317             96.000                                        3.61080e+002           6.10797e+001           1.07972e+000           7.97201e-002           7.97201e-002           9.72013e-003           7.20131e-004
                  204.40    361.08187                               16.44317             96.000                                        3.61082e+002           6.10819e+001           1.08187e+000           8.18719e-002           8.18719e-002           1.87195e-003           8.71947e-004
                  204.50    361.09352                               16.44317             96.000                                        3.61094e+002           6.10935e+001           1.09352e+000           9.35159e-002           9.35159e-002           3.51590e-003           5.15902e-004
                  204.60    361.09829                               16.44317             96.000                                        3.61098e+002           6.10983e+001           1.09829e+000           9.82927e-002           9.82927e-002           8.29272e-003           2.92717e-004
                  204.70    361.08765                               16.44317             96.000                                        3.61088e+002           6.10877e+001           1.08765e+000           8.76546e-002           8.76546e-002           7.65463e-003           6.54630e-004
                  204.80    361.08378                               16.44317             96.000                                        3.61084e+002           6.10838e+001           1.08378e+000           8.37840e-002           8.37840e-002           3.78396e-003           7.83961e-004
                  204.90    361.09801                               16.44317             96.000                                        3.61098e+002           6.10980e+001           1.09801e+000           9.80148e-002           9.80148e-002           8.01484e-003           1.48359e-005
                  205.00    361.08835                               16.44317             96.000                                        3.61088e+002           6.10884e+001           1.08835e+000           8.83530e-002           8.83530e-002           8.35300e-003           3.53000e-004
                  205.10    361.07147                               16.44317             96.000                                        3.61071e+002           6.10715e+001           1.07147e+000           7.14749e-002           7.14749e-002           1.47492e-003           4.74922e-004
                  205.20    361.08509                               16.44317             96.000                                        3.61085e+002           6.10851e+001           1.08509e+000           8.50892e-002           8.50892e-002           5.08916e-003           8.91562e-005
                  205.30    361.09090                               16.44317             96.000                                        3.61091e+002           6.10909e+001           1.09090e+000           9.09018e-002           9.09018e-002           9.01819e-004           9.01819e-004
                  205.40    361.07112                               16.44317             96.000                                        3.61071e+002           6.10711e+001           1.07112e+000           7.11158e-002           7.11158e-002           1.11584e-003           1.15837e-004
                  205.50    361.07672                               16.44317             96.000                                        3.61077e+002           6.10767e+001           1.07672e+000           7.67228e-002           7.67228e-002           6.72277e-003           7.22773e-004
                  205.60    361.10612                               16.44317             96.000                                        3.61106e+002           6.11061e+001           1.10612e+000           1.06118e-001           6.11768e-003           6.11768e-003           1.17676e-004
                  205.70    361.09289                               16.44317             96.000                                        3.61093e+002           6.10929e+001           1.09289e+000           9.28896e-002           9.28896e-002           2.88959e-003           8.89589e-004
                  205.80    361.07004                               16.44317             96.000                                        3.61070e+002           6.10700e+001           1.07004e+000           7.00408e-002           7.00408e-002           4.07501e-005           4.07501e-005
                  205.90    361.08871                               16.44317             96.000                                        3.61089e+002           6.10887e+001           1.08871e+000           8.87104e-002           8.87104e-002           8.71037e-003           7.10367e-004
                  206.00    361.10371                               16.44317             96.000                                        3.61104e+002           6.11037e+001           1.10371e+000           1.03708e-001           3.70829e-003           3.70829e-003           7.08287e-004
                  206.10    361.08917                               16.44317             96.000                                        3.61089e+002           6.10892e+001           1.08917e+000           8.91730e-002           8.91730e-002           9.17305e-003           1.73049e-004
                  206.20    361.07817                               16.44317             96.000                                        3.61078e+002           6.10782e+001           1.07817e+000           7.81707e-002           7.81707e-002           8.17068e-003           1.70675e-004
                  206.30    361.08658                               16.44317             96.000                                        3.61087e+002           6.10866e+001           1.08658e+000           8.65798e-002           8.65798e-002           6.57979e-003           5.79791e-004
                  206.40    361.09317                               16.44317             96.000                                        3.61093e+002           6.10932e+001           1.09317e+000           9.31730e-002           9.31730e-002           3.17298e-003           1.72977e-004
