~VERSION INFORMATION
VERS                    .            2.0                                    :CWLS LOG ASCII STANDARD
WRAP                    .            NO                                     :ONE LINE PER TIME STEP


~WELL INFORMATION
#MNEM                   .UNIT        DATA                                    DESCRIPTION
#________________________________________________________________________________________
STRTTIME                .HH/MM/SS    08:08:34                               :START TIME
STOPTIME                .HH/MM/SS    08:11:25                               :STOP TIME
STRT                    .s           2.10                                   :START DATA
STOP                    .s           169.10                                 :STOP DATA
STEP                    .s           0.10                                   :MEASUREMENT TIME INTERVAL
NULL                    .            -999.25                                :NULL VALUE
COMP                    .            Statoil ASA                            :COMPANY
FLD                     .            Volve                                  :FIELD
WELL                    .            15/9-F-11 A                            :WELL
RUN                     .            8                                      :RUN
LOC                     .            Maersk Inspirer                        :LOCATION
PROV                    .            na                                     :PROVINCE
SRVC                    .            Baker Hughes INTEQ                     :SERVICE COMPANY
DATE                    .YY/MM/DD    13/05/21                               :LOG DATE
UWI                     .                                                   :UNIQUE WELL ID
DEPTHMD                 .m           3694.5                                 :MEASURED DEPTH
DEPTHTVD                .m           3074.7                                 :TRUE VERTICAL DEPTH


~CURVE INFORMATION
#MNEM                   .UNIT        API CODES                               DESCRIPTION
#________________________________________________________________________________________
TIME                    .s                                                  :01 TIME
DD_PRESS                .bar                                                :02 DRAW DOWN PRESSURE
DD_VOLUME               .cm3                                                :03 INCREMENTAL DRAW DOWN VOLUME
TEMP                    .degC                                               :04 TRANSDUCER TEMPERATURE
DD_PRESS_MOD_1000       .bar                                                :05 DRAW DOWN PRESSURE MOD 1000
DD_PRESS_MOD_100        .bar                                                :06 DRAW DOWN PRESSURE MOD 100
DD_PRESS_MOD_10         .bar                                                :07 DRAW DOWN PRESSURE MOD 10
DD_PRESS_MOD_1          .bar                                                :08 DRAW DOWN PRESSURE MOD 1
DD_PRESS_MOD_01         .bar                                                :09 DRAW DOWN PRESSURE MOD 01
DD_PRESS_MOD_001        .bar                                                :10 DRAW DOWN PRESSURE MOD 001
DD_PRESS_MOD_0001       .bar                                                :11 DRAW DOWN PRESSURE MOD 0001


~PARAMETER INFORMATION
#MNEM                   .UNIT        VALUE                                   DESCRIPTION
#________________________________________________________________________________________
TOOLFACE                .deg         -107.9                                 :01 TOOLFACE
PUMP_CAPACITY           .bar         400                                    :02 NOMINAL DRAW DOWN PUMP CAPACITY
PUMP_LIMIT              .bar         240                                    :03 DOWNLINK PUMP LIMIT
TIME_LIMIT              .min         10                                     :04 DOWNLINK MAX TIME
TEST_TYPE               .            HIGH MOBILITY                          :05 DOWNLINK
DD_PIST_A               .cm2         3.1416                                 :06 DRAW DOWN PISTON AREA
V_SYS                   .cm3         131.0000                               :07 SYSTEM VOLUME
PROBE_ID                .cm          1.2700                                 :08 TTK PROBE ID
G0                      .            4.6700                                 :09 GEOMETRY FACTOR


~A                  TIME     DD_PRESS                              DD_VOLUME               TEMP                                   DD_PRESS_MOD_1000       DD_PRESS_MOD_100        DD_PRESS_MOD_10         DD_PRESS_MOD_1        DD_PRESS_MOD_01       DD_PRESS_MOD_001      DD_PRESS_MOD_0001
# ...
                   88.90    346.41005                               19.72014             84.859                                        3.46410e+002           4.64100e+001           6.41005e+000           4.10047e-001           1.00473e-002           4.72963e-005           4.72963e-005
                   89.00    346.40843                               19.72014             84.859                                        3.46408e+002           4.64084e+001           6.40843e+000           4.08434e-001           8.43355e-003           8.43355e-003           4.33549e-004
                   89.10    346.40981                               19.72014             84.859                                        3.46410e+002           4.64098e+001           6.40981e+000           4.09810e-001           9.81037e-003           9.81037e-003           8.10372e-004
                   89.20    346.41452                               19.72014             84.859                                        3.46415e+002           4.64145e+001           6.41452e+000           4.14523e-001           1.45232e-002           4.52323e-003           5.23232e-004
                   89.30    346.41576                               19.72014             84.859                                        3.46416e+002           4.64158e+001           6.41576e+000           4.15759e-001           1.57590e-002           5.75899e-003           7.58986e-004
                   89.40    346.40859                               19.72014             84.859                                        3.46409e+002           4.64086e+001           6.40859e+000           4.08589e-001           8.58894e-003           8.58894e-003           5.88938e-004
                   89.50    346.40423                               19.72014             84.859                                        3.46404e+002           4.64042e+001           6.40423e+000           4.04233e-001           4.23275e-003           4.23275e-003           2.32745e-004
                   89.60    346.40998                               19.72014             84.859                                        3.46410e+002           4.64100e+001           6.40998e+000           4.09981e-001           9.98115e-003           9.98115e-003           9.81153e-004
                   89.70    346.41323                               19.72014             84.859                                        3.46413e+002           4.64132e+001           6.41323e+000           4.13226e-001           1.32261e-002           3.22607e-003           2.26067e-004
                   89.80    346.41060                               19.72014             84.859                                        3.46411e+002           4.64106e+001           6.41060e+000           4.10599e-001           1.05988e-002           5.98832e-004           5.98832e-004
                   89.90    346.40866                               19.72014             84.859                                        3.46409e+002           4.64087e+001           6.40866e+000           4.08663e-001           8.66294e-003           8.66294e-003           6.62939e-004
                   90.00    346.41025                               19.72014             84.859                                        3.46410e+002           4.64102e+001           6.41025e+000           4.10249e-001           1.02487e-002           2.48673e-004           2.48673e-004
                   90.10    346.41357                               19.72014             84.859                                        3.46414e+002           4.64136e+001           6.41357e+000           4.13569e-001           1.35687e-002           3.56867e-003           5.68672e-004
                   90.20    346.41437                               19.72014             84.859                                        3.46414e+002           4.64144e+001           6.41437e+000           4.14372e-001           1.43723e-002           4.37229e-003           3.72288e-004
                   90.30    346.40807                               19.72014             84.859                                        3.46408e+002           4.64081e+001           6.40807e+000           4.08069e-001           8.06900e-003           8.06900e-003           6.90024e-005
                   90.40    346.40815                               19.72014             84.859                                        3.46408e+002           4.64081e+001           6.40815e+000           4.08146e-001           8.14612e-003           8.14612e-003           1.46119e-004
                   90.50    346.40927                               19.72014             84.859                                        3.46409e+002           4.64093e+001           6.40927e+000           4.09273e-001           9.27344e-003           9.27344e-003           2.73441e-004
                   90.60    346.40893                               19.72014             84.859                                        3.46409e+002           4.64089e+001           6.40893e+000           4.08933e-001           8.93288e-003           8.93288e-003           9.32883e-004
                   90.70    346.41023                               19.72014             84.859                                        3.46410e+002           4.64102e+001           6.41023e+000           4.10230e-001           1.02298e-002           2.29806e-004           2.29806e-004
                   90.80    346.40912                               19.72014             84.859                                        3.46409e+002           4.64091e+001           6.40912e+000           4.09124e-001           9.12398e-003           9.12398e-003           1.23983e-004
                   90.90    346.40840                               19.72014             84.859                                        3.46408e+002           4.64084e+001           6.40840e+000           4.08404e-001           8.40368e-003           8.40368e-003           4.03684e-004
                   91.00    346.40781                               19.72014             84.859                                        3.46408e+002           4.64078e+001           6.40781e+000           4.07810e-001           7.80955e-003           7.80955e-003           8.09553e-004
                   91.10    346.40814                               19.72014             84.859                                        3.46408e+002           4.64081e+001           6.40814e+000           4.08144e-001           8.14388e-003           8.14388e-003           1.43884e-004
                   91.20    346.40723                               19.72014             84.859                                        3.46407e+002           4.64072e+001           6.40723e+000           4.07226e-001           7.22615e-003           7.22615e-003           2.26149e-004
                   91.30    346.40957                               19.72014             84.859                                        3.46410e+002           4.64096e+001           6.40957e+000           4.09569e-001           9.56854e-003           9.56854e-003           5.68536e-004
                   91.40    346.41146                               19.72014             84.859                                        3.46411e+002           4.64115e+001           6.41146e+000           4.11462e-001           1.14622e-002           1.46215e-003           4.62151e-004
                   91.50    346.41138                               19.72014             84.859                                        3.46411e+002           4.64114e+001           6.41138e+000           4.11377e-001           1.13765e-002           1.37651e-003           3.76513e-004
                   91.60    346.40925                               19.72014             84.859                                        3.46409e+002           4.64093e+001           6.40925e+000           4.09251e-001           9.25120e-003           9.25120e-003           2.51196e-004
