~VERSION INFORMATION
VERS                    .            2.0                                    :CWLS LOG ASCII STANDARD
WRAP                    .            NO                                     :ONE LINE PER TIME STEP


~WELL INFORMATION
#MNEM                   .UNIT        DATA                                    DESCRIPTION
#________________________________________________________________________________________
STRTTIME                .HH/MM/SS    10:48:38                               :START TIME
STOPTIME                .HH/MM/SS    10:51:35                               :STOP TIME
STRT                    .s           2.10                                   :START DATA
STOP                    .s           175.10                                 :STOP DATA
STEP                    .s           0.10                                   :MEASUREMENT TIME INTERVAL
NULL                    .            -999.25                                :NULL VALUE
COMP                    .            Statoil ASA                            :COMPANY
FLD                     .            Volve                                  :FIELD
WELL                    .            15/9-F-11 A                            :WELL
RUN                     .            8                                      :RUN
LOC                     .            Maersk Inspirer                        :LOCATION
PROV                    .            na                                     :PROVINCE
SRVC                    .            Baker Hughes INTEQ                     :SERVICE COMPANY
DATE                    .YY/MM/DD    13/05/21                               :LOG DATE
UWI                     .                                                   :UNIQUE WELL ID
DEPTHMD                 .m           3635.2                                 :MEASURED DEPTH
DEPTHTVD                .m           3029.3                                 :TRUE VERTICAL DEPTH


~CURVE INFORMATION
#MNEM                   .UNIT        API CODES                               DESCRIPTION
#________________________________________________________________________________________
TIME                    .s                                                  :01 TIME
DD_PRESS                .bar                                                :02 DRAW DOWN PRESSURE
DD_VOLUME               .cm3                                                :03 INCREMENTAL DRAW DOWN VOLUME
TEMP                    .degC                                               :04 TRANSDUCER TEMPERATURE
DD_PRESS_MOD_1000       .bar                                                :05 DRAW DOWN PRESSURE MOD 1000
DD_PRESS_MOD_100        .bar                                                :06 DRAW DOWN PRESSURE MOD 100
DD_PRESS_MOD_10         .bar                                                :07 DRAW DOWN PRESSURE MOD 10
DD_PRESS_MOD_1          .bar                                                :08 DRAW DOWN PRESSURE MOD 1
DD_PRESS_MOD_01         .bar                                                :09 DRAW DOWN PRESSURE MOD 01
DD_PRESS_MOD_001        .bar                                                :10 DRAW DOWN PRESSURE MOD 001
DD_PRESS_MOD_0001       .bar                                                :11 DRAW DOWN PRESSURE MOD 0001


~PARAMETER INFORMATION
#MNEM                   .UNIT        VALUE                                   DESCRIPTION
#________________________________________________________________________________________
TOOLFACE                .deg         69.1                                   :01 TOOLFACE
PUMP_CAPACITY           .bar         400                                    :02 NOMINAL DRAW DOWN PUMP CAPACITY
PUMP_LIMIT              .bar         240                                    :03 DOWNLINK PUMP LIMIT
TIME_LIMIT              .min         10                                     :04 DOWNLINK MAX TIME
TEST_TYPE               .            REPEAT                                 :05 DOWNLINK
TEST_TYPE               .            HIGH MOBILITY                          :06 DOWNLINK
DD_PIST_A               .cm2         3.1416                                 :07 DRAW DOWN PISTON AREA
V_SYS                   .cm3         131.0000                               :08 SYSTEM VOLUME
PROBE_ID                .cm          1.2700                                 :09 TTK PROBE ID
G0                      .            4.6700                                 :10 GEOMETRY FACTOR


~A                  TIME     DD_PRESS                              DD_VOLUME               TEMP                                   DD_PRESS_MOD_1000       DD_PRESS_MOD_100        DD_PRESS_MOD_10         DD_PRESS_MOD_1        DD_PRESS_MOD_01       DD_PRESS_MOD_001      DD_PRESS_MOD_0001
                    2.10    416.18403                                0.00000             80.672                                        4.16184e+002           1.61840e+001           6.18403e+000           1.84033e-001           8.40328e-002           4.03276e-003           3.27567e-005
                    2.20    416.23539                                0.00000             80.672                                        4.16235e+002           1.62354e+001           6.23539e+000           2.35393e-001           3.53926e-002           5.39256e-003           3.92562e-004
                    2.30    416.26273                                0.00000             80.672                                        4.16263e+002           1.62627e+001           6.26273e+000           2.62734e-001           6.27339e-002           2.73390e-003           7.33898e-004
                    2.40    416.26390                                0.00000             80.672                                        4.16264e+002           1.62639e+001           6.26390e+000           2.63901e-001           6.39009e-002           3.90094e-003           9.00940e-004
                    2.50    416.25695                                0.00000             80.672                                        4.16257e+002           1.62570e+001           6.25695e+000           2.56952e-001           5.69520e-002           6.95204e-003           9.52044e-004
                    2.60    416.23900                                0.00000             80.672                                        4.16239e+002           1.62390e+001           6.23900e+000           2.38998e-001           3.89982e-002           8.99821e-003           9.98209e-004
                    2.70    416.19869                                0.00000             80.674                                        4.16199e+002           1.61987e+001           6.19869e+000           1.98695e-001           9.86947e-002           8.69465e-003           6.94654e-004
                    2.80    416.15696                                0.00000             80.678                                        4.16157e+002           1.61570e+001           6.15696e+000           1.56958e-001           5.69581e-002           6.95812e-003           9.58116e-004
                    2.90    416.12755                                0.00000             80.680                                        4.16128e+002           1.61276e+001           6.12755e+000           1.27552e-001           2.75521e-002           7.55213e-003           5.52132e-004
                    3.00    416.11925                                0.00000             80.680                                        4.16119e+002           1.61192e+001           6.11925e+000           1.19246e-001           1.92463e-002           9.24628e-003           2.46282e-004
                    3.10    416.10770                                0.00000             80.680                                        4.16108e+002           1.61077e+001           6.10770e+000           1.07702e-001           7.70205e-003           7.70205e-003           7.02055e-004
                    3.20    416.12003                                0.00000             80.677                                        4.16120e+002           1.61200e+001           6.12003e+000           1.20034e-001           2.00335e-002           3.35300e-005           3.35300e-005
                    3.30    416.18714                                0.00000             80.674                                        4.16187e+002           1.61871e+001           6.18714e+000           1.87137e-001           8.71375e-002           7.13747e-003           1.37466e-004
                    3.40    416.26348                                0.00000             80.672                                        4.16263e+002           1.62635e+001           6.26348e+000           2.63476e-001           6.34760e-002           3.47600e-003           4.76004e-004
                    3.50    416.29930                                0.00000             80.674                                        4.16299e+002           1.62993e+001           6.29930e+000           2.99299e-001           9.92985e-002           9.29851e-003           2.98510e-004
                    3.60    416.31894                                0.00000             80.675                                        4.16319e+002           1.63189e+001           6.31894e+000           3.18936e-001           1.89356e-002           8.93556e-003           9.35561e-004
                    3.70    416.36330                                0.00000             80.676                                        4.16363e+002           1.63633e+001           6.36330e+000           3.63305e-001           6.33046e-002           3.30456e-003           3.04563e-004
                    3.80    416.40268                                0.00000             80.675                                        4.16403e+002           1.64027e+001           6.40268e+000           4.02676e-001           2.67593e-003           2.67593e-003           6.75929e-004
                    3.90    416.39967                                0.00000             80.674                                        4.16400e+002           1.63997e+001           6.39967e+000           3.99673e-001           9.96733e-002           9.67328e-003           6.73275e-004
                    4.00    416.37663                                0.00000             80.672                                        4.16377e+002           1.63766e+001           6.37663e+000           3.76632e-001           7.66319e-002           6.63191e-003           6.31906e-004
                    4.10    416.36668                                0.00000             80.672                                        4.16367e+002           1.63667e+001           6.36668e+000           3.66682e-001           6.66816e-002           6.68160e-003           6.81599e-004
                    4.20    416.35863                                0.00000             80.674                                        4.16359e+002           1.63586e+001           6.35863e+000           3.58631e-001           5.86308e-002           8.63083e-003           6.30833e-004
                    4.30    416.32698                                0.00000             80.678                                        4.16327e+002           1.63270e+001           6.32698e+000           3.26978e-001           2.69776e-002           6.97765e-003           9.77647e-004
                    4.40    416.25558                                0.00000             80.680                                        4.16256e+002           1.62556e+001           6.25558e+000           2.55580e-001           5.55799e-002           5.57992e-003           5.79922e-004
                    4.50    416.20656                                0.00000             80.677                                        4.16207e+002           1.62066e+001           6.20656e+000           2.06564e-001           6.56441e-003           6.56441e-003           5.64412e-004
                    4.60    416.18634                                0.00000             80.674                                        4.16186e+002           1.61863e+001           6.18634e+000           1.86337e-001           8.63366e-002           6.33658e-003           3.36584e-004
                    4.70    416.15493                                0.00000             80.672                                        4.16155e+002           1.61549e+001           6.15493e+000           1.54926e-001           5.49258e-002           4.92578e-003           9.25785e-004
                    4.80    416.11904                                0.00000             80.672                                        4.16119e+002           1.61190e+001           6.11904e+000           1.19038e-001           1.90380e-002           9.03797e-003           3.79678e-005
