~VERSION INFORMATION
VERS                    .            2.0                                    :CWLS LOG ASCII STANDARD
WRAP                    .            NO                                     :ONE LINE PER TIME STEP


~WELL INFORMATION
#MNEM                   .UNIT        DATA                                    DESCRIPTION
#________________________________________________________________________________________
STRTTIME                .HH/MM/SS    09:43:23                               :START TIME
STOPTIME                .HH/MM/SS    09:46:50                               :STOP TIME
STRT                    .s           2.10                                   :START DATA
STOP                    .s           205.20                                 :STOP DATA
STEP                    .s           0.10                                   :MEASUREMENT TIME INTERVAL
NULL                    .            -999.25                                :NULL VALUE
COMP                    .            Statoil ASA                            :COMPANY
FLD                     .            Volve                                  :FIELD
WELL                    .            15/9-F-11 A                            :WELL
RUN                     .            8                                      :RUN
LOC                     .            Maersk Inspirer                        :LOCATION
PROV                    .            na                                     :PROVINCE
SRVC                    .            Baker Hughes INTEQ                     :SERVICE COMPANY
DATE                    .YY/MM/DD    13/05/21                               :LOG DATE
UWI                     .                                                   :UNIQUE WELL ID
DEPTHMD                 .m           3665.9                                 :MEASURED DEPTH
DEPTHTVD                .m           3052.8                                 :TRUE VERTICAL DEPTH


~CURVE INFORMATION
#MNEM                   .UNIT        API CODES                               DESCRIPTION
#________________________________________________________________________________________
TIME                    .s                                                  :01 TIME
DD_PRESS                .bar                                                :02 DRAW DOWN PRESSURE
DD_VOLUME               .cm3                                                :03 INCREMENTAL DRAW DOWN VOLUME
TEMP                    .degC                                               :04 TRANSDUCER TEMPERATURE
DD_PRESS_MOD_1000       .bar                                                :05 DRAW DOWN PRESSURE MOD 1000
DD_PRESS_MOD_100        .bar                                                :06 DRAW DOWN PRESSURE MOD 100
DD_PRESS_MOD_10         .bar                                                :07 DRAW DOWN PRESSURE MOD 10
DD_PRESS_MOD_1          .bar                                                :08 DRAW DOWN PRESSURE MOD 1
DD_PRESS_MOD_01         .bar                                                :09 DRAW DOWN PRESSURE MOD 01
DD_PRESS_MOD_001        .bar                                                :10 DRAW DOWN PRESSURE MOD 001
DD_PRESS_MOD_0001       .bar                                                :11 DRAW DOWN PRESSURE MOD 0001


~PARAMETER INFORMATION
#MNEM                   .UNIT        VALUE                                   DESCRIPTION
#________________________________________________________________________________________
TOOLFACE                .deg         60.0                                   :01 TOOLFACE
PUMP_CAPACITY           .bar         400                                    :02 NOMINAL DRAW DOWN PUMP CAPACITY
PUMP_LIMIT              .bar         240                                    :03 DOWNLINK PUMP LIMIT
TIME_LIMIT              .min         10                                     :04 DOWNLINK MAX TIME
TEST_TYPE               .            REPEAT                                 :05 DOWNLINK
TEST_TYPE               .            HIGH MOBILITY                          :06 DOWNLINK
DD_PIST_A               .cm2         3.1416                                 :07 DRAW DOWN PISTON AREA
V_SYS                   .cm3         131.0000                               :08 SYSTEM VOLUME
PROBE_ID                .cm          1.2700                                 :09 TTK PROBE ID
G0                      .            4.6700                                 :10 GEOMETRY FACTOR


~A                  TIME     DD_PRESS                              DD_VOLUME               TEMP                                   DD_PRESS_MOD_1000       DD_PRESS_MOD_100        DD_PRESS_MOD_10         DD_PRESS_MOD_1        DD_PRESS_MOD_01       DD_PRESS_MOD_001      DD_PRESS_MOD_0001
# ...
                  175.70    344.70995                               14.54546             83.133                                        3.44710e+002           4.47099e+001           4.70995e+000           7.09946e-001           9.94586e-003           9.94586e-003           9.45856e-004
                  175.80    344.70480                               14.54546             83.133                                        3.44705e+002           4.47048e+001           4.70480e+000           7.04803e-001           4.80264e-003           4.80264e-003           8.02644e-004
                  175.90    344.70527                               14.54546             83.133                                        3.44705e+002           4.47053e+001           4.70527e+000           7.05274e-001           5.27408e-003           5.27408e-003           2.74077e-004
                  176.00    344.70596                               14.54546             83.133                                        3.44706e+002           4.47060e+001           4.70596e+000           7.05963e-001           5.96294e-003           5.96294e-003           9.62938e-004
                  176.10    344.70846                               14.54546             83.130                                        3.44708e+002           4.47085e+001           4.70846e+000           7.08462e-001           8.46171e-003           8.46171e-003           4.61713e-004
                  176.20    344.71765                               14.54546             83.127                                        3.44718e+002           4.47177e+001           4.71765e+000           7.17650e-001           1.76503e-002           7.65027e-003           6.50272e-004
                  176.30    344.72422                               14.54546             83.127                                        3.44724e+002           4.47242e+001           4.72422e+000           7.24223e-001           2.42228e-002           4.22281e-003           2.22813e-004
                  176.40    344.71500                               14.54546             83.131                                        3.44715e+002           4.47150e+001           4.71500e+000           7.14998e-001           1.49979e-002           4.99787e-003           9.97874e-004
                  176.50    344.70049                               14.54546             83.133                                        3.44700e+002           4.47005e+001           4.70049e+000           7.00489e-001           4.89393e-004           4.89393e-004           4.89393e-004
                  176.60    344.70014                               14.54546             83.133                                        3.44700e+002           4.47001e+001           4.70014e+000           7.00143e-001           1.43391e-004           1.43391e-004           1.43391e-004
                  176.70    344.70911                               14.54546             83.133                                        3.44709e+002           4.47091e+001           4.70911e+000           7.09108e-001           9.10778e-003           9.10778e-003           1.07780e-004
                  176.80    344.71186                               14.54546             83.130                                        3.44712e+002           4.47119e+001           4.71186e+000           7.11858e-001           1.18576e-002           1.85762e-003           8.57621e-004
                  176.90    344.70787                               14.54546             83.127                                        3.44708e+002           4.47079e+001           4.70787e+000           7.07873e-001           7.87284e-003           7.87284e-003           8.72844e-004
                  177.00    344.71311                               14.54546             83.127                                        3.44713e+002           4.47131e+001           4.71311e+000           7.13109e-001           1.31090e-002           3.10898e-003           1.08982e-004
                  177.10    344.71605                               14.54546             83.131                                        3.44716e+002           4.47160e+001           4.71605e+000           7.16048e-001           1.60481e-002           6.04808e-003           4.80802e-005
                  177.20    344.71077                               14.54546             83.130                                        3.44711e+002           4.47108e+001           4.71077e+000           7.10769e-001           1.07691e-002           7.69053e-004           7.69053e-004
                  177.30    344.70504                               14.54546             83.127                                        3.44705e+002           4.47050e+001           4.70504e+000           7.05041e-001           5.04089e-003           5.04089e-003           4.08874e-005
                  177.40    344.70930                               14.54546             83.125                                        3.44709e+002           4.47093e+001           4.70930e+000           7.09296e-001           9.29604e-003           9.29604e-003           2.96044e-004
                  177.50    344.71511                               14.54546             83.127                                        3.44715e+002           4.47151e+001           4.71511e+000           7.15106e-001           1.51063e-002           5.10626e-003           1.06256e-004
                  177.60    344.72175                               14.54546             83.129                                        3.44722e+002           4.47218e+001           4.72175e+000           7.21751e-001           2.17510e-002           1.75103e-003           7.51028e-004
                  177.70    344.72247                               14.54546             83.129                                        3.44722e+002           4.47225e+001           4.72247e+000           7.22468e-001           2.24679e-002           2.46794e-003           4.67941e-004
                  177.80    344.71373                               14.54546             83.129                                        3.44714e+002           4.47137e+001           4.71373e+000           7.13727e-001           1.37273e-002           3.72726e-003           7.27256e-004
                  177.90    344.70663                               14.54546             83.129                                        3.44707e+002           4.47066e+001           4.70663e+000           7.06627e-001           6.62697e-003           6.62697e-003           6.26966e-004
                  178.00    344.71372                               14.54546             83.129                                        3.44714e+002           4.47137e+001           4.71372e+000           7.13720e-001           1.37196e-002           3.71958e-003           7.19582e-004
                  178.10    344.72081                               14.54546             83.127                                        3.44721e+002           4.47208e+001           4.72081e+000           7.20814e-001           2.08139e-002           8.13925e-004           8.13925e-004
                  178.20    344.71986                               14.54546             83.125                                        3.44720e+002           4.47199e+001           4.71986e+000           7.19863e-001           1.98630e-002           9.86300e-003           8.63000e-004
                  178.30    344.71275                               14.54546             83.125                                        3.44713e+002           4.47128e+001           4.71275e+000           7.12752e-001           1.27519e-002           2.75190e-003           7.51899e-004
                  178.40    344.70365                               14.54546             83.125                                        3.44704e+002           4.47036e+001           4.70365e+000           7.03645e-001           3.64524e-003           3.64524e-003           6.45238e-004
