~VERSION INFORMATION
VERS                    .            2.0                                    :CWLS LOG ASCII STANDARD
WRAP                    .            NO                                     :ONE LINE PER TIME STEP


~WELL INFORMATION
#MNEM                   .UNIT        DATA                                    DESCRIPTION
#________________________________________________________________________________________
STRTTIME                .HH/MM/SS    16:20:20                               :START TIME
STOPTIME                .HH/MM/SS    16:23:23                               :STOP TIME
STRT                    .s           2.10                                   :START DATA
STOP                    .s           182.00                                 :STOP DATA
STEP                    .s           0.10                                   :MEASUREMENT TIME INTERVAL
NULL                    .            -999.25                                :NULL VALUE
COMP                    .            Statoil ASA                            :COMPANY
FLD                     .            Volve                                  :FIELD
WELL                    .            15/9-F-1 B                             :WELL
RUN                     .            7                                      :RUN
LOC                     .            Maersk Inspirer                        :LOCATION
PROV                    .            na                                     :PROVINCE
SRVC                    .            Baker Hughes INTEQ                     :SERVICE COMPANY
DATE                    .YY/MM/DD    13/09/06                               :LOG DATE
UWI                     .                                                   :UNIQUE WELL ID
DEPTHMD                 .m           3255.0                                 :MEASURED DEPTH
DEPTHTVD                .m           3051.1                                 :TRUE VERTICAL DEPTH


~CURVE INFORMATION
#MNEM                   .UNIT        API CODES                               DESCRIPTION
#________________________________________________________________________________________
TIME                    .s                                                  :01 TIME
DD_PRESS                .bar                                                :02 DRAW DOWN PRESSURE
DD_VOLUME               .cm3                                                :03 INCREMENTAL DRAW DOWN VOLUME
TEMP                    .degC                                               :04 TRANSDUCER TEMPERATURE
DD_PRESS_MOD_1000       .bar                                                :05 DRAW DOWN PRESSURE MOD 1000
DD_PRESS_MOD_100        .bar                                                :06 DRAW DOWN PRESSURE MOD 100
DD_PRESS_MOD_10         .bar                                                :07 DRAW DOWN PRESSURE MOD 10
DD_PRESS_MOD_1          .bar                                                :08 DRAW DOWN PRESSURE MOD 1
DD_PRESS_MOD_01         .bar                                                :09 DRAW DOWN PRESSURE MOD 01
DD_PRESS_MOD_001        .bar                                                :10 DRAW DOWN PRESSURE MOD 001
DD_PRESS_MOD_0001       .bar                                                :11 DRAW DOWN PRESSURE MOD 0001


~PARAMETER INFORMATION
#MNEM                   .UNIT        VALUE                                   DESCRIPTION
#________________________________________________________________________________________
TOOLFACE                .deg         na                                     :01 TOOLFACE
PUMP_CAPACITY           .bar         400                                    :02 NOMINAL DRAW DOWN PUMP CAPACITY
PUMP_LIMIT              .bar         400                                    :03 DOWNLINK PUMP LIMIT
TIME_LIMIT              .min         10                                     :04 DOWNLINK MAX TIME
TEST_TYPE               .            LOW MOBILITY                           :05 DOWNLINK
DD_PIST_A               .cm2         3.1416                                 :06 DRAW DOWN PISTON AREA
V_SYS                   .cm3         131.0000                               :07 SYSTEM VOLUME
PROBE_ID                .cm          1.2700                                 :08 TTK PROBE ID
G0                      .            4.6700                                 :09 GEOMETRY FACTOR


~A                  TIME     DD_PRESS                              DD_VOLUME               TEMP                                   DD_PRESS_MOD_1000       DD_PRESS_MOD_100        DD_PRESS_MOD_10         DD_PRESS_MOD_1        DD_PRESS_MOD_01       DD_PRESS_MOD_001      DD_PRESS_MOD_0001
# ...
                   13.30    435.43165                                0.00000             81.844                                        4.35432e+002           3.54317e+001           5.43165e+000           4.31652e-001           3.16522e-002           1.65220e-003           6.52204e-004
                   13.40    435.42583                                0.00000             81.844                                        4.35426e+002           3.54258e+001           5.42583e+000           4.25831e-001           2.58305e-002           5.83052e-003           8.30517e-004
                   13.50    435.43617                                0.00000             81.844                                        4.35436e+002           3.54362e+001           5.43617e+000           4.36171e-001           3.61707e-002           6.17067e-003           1.70675e-004
                   13.60    435.45215                                0.00000             81.844                                        4.35452e+002           3.54522e+001           5.45215e+000           4.52154e-001           5.21539e-002           2.15395e-003           1.53946e-004
                   13.70    435.45066                                0.00000             81.844                                        4.35451e+002           3.54507e+001           5.45066e+000           4.50665e-001           5.06647e-002           6.64652e-004           6.64652e-004
                   13.80    435.43809                                0.00000             81.844                                        4.35438e+002           3.54381e+001           5.43809e+000           4.38090e-001           3.80902e-002           8.09021e-003           9.02110e-005
                   13.90    435.44384                                0.00000             81.844                                        4.35444e+002           3.54438e+001           5.44384e+000           4.43843e-001           4.38432e-002           3.84325e-003           8.43246e-004
                   14.00    435.45517                                0.00000             81.844                                        4.35455e+002           3.54552e+001           5.45517e+000           4.55169e-001           5.51694e-002           5.16941e-003           1.69412e-004
                   14.10    435.45933                                0.00000             81.844                                        4.35459e+002           3.54593e+001           5.45933e+000           4.59328e-001           5.93276e-002           9.32758e-003           3.27581e-004
                   14.20    435.46166                                0.00000             81.844                                        4.35462e+002           3.54617e+001           5.46166e+000           4.61656e-001           6.16564e-002           1.65639e-003           6.56387e-004
                   14.30    435.47708                                0.00000             81.844                                        4.35477e+002           3.54771e+001           5.47708e+000           4.77080e-001           7.70802e-002           7.08018e-003           8.01775e-005
                   14.40    435.48069                                0.00000             81.844                                        4.35481e+002           3.54807e+001           5.48069e+000           4.80690e-001           8.06897e-002           6.89702e-004           6.89702e-004
                   14.50    435.47834                                0.00000             81.844                                        4.35478e+002           3.54783e+001           5.47834e+000           4.78342e-001           7.83421e-002           8.34209e-003           3.42090e-004
                   14.60    435.48539                                0.00000             81.844                                        4.35485e+002           3.54854e+001           5.48539e+000           4.85387e-001           8.53871e-002           5.38711e-003           3.87108e-004
                   14.70    435.50233                                0.00000             81.844                                        4.35502e+002           3.55023e+001           5.50233e+000           5.02326e-001           2.32587e-003           2.32587e-003           3.25868e-004
                   14.80    435.51157                                0.00000             81.844                                        4.35512e+002           3.55116e+001           5.51157e+000           5.11568e-001           1.15679e-002           1.56791e-003           5.67908e-004
                   14.90    435.50546                                0.00000             81.841                                        4.35505e+002           3.55055e+001           5.50546e+000           5.05459e-001           5.45897e-003           5.45897e-003           4.58973e-004
                   15.00    435.50594                                0.00000             81.838                                        4.35506e+002           3.55059e+001           5.50594e+000           5.05940e-001           5.93977e-003           5.93977e-003           9.39772e-004
                   15.10    435.52588                                0.00000             81.838                                        4.35526e+002           3.55259e+001           5.52588e+000           5.25878e-001           2.58781e-002           5.87806e-003           8.78063e-004
                   15.20    435.53735                                0.00000             81.842                                        4.35537e+002           3.55373e+001           5.53735e+000           5.37347e-001           3.73472e-002           7.34716e-003           3.47164e-004
                   15.30    435.53265                                0.00000             81.844                                        4.35533e+002           3.55326e+001           5.53265e+000           5.32649e-001           3.26489e-002           2.64893e-003           6.48929e-004
                   15.40    435.53139                                0.00000             81.844                                        4.35531e+002           3.55314e+001           5.53139e+000           5.31390e-001           3.13904e-002           1.39044e-003           3.90440e-004
                   15.50    435.53886                                0.00000             81.844                                        4.35539e+002           3.55389e+001           5.53886e+000           5.38861e-001           3.88610e-002           8.86096e-003           8.60956e-004
                   15.60    435.54897                                0.00000             81.844                                        4.35549e+002           3.55490e+001           5.54897e+000           5.48972e-001           4.89715e-002           8.97153e-003           9.71533e-004
                   15.70    435.55957                                0.00000             81.841                                        4.35560e+002           3.55596e+001           5.55957e+000           5.59573e-001           5.95732e-002           9.57319e-003           5.73195e-004
                   15.80    435.55771                                0.00000             81.838                                        4.35558e+002           3.55577e+001           5.55771e+000           5.57714e-001           5.77138e-002           7.71378e-003           7.13775e-004
                   15.90    435.55467                                0.00000             81.838                                        4.35555e+002           3.55547e+001           5.55467e+000           5.54668e-001           5.46678e-002           4.66779e-003           6.67791e-004
                   16.00    435.56307                                0.00000             81.842                                        4.35563e+002           3.55631e+001           5.56307e+000           5.63068e-001           6.30680e-002           3.06798e-003           6.79840e-005
