~VERSION INFORMATION
VERS                    .            2.0                                    :CWLS LOG ASCII STANDARD
WRAP                    .            NO                                     :ONE LINE PER TIME STEP


~WELL INFORMATION
#MNEM                   .UNIT        DATA                                    DESCRIPTION
#________________________________________________________________________________________
STRTTIME                .HH/MM/SS    13:32:32                               :START TIME
STOPTIME                .HH/MM/SS    13:36:23                               :STOP TIME
STRT                    .s           2.10                                   :START DATA
STOP                    .s           229.20                                 :STOP DATA
STEP                    .s           0.10                                   :MEASUREMENT TIME INTERVAL
NULL                    .            -999.25                                :NULL VALUE
COMP                    .            Statoil ASA                            :COMPANY
FLD                     .            Volve                                  :FIELD
WELL                    .            15/9-F-1 B                             :WELL
RUN                     .            7                                      :RUN
LOC                     .            Maersk Inspirer                        :LOCATION
PROV                    .            na                                     :PROVINCE
SRVC                    .            Baker Hughes INTEQ                     :SERVICE COMPANY
DATE                    .YY/MM/DD    13/09/06                               :LOG DATE
UWI                     .                                                   :UNIQUE WELL ID
DEPTHMD                 .m           3301.5                                 :MEASURED DEPTH
DEPTHTVD                .m           3096.9                                 :TRUE VERTICAL DEPTH


~CURVE INFORMATION
#MNEM                   .UNIT        API CODES                               DESCRIPTION
#________________________________________________________________________________________
TIME                    .s                                                  :01 TIME
DD_PRESS                .bar                                                :02 DRAW DOWN PRESSURE
DD_VOLUME               .cm3                                                :03 INCREMENTAL DRAW DOWN VOLUME
TEMP                    .degC                                               :04 TRANSDUCER TEMPERATURE
DD_PRESS_MOD_1000       .bar                                                :05 DRAW DOWN PRESSURE MOD 1000
DD_PRESS_MOD_100        .bar                                                :06 DRAW DOWN PRESSURE MOD 100
DD_PRESS_MOD_10         .bar                                                :07 DRAW DOWN PRESSURE MOD 10
DD_PRESS_MOD_1          .bar                                                :08 DRAW DOWN PRESSURE MOD 1
DD_PRESS_MOD_01         .bar                                                :09 DRAW DOWN PRESSURE MOD 01
DD_PRESS_MOD_001        .bar                                                :10 DRAW DOWN PRESSURE MOD 001
DD_PRESS_MOD_0001       .bar                                                :11 DRAW DOWN PRESSURE MOD 0001


~PARAMETER INFORMATION
#MNEM                   .UNIT        VALUE                                   DESCRIPTION
#________________________________________________________________________________________
TOOLFACE                .deg         na                                     :01 TOOLFACE
PUMP_CAPACITY           .bar         400                                    :02 NOMINAL DRAW DOWN PUMP CAPACITY
PUMP_LIMIT              .bar         400                                    :03 DOWNLINK PUMP LIMIT
TIME_LIMIT              .min         10                                     :04 DOWNLINK MAX TIME
TEST_TYPE               .            LOW MOBILITY                           :05 DOWNLINK
DD_PIST_A               .cm2         3.1416                                 :06 DRAW DOWN PISTON AREA
V_SYS                   .cm3         131.0000                               :07 SYSTEM VOLUME
PROBE_ID                .cm          1.2700                                 :08 TTK PROBE ID
G0                      .            4.6700                                 :09 GEOMETRY FACTOR


~A                  TIME     DD_PRESS                              DD_VOLUME               TEMP                                   DD_PRESS_MOD_1000       DD_PRESS_MOD_100        DD_PRESS_MOD_10         DD_PRESS_MOD_1        DD_PRESS_MOD_01       DD_PRESS_MOD_001      DD_PRESS_MOD_0001
# ...
                   77.70    348.76102                               11.00023             85.406                                        3.48761e+002           4.87610e+001           8.76102e+000           7.61017e-001           6.10175e-002           1.01748e-003           1.74826e-005
                   77.80    348.63574                               11.00270             85.406                                        3.48636e+002           4.86357e+001           8.63574e+000           6.35739e-001           3.57391e-002           5.73910e-003           7.39102e-004
                   77.90    348.51231                               11.00545             85.406                                        3.48512e+002           4.85123e+001           8.51231e+000           5.12310e-001           1.23095e-002           2.30955e-003           3.09546e-004
                   78.00    348.38399                               11.00918             85.406                                        3.48384e+002           4.83840e+001           8.38399e+000           3.83991e-001           8.39911e-002           3.99112e-003           9.91120e-004
                   78.10    348.22455                               11.01346             85.406                                        3.48225e+002           4.82245e+001           8.22455e+000           2.24547e-001           2.45471e-002           4.54710e-003           5.47099e-004
                   78.20    348.05143                               11.01751             85.406                                        3.48051e+002           4.80514e+001           8.05143e+000           5.14270e-002           5.14270e-002           1.42698e-003           4.26982e-004
                   78.30    347.89214                               11.02185             85.406                                        3.47892e+002           4.78921e+001           7.89214e+000           8.92145e-001           9.21447e-002           2.14467e-003           1.44673e-004
                   78.40    347.72977                               11.02678             85.406                                        3.47730e+002           4.77298e+001           7.72977e+000           7.29773e-001           2.97730e-002           9.77300e-003           7.73003e-004
                   78.50    347.54175                               11.03228             85.406                                        3.47542e+002           4.75418e+001           7.54175e+000           5.41754e-001           4.17544e-002           1.75444e-003           7.54444e-004
                   78.60    347.35485                               11.03840             85.406                                        3.47355e+002           4.73548e+001           7.35485e+000           3.54846e-001           5.48459e-002           4.84592e-003           8.45916e-004
                   78.70    347.14925                               11.04532             85.406                                        3.47149e+002           4.71492e+001           7.14925e+000           1.49247e-001           4.92472e-002           9.24717e-003           2.47174e-004
                   78.80    346.91609                               11.05258             85.406                                        3.46916e+002           4.69161e+001           6.91609e+000           9.16095e-001           1.60946e-002           6.09461e-003           9.46118e-005
                   78.90    346.69738                               11.05979             85.406                                        3.46697e+002           4.66974e+001           6.69738e+000           6.97379e-001           9.73792e-002           7.37924e-003           3.79237e-004
                   79.00    346.49271                               11.06747             85.406                                        3.46493e+002           4.64927e+001           6.49271e+000           4.92705e-001           9.27051e-002           2.70509e-003           7.05087e-004
                   79.10    346.26383                               11.07597             85.406                                        3.46264e+002           4.62638e+001           6.26383e+000           2.63832e-001           6.38319e-002           3.83189e-003           8.31891e-004
                   79.20    346.02901                               11.08493             85.406                                        3.46029e+002           4.60290e+001           6.02901e+000           2.90053e-002           2.90053e-002           9.00527e-003           5.26998e-006
                   79.30    345.79762                               11.09469             85.406                                        3.45798e+002           4.57976e+001           5.79762e+000           7.97622e-001           9.76225e-002           7.62248e-003           6.22482e-004
                   79.40    345.56948                               11.10518             85.406                                        3.45569e+002           4.55695e+001           5.56948e+000           5.69477e-001           6.94768e-002           9.47677e-003           4.76768e-004
                   79.50    345.30892                               11.11606             85.406                                        3.45309e+002           4.53089e+001           5.30892e+000           3.08916e-001           8.91602e-003           8.91602e-003           9.16024e-004
                   79.60    345.04335                               11.12712             85.406                                        3.45043e+002           4.50434e+001           5.04335e+000           4.33542e-002           4.33542e-002           3.35423e-003           3.54226e-004
                   79.70    344.79048                               11.13865             85.406                                        3.44790e+002           4.47905e+001           4.79048e+000           7.90475e-001           9.04752e-002           4.75219e-004           4.75219e-004
                   79.80    344.53892                               11.15137             85.406                                        3.44539e+002           4.45389e+001           4.53892e+000           5.38925e-001           3.89246e-002           8.92456e-003           9.24561e-004
                   79.90    344.26455                               11.16511             85.406                                        3.44265e+002           4.42646e+001           4.26455e+000           2.64554e-001           6.45540e-002           4.55401e-003           5.54008e-004
                   80.00    343.98160                               11.17969             85.406                                        3.43982e+002           4.39816e+001           3.98160e+000           9.81604e-001           8.16036e-002           1.60357e-003           6.03574e-004
                   80.10    343.69757                               11.19491             85.406                                        3.43698e+002           4.36976e+001           3.69757e+000           6.97573e-001           9.75725e-002           7.57250e-003           5.72502e-004
                   80.20    343.39770                               11.21079             85.406                                        3.43398e+002           4.33977e+001           3.39770e+000           3.97700e-001           9.77002e-002           7.70019e-003           7.00195e-004
                   80.30    343.09922                               11.22687             85.406                                        3.43099e+002           4.30992e+001           3.09922e+000           9.92230e-002           9.92230e-002           9.22295e-003           2.22953e-004
                   80.40    342.81564                               11.24360             85.406                                        3.42816e+002           4.28156e+001           2.81564e+000           8.15638e-001           1.56380e-002           5.63801e-003           6.38009e-004
