~VERSION INFORMATION
VERS                    .            2.0                                    :CWLS LOG ASCII STANDARD
WRAP                    .            NO                                     :ONE LINE PER TIME STEP


~WELL INFORMATION
#MNEM                   .UNIT        DATA                                    DESCRIPTION
#________________________________________________________________________________________
STRTTIME                .HH/MM/SS    15:44:09                               :START TIME
STOPTIME                .HH/MM/SS    15:46:59                               :STOP TIME
STRT                    .s           2.10                                   :START DATA
STOP                    .s           168.10                                 :STOP DATA
STEP                    .s           0.10                                   :MEASUREMENT TIME INTERVAL
NULL                    .            -999.25                                :NULL VALUE
COMP                    .            Statoil ASA                            :COMPANY
FLD                     .            Volve                                  :FIELD
WELL                    .            15/9-F-1 B                             :WELL
RUN                     .            7                                      :RUN
LOC                     .            Maersk Inspirer                        :LOCATION
PROV                    .            na                                     :PROVINCE
SRVC                    .            Baker Hughes INTEQ                     :SERVICE COMPANY
DATE                    .YY/MM/DD    13/09/06                               :LOG DATE
UWI                     .                                                   :UNIQUE WELL ID
DEPTHMD                 .m           3266.5                                 :MEASURED DEPTH
DEPTHTVD                .m           3062.4                                 :TRUE VERTICAL DEPTH


~CURVE INFORMATION
#MNEM                   .UNIT        API CODES                               DESCRIPTION
#________________________________________________________________________________________
TIME                    .s                                                  :01 TIME
DD_PRESS                .bar                                                :02 DRAW DOWN PRESSURE
DD_VOLUME               .cm3                                                :03 INCREMENTAL DRAW DOWN VOLUME
TEMP                    .degC                                               :04 TRANSDUCER TEMPERATURE
DD_PRESS_MOD_1000       .bar                                                :05 DRAW DOWN PRESSURE MOD 1000
DD_PRESS_MOD_100        .bar                                                :06 DRAW DOWN PRESSURE MOD 100
DD_PRESS_MOD_10         .bar                                                :07 DRAW DOWN PRESSURE MOD 10
DD_PRESS_MOD_1          .bar                                                :08 DRAW DOWN PRESSURE MOD 1
DD_PRESS_MOD_01         .bar                                                :09 DRAW DOWN PRESSURE MOD 01
DD_PRESS_MOD_001        .bar                                                :10 DRAW DOWN PRESSURE MOD 001
DD_PRESS_MOD_0001       .bar                                                :11 DRAW DOWN PRESSURE MOD 0001


~PARAMETER INFORMATION
#MNEM                   .UNIT        VALUE                                   DESCRIPTION
#________________________________________________________________________________________
TOOLFACE                .deg         na                                     :01 TOOLFACE
PUMP_CAPACITY           .bar         400                                    :02 NOMINAL DRAW DOWN PUMP CAPACITY
PUMP_LIMIT              .bar         400                                    :03 DOWNLINK PUMP LIMIT
TIME_LIMIT              .min         10                                     :04 DOWNLINK MAX TIME
TEST_TYPE               .            LOW MOBILITY                           :05 DOWNLINK
DD_PIST_A               .cm2         3.1416                                 :06 DRAW DOWN PISTON AREA
V_SYS                   .cm3         131.0000                               :07 SYSTEM VOLUME
PROBE_ID                .cm          1.2700                                 :08 TTK PROBE ID
G0                      .            4.6700                                 :09 GEOMETRY FACTOR


~A                  TIME     DD_PRESS                              DD_VOLUME               TEMP                                   DD_PRESS_MOD_1000       DD_PRESS_MOD_100        DD_PRESS_MOD_10         DD_PRESS_MOD_1        DD_PRESS_MOD_01       DD_PRESS_MOD_001      DD_PRESS_MOD_0001
# ...
                  111.30    345.41982                               23.61851             82.523                                        3.45420e+002           4.54198e+001           5.41982e+000           4.19819e-001           1.98191e-002           9.81912e-003           8.19117e-004
                  111.40    345.41053                               23.91341             82.523                                        3.45411e+002           4.54105e+001           5.41053e+000           4.10534e-001           1.05339e-002           5.33894e-004           5.33894e-004
                  111.50    345.40465                               24.20839             82.523                                        3.45405e+002           4.54046e+001           5.40465e+000           4.04648e-001           4.64751e-003           4.64751e-003           6.47506e-004
                  111.60    345.38916                               24.50340             82.523                                        3.45389e+002           4.53892e+001           5.38916e+000           3.89158e-001           8.91578e-002           9.15776e-003           1.57763e-004
                  111.70    345.36559                               24.79831             82.523                                        3.45366e+002           4.53656e+001           5.36559e+000           3.65590e-001           6.55902e-002           5.59023e-003           5.90233e-004
                  111.80    345.34693                               25.09321             82.523                                        3.45347e+002           4.53469e+001           5.34693e+000           3.46929e-001           4.69289e-002           6.92895e-003           9.28949e-004
                  111.90    345.34380                               25.38813             82.523                                        3.45344e+002           4.53438e+001           5.34380e+000           3.43797e-001           4.37970e-002           3.79695e-003           7.96952e-004
                  112.00    345.33953                               25.68309             82.523                                        3.45340e+002           4.53395e+001           5.33953e+000           3.39530e-001           3.95302e-002           9.53021e-003           5.30211e-004
                  112.10    345.32502                               25.97799             82.523                                        3.45325e+002           4.53250e+001           5.32502e+000           3.25019e-001           2.50186e-002           5.01858e-003           1.85810e-005
                  112.20    345.31321                               26.27284             82.523                                        3.45313e+002           4.53132e+001           5.31321e+000           3.13206e-001           1.32061e-002           3.20614e-003           2.06142e-004
                  112.30    345.28788                               26.56774             82.523                                        3.45288e+002           4.52879e+001           5.28788e+000           2.87875e-001           8.78755e-002           7.87546e-003           8.75458e-004
                  112.40    345.24182                               26.86267             82.523                                        3.45242e+002           4.52418e+001           5.24182e+000           2.41819e-001           4.18188e-002           1.81883e-003           8.18831e-004
                  112.50    345.20551                               27.15716             82.523                                        3.45206e+002           4.52055e+001           5.20551e+000           2.05508e-001           5.50769e-003           5.50769e-003           5.07685e-004
                  112.60    345.22835                               27.44578             82.523                                        3.45228e+002           4.52283e+001           5.22835e+000           2.28348e-001           2.83485e-002           8.34847e-003           3.48474e-004
                  112.70    345.32544                               27.71908             82.523                                        3.45325e+002           4.53254e+001           5.32544e+000           3.25441e-001           2.54413e-002           5.44129e-003           4.41287e-004
                  112.80    345.45378                               27.97068             82.523                                        3.45454e+002           4.54538e+001           5.45378e+000           4.53783e-001           5.37835e-002           3.78350e-003           7.83498e-004
                  112.90    345.58080                               28.19950             82.523                                        3.45581e+002           4.55808e+001           5.58080e+000           5.80801e-001           8.08013e-002           8.01278e-004           8.01278e-004
                  113.00    345.72088                               28.40535             82.523                                        3.45721e+002           4.57209e+001           5.72088e+000           7.20879e-001           2.08787e-002           8.78722e-004           8.78722e-004
                  113.10    345.86052                               28.58824             82.523                                        3.45861e+002           4.58605e+001           5.86052e+000           8.60519e-001           6.05186e-002           5.18637e-004           5.18637e-004
                  113.20    345.98674                               28.74834             82.523                                        3.45987e+002           4.59867e+001           5.98674e+000           9.86738e-001           8.67376e-002           6.73760e-003           7.37600e-004
                  113.30    346.10084                               28.88549             82.523                                        3.46101e+002           4.61008e+001           6.10084e+000           1.00838e-001           8.37838e-004           8.37838e-004           8.37838e-004
                  113.40    346.20484                               28.99984             82.523                                        3.46205e+002           4.62048e+001           6.20484e+000           2.04840e-001           4.84008e-003           4.84008e-003           8.40079e-004
                  113.50    346.29872                               29.09148             82.523                                        3.46299e+002           4.62987e+001           6.29872e+000           2.98721e-001           9.87208e-002           8.72079e-003           7.20794e-004
                  113.60    346.37919                               29.16026             82.523                                        3.46379e+002           4.63792e+001           6.37919e+000           3.79194e-001           7.91937e-002           9.19372e-003           1.93722e-004
                  113.70    346.44840                               29.20543             82.523                                        3.46448e+002           4.64484e+001           6.44840e+000           4.48404e-001           4.84036e-002           8.40356e-003           4.03561e-004
                  113.80    346.49923                               29.22674             82.523                                        3.46499e+002           4.64992e+001           6.49923e+000           4.99232e-001           9.92323e-002           9.23227e-003           2.32273e-004
                  113.90    346.52093                               29.23182             82.523                                        3.46521e+002           4.65209e+001           6.52093e+000           5.20932e-001           2.09324e-002           9.32403e-004           9.32403e-004
                  114.00    346.52247                               29.23190             82.523                                        3.46522e+002           4.65225e+001           6.52247e+000           5.22466e-001           2.24658e-002           2.46584e-003           4.65844e-004
