~VERSION INFORMATION
VERS                    .            2.0                                    :CWLS LOG ASCII STANDARD
WRAP                    .            NO                                     :ONE LINE PER TIME STEP


~WELL INFORMATION
#MNEM                   .UNIT        DATA                                    DESCRIPTION
#________________________________________________________________________________________
STRTTIME                .HH/MM/SS    16:20:20                               :START TIME
STOPTIME                .HH/MM/SS    16:23:23                               :STOP TIME
STRT                    .s           2.10                                   :START DATA
STOP                    .s           182.00                                 :STOP DATA
STEP                    .s           0.10                                   :MEASUREMENT TIME INTERVAL
NULL                    .            -999.25                                :NULL VALUE
COMP                    .            Statoil ASA                            :COMPANY
FLD                     .            Volve                                  :FIELD
WELL                    .            15/9-F-1 B                             :WELL
RUN                     .            7                                      :RUN
LOC                     .            Maersk Inspirer                        :LOCATION
PROV                    .            na                                     :PROVINCE
SRVC                    .            Baker Hughes INTEQ                     :SERVICE COMPANY
DATE                    .YY/MM/DD    13/09/06                               :LOG DATE
UWI                     .                                                   :UNIQUE WELL ID
DEPTHMD                 .m           3255.0                                 :MEASURED DEPTH
DEPTHTVD                .m           3051.1                                 :TRUE VERTICAL DEPTH


~CURVE INFORMATION
#MNEM                   .UNIT        API CODES                               DESCRIPTION
#________________________________________________________________________________________
TIME                    .s                                                  :01 TIME
DD_PRESS                .bar                                                :02 DRAW DOWN PRESSURE
DD_VOLUME               .cm3                                                :03 INCREMENTAL DRAW DOWN VOLUME
TEMP                    .degC                                               :04 TRANSDUCER TEMPERATURE
DD_PRESS_MOD_1000       .bar                                                :05 DRAW DOWN PRESSURE MOD 1000
DD_PRESS_MOD_100        .bar                                                :06 DRAW DOWN PRESSURE MOD 100
DD_PRESS_MOD_10         .bar                                                :07 DRAW DOWN PRESSURE MOD 10
DD_PRESS_MOD_1          .bar                                                :08 DRAW DOWN PRESSURE MOD 1
DD_PRESS_MOD_01         .bar                                                :09 DRAW DOWN PRESSURE MOD 01
DD_PRESS_MOD_001        .bar                                                :10 DRAW DOWN PRESSURE MOD 001
DD_PRESS_MOD_0001       .bar                                                :11 DRAW DOWN PRESSURE MOD 0001


~PARAMETER INFORMATION
#MNEM                   .UNIT        VALUE                                   DESCRIPTION
#________________________________________________________________________________________
TOOLFACE                .deg         na                                     :01 TOOLFACE
PUMP_CAPACITY           .bar         400                                    :02 NOMINAL DRAW DOWN PUMP CAPACITY
PUMP_LIMIT              .bar         400                                    :03 DOWNLINK PUMP LIMIT
TIME_LIMIT              .min         10                                     :04 DOWNLINK MAX TIME
TEST_TYPE               .            LOW MOBILITY                           :05 DOWNLINK
DD_PIST_A               .cm2         3.1416                                 :06 DRAW DOWN PISTON AREA
V_SYS                   .cm3         131.0000                               :07 SYSTEM VOLUME
PROBE_ID                .cm          1.2700                                 :08 TTK PROBE ID
G0                      .            4.6700                                 :09 GEOMETRY FACTOR


~A                  TIME     DD_PRESS                              DD_VOLUME               TEMP                                   DD_PRESS_MOD_1000       DD_PRESS_MOD_100        DD_PRESS_MOD_10         DD_PRESS_MOD_1        DD_PRESS_MOD_01       DD_PRESS_MOD_001      DD_PRESS_MOD_0001
# ...
                  119.70    345.11075                               19.96058             81.750                                        3.45111e+002           4.51108e+001           5.11075e+000           1.10754e-001           1.07537e-002           7.53742e-004           7.53742e-004
                  119.80    345.09721                               19.96070             81.750                                        3.45097e+002           4.50972e+001           5.09721e+000           9.72065e-002           9.72065e-002           7.20655e-003           2.06550e-004
                  119.90    345.10602                               19.96068             81.750                                        3.45106e+002           4.51060e+001           5.10602e+000           1.06021e-001           6.02087e-003           6.02087e-003           2.08663e-005
                  120.00    345.11880                               19.96058             81.750                                        3.45119e+002           4.51188e+001           5.11880e+000           1.18805e-001           1.88045e-002           8.80450e-003           8.04505e-004
                  120.10    345.10328                               19.96105             81.750                                        3.45103e+002           4.51033e+001           5.10328e+000           1.03278e-001           3.27833e-003           3.27833e-003           2.78331e-004
                  120.20    345.07191                               19.96214             81.750                                        3.45072e+002           4.50719e+001           5.07191e+000           7.19095e-002           7.19095e-002           1.90952e-003           9.09518e-004
                  120.30    345.04016                               19.96384             81.750                                        3.45040e+002           4.50402e+001           5.04016e+000           4.01633e-002           4.01633e-002           1.63313e-004           1.63313e-004
                  120.40    344.99926                               19.96593             81.750                                        3.44999e+002           4.49993e+001           4.99926e+000           9.99261e-001           9.92608e-002           9.26084e-003           2.60840e-004
                  120.50    344.94746                               19.96843             81.750                                        3.44947e+002           4.49475e+001           4.94746e+000           9.47456e-001           4.74563e-002           7.45631e-003           4.56312e-004
                  120.60    344.89966                               19.97159             81.750                                        3.44900e+002           4.48997e+001           4.89966e+000           8.99660e-001           9.96596e-002           9.65962e-003           6.59623e-004
                  120.70    344.84191                               19.97605             81.750                                        3.44842e+002           4.48419e+001           4.84191e+000           8.41910e-001           4.19100e-002           1.91005e-003           9.10049e-004
                  120.80    344.76429                               19.98181             81.750                                        3.44764e+002           4.47643e+001           4.76429e+000           7.64288e-001           6.42879e-002           4.28794e-003           2.87940e-004
                  120.90    344.68246                               19.98845             81.750                                        3.44682e+002           4.46825e+001           4.68246e+000           6.82457e-001           8.24567e-002           2.45666e-003           4.56660e-004
                  121.00    344.60360                               19.99597             81.750                                        3.44604e+002           4.46036e+001           4.60360e+000           6.03604e-001           3.60403e-003           3.60403e-003           6.04029e-004
                  121.10    344.50560                               20.00524             81.750                                        3.44506e+002           4.45056e+001           4.50560e+000           5.05598e-001           5.59803e-003           5.59803e-003           5.98034e-004
                  121.20    344.39927                               20.01635             81.750                                        3.44399e+002           4.43993e+001           4.39927e+000           3.99272e-001           9.92722e-002           9.27216e-003           2.72157e-004
                  121.30    344.28514                               20.02900             81.750                                        3.44285e+002           4.42851e+001           4.28514e+000           2.85135e-001           8.51351e-002           5.13515e-003           1.35147e-004
                  121.40    344.16292                               20.04351             81.750                                        3.44163e+002           4.41629e+001           4.16292e+000           1.62917e-001           6.29175e-002           2.91750e-003           9.17500e-004
                  121.50    344.02756                               20.06015             81.750                                        3.44028e+002           4.40276e+001           4.02756e+000           2.75647e-002           2.75647e-002           7.56471e-003           5.64713e-004
                  121.60    343.88835                               20.07882             81.750                                        3.43888e+002           4.38884e+001           3.88835e+000           8.88354e-001           8.83538e-002           8.35379e-003           3.53792e-004
                  121.70    343.74711                               20.09965             81.750                                        3.43747e+002           4.37471e+001           3.74711e+000           7.47111e-001           4.71110e-002           7.11102e-003           1.11016e-004
                  121.80    343.60086                               20.12259             81.750                                        3.43601e+002           4.36009e+001           3.60086e+000           6.00860e-001           8.59931e-004           8.59931e-004           8.59931e-004
                  121.90    343.44608                               20.14788             81.750                                        3.43446e+002           4.34461e+001           3.44608e+000           4.46078e-001           4.60785e-002           6.07850e-003           7.84963e-005
                  122.00    343.29690                               20.17593             81.750                                        3.43297e+002           4.32969e+001           3.29690e+000           2.96897e-001           9.68968e-002           6.89679e-003           8.96786e-004
                  122.10    343.14327                               20.20664             81.750                                        3.43143e+002           4.31433e+001           3.14327e+000           1.43273e-001           4.32728e-002           3.27279e-003           2.72788e-004
                  122.20    342.97381                               20.23999             81.750                                        3.42974e+002           4.29738e+001           2.97381e+000           9.73814e-001           7.38137e-002           3.81369e-003           8.13686e-004
                  122.30    342.75136                               20.27653             81.750                                        3.42751e+002           4.27514e+001           2.75136e+000           7.51364e-001           5.13644e-002           1.36441e-003           3.64409e-004
                  122.40    342.52399                               20.31635             81.750                                        3.42524e+002           4.25240e+001           2.52399e+000           5.23987e-001           2.39868e-002           3.98682e-003           9.86824e-004
