~VERSION INFORMATION
VERS                    .            2.0                                    :CWLS LOG ASCII STANDARD
WRAP                    .            NO                                     :ONE LINE PER TIME STEP


~WELL INFORMATION
#MNEM                   .UNIT        DATA                                    DESCRIPTION
#________________________________________________________________________________________
STRTTIME                .HH/MM/SS    08:31:17                               :START TIME
STOPTIME                .HH/MM/SS    08:34:03                               :STOP TIME
STRT                    .s           2.10                                   :START DATA
STOP                    .s           164.70                                 :STOP DATA
STEP                    .s           0.10                                   :MEASUREMENT TIME INTERVAL
NULL                    .            -999.25                                :NULL VALUE
COMP                    .            Statoil ASA                            :COMPANY
FLD                     .            Volve                                  :FIELD
WELL                    .            15/9-F-11 A                            :WELL
RUN                     .            8                                      :RUN
LOC                     .            Maersk Inspirer                        :LOCATION
PROV                    .            na                                     :PROVINCE
SRVC                    .            Baker Hughes INTEQ                     :SERVICE COMPANY
DATE                    .YY/MM/DD    13/05/21                               :LOG DATE
UWI                     .                                                   :UNIQUE WELL ID
DEPTHMD                 .m           3688.1                                 :MEASURED DEPTH
DEPTHTVD                .m           3069.8                                 :TRUE VERTICAL DEPTH


~CURVE INFORMATION
#MNEM                   .UNIT        API CODES                               DESCRIPTION
#________________________________________________________________________________________
TIME                    .s                                                  :01 TIME
DD_PRESS                .bar                                                :02 DRAW DOWN PRESSURE
DD_VOLUME               .cm3                                                :03 INCREMENTAL DRAW DOWN VOLUME
TEMP                    .degC                                               :04 TRANSDUCER TEMPERATURE
DD_PRESS_MOD_1000       .bar                                                :05 DRAW DOWN PRESSURE MOD 1000
DD_PRESS_MOD_100        .bar                                                :06 DRAW DOWN PRESSURE MOD 100
DD_PRESS_MOD_10         .bar                                                :07 DRAW DOWN PRESSURE MOD 10
DD_PRESS_MOD_1          .bar                                                :08 DRAW DOWN PRESSURE MOD 1
DD_PRESS_MOD_01         .bar                                                :09 DRAW DOWN PRESSURE MOD 01
DD_PRESS_MOD_001        .bar                                                :10 DRAW DOWN PRESSURE MOD 001
DD_PRESS_MOD_0001       .bar                                                :11 DRAW DOWN PRESSURE MOD 0001


~PARAMETER INFORMATION
#MNEM                   .UNIT        VALUE                                   DESCRIPTION
#________________________________________________________________________________________
TOOLFACE                .deg         -78.9                                  :01 TOOLFACE
PUMP_CAPACITY           .bar         400                                    :02 NOMINAL DRAW DOWN PUMP CAPACITY
PUMP_LIMIT              .bar         240                                    :03 DOWNLINK PUMP LIMIT
TIME_LIMIT              .min         10                                     :04 DOWNLINK MAX TIME
TEST_TYPE               .            REPEAT                                 :05 DOWNLINK
TEST_TYPE               .            HIGH MOBILITY                          :06 DOWNLINK
DD_PIST_A               .cm2         3.1416                                 :07 DRAW DOWN PISTON AREA
V_SYS                   .cm3         131.0000                               :08 SYSTEM VOLUME
PROBE_ID                .cm          1.2700                                 :09 TTK PROBE ID
G0                      .            4.6700                                 :10 GEOMETRY FACTOR


~A                  TIME     DD_PRESS                              DD_VOLUME               TEMP                                   DD_PRESS_MOD_1000       DD_PRESS_MOD_100        DD_PRESS_MOD_10         DD_PRESS_MOD_1        DD_PRESS_MOD_01       DD_PRESS_MOD_001      DD_PRESS_MOD_0001
# ...
                   32.90    337.98945                                5.81108             83.322                                        3.37989e+002           3.79894e+001           7.98945e+000           9.89448e-001           8.94480e-002           9.44804e-003           4.48041e-004
                   33.00    337.99521                                5.91074             83.320                                        3.37995e+002           3.79952e+001           7.99521e+000           9.95210e-001           9.52104e-002           5.21038e-003           2.10382e-004
                   33.10    337.97220                                6.01037             83.320                                        3.37972e+002           3.79722e+001           7.97220e+000           9.72201e-001           7.22011e-002           2.20111e-003           2.01110e-004
                   33.20    337.96714                                6.10989             83.320                                        3.37967e+002           3.79671e+001           7.96714e+000           9.67145e-001           6.71446e-002           7.14463e-003           1.44629e-004
                   33.30    337.99752                                6.20919             83.320                                        3.37998e+002           3.79975e+001           7.99752e+000           9.97518e-001           9.75184e-002           7.51844e-003           5.18437e-004
                   33.40    338.01179                                6.30840             83.320                                        3.38012e+002           3.80118e+001           8.01179e+000           1.17862e-002           1.17862e-002           1.78625e-003           7.86246e-004
                   33.50    338.01326                                6.40746             83.320                                        3.38013e+002           3.80133e+001           8.01326e+000           1.32603e-002           1.32603e-002           3.26028e-003           2.60280e-004
                   33.60    338.02352                                6.50631             83.320                                        3.38024e+002           3.80235e+001           8.02352e+000           2.35227e-002           2.35227e-002           3.52274e-003           5.22736e-004
                   33.70    338.04415                                6.60491             83.320                                        3.38044e+002           3.80441e+001           8.04415e+000           4.41495e-002           4.41495e-002           4.14952e-003           1.49516e-004
                   33.80    338.06429                                6.70316             83.320                                        3.38064e+002           3.80643e+001           8.06429e+000           6.42898e-002           6.42898e-002           4.28979e-003           2.89787e-004
                   33.90    338.08712                                6.80112             83.320                                        3.38087e+002           3.80871e+001           8.08712e+000           8.71161e-002           8.71161e-002           7.11607e-003           1.16068e-004
                   34.00    338.12147                                6.89870             83.320                                        3.38121e+002           3.81215e+001           8.12147e+000           1.21467e-001           2.14666e-002           1.46665e-003           4.66647e-004
                   34.10    338.17133                                6.99564             83.318                                        3.38171e+002           3.81713e+001           8.17133e+000           1.71333e-001           7.13330e-002           1.33300e-003           3.32999e-004
                   34.20    338.21792                                7.09210             83.314                                        3.38218e+002           3.82179e+001           8.21792e+000           2.17917e-001           1.79172e-002           7.91717e-003           9.17166e-004
                   34.30    338.24529                                7.18810             83.313                                        3.38245e+002           3.82453e+001           8.24529e+000           2.45292e-001           4.52923e-002           5.29230e-003           2.92296e-004
                   34.40    338.27596                                7.28366             83.313                                        3.38276e+002           3.82760e+001           8.27596e+000           2.75959e-001           7.59585e-002           5.95850e-003           9.58505e-004
                   34.50    338.35079                                7.37861             83.313                                        3.38351e+002           3.83508e+001           8.35079e+000           3.50793e-001           5.07930e-002           7.92995e-004           7.92995e-004
                   34.60    338.43768                                7.47304             83.313                                        3.38438e+002           3.84377e+001           8.43768e+000           4.37683e-001           3.76830e-002           7.68302e-003           6.83020e-004
                   34.70    338.48334                                7.56676             83.313                                        3.38483e+002           3.84833e+001           8.48334e+000           4.83337e-001           8.33373e-002           3.33727e-003           3.37267e-004
                   34.80    338.50747                                7.65960             83.313                                        3.38507e+002           3.85075e+001           8.50747e+000           5.07466e-001           7.46599e-003           7.46599e-003           4.65991e-004
                   34.90    338.55846                                7.75172             83.313                                        3.38558e+002           3.85585e+001           8.55846e+000           5.58456e-001           5.84555e-002           8.45552e-003           4.55522e-004
                   35.00    338.62152                                7.84315             83.313                                        3.38622e+002           3.86215e+001           8.62152e+000           6.21522e-001           2.15225e-002           1.52247e-003           5.22471e-004
                   35.10    338.69105                                7.93378             83.313                                        3.38691e+002           3.86910e+001           8.69105e+000           6.91047e-001           9.10466e-002           1.04659e-003           4.65895e-005
                   35.20    338.77492                                8.02352             83.313                                        3.38775e+002           3.87749e+001           8.77492e+000           7.74917e-001           7.49169e-002           4.91686e-003           9.16858e-004
                   35.30    338.84748                                8.11242             83.313                                        3.38847e+002           3.88475e+001           8.84748e+000           8.47482e-001           4.74824e-002           7.48236e-003           4.82361e-004
                   35.40    338.89708                                8.20039             83.313                                        3.38897e+002           3.88971e+001           8.89708e+000           8.97080e-001           9.70799e-002           7.07992e-003           7.99187e-005
                   35.50    338.96055                                8.28746             83.313                                        3.38961e+002           3.89605e+001           8.96055e+000           9.60547e-001           6.05466e-002           5.46554e-004           5.46554e-004
                   35.60    339.05502                                8.37358             83.313                                        3.39055e+002           3.90550e+001           9.05502e+000           5.50209e-002           5.50209e-002           5.02092e-003           2.09158e-005
