~VERSION INFORMATION
VERS                    .            2.0                                    :CWLS LOG ASCII STANDARD
WRAP                    .            NO                                     :ONE LINE PER TIME STEP


~WELL INFORMATION
#MNEM                   .UNIT        DATA                                    DESCRIPTION
#________________________________________________________________________________________
STRTTIME                .HH/MM/SS    14:50:05                               :START TIME
STOPTIME                .HH/MM/SS    14:53:18                               :STOP TIME
STRT                    .s           2.10                                   :START DATA
STOP                    .s           191.60                                 :STOP DATA
STEP                    .s           0.10                                   :MEASUREMENT TIME INTERVAL
NULL                    .            -999.25                                :NULL VALUE
COMP                    .            Statoil ASA                            :COMPANY
FLD                     .            Volve                                  :FIELD
WELL                    .            15/9-F-1 B                             :WELL
RUN                     .            7                                      :RUN
LOC                     .            Maersk Inspirer                        :LOCATION
PROV                    .            na                                     :PROVINCE
SRVC                    .            Baker Hughes INTEQ                     :SERVICE COMPANY
DATE                    .YY/MM/DD    13/09/06                               :LOG DATE
UWI                     .                                                   :UNIQUE WELL ID
DEPTHMD                 .m           3280.5                                 :MEASURED DEPTH
DEPTHTVD                .m           3076.1                                 :TRUE VERTICAL DEPTH


~CURVE INFORMATION
#MNEM                   .UNIT        API CODES                               DESCRIPTION
#________________________________________________________________________________________
TIME                    .s                                                  :01 TIME
DD_PRESS                .bar                                                :02 DRAW DOWN PRESSURE
DD_VOLUME               .cm3                                                :03 INCREMENTAL DRAW DOWN VOLUME
TEMP                    .degC                                               :04 TRANSDUCER TEMPERATURE
DD_PRESS_MOD_1000       .bar                                                :05 DRAW DOWN PRESSURE MOD 1000
DD_PRESS_MOD_100        .bar                                                :06 DRAW DOWN PRESSURE MOD 100
DD_PRESS_MOD_10         .bar                                                :07 DRAW DOWN PRESSURE MOD 10
DD_PRESS_MOD_1          .bar                                                :08 DRAW DOWN PRESSURE MOD 1
DD_PRESS_MOD_01         .bar                                                :09 DRAW DOWN PRESSURE MOD 01
DD_PRESS_MOD_001        .bar                                                :10 DRAW DOWN PRESSURE MOD 001
DD_PRESS_MOD_0001       .bar                                                :11 DRAW DOWN PRESSURE MOD 0001


~PARAMETER INFORMATION
#MNEM                   .UNIT        VALUE                                   DESCRIPTION
#________________________________________________________________________________________
TOOLFACE                .deg         na                                     :01 TOOLFACE
PUMP_CAPACITY           .bar         400                                    :02 NOMINAL DRAW DOWN PUMP CAPACITY
PUMP_LIMIT              .bar         400                                    :03 DOWNLINK PUMP LIMIT
TIME_LIMIT              .min         10                                     :04 DOWNLINK MAX TIME
TEST_TYPE               .            LOW MOBILITY                           :05 DOWNLINK
DD_PIST_A               .cm2         3.1416                                 :06 DRAW DOWN PISTON AREA
V_SYS                   .cm3         131.0000                               :07 SYSTEM VOLUME
PROBE_ID                .cm          1.2700                                 :08 TTK PROBE ID
G0                      .            4.6700                                 :09 GEOMETRY FACTOR


~A                  TIME     DD_PRESS                              DD_VOLUME               TEMP                                   DD_PRESS_MOD_1000       DD_PRESS_MOD_100        DD_PRESS_MOD_10         DD_PRESS_MOD_1        DD_PRESS_MOD_01       DD_PRESS_MOD_001      DD_PRESS_MOD_0001
# ...
                  189.70    440.15563                                0.00000             82.469                                        4.40156e+002           4.01556e+001           1.55630e-001           1.55630e-001           5.56302e-002           5.63023e-003           6.30227e-004
                  189.80    440.09634                                0.00000             82.469                                        4.40096e+002           4.00963e+001           9.63413e-002           9.63413e-002           9.63413e-002           6.34132e-003           3.41316e-004
                  189.90    440.04813                                0.00000             82.469                                        4.40048e+002           4.00481e+001           4.81272e-002           4.81272e-002           4.81272e-002           8.12717e-003           1.27171e-004
                  190.00    440.10800                                0.00000             82.469                                        4.40108e+002           4.01080e+001           1.07996e-001           1.07996e-001           7.99581e-003           7.99581e-003           9.95813e-004
                  190.10    440.14893                                0.00000             82.469                                        4.40149e+002           4.01489e+001           1.48934e-001           1.48934e-001           4.89342e-002           8.93421e-003           9.34211e-004
                  190.20    440.09706                                0.00000             82.469                                        4.40097e+002           4.00971e+001           9.70564e-002           9.70564e-002           9.70564e-002           7.05642e-003           5.64208e-005
                  190.30    440.05269                                0.00000             82.469                                        4.40053e+002           4.00527e+001           5.26879e-002           5.26879e-002           5.26879e-002           2.68787e-003           6.87871e-004
                  190.40    440.12174                                0.00000             82.469                                        4.40122e+002           4.01217e+001           1.21737e-001           1.21737e-001           2.17371e-002           1.73710e-003           7.37102e-004
                  190.50    440.16038                                0.00000             82.469                                        4.40160e+002           4.01604e+001           1.60385e-001           1.60385e-001           6.03848e-002           3.84847e-004           3.84847e-004
                  190.60    440.10514                                0.00000             82.469                                        4.40105e+002           4.01051e+001           1.05141e-001           1.05141e-001           5.14072e-003           5.14072e-003           1.40724e-004
                  190.70    440.04758                                0.00000             82.469                                        4.40048e+002           4.00476e+001           4.75792e-002           4.75792e-002           4.75792e-002           7.57920e-003           5.79204e-004
                  190.80    440.11308                                0.00000             82.469                                        4.40113e+002           4.01131e+001           1.13082e-001           1.13082e-001           1.30820e-002           3.08203e-003           8.20350e-005
                  190.90    440.17096                                0.00000             82.469                                        4.40171e+002           4.01710e+001           1.70959e-001           1.70959e-001           7.09586e-002           9.58608e-004           9.58608e-004
                  191.00    440.13209                                0.00000             82.469                                        4.40132e+002           4.01321e+001           1.32086e-001           1.32086e-001           3.20865e-002           2.08646e-003           8.64581e-005
                  191.10    440.08502                                0.00000             82.469                                        4.40085e+002           4.00850e+001           8.50161e-002           8.50161e-002           8.50161e-002           5.01607e-003           1.60707e-005
                  191.20    440.13867                                0.00000             82.469                                        4.40139e+002           4.01387e+001           1.38674e-001           1.38674e-001           3.86740e-002           8.67397e-003           6.73969e-004
                  191.30    440.17319                                0.00000             82.469                                        4.40173e+002           4.01732e+001           1.73192e-001           1.73192e-001           7.31918e-002           3.19184e-003           1.91843e-004
                  191.40    440.11812                                0.00000             82.469                                        4.40118e+002           4.01181e+001           1.18121e-001           1.18121e-001           1.81207e-002           8.12069e-003           1.20688e-004
                  191.50    440.07675                                0.00000             82.469                                        4.40077e+002           4.00767e+001           7.67491e-002           7.67491e-002           7.67491e-002           6.74912e-003           7.49123e-004
                  191.60    440.13498                                0.00000             82.469                                        4.40135e+002           4.01350e+001           1.34980e-001           1.34980e-001           3.49797e-002           4.97968e-003           9.79684e-004
