~VERSION INFORMATION
VERS                    .            2.0                                    :CWLS LOG ASCII STANDARD
WRAP                    .            NO                                     :ONE LINE PER TIME STEP


~WELL INFORMATION
#MNEM                   .UNIT        DATA                                    DESCRIPTION
#________________________________________________________________________________________
STRTTIME                .HH/MM/SS    14:50:05                               :START TIME
STOPTIME                .HH/MM/SS    14:53:18                               :STOP TIME
STRT                    .s           2.10                                   :START DATA
STOP                    .s           191.60                                 :STOP DATA
STEP                    .s           0.10                                   :MEASUREMENT TIME INTERVAL
NULL                    .            -999.25                                :NULL VALUE
COMP                    .            Statoil ASA                            :COMPANY
FLD                     .            Volve                                  :FIELD
WELL                    .            15/9-F-1 B                             :WELL
RUN                     .            7                                      :RUN
LOC                     .            Maersk Inspirer                        :LOCATION
PROV                    .            na                                     :PROVINCE
SRVC                    .            Baker Hughes INTEQ                     :SERVICE COMPANY
DATE                    .YY/MM/DD    13/09/06                               :LOG DATE
UWI                     .                                                   :UNIQUE WELL ID
DEPTHMD                 .m           3280.5                                 :MEASURED DEPTH
DEPTHTVD                .m           3076.1                                 :TRUE VERTICAL DEPTH


~CURVE INFORMATION
#MNEM                   .UNIT        API CODES                               DESCRIPTION
#________________________________________________________________________________________
TIME                    .s                                                  :01 TIME
DD_PRESS                .bar                                                :02 DRAW DOWN PRESSURE
DD_VOLUME               .cm3                                                :03 INCREMENTAL DRAW DOWN VOLUME
TEMP                    .degC                                               :04 TRANSDUCER TEMPERATURE
DD_PRESS_MOD_1000       .bar                                                :05 DRAW DOWN PRESSURE MOD 1000
DD_PRESS_MOD_100        .bar                                                :06 DRAW DOWN PRESSURE MOD 100
DD_PRESS_MOD_10         .bar                                                :07 DRAW DOWN PRESSURE MOD 10
DD_PRESS_MOD_1          .bar                                                :08 DRAW DOWN PRESSURE MOD 1
DD_PRESS_MOD_01         .bar                                                :09 DRAW DOWN PRESSURE MOD 01
DD_PRESS_MOD_001        .bar                                                :10 DRAW DOWN PRESSURE MOD 001
DD_PRESS_MOD_0001       .bar                                                :11 DRAW DOWN PRESSURE MOD 0001


~PARAMETER INFORMATION
#MNEM                   .UNIT        VALUE                                   DESCRIPTION
#________________________________________________________________________________________
TOOLFACE                .deg         na                                     :01 TOOLFACE
PUMP_CAPACITY           .bar         400                                    :02 NOMINAL DRAW DOWN PUMP CAPACITY
PUMP_LIMIT              .bar         400                                    :03 DOWNLINK PUMP LIMIT
TIME_LIMIT              .min         10                                     :04 DOWNLINK MAX TIME
TEST_TYPE               .            LOW MOBILITY                           :05 DOWNLINK
DD_PIST_A               .cm2         3.1416                                 :06 DRAW DOWN PISTON AREA
V_SYS                   .cm3         131.0000                               :07 SYSTEM VOLUME
PROBE_ID                .cm          1.2700                                 :08 TTK PROBE ID
G0                      .            4.6700                                 :09 GEOMETRY FACTOR


~A                  TIME     DD_PRESS                              DD_VOLUME               TEMP                                   DD_PRESS_MOD_1000       DD_PRESS_MOD_100        DD_PRESS_MOD_10         DD_PRESS_MOD_1        DD_PRESS_MOD_01       DD_PRESS_MOD_001      DD_PRESS_MOD_0001
# ...
                  102.90    347.57786                               19.92655             82.479                                        3.47578e+002           4.75779e+001           7.57786e+000           5.77858e-001           7.78581e-002           7.85815e-003           8.58146e-004
                  103.00    347.58057                               19.92655             82.477                                        3.47581e+002           4.75806e+001           7.58057e+000           5.80566e-001           8.05659e-002           5.65935e-004           5.65935e-004
                  103.10    347.57926                               19.92655             82.477                                        3.47579e+002           4.75793e+001           7.57926e+000           5.79262e-001           7.92618e-002           9.26181e-003           2.61809e-004
                  103.20    347.57713                               19.92655             82.477                                        3.47577e+002           4.75771e+001           7.57713e+000           5.77132e-001           7.71322e-002           7.13223e-003           1.32227e-004
                  103.30    347.58108                               19.92655             82.477                                        3.47581e+002           4.75811e+001           7.58108e+000           5.81077e-001           8.10767e-002           1.07666e-003           7.66587e-005
                  103.40    347.58948                               19.92655             82.477                                        3.47589e+002           4.75895e+001           7.58948e+000           5.89482e-001           8.94825e-002           9.48250e-003           4.82497e-004
                  103.50    347.58357                               19.92655             82.477                                        3.47584e+002           4.75836e+001           7.58357e+000           5.83570e-001           8.35698e-002           3.56975e-003           5.69751e-004
                  103.60    347.57785                               19.92655             82.477                                        3.47578e+002           4.75779e+001           7.57785e+000           5.77855e-001           7.78548e-002           7.85483e-003           8.54830e-004
                  103.70    347.58315                               19.92655             82.477                                        3.47583e+002           4.75832e+001           7.58315e+000           5.83154e-001           8.31538e-002           3.15384e-003           1.53840e-004
                  103.80    347.58818                               19.92655             82.477                                        3.47588e+002           4.75882e+001           7.58818e+000           5.88181e-001           8.81813e-002           8.18128e-003           1.81280e-004
                  103.90    347.58321                               19.92655             82.477                                        3.47583e+002           4.75832e+001           7.58321e+000           5.83206e-001           8.32059e-002           3.20586e-003           2.05863e-004
                  104.00    347.57343                               19.92655             82.477                                        3.47573e+002           4.75734e+001           7.57343e+000           5.73432e-001           7.34320e-002           3.43197e-003           4.31968e-004
                  104.10    347.57529                               19.92655             82.477                                        3.47575e+002           4.75753e+001           7.57529e+000           5.75291e-001           7.52910e-002           5.29105e-003           2.91047e-004
                  104.20    347.58406                               19.92655             82.477                                        3.47584e+002           4.75841e+001           7.58406e+000           5.84060e-001           8.40597e-002           4.05973e-003           5.97306e-005
                  104.30    347.58393                               19.92655             82.477                                        3.47584e+002           4.75839e+001           7.58393e+000           5.83928e-001           8.39281e-002           3.92806e-003           9.28060e-004
                  104.40    347.58070                               19.92655             82.477                                        3.47581e+002           4.75807e+001           7.58070e+000           5.80702e-001           8.07022e-002           7.02176e-004           7.02176e-004
                  104.50    347.57914                               19.92655             82.477                                        3.47579e+002           4.75791e+001           7.57914e+000           5.79137e-001           7.91371e-002           9.13711e-003           1.37115e-004
                  104.60    347.57839                               19.92655             82.477                                        3.47578e+002           4.75784e+001           7.57839e+000           5.78385e-001           7.83853e-002           8.38528e-003           3.85282e-004
                  104.70    347.58105                               19.92655             82.477                                        3.47581e+002           4.75810e+001           7.58105e+000           5.81048e-001           8.10479e-002           1.04786e-003           4.78646e-005
                  104.80    347.57777                               19.92655             82.477                                        3.47578e+002           4.75778e+001           7.57777e+000           5.77768e-001           7.77684e-002           7.76843e-003           7.68430e-004
                  104.90    347.58031                               19.92655             82.477                                        3.47580e+002           4.75803e+001           7.58031e+000           5.80306e-001           8.03056e-002           3.05555e-004           3.05555e-004
                  105.00    347.58133                               19.92655             82.477                                        3.47581e+002           4.75813e+001           7.58133e+000           5.81331e-001           8.13311e-002           1.33109e-003           3.31091e-004
                  105.10    347.57855                               19.92655             82.477                                        3.47579e+002           4.75786e+001           7.57855e+000           5.78551e-001           7.85506e-002           8.55062e-003           5.50620e-004
                  105.20    347.57841                               19.92655             82.477                                        3.47578e+002           4.75784e+001           7.57841e+000           5.78409e-001           7.84089e-002           8.40889e-003           4.08894e-004
                  105.30    347.58154                               19.92655             82.477                                        3.47582e+002           4.75815e+001           7.58154e+000           5.81542e-001           8.15425e-002           1.54248e-003           5.42485e-004
                  105.40    347.58130                               19.92655             82.477                                        3.47581e+002           4.75813e+001           7.58130e+000           5.81302e-001           8.13018e-002           1.30185e-003           3.01846e-004
                  105.50    347.57880                               19.92655             82.477                                        3.47579e+002           4.75788e+001           7.57880e+000           5.78801e-001           7.88009e-002           8.80087e-003           8.00866e-004
                  105.60    347.57917                               19.92655             82.477                                        3.47579e+002           4.75792e+001           7.57917e+000           5.79172e-001           7.91719e-002           9.17190e-003           1.71897e-004
