~VERSION INFORMATION
VERS                    .            2.0                                    :CWLS LOG ASCII STANDARD
WRAP                    .            NO                                     :ONE LINE PER TIME STEP


~WELL INFORMATION
#MNEM                   .UNIT        DATA                                    DESCRIPTION
#________________________________________________________________________________________
STRTTIME                .HH/MM/SS    03:09:23                               :START TIME
STOPTIME                .HH/MM/SS    03:12:09                               :STOP TIME
STRT                    .s           2.10                                   :START DATA
STOP                    .s           164.80                                 :STOP DATA
STEP                    .s           0.10                                   :MEASUREMENT TIME INTERVAL
NULL                    .            -999.25                                :NULL VALUE
COMP                    .            Statoil ASA                            :COMPANY
FLD                     .            Volve                                  :FIELD
WELL                    .            15/9-F-1 C                             :WELL
RUN                     .            4                                      :RUN
LOC                     .                                                   :LOCATION
PROV                    .            na                                     :PROVINCE
SRVC                    .            Baker Hughes INTEQ                     :SERVICE COMPANY
DATE                    .YY/MM/DD    14/03/15                               :LOG DATE
UWI                     .                                                   :UNIQUE WELL ID
DEPTHMD                 .m           3523.2                                 :MEASURED DEPTH
DEPTHTVD                .m           2986.7                                 :TRUE VERTICAL DEPTH


~CURVE INFORMATION
#MNEM                   .UNIT        API CODES                               DESCRIPTION
#________________________________________________________________________________________
TIME                    .s                                                  :01 TIME
DD_PRESS                .bar                                                :02 DRAW DOWN PRESSURE
DD_VOLUME               .cm3                                                :03 INCREMENTAL DRAW DOWN VOLUME
TEMP                    .degC                                               :04 TRANSDUCER TEMPERATURE
DD_PRESS_MOD_1000       .bar                                                :05 DRAW DOWN PRESSURE MOD 1000
DD_PRESS_MOD_100        .bar                                                :06 DRAW DOWN PRESSURE MOD 100
DD_PRESS_MOD_10         .bar                                                :07 DRAW DOWN PRESSURE MOD 10
DD_PRESS_MOD_1          .bar                                                :08 DRAW DOWN PRESSURE MOD 1
DD_PRESS_MOD_01         .bar                                                :09 DRAW DOWN PRESSURE MOD 01
DD_PRESS_MOD_001        .bar                                                :10 DRAW DOWN PRESSURE MOD 001
DD_PRESS_MOD_0001       .bar                                                :11 DRAW DOWN PRESSURE MOD 0001


~PARAMETER INFORMATION
#MNEM                   .UNIT        VALUE                                   DESCRIPTION
#________________________________________________________________________________________
TOOLFACE                .deg         104.9                                  :01 TOOLFACE
PUMP_CAPACITY           .bar         400                                    :02 NOMINAL DRAW DOWN PUMP CAPACITY
PUMP_LIMIT              .bar         240                                    :03 DOWNLINK PUMP LIMIT
TIME_LIMIT              .min         10                                     :04 DOWNLINK MAX TIME
TEST_TYPE               .            REPEAT                                 :05 DOWNLINK
TEST_TYPE               .            HIGH MOBILITY                          :06 DOWNLINK
DD_PIST_A               .cm2         3.1416                                 :07 DRAW DOWN PISTON AREA
V_SYS                   .cm3         131.0000                               :08 SYSTEM VOLUME
PROBE_ID                .cm          1.2700                                 :09 TTK PROBE ID
G0                      .            4.6700                                 :10 GEOMETRY FACTOR


~A                  TIME     DD_PRESS                              DD_VOLUME               TEMP                                   DD_PRESS_MOD_1000       DD_PRESS_MOD_100        DD_PRESS_MOD_10         DD_PRESS_MOD_1        DD_PRESS_MOD_01       DD_PRESS_MOD_001      DD_PRESS_MOD_0001
# ...
                   24.50    421.37882                                0.00000             84.570                                        4.21379e+002           2.13788e+001           1.37882e+000           3.78824e-001           7.88241e-002           8.82406e-003           8.24056e-004
                   24.60    421.38335                                0.00000             84.570                                        4.21383e+002           2.13833e+001           1.38335e+000           3.83346e-001           8.33458e-002           3.34580e-003           3.45801e-004
                   24.70    421.37454                                0.00000             84.570                                        4.21375e+002           2.13745e+001           1.37454e+000           3.74543e-001           7.45427e-002           4.54271e-003           5.42710e-004
                   24.80    421.39647                                0.00000             84.570                                        4.21396e+002           2.13965e+001           1.39647e+000           3.96472e-001           9.64723e-002           6.47227e-003           4.72270e-004
                   24.90    421.41843                                0.00000             84.570                                        4.21418e+002           2.14184e+001           1.41843e+000           4.18425e-001           1.84252e-002           8.42517e-003           4.25165e-004
                   25.00    421.41295                                1.06090             84.570                                        4.21413e+002           2.14129e+001           1.41295e+000           4.12948e-001           1.29484e-002           2.94840e-003           9.48396e-004
                   25.10    421.40983                                1.06156             84.570                                        4.21410e+002           2.14098e+001           1.40983e+000           4.09829e-001           9.82864e-003           9.82864e-003           8.28636e-004
                   25.20    421.38920                                1.06292             84.570                                        4.21389e+002           2.13892e+001           1.38920e+000           3.89202e-001           8.92018e-002           9.20183e-003           2.01834e-004
                   25.30    421.27527                                1.06580             84.570                                        4.21275e+002           2.12753e+001           1.27527e+000           2.75269e-001           7.52693e-002           5.26933e-003           2.69328e-004
                   25.40    421.03451                                1.07055             84.570                                        4.21035e+002           2.10345e+001           1.03451e+000           3.45084e-002           3.45084e-002           4.50839e-003           5.08392e-004
                   25.50    420.65333                                1.07735             84.570                                        4.20653e+002           2.06533e+001           6.53333e-001           6.53333e-001           5.33333e-002           3.33327e-003           3.33273e-004
                   25.60    420.11337                                1.08611             84.570                                        4.20113e+002           2.01134e+001           1.13372e-001           1.13372e-001           1.33719e-002           3.37194e-003           3.71940e-004
                   25.70    419.41740                                1.09681             84.570                                        4.19417e+002           1.94174e+001           9.41740e+000           4.17399e-001           1.73995e-002           7.39946e-003           3.99460e-004
                   25.80    418.58692                                1.10951             84.570                                        4.18587e+002           1.85869e+001           8.58692e+000           5.86918e-001           8.69181e-002           6.91813e-003           9.18128e-004
                   25.90    417.64779                                1.12421             84.570                                        4.17648e+002           1.76478e+001           7.64779e+000           6.47793e-001           4.77933e-002           7.79327e-003           7.93265e-004
                   26.00    416.59676                                1.14088             84.570                                        4.16597e+002           1.65968e+001           6.59676e+000           5.96761e-001           9.67607e-002           6.76072e-003           7.60722e-004
                   26.10    415.42913                                1.15953             84.570                                        4.15429e+002           1.54291e+001           5.42913e+000           4.29125e-001           2.91255e-002           9.12547e-003           1.25472e-004
                   26.20    414.18410                                1.18007             84.570                                        4.14184e+002           1.41841e+001           4.18410e+000           1.84096e-001           8.40964e-002           4.09637e-003           9.63736e-005
                   26.30    412.88071                                1.20256             84.570                                        4.12881e+002           1.28807e+001           2.88071e+000           8.80714e-001           8.07136e-002           7.13616e-004           7.13616e-004
                   26.40    411.47584                                1.22697             84.570                                        4.11476e+002           1.14758e+001           1.47584e+000           4.75836e-001           7.58365e-002           5.83646e-003           8.36464e-004
                   26.50    409.90452                                1.25333             84.570                                        4.09905e+002           9.90452e+000           9.90452e+000           9.04519e-001           4.51854e-003           4.51854e-003           5.18544e-004
                   26.60    408.10926                                1.28152             84.568                                        4.08109e+002           8.10926e+000           8.10926e+000           1.09257e-001           9.25739e-003           9.25739e-003           2.57386e-004
                   26.70    406.08605                                1.31164             84.567                                        4.06086e+002           6.08605e+000           6.08605e+000           8.60497e-002           8.60497e-002           6.04974e-003           4.97374e-005
                   26.80    403.88841                                1.34364             84.566                                        4.03888e+002           3.88841e+000           3.88841e+000           8.88408e-001           8.84081e-002           8.40807e-003           4.08070e-004
                   26.90    401.56377                                1.37764             84.564                                        4.01564e+002           1.56377e+000           1.56377e+000           5.63766e-001           6.37658e-002           3.76584e-003           7.65844e-004
                   27.00    399.09696                                1.41348             84.563                                        3.99097e+002           9.90970e+001           9.09696e+000           9.69611e-002           9.69611e-002           6.96105e-003           9.61050e-004
                   27.10    396.46417                                1.45105             84.565                                        3.96464e+002           9.64642e+001           6.46417e+000           4.64170e-001           6.41698e-002           4.16983e-003           1.69828e-004
                   27.20    393.68248                                1.49042             84.568                                        3.93682e+002           9.36825e+001           3.68248e+000           6.82483e-001           8.24830e-002           2.48302e-003           4.83025e-004
