~VERSION INFORMATION
VERS                    .            2.0                                    :CWLS LOG ASCII STANDARD
WRAP                    .            NO                                     :ONE LINE PER TIME STEP


~WELL INFORMATION
#MNEM                   .UNIT        DATA                                    DESCRIPTION
#________________________________________________________________________________________
STRTTIME                .HH/MM/SS    02:42:03                               :START TIME
STOPTIME                .HH/MM/SS    02:44:56                               :STOP TIME
STRT                    .s           2.10                                   :START DATA
STOP                    .s           171.40                                 :STOP DATA
STEP                    .s           0.10                                   :MEASUREMENT TIME INTERVAL
NULL                    .            -999.25                                :NULL VALUE
COMP                    .            Statoil ASA                            :COMPANY
FLD                     .            Volve                                  :FIELD
WELL                    .            15/9-F-1 C                             :WELL
RUN                     .            4                                      :RUN
LOC                     .                                                   :LOCATION
PROV                    .            na                                     :PROVINCE
SRVC                    .            Baker Hughes INTEQ                     :SERVICE COMPANY
DATE                    .YY/MM/DD    14/03/15                               :LOG DATE
UWI                     .                                                   :UNIQUE WELL ID
DEPTHMD                 .m           3551.1                                 :MEASURED DEPTH
DEPTHTVD                .m           2992.9                                 :TRUE VERTICAL DEPTH


~CURVE INFORMATION
#MNEM                   .UNIT        API CODES                               DESCRIPTION
#________________________________________________________________________________________
TIME                    .s                                                  :01 TIME
DD_PRESS                .bar                                                :02 DRAW DOWN PRESSURE
DD_VOLUME               .cm3                                                :03 INCREMENTAL DRAW DOWN VOLUME
TEMP                    .degC                                               :04 TRANSDUCER TEMPERATURE
DD_PRESS_MOD_1000       .bar                                                :05 DRAW DOWN PRESSURE MOD 1000
DD_PRESS_MOD_100        .bar                                                :06 DRAW DOWN PRESSURE MOD 100
DD_PRESS_MOD_10         .bar                                                :07 DRAW DOWN PRESSURE MOD 10
DD_PRESS_MOD_1          .bar                                                :08 DRAW DOWN PRESSURE MOD 1
DD_PRESS_MOD_01         .bar                                                :09 DRAW DOWN PRESSURE MOD 01
DD_PRESS_MOD_001        .bar                                                :10 DRAW DOWN PRESSURE MOD 001
DD_PRESS_MOD_0001       .bar                                                :11 DRAW DOWN PRESSURE MOD 0001


~PARAMETER INFORMATION
#MNEM                   .UNIT        VALUE                                   DESCRIPTION
#________________________________________________________________________________________
TOOLFACE                .deg         84.6                                   :01 TOOLFACE
PUMP_CAPACITY           .bar         400                                    :02 NOMINAL DRAW DOWN PUMP CAPACITY
PUMP_LIMIT              .bar         240                                    :03 DOWNLINK PUMP LIMIT
TIME_LIMIT              .min         10                                     :04 DOWNLINK MAX TIME
TEST_TYPE               .            REPEAT                                 :05 DOWNLINK
TEST_TYPE               .            HIGH MOBILITY                          :06 DOWNLINK
DD_PIST_A               .cm2         3.1416                                 :07 DRAW DOWN PISTON AREA
V_SYS                   .cm3         131.0000                               :08 SYSTEM VOLUME
PROBE_ID                .cm          1.2700                                 :09 TTK PROBE ID
G0                      .            4.6700                                 :10 GEOMETRY FACTOR


~A                  TIME     DD_PRESS                              DD_VOLUME               TEMP                                   DD_PRESS_MOD_1000       DD_PRESS_MOD_100        DD_PRESS_MOD_10         DD_PRESS_MOD_1        DD_PRESS_MOD_01       DD_PRESS_MOD_001      DD_PRESS_MOD_0001
# ...
                  170.10    423.10694                                0.00000             85.133                                        4.23107e+002           2.31069e+001           3.10694e+000           1.06936e-001           6.93553e-003           6.93553e-003           9.35526e-004
                  170.20    423.10471                                0.00000             85.133                                        4.23105e+002           2.31047e+001           3.10471e+000           1.04714e-001           4.71441e-003           4.71441e-003           7.14411e-004
                  170.30    423.09503                                0.00000             85.133                                        4.23095e+002           2.30950e+001           3.09503e+000           9.50263e-002           9.50263e-002           5.02628e-003           2.62750e-005
                  170.40    423.09473                                0.00000             85.133                                        4.23095e+002           2.30947e+001           3.09473e+000           9.47308e-002           9.47308e-002           4.73081e-003           7.30813e-004
                  170.50    423.11357                                0.00000             85.133                                        4.23114e+002           2.31136e+001           3.11357e+000           1.13569e-001           1.35692e-002           3.56919e-003           5.69188e-004
                  170.60    423.12360                                0.00000             85.133                                        4.23124e+002           2.31236e+001           3.12360e+000           1.23597e-001           2.35965e-002           3.59654e-003           5.96539e-004
                  170.70    423.10962                                0.00000             85.133                                        4.23110e+002           2.31096e+001           3.10962e+000           1.09621e-001           9.62077e-003           9.62077e-003           6.20771e-004
                  170.80    423.10016                                0.00000             85.133                                        4.23100e+002           2.31002e+001           3.10016e+000           1.00160e-001           1.59776e-004           1.59776e-004           1.59776e-004
                  170.90    423.10376                                0.00000             85.133                                        4.23104e+002           2.31038e+001           3.10376e+000           1.03759e-001           3.75856e-003           3.75856e-003           7.58558e-004
                  171.00    423.11231                                0.00000             85.133                                        4.23112e+002           2.31123e+001           3.11231e+000           1.12314e-001           1.23137e-002           2.31367e-003           3.13667e-004
                  171.10    423.11756                                0.00000             85.133                                        4.23118e+002           2.31176e+001           3.11756e+000           1.17561e-001           1.75607e-002           7.56065e-003           5.60654e-004
                  171.20    423.11818                                0.00000             85.133                                        4.23118e+002           2.31182e+001           3.11818e+000           1.18181e-001           1.81812e-002           8.18121e-003           1.81211e-004
                  171.30    423.11944                                0.00000             85.133                                        4.23119e+002           2.31194e+001           3.11944e+000           1.19437e-001           1.94369e-002           9.43693e-003           4.36927e-004
                  171.40    423.12143                                0.00000             85.133                                        4.23121e+002           2.31214e+001           3.12143e+000           1.21433e-001           2.14329e-002           1.43292e-003           4.32919e-004
