~VERSION INFORMATION
VERS                    .            2.0                                    :CWLS LOG ASCII STANDARD
WRAP                    .            NO                                     :ONE LINE PER TIME STEP


~WELL INFORMATION
#MNEM                   .UNIT        DATA                                    DESCRIPTION
#________________________________________________________________________________________
STRTTIME                .HH/MM/SS    04:27:44                               :START TIME
STOPTIME                .HH/MM/SS    04:30:31                               :STOP TIME
STRT                    .s           2.10                                   :START DATA
STOP                    .s           165.30                                 :STOP DATA
STEP                    .s           0.10                                   :MEASUREMENT TIME INTERVAL
NULL                    .            -999.25                                :NULL VALUE
COMP                    .            Statoil ASA                            :COMPANY
FLD                     .            Volve                                  :FIELD
WELL                    .            15/9-F-1 C                             :WELL
RUN                     .            4                                      :RUN
LOC                     .                                                   :LOCATION
PROV                    .            na                                     :PROVINCE
SRVC                    .            Baker Hughes INTEQ                     :SERVICE COMPANY
DATE                    .YY/MM/DD    14/03/15                               :LOG DATE
UWI                     .                                                   :UNIQUE WELL ID
DEPTHMD                 .m           3273.1                                 :MEASURED DEPTH
DEPTHTVD                .m           2948.3                                 :TRUE VERTICAL DEPTH


~CURVE INFORMATION
#MNEM                   .UNIT        API CODES                               DESCRIPTION
#________________________________________________________________________________________
TIME                    .s                                                  :01 TIME
DD_PRESS                .bar                                                :02 DRAW DOWN PRESSURE
DD_VOLUME               .cm3                                                :03 INCREMENTAL DRAW DOWN VOLUME
TEMP                    .degC                                               :04 TRANSDUCER TEMPERATURE
DD_PRESS_MOD_1000       .bar                                                :05 DRAW DOWN PRESSURE MOD 1000
DD_PRESS_MOD_100        .bar                                                :06 DRAW DOWN PRESSURE MOD 100
DD_PRESS_MOD_10         .bar                                                :07 DRAW DOWN PRESSURE MOD 10
DD_PRESS_MOD_1          .bar                                                :08 DRAW DOWN PRESSURE MOD 1
DD_PRESS_MOD_01         .bar                                                :09 DRAW DOWN PRESSURE MOD 01
DD_PRESS_MOD_001        .bar                                                :10 DRAW DOWN PRESSURE MOD 001
DD_PRESS_MOD_0001       .bar                                                :11 DRAW DOWN PRESSURE MOD 0001


~PARAMETER INFORMATION
#MNEM                   .UNIT        VALUE                                   DESCRIPTION
#________________________________________________________________________________________
TOOLFACE                .deg         76.8                                   :01 TOOLFACE
PUMP_CAPACITY           .bar         400                                    :02 NOMINAL DRAW DOWN PUMP CAPACITY
PUMP_LIMIT              .bar         240                                    :03 DOWNLINK PUMP LIMIT
TIME_LIMIT              .min         10                                     :04 DOWNLINK MAX TIME
TEST_TYPE               .            REPEAT                                 :05 DOWNLINK
TEST_TYPE               .            HIGH MOBILITY                          :06 DOWNLINK
DD_PIST_A               .cm2         3.1416                                 :07 DRAW DOWN PISTON AREA
V_SYS                   .cm3         131.0000                               :08 SYSTEM VOLUME
PROBE_ID                .cm          1.2700                                 :09 TTK PROBE ID
G0                      .            4.6700                                 :10 GEOMETRY FACTOR


~A                  TIME     DD_PRESS                              DD_VOLUME               TEMP                                   DD_PRESS_MOD_1000       DD_PRESS_MOD_100        DD_PRESS_MOD_10         DD_PRESS_MOD_1        DD_PRESS_MOD_01       DD_PRESS_MOD_001      DD_PRESS_MOD_0001
# ...
                   97.30    338.17484                               19.70800             84.953                                        3.38175e+002           3.81748e+001           8.17484e+000           1.74838e-001           7.48384e-002           4.83843e-003           8.38428e-004
                   97.40    338.17299                               19.70800             84.953                                        3.38173e+002           3.81730e+001           8.17299e+000           1.72993e-001           7.29926e-002           2.99263e-003           9.92632e-004
                   97.50    338.17196                               19.70800             84.953                                        3.38172e+002           3.81720e+001           8.17196e+000           1.71963e-001           7.19633e-002           1.96326e-003           9.63262e-004
                   97.60    338.17352                               19.70800             84.953                                        3.38174e+002           3.81735e+001           8.17352e+000           1.73520e-001           7.35200e-002           3.51999e-003           5.19991e-004
                   97.70    338.17505                               19.70800             84.953                                        3.38175e+002           3.81751e+001           8.17505e+000           1.75053e-001           7.50530e-002           5.05301e-003           5.30109e-005
                   97.80    338.17530                               19.70800             84.953                                        3.38175e+002           3.81753e+001           8.17530e+000           1.75299e-001           7.52989e-002           5.29894e-003           2.98943e-004
                   97.90    338.17453                               19.70800             84.953                                        3.38175e+002           3.81745e+001           8.17453e+000           1.74531e-001           7.45307e-002           4.53067e-003           5.30675e-004
                   98.00    338.17110                               19.70800             84.953                                        3.38171e+002           3.81711e+001           8.17110e+000           1.71101e-001           7.11012e-002           1.10121e-003           1.01205e-004
                   98.10    338.16920                               19.70800             84.953                                        3.38169e+002           3.81692e+001           8.16920e+000           1.69199e-001           6.91987e-002           9.19870e-003           1.98697e-004
                   98.20    338.17083                               19.70800             84.953                                        3.38171e+002           3.81708e+001           8.17083e+000           1.70834e-001           7.08340e-002           8.33952e-004           8.33952e-004
                   98.30    338.17362                               19.70800             84.953                                        3.38174e+002           3.81736e+001           8.17362e+000           1.73619e-001           7.36185e-002           3.61851e-003           6.18505e-004
                   98.40    338.17332                               19.70800             84.953                                        3.38173e+002           3.81733e+001           8.17332e+000           1.73320e-001           7.33197e-002           3.31974e-003           3.19745e-004
                   98.50    338.17380                               19.70800             84.953                                        3.38174e+002           3.81738e+001           8.17380e+000           1.73798e-001           7.37982e-002           3.79823e-003           7.98234e-004
                   98.60    338.17401                               19.70800             84.953                                        3.38174e+002           3.81740e+001           8.17401e+000           1.74011e-001           7.40106e-002           4.01062e-003           1.06217e-005
                   98.70    338.17632                               19.70800             84.953                                        3.38176e+002           3.81763e+001           8.17632e+000           1.76324e-001           7.63240e-002           6.32405e-003           3.24050e-004
                   98.80    338.17717                               19.70800             84.953                                        3.38177e+002           3.81772e+001           8.17717e+000           1.77172e-001           7.71723e-002           7.17233e-003           1.72328e-004
                   98.90    338.17776                               19.70800             84.953                                        3.38178e+002           3.81778e+001           8.17776e+000           1.77758e-001           7.77579e-002           7.75788e-003           7.57882e-004
                   99.00    338.17705                               19.70800             84.953                                        3.38177e+002           3.81771e+001           8.17705e+000           1.77051e-001           7.70512e-002           7.05120e-003           5.12030e-005
                   99.10    338.17469                               19.70800             84.953                                        3.38175e+002           3.81747e+001           8.17469e+000           1.74688e-001           7.46877e-002           4.68766e-003           6.87656e-004
                   99.20    338.17512                               19.70800             84.953                                        3.38175e+002           3.81751e+001           8.17512e+000           1.75115e-001           7.51151e-002           5.11507e-003           1.15073e-004
                   99.30    338.17588                               19.70800             84.953                                        3.38176e+002           3.81759e+001           8.17588e+000           1.75880e-001           7.58803e-002           5.88026e-003           8.80259e-004
                   99.40    338.17164                               19.70800             84.953                                        3.38172e+002           3.81716e+001           8.17164e+000           1.71643e-001           7.16433e-002           1.64330e-003           6.43302e-004
                   99.50    338.17010                               19.70800             84.953                                        3.38170e+002           3.81701e+001           8.17010e+000           1.70095e-001           7.00951e-002           9.51352e-005           9.51352e-005
                   99.60    338.17155                               19.70800             84.953                                        3.38172e+002           3.81715e+001           8.17155e+000           1.71546e-001           7.15459e-002           1.54588e-003           5.45876e-004
                   99.70    338.17196                               19.70800             84.953                                        3.38172e+002           3.81720e+001           8.17196e+000           1.71965e-001           7.19650e-002           1.96499e-003           9.64987e-004
                   99.80    338.17184                               19.70800             84.953                                        3.38172e+002           3.81718e+001           8.17184e+000           1.71843e-001           7.18427e-002           1.84274e-003           8.42742e-004
                   99.90    338.17288                               19.70800             84.953                                        3.38173e+002           3.81729e+001           8.17288e+000           1.72884e-001           7.28838e-002           2.88381e-003           8.83807e-004
                  100.00    338.17584                               19.70800             84.953                                        3.38176e+002           3.81758e+001           8.17584e+000           1.75844e-001           7.58445e-002           5.84447e-003           8.44471e-004
