~VERSION INFORMATION
VERS                    .            2.0                                    :CWLS LOG ASCII STANDARD
WRAP                    .            NO                                     :ONE LINE PER TIME STEP


~WELL INFORMATION
#MNEM                   .UNIT        DATA                                    DESCRIPTION
#________________________________________________________________________________________
STRTTIME                .HH/MM/SS    14:04:48                               :START TIME
STOPTIME                .HH/MM/SS    14:07:57                               :STOP TIME
STRT                    .s           2.10                                   :START DATA
STOP                    .s           187.50                                 :STOP DATA
STEP                    .s           0.10                                   :MEASUREMENT TIME INTERVAL
NULL                    .            -999.25                                :NULL VALUE
COMP                    .            Statoil ASA                            :COMPANY
FLD                     .            Volve                                  :FIELD
WELL                    .            15/9-F-1 B                             :WELL
RUN                     .            7                                      :RUN
LOC                     .            Maersk Inspirer                        :LOCATION
PROV                    .            na                                     :PROVINCE
SRVC                    .            Baker Hughes INTEQ                     :SERVICE COMPANY
DATE                    .YY/MM/DD    13/09/06                               :LOG DATE
UWI                     .                                                   :UNIQUE WELL ID
DEPTHMD                 .m           3296.0                                 :MEASURED DEPTH
DEPTHTVD                .m           3091.5                                 :TRUE VERTICAL DEPTH


~CURVE INFORMATION
#MNEM                   .UNIT        API CODES                               DESCRIPTION
#________________________________________________________________________________________
TIME                    .s                                                  :01 TIME
DD_PRESS                .bar                                                :02 DRAW DOWN PRESSURE
DD_VOLUME               .cm3                                                :03 INCREMENTAL DRAW DOWN VOLUME
TEMP                    .degC                                               :04 TRANSDUCER TEMPERATURE
DD_PRESS_MOD_1000       .bar                                                :05 DRAW DOWN PRESSURE MOD 1000
DD_PRESS_MOD_100        .bar                                                :06 DRAW DOWN PRESSURE MOD 100
DD_PRESS_MOD_10         .bar                                                :07 DRAW DOWN PRESSURE MOD 10
DD_PRESS_MOD_1          .bar                                                :08 DRAW DOWN PRESSURE MOD 1
DD_PRESS_MOD_01         .bar                                                :09 DRAW DOWN PRESSURE MOD 01
DD_PRESS_MOD_001        .bar                                                :10 DRAW DOWN PRESSURE MOD 001
DD_PRESS_MOD_0001       .bar                                                :11 DRAW DOWN PRESSURE MOD 0001


~PARAMETER INFORMATION
#MNEM                   .UNIT        VALUE                                   DESCRIPTION
#________________________________________________________________________________________
TOOLFACE                .deg         na                                     :01 TOOLFACE
PUMP_CAPACITY           .bar         400                                    :02 NOMINAL DRAW DOWN PUMP CAPACITY
PUMP_LIMIT              .bar         400                                    :03 DOWNLINK PUMP LIMIT
TIME_LIMIT              .min         10                                     :04 DOWNLINK MAX TIME
TEST_TYPE               .            LOW MOBILITY                           :05 DOWNLINK
DD_PIST_A               .cm2         3.1416                                 :06 DRAW DOWN PISTON AREA
V_SYS                   .cm3         131.0000                               :07 SYSTEM VOLUME
PROBE_ID                .cm          1.2700                                 :08 TTK PROBE ID
G0                      .            4.6700                                 :09 GEOMETRY FACTOR


~A                  TIME     DD_PRESS                              DD_VOLUME               TEMP                                   DD_PRESS_MOD_1000       DD_PRESS_MOD_100        DD_PRESS_MOD_10         DD_PRESS_MOD_1        DD_PRESS_MOD_01       DD_PRESS_MOD_001      DD_PRESS_MOD_0001
# ...
                   27.30    438.18609                                1.35916             83.359                                        4.38186e+002           3.81861e+001           8.18609e+000           1.86090e-001           8.60895e-002           6.08955e-003           8.95476e-005
                   27.40    437.38336                                1.37496             83.359                                        4.37383e+002           3.73834e+001           7.38336e+000           3.83362e-001           8.33623e-002           3.36231e-003           3.62313e-004
                   27.50    436.47220                                1.39278             83.359                                        4.36472e+002           3.64722e+001           6.47220e+000           4.72198e-001           7.21981e-002           2.19806e-003           1.98058e-004
                   27.60    435.48745                                1.41259             83.359                                        4.35487e+002           3.54875e+001           5.48745e+000           4.87452e-001           8.74522e-002           7.45220e-003           4.52196e-004
                   27.70    434.45097                                1.43432             83.359                                        4.34451e+002           3.44510e+001           4.45097e+000           4.50966e-001           5.09659e-002           9.65879e-004           9.65879e-004
                   27.80    433.31286                                1.45798             83.359                                        4.33313e+002           3.33129e+001           3.31286e+000           3.12861e-001           1.28610e-002           2.86095e-003           8.60954e-004
                   27.90    432.07003                                1.48354             83.359                                        4.32070e+002           3.20700e+001           2.07003e+000           7.00327e-002           7.00327e-002           3.26970e-005           3.26970e-005
                   28.00    430.72731                                1.51114             83.359                                        4.30727e+002           3.07273e+001           7.27311e-001           7.27311e-001           2.73114e-002           7.31140e-003           3.11401e-004
                   28.10    429.21440                                1.54060             83.359                                        4.29214e+002           2.92144e+001           9.21440e+000           2.14405e-001           1.44048e-002           4.40480e-003           4.04796e-004
                   28.20    427.46099                                1.57188             83.359                                        4.27461e+002           2.74610e+001           7.46099e+000           4.60987e-001           6.09869e-002           9.86884e-004           9.86884e-004
                   28.30    425.39870                                1.60501             83.359                                        4.25399e+002           2.53987e+001           5.39870e+000           3.98703e-001           9.87028e-002           8.70277e-003           7.02772e-004
                   28.40    423.02563                                1.63993             83.359                                        4.23026e+002           2.30256e+001           3.02563e+000           2.56269e-002           2.56269e-002           5.62693e-003           6.26926e-004
                   28.50    420.43496                                1.67675             83.359                                        4.20435e+002           2.04350e+001           4.34964e-001           4.34964e-001           3.49645e-002           4.96447e-003           9.64470e-004
                   28.60    417.68601                                1.71556             83.359                                        4.17686e+002           1.76860e+001           7.68601e+000           6.86014e-001           8.60139e-002           6.01388e-003           1.38839e-005
                   28.70    414.75313                                1.75612             83.359                                        4.14753e+002           1.47531e+001           4.75313e+000           7.53132e-001           5.31325e-002           3.13249e-003           1.32490e-004
                   28.80    411.65440                                1.79848             83.359                                        4.11654e+002           1.16544e+001           1.65440e+000           6.54402e-001           5.44021e-002           4.40208e-003           4.02077e-004
                   28.90    408.40089                                1.84261             83.359                                        4.08401e+002           8.40089e+000           8.40089e+000           4.00890e-001           8.90199e-004           8.90199e-004           8.90199e-004
                   29.00    404.96735                                1.88844             83.359                                        4.04967e+002           4.96735e+000           4.96735e+000           9.67353e-001           6.73533e-002           7.35332e-003           3.53319e-004
                   29.10    401.34150                                1.93601             83.359                                        4.01341e+002           1.34150e+000           1.34150e+000           3.41498e-001           4.14978e-002           1.49776e-003           4.97756e-004
                   29.20    397.55499                                1.98537             83.359                                        3.97555e+002           9.75550e+001           7.55499e+000           5.54988e-001           5.49883e-002           4.98834e-003           9.88339e-004
                   29.30    393.61442                                2.03651             83.359                                        3.93614e+002           9.36144e+001           3.61442e+000           6.14423e-001           1.44232e-002           4.42318e-003           4.23183e-004
                   29.40    389.52267                                2.08921             83.357                                        3.89523e+002           8.95227e+001           9.52267e+000           5.22672e-001           2.26723e-002           2.67226e-003           6.72261e-004
                   29.50    385.26943                                2.14365             83.354                                        3.85269e+002           8.52694e+001           5.26943e+000           2.69429e-001           6.94291e-002           9.42908e-003           4.29075e-004
                   29.60    380.86367                                2.19976             83.352                                        3.80864e+002           8.08637e+001           8.63673e-001           8.63673e-001           6.36728e-002           3.67282e-003           6.72825e-004
                   29.70    376.34374                                2.25748             83.352                                        3.76344e+002           7.63437e+001           6.34374e+000           3.43742e-001           4.37418e-002           3.74182e-003           7.41815e-004
                   29.80    371.69179                                2.31685             83.352                                        3.71692e+002           7.16918e+001           1.69179e+000           6.91787e-001           9.17874e-002           1.78743e-003           7.87428e-004
                   29.90    366.88487                                2.37768             83.352                                        3.66885e+002           6.68849e+001           6.88487e+000           8.84869e-001           8.48691e-002           4.86914e-003           8.69140e-004
                   30.00    361.94963                                2.43993             83.352                                        3.61950e+002           6.19496e+001           1.94963e+000           9.49630e-001           4.96298e-002           9.62976e-003           6.29755e-004
