~VERSION INFORMATION
VERS                    .            2.0                                    :CWLS LOG ASCII STANDARD
WRAP                    .            NO                                     :ONE LINE PER TIME STEP


~WELL INFORMATION
#MNEM                   .UNIT        DATA                                    DESCRIPTION
#________________________________________________________________________________________
STRTTIME                .HH/MM/SS    11:07:04                               :START TIME
STOPTIME                .HH/MM/SS    11:10:49                               :STOP TIME
STRT                    .s           2.10                                   :START DATA
STOP                    .s           223.10                                 :STOP DATA
STEP                    .s           0.10                                   :MEASUREMENT TIME INTERVAL
NULL                    .            -999.25                                :NULL VALUE
COMP                    .            Statoil ASA                            :COMPANY
FLD                     .            Volve                                  :FIELD
WELL                    .            15/9-F-11 A                            :WELL
RUN                     .            8                                      :RUN
LOC                     .            Maersk Inspirer                        :LOCATION
PROV                    .            na                                     :PROVINCE
SRVC                    .            Baker Hughes INTEQ                     :SERVICE COMPANY
DATE                    .YY/MM/DD    13/05/21                               :LOG DATE
UWI                     .                                                   :UNIQUE WELL ID
DEPTHMD                 .m           3632.0                                 :MEASURED DEPTH
DEPTHTVD                .m           3026.9                                 :TRUE VERTICAL DEPTH


~CURVE INFORMATION
#MNEM                   .UNIT        API CODES                               DESCRIPTION
#________________________________________________________________________________________
TIME                    .s                                                  :01 TIME
DD_PRESS                .bar                                                :02 DRAW DOWN PRESSURE
DD_VOLUME               .cm3                                                :03 INCREMENTAL DRAW DOWN VOLUME
TEMP                    .degC                                               :04 TRANSDUCER TEMPERATURE
DD_PRESS_MOD_1000       .bar                                                :05 DRAW DOWN PRESSURE MOD 1000
DD_PRESS_MOD_100        .bar                                                :06 DRAW DOWN PRESSURE MOD 100
DD_PRESS_MOD_10         .bar                                                :07 DRAW DOWN PRESSURE MOD 10
DD_PRESS_MOD_1          .bar                                                :08 DRAW DOWN PRESSURE MOD 1
DD_PRESS_MOD_01         .bar                                                :09 DRAW DOWN PRESSURE MOD 01
DD_PRESS_MOD_001        .bar                                                :10 DRAW DOWN PRESSURE MOD 001
DD_PRESS_MOD_0001       .bar                                                :11 DRAW DOWN PRESSURE MOD 0001


~PARAMETER INFORMATION
#MNEM                   .UNIT        VALUE                                   DESCRIPTION
#________________________________________________________________________________________
TOOLFACE                .deg         66.7                                   :01 TOOLFACE
PUMP_CAPACITY           .bar         400                                    :02 NOMINAL DRAW DOWN PUMP CAPACITY
PUMP_LIMIT              .bar         240                                    :03 DOWNLINK PUMP LIMIT
TIME_LIMIT              .min         10                                     :04 DOWNLINK MAX TIME
TEST_TYPE               .            REPEAT                                 :05 DOWNLINK
TEST_TYPE               .            HIGH MOBILITY                          :06 DOWNLINK
DD_PIST_A               .cm2         3.1416                                 :07 DRAW DOWN PISTON AREA
V_SYS                   .cm3         131.0000                               :08 SYSTEM VOLUME
PROBE_ID                .cm          1.2700                                 :09 TTK PROBE ID
G0                      .            4.6700                                 :10 GEOMETRY FACTOR


~A                  TIME     DD_PRESS                              DD_VOLUME               TEMP                                   DD_PRESS_MOD_1000       DD_PRESS_MOD_100        DD_PRESS_MOD_10         DD_PRESS_MOD_1        DD_PRESS_MOD_01       DD_PRESS_MOD_001      DD_PRESS_MOD_0001
# ...
                   16.10    415.59453                                0.00000             80.656                                        4.15595e+002           1.55945e+001           5.59453e+000           5.94531e-001           9.45306e-002           4.53059e-003           5.30589e-004
                   16.20    415.61912                                0.00000             80.656                                        4.15619e+002           1.56191e+001           5.61912e+000           6.19122e-001           1.91219e-002           9.12194e-003           1.21945e-004
                   16.30    415.62331                                0.00000             80.656                                        4.15623e+002           1.56233e+001           5.62331e+000           6.23306e-001           2.33062e-002           3.30619e-003           3.06189e-004
                   16.40    415.60220                                0.00000             80.656                                        4.15602e+002           1.56022e+001           5.60220e+000           6.02203e-001           2.20282e-003           2.20282e-003           2.02824e-004
                   16.50    415.60146                                0.00000             80.656                                        4.15601e+002           1.56015e+001           5.60146e+000           6.01464e-001           1.46438e-003           1.46438e-003           4.64383e-004
                   16.60    415.62568                                0.00000             80.656                                        4.15626e+002           1.56257e+001           5.62568e+000           6.25679e-001           2.56788e-002           5.67876e-003           6.78765e-004
                   16.70    415.62378                                0.00000             80.656                                        4.15624e+002           1.56238e+001           5.62378e+000           6.23780e-001           2.37799e-002           3.77991e-003           7.79910e-004
                   16.80    415.61008                                0.00000             80.656                                        4.15610e+002           1.56101e+001           5.61008e+000           6.10078e-001           1.00778e-002           7.78454e-005           7.78454e-005
                   16.90    415.60804                                0.00000             80.656                                        4.15608e+002           1.56080e+001           5.60804e+000           6.08039e-001           8.03895e-003           8.03895e-003           3.89455e-005
                   17.00    415.63225                                0.00000             80.656                                        4.15632e+002           1.56322e+001           5.63225e+000           6.32247e-001           3.22468e-002           2.24676e-003           2.46765e-004
                   17.10    415.64737                                0.00000             80.656                                        4.15647e+002           1.56474e+001           5.64737e+000           6.47368e-001           4.73684e-002           7.36836e-003           3.68365e-004
                   17.20    415.64262                                0.00000             80.656                                        4.15643e+002           1.56426e+001           5.64262e+000           6.42621e-001           4.26214e-002           2.62142e-003           6.21423e-004
                   17.30    415.62913                                0.00000             80.656                                        4.15629e+002           1.56291e+001           5.62913e+000           6.29130e-001           2.91302e-002           9.13019e-003           1.30191e-004
                   17.40    415.62014                                0.00000             80.656                                        4.15620e+002           1.56201e+001           5.62014e+000           6.20141e-001           2.01412e-002           1.41191e-004           1.41191e-004
                   17.50    415.60781                                0.00000             80.656                                        4.15608e+002           1.56078e+001           5.60781e+000           6.07807e-001           7.80714e-003           7.80714e-003           8.07139e-004
                   17.60    415.59607                                0.00000             80.656                                        4.15596e+002           1.55961e+001           5.59607e+000           5.96068e-001           9.60675e-002           6.06754e-003           6.75409e-005
                   17.70    415.60035                                0.00000             80.656                                        4.15600e+002           1.56003e+001           5.60035e+000           6.00347e-001           3.47310e-004           3.47310e-004           3.47310e-004
                   17.80    415.60554                                0.00000             80.656                                        4.15606e+002           1.56055e+001           5.60554e+000           6.05539e-001           5.53943e-003           5.53943e-003           5.39430e-004
                   17.90    415.59230                                0.00000             80.656                                        4.15592e+002           1.55923e+001           5.59230e+000           5.92301e-001           9.23008e-002           2.30077e-003           3.00773e-004
                   18.00    415.58579                                0.00000             80.656                                        4.15586e+002           1.55858e+001           5.58579e+000           5.85791e-001           8.57914e-002           5.79144e-003           7.91436e-004
                   18.10    415.60024                                0.00000             80.656                                        4.15600e+002           1.56002e+001           5.60024e+000           6.00240e-001           2.40450e-004           2.40450e-004           2.40450e-004
                   18.20    415.60591                                0.00000             80.656                                        4.15606e+002           1.56059e+001           5.60591e+000           6.05906e-001           5.90604e-003           5.90604e-003           9.06039e-004
                   18.30    415.59419                                0.00000             80.656                                        4.15594e+002           1.55942e+001           5.59419e+000           5.94187e-001           9.41869e-002           4.18686e-003           1.86861e-004
                   18.40    415.58229                                0.00000             80.656                                        4.15582e+002           1.55823e+001           5.58229e+000           5.82295e-001           8.22948e-002           2.29479e-003           2.94794e-004
                   18.50    415.58645                                0.00000             80.656                                        4.15586e+002           1.55864e+001           5.58645e+000           5.86445e-001           8.64453e-002           6.44528e-003           4.45284e-004
                   18.60    415.58360                                0.00000             80.656                                        4.15584e+002           1.55836e+001           5.58360e+000           5.83601e-001           8.36006e-002           3.60064e-003           6.00638e-004
                   18.70    415.57463                                0.00000             80.656                                        4.15575e+002           1.55746e+001           5.57463e+000           5.74633e-001           7.46325e-002           4.63253e-003           6.32531e-004
                   18.80    415.57812                                0.00000             80.656                                        4.15578e+002           1.55781e+001           5.57812e+000           5.78124e-001           7.81239e-002           8.12395e-003           1.23949e-004
