~VERSION INFORMATION
VERS                    .            2.0                                    :CWLS LOG ASCII STANDARD
WRAP                    .            NO                                     :ONE LINE PER TIME STEP


~WELL INFORMATION
#MNEM                   .UNIT        DATA                                    DESCRIPTION
#________________________________________________________________________________________
STRTTIME                .HH/MM/SS    19:20:48                               :START TIME
STOPTIME                .HH/MM/SS    19:23:33                               :STOP TIME
STRT                    .s           2.10                                   :START DATA
STOP                    .s           164.00                                 :STOP DATA
STEP                    .s           0.10                                   :MEASUREMENT TIME INTERVAL
NULL                    .            -999.25                                :NULL VALUE
COMP                    .            Statoil ASA                            :COMPANY
FLD                     .            Volve                                  :FIELD
WELL                    .            15/9-F-11 A                            :WELL
RUN                     .            8                                      :RUN
LOC                     .            Maersk Inspirer                        :LOCATION
PROV                    .            na                                     :PROVINCE
SRVC                    .            Baker Hughes INTEQ                     :SERVICE COMPANY
DATE                    .YY/MM/DD    13/05/23                               :LOG DATE
UWI                     .                                                   :UNIQUE WELL ID
DEPTHMD                 .m           3617.0                                 :MEASURED DEPTH
DEPTHTVD                .m           3015.4                                 :TRUE VERTICAL DEPTH


~CURVE INFORMATION
#MNEM                   .UNIT        API CODES                               DESCRIPTION
#________________________________________________________________________________________
TIME                    .s                                                  :01 TIME
DD_PRESS                .bar                                                :02 DRAW DOWN PRESSURE
DD_VOLUME               .cm3                                                :03 INCREMENTAL DRAW DOWN VOLUME
TEMP                    .degC                                               :04 TRANSDUCER TEMPERATURE
DD_PRESS_MOD_1000       .bar                                                :05 DRAW DOWN PRESSURE MOD 1000
DD_PRESS_MOD_100        .bar                                                :06 DRAW DOWN PRESSURE MOD 100
DD_PRESS_MOD_10         .bar                                                :07 DRAW DOWN PRESSURE MOD 10
DD_PRESS_MOD_1          .bar                                                :08 DRAW DOWN PRESSURE MOD 1
DD_PRESS_MOD_01         .bar                                                :09 DRAW DOWN PRESSURE MOD 01
DD_PRESS_MOD_001        .bar                                                :10 DRAW DOWN PRESSURE MOD 001
DD_PRESS_MOD_0001       .bar                                                :11 DRAW DOWN PRESSURE MOD 0001


~PARAMETER INFORMATION
#MNEM                   .UNIT        VALUE                                   DESCRIPTION
#________________________________________________________________________________________
TOOLFACE                .deg         -39.9                                  :01 TOOLFACE
PUMP_CAPACITY           .bar         400                                    :02 NOMINAL DRAW DOWN PUMP CAPACITY
PUMP_LIMIT              .bar         240                                    :03 DOWNLINK PUMP LIMIT
TIME_LIMIT              .min         10                                     :04 DOWNLINK MAX TIME
TEST_TYPE               .            REPEAT                                 :05 DOWNLINK
TEST_TYPE               .            HIGH MOBILITY                          :06 DOWNLINK
DD_PIST_A               .cm2         3.1416                                 :07 DRAW DOWN PISTON AREA
V_SYS                   .cm3         131.0000                               :08 SYSTEM VOLUME
PROBE_ID                .cm          1.2700                                 :09 TTK PROBE ID
G0                      .            4.6700                                 :10 GEOMETRY FACTOR


~A                  TIME     DD_PRESS                              DD_VOLUME               TEMP                                   DD_PRESS_MOD_1000       DD_PRESS_MOD_100        DD_PRESS_MOD_10         DD_PRESS_MOD_1        DD_PRESS_MOD_01       DD_PRESS_MOD_001      DD_PRESS_MOD_0001
# ...
                  130.90    340.84011                               29.44059             72.063                                        3.40840e+002           4.08401e+001           8.40112e-001           8.40112e-001           4.01118e-002           1.11815e-004           1.11815e-004
                  131.00    340.83978                               29.44059             72.063                                        3.40840e+002           4.08398e+001           8.39781e-001           8.39781e-001           3.97807e-002           9.78065e-003           7.80650e-004
                  131.10    340.83982                               29.44059             72.063                                        3.40840e+002           4.08398e+001           8.39817e-001           8.39817e-001           3.98174e-002           9.81735e-003           8.17352e-004
                  131.20    340.83985                               29.44059             72.063                                        3.40840e+002           4.08399e+001           8.39854e-001           8.39854e-001           3.98535e-002           9.85352e-003           8.53521e-004
                  131.30    340.83822                               29.44059             72.063                                        3.40838e+002           4.08382e+001           8.38221e-001           8.38221e-001           3.82207e-002           8.22075e-003           2.20748e-004
                  131.40    340.83820                               29.44059             72.063                                        3.40838e+002           4.08382e+001           8.38199e-001           8.38199e-001           3.81994e-002           8.19945e-003           1.99447e-004
                  131.50    340.83948                               29.44059             72.063                                        3.40839e+002           4.08395e+001           8.39478e-001           8.39478e-001           3.94778e-002           9.47776e-003           4.77756e-004
                  131.60    340.84020                               29.44059             72.063                                        3.40840e+002           4.08402e+001           8.40197e-001           8.40197e-001           4.01973e-002           1.97290e-004           1.97290e-004
                  131.70    340.83927                               29.44059             72.063                                        3.40839e+002           4.08393e+001           8.39267e-001           8.39267e-001           3.92669e-002           9.26685e-003           2.66851e-004
                  131.80    340.84239                               29.44059             72.063                                        3.40842e+002           4.08424e+001           8.42386e-001           8.42386e-001           4.23858e-002           2.38584e-003           3.85844e-004
                  131.90    340.84553                               29.44059             72.063                                        3.40846e+002           4.08455e+001           8.45533e-001           8.45533e-001           4.55326e-002           5.53261e-003           5.32612e-004
                  132.00    340.84443                               29.44059             72.063                                        3.40844e+002           4.08444e+001           8.44434e-001           8.44434e-001           4.44343e-002           4.43427e-003           4.34270e-004
                  132.10    340.83798                               29.44059             72.063                                        3.40838e+002           4.08380e+001           8.37979e-001           8.37979e-001           3.79791e-002           7.97910e-003           9.79100e-004
                  132.20    340.83698                               29.44059             72.063                                        3.40837e+002           4.08370e+001           8.36984e-001           8.36984e-001           3.69837e-002           6.98373e-003           9.83727e-004
                  132.30    340.83804                               29.44059             72.063                                        3.40838e+002           4.08380e+001           8.38036e-001           8.38036e-001           3.80357e-002           8.03571e-003           3.57115e-005
                  132.40    340.83789                               29.44059             72.063                                        3.40838e+002           4.08379e+001           8.37895e-001           8.37895e-001           3.78945e-002           7.89451e-003           8.94511e-004
                  132.50    340.83792                               29.44059             72.063                                        3.40838e+002           4.08379e+001           8.37920e-001           8.37920e-001           3.79199e-002           7.91994e-003           9.19941e-004
                  132.60    340.83899                               29.44059             72.063                                        3.40839e+002           4.08390e+001           8.38990e-001           8.38990e-001           3.89903e-002           8.99028e-003           9.90282e-004
                  132.70    340.83942                               29.44059             72.063                                        3.40839e+002           4.08394e+001           8.39423e-001           8.39423e-001           3.94229e-002           9.42291e-003           4.22908e-004
                  132.80    340.83996                               29.44059             72.063                                        3.40840e+002           4.08400e+001           8.39957e-001           8.39957e-001           3.99566e-002           9.95658e-003           9.56581e-004
                  132.90    340.83994                               29.44059             72.063                                        3.40840e+002           4.08399e+001           8.39941e-001           8.39941e-001           3.99413e-002           9.94131e-003           9.41307e-004
                  133.00    340.84106                               29.44059             72.063                                        3.40841e+002           4.08411e+001           8.41064e-001           8.41064e-001           4.10637e-002           1.06370e-003           6.36997e-005
                  133.10    340.84413                               29.44059             72.063                                        3.40844e+002           4.08441e+001           8.44132e-001           8.44132e-001           4.41315e-002           4.13152e-003           1.31519e-004
                  133.20    340.84403                               29.44059             72.063                                        3.40844e+002           4.08440e+001           8.44034e-001           8.44034e-001           4.40344e-002           4.03440e-003           3.44002e-005
                  133.30    340.83810                               29.44059             72.063                                        3.40838e+002           4.08381e+001           8.38104e-001           8.38104e-001           3.81038e-002           8.10383e-003           1.03827e-004
                  133.40    340.83802                               29.44059             72.063                                        3.40838e+002           4.08380e+001           8.38023e-001           8.38023e-001           3.80230e-002           8.02296e-003           2.29641e-005
                  133.50    340.84050                               29.44059             72.063                                        3.40841e+002           4.08405e+001           8.40500e-001           8.40500e-001           4.05001e-002           5.00122e-004           5.00122e-004
                  133.60    340.84024                               29.44059             72.063                                        3.40840e+002           4.08402e+001           8.40244e-001           8.40244e-001           4.02436e-002           2.43633e-004           2.43633e-004
