~VERSION INFORMATION
VERS                    .            2.0                                    :CWLS LOG ASCII STANDARD
WRAP                    .            NO                                     :ONE LINE PER TIME STEP


~WELL INFORMATION
#MNEM                   .UNIT        DATA                                    DESCRIPTION
#________________________________________________________________________________________
STRTTIME                .HH/MM/SS    16:02:11                               :START TIME
STOPTIME                .HH/MM/SS    16:05:47                               :STOP TIME
STRT                    .s           2.10                                   :START DATA
STOP                    .s           214.40                                 :STOP DATA
STEP                    .s           0.10                                   :MEASUREMENT TIME INTERVAL
NULL                    .            -999.25                                :NULL VALUE
COMP                    .            Statoil ASA                            :COMPANY
FLD                     .            Volve                                  :FIELD
WELL                    .            15/9-F-1 B                             :WELL
RUN                     .            7                                      :RUN
LOC                     .            Maersk Inspirer                        :LOCATION
PROV                    .            na                                     :PROVINCE
SRVC                    .            Baker Hughes INTEQ                     :SERVICE COMPANY
DATE                    .YY/MM/DD    13/09/06                               :LOG DATE
UWI                     .                                                   :UNIQUE WELL ID
DEPTHMD                 .m           3261.0                                 :MEASURED DEPTH
DEPTHTVD                .m           3057.0                                 :TRUE VERTICAL DEPTH


~CURVE INFORMATION
#MNEM                   .UNIT        API CODES                               DESCRIPTION
#________________________________________________________________________________________
TIME                    .s                                                  :01 TIME
DD_PRESS                .bar                                                :02 DRAW DOWN PRESSURE
DD_VOLUME               .cm3                                                :03 INCREMENTAL DRAW DOWN VOLUME
TEMP                    .degC                                               :04 TRANSDUCER TEMPERATURE
DD_PRESS_MOD_1000       .bar                                                :05 DRAW DOWN PRESSURE MOD 1000
DD_PRESS_MOD_100        .bar                                                :06 DRAW DOWN PRESSURE MOD 100
DD_PRESS_MOD_10         .bar                                                :07 DRAW DOWN PRESSURE MOD 10
DD_PRESS_MOD_1          .bar                                                :08 DRAW DOWN PRESSURE MOD 1
DD_PRESS_MOD_01         .bar                                                :09 DRAW DOWN PRESSURE MOD 01
DD_PRESS_MOD_001        .bar                                                :10 DRAW DOWN PRESSURE MOD 001
DD_PRESS_MOD_0001       .bar                                                :11 DRAW DOWN PRESSURE MOD 0001


~PARAMETER INFORMATION
#MNEM                   .UNIT        VALUE                                   DESCRIPTION
#________________________________________________________________________________________
TOOLFACE                .deg         na                                     :01 TOOLFACE
PUMP_CAPACITY           .bar         400                                    :02 NOMINAL DRAW DOWN PUMP CAPACITY
PUMP_LIMIT              .bar         400                                    :03 DOWNLINK PUMP LIMIT
TIME_LIMIT              .min         10                                     :04 DOWNLINK MAX TIME
TEST_TYPE               .            LOW MOBILITY                           :05 DOWNLINK
DD_PIST_A               .cm2         3.1416                                 :06 DRAW DOWN PISTON AREA
V_SYS                   .cm3         131.0000                               :07 SYSTEM VOLUME
PROBE_ID                .cm          1.2700                                 :08 TTK PROBE ID
G0                      .            4.6700                                 :09 GEOMETRY FACTOR


~A                  TIME     DD_PRESS                              DD_VOLUME               TEMP                                   DD_PRESS_MOD_1000       DD_PRESS_MOD_100        DD_PRESS_MOD_10         DD_PRESS_MOD_1        DD_PRESS_MOD_01       DD_PRESS_MOD_001      DD_PRESS_MOD_0001
# ...
                  198.10    437.39612                                0.00000             82.047                                        4.37396e+002           3.73961e+001           7.39612e+000           3.96125e-001           9.61248e-002           6.12477e-003           1.24767e-004
                  198.20    437.40244                                0.00000             82.047                                        4.37402e+002           3.74024e+001           7.40244e+000           4.02439e-001           2.43873e-003           2.43873e-003           4.38726e-004
                  198.30    437.44560                                0.00000             82.047                                        4.37446e+002           3.74456e+001           7.44560e+000           4.45604e-001           4.56044e-002           5.60443e-003           6.04426e-004
                  198.40    437.43874                                0.00000             82.047                                        4.37439e+002           3.74387e+001           7.43874e+000           4.38740e-001           3.87402e-002           8.74020e-003           7.40201e-004
                  198.50    437.41036                                0.00000             82.047                                        4.37410e+002           3.74104e+001           7.41036e+000           4.10356e-001           1.03555e-002           3.55520e-004           3.55520e-004
                  198.60    437.41504                                0.00000             82.047                                        4.37415e+002           3.74150e+001           7.41504e+000           4.15044e-001           1.50437e-002           5.04371e-003           4.37091e-005
                  198.70    437.43932                                0.00000             82.047                                        4.37439e+002           3.74393e+001           7.43932e+000           4.39319e-001           3.93191e-002           9.31907e-003           3.19073e-004
                  198.80    437.43039                                0.00000             82.047                                        4.37430e+002           3.74304e+001           7.43039e+000           4.30390e-001           3.03897e-002           3.89729e-004           3.89729e-004
                  198.90    437.40861                                0.00000             82.047                                        4.37409e+002           3.74086e+001           7.40861e+000           4.08612e-001           8.61235e-003           8.61235e-003           6.12347e-004
                  199.00    437.41638                                0.00000             82.049                                        4.37416e+002           3.74164e+001           7.41638e+000           4.16379e-001           1.63788e-002           6.37882e-003           3.78819e-004
                  199.10    437.44181                                0.00000             82.053                                        4.37442e+002           3.74418e+001           7.44181e+000           4.41806e-001           4.18058e-002           1.80584e-003           8.05837e-004
                  199.20    437.42365                                0.00000             82.052                                        4.37424e+002           3.74236e+001           7.42365e+000           4.23646e-001           2.36465e-002           3.64647e-003           6.46472e-004
                  199.30    437.40109                                0.00000             82.049                                        4.37401e+002           3.74011e+001           7.40109e+000           4.01093e-001           1.09290e-003           1.09290e-003           9.28953e-005
                  199.40    437.41656                                0.00000             82.047                                        4.37417e+002           3.74166e+001           7.41656e+000           4.16556e-001           1.65558e-002           6.55583e-003           5.55831e-004
                  199.50    437.44842                                0.00000             82.047                                        4.37448e+002           3.74484e+001           7.44842e+000           4.48422e-001           4.84222e-002           8.42224e-003           4.22238e-004
                  199.60    437.43730                                0.00000             82.047                                        4.37437e+002           3.74373e+001           7.43730e+000           4.37298e-001           3.72980e-002           7.29803e-003           2.98030e-004
                  199.70    437.42272                                0.00000             82.047                                        4.37423e+002           3.74227e+001           7.42272e+000           4.22724e-001           2.27240e-002           2.72396e-003           7.23962e-004
                  199.80    437.43680                                0.00000             82.047                                        4.37437e+002           3.74368e+001           7.43680e+000           4.36797e-001           3.67970e-002           6.79699e-003           7.96989e-004
                  199.90    437.45900                                0.00000             82.047                                        4.37459e+002           3.74590e+001           7.45900e+000           4.59005e-001           5.90045e-002           9.00450e-003           4.50406e-006
                  200.00    437.44866                                0.00000             82.047                                        4.37449e+002           3.74487e+001           7.44866e+000           4.48655e-001           4.86552e-002           8.65517e-003           6.55170e-004
                  200.10    437.43737                                0.00000             82.047                                        4.37437e+002           3.74374e+001           7.43737e+000           4.37367e-001           3.73672e-002           7.36716e-003           3.67162e-004
                  200.20    437.44222                                0.00000             82.047                                        4.37442e+002           3.74422e+001           7.44222e+000           4.42215e-001           4.22152e-002           2.21515e-003           2.15153e-004
                  200.30    437.45173                                0.00000             82.049                                        4.37452e+002           3.74517e+001           7.45173e+000           4.51729e-001           5.17294e-002           1.72937e-003           7.29365e-004
                  200.40    437.43414                                0.00000             82.053                                        4.37434e+002           3.74341e+001           7.43414e+000           4.34143e-001           3.41431e-002           4.14309e-003           1.43089e-004
                  200.50    437.42160                                0.00000             82.055                                        4.37422e+002           3.74216e+001           7.42160e+000           4.21599e-001           2.15990e-002           1.59898e-003           5.98982e-004
                  200.60    437.43547                                0.00000             82.055                                        4.37435e+002           3.74355e+001           7.43547e+000           4.35475e-001           3.54749e-002           5.47485e-003           4.74854e-004
                  200.70    437.45769                                0.00000             82.055                                        4.37458e+002           3.74577e+001           7.45769e+000           4.57692e-001           5.76921e-002           7.69213e-003           6.92134e-004
                  200.80    437.44054                                0.00000             82.055                                        4.37441e+002           3.74405e+001           7.44054e+000           4.40539e-001           4.05394e-002           5.39378e-004           5.39378e-004
