~VERSION INFORMATION
VERS                    .            2.0                                    :CWLS LOG ASCII STANDARD
WRAP                    .            NO                                     :ONE LINE PER TIME STEP


~WELL INFORMATION
#MNEM                   .UNIT        DATA                                    DESCRIPTION
#________________________________________________________________________________________
STRTTIME                .HH/MM/SS    18:50:18                               :START TIME
STOPTIME                .HH/MM/SS    18:53:14                               :STOP TIME
STRT                    .s           2.10                                   :START DATA
STOP                    .s           174.80                                 :STOP DATA
STEP                    .s           0.10                                   :MEASUREMENT TIME INTERVAL
NULL                    .            -999.25                                :NULL VALUE
COMP                    .            Statoil ASA                            :COMPANY
FLD                     .            Volve                                  :FIELD
WELL                    .            15/9-F-11 A                            :WELL
RUN                     .            8                                      :RUN
LOC                     .            Maersk Inspirer                        :LOCATION
PROV                    .            na                                     :PROVINCE
SRVC                    .            Baker Hughes INTEQ                     :SERVICE COMPANY
DATE                    .YY/MM/DD    13/05/23                               :LOG DATE
UWI                     .                                                   :UNIQUE WELL ID
DEPTHMD                 .m           3651.0                                 :MEASURED DEPTH
DEPTHTVD                .m           3041.4                                 :TRUE VERTICAL DEPTH


~CURVE INFORMATION
#MNEM                   .UNIT        API CODES                               DESCRIPTION
#________________________________________________________________________________________
TIME                    .s                                                  :01 TIME
DD_PRESS                .bar                                                :02 DRAW DOWN PRESSURE
DD_VOLUME               .cm3                                                :03 INCREMENTAL DRAW DOWN VOLUME
TEMP                    .degC                                               :04 TRANSDUCER TEMPERATURE
DD_PRESS_MOD_1000       .bar                                                :05 DRAW DOWN PRESSURE MOD 1000
DD_PRESS_MOD_100        .bar                                                :06 DRAW DOWN PRESSURE MOD 100
DD_PRESS_MOD_10         .bar                                                :07 DRAW DOWN PRESSURE MOD 10
DD_PRESS_MOD_1          .bar                                                :08 DRAW DOWN PRESSURE MOD 1
DD_PRESS_MOD_01         .bar                                                :09 DRAW DOWN PRESSURE MOD 01
DD_PRESS_MOD_001        .bar                                                :10 DRAW DOWN PRESSURE MOD 001
DD_PRESS_MOD_0001       .bar                                                :11 DRAW DOWN PRESSURE MOD 0001


~PARAMETER INFORMATION
#MNEM                   .UNIT        VALUE                                   DESCRIPTION
#________________________________________________________________________________________
TOOLFACE                .deg         -39.7                                  :01 TOOLFACE
PUMP_CAPACITY           .bar         400                                    :02 NOMINAL DRAW DOWN PUMP CAPACITY
PUMP_LIMIT              .bar         240                                    :03 DOWNLINK PUMP LIMIT
TIME_LIMIT              .min         10                                     :04 DOWNLINK MAX TIME
TEST_TYPE               .            REPEAT                                 :05 DOWNLINK
TEST_TYPE               .            HIGH MOBILITY                          :06 DOWNLINK
DD_PIST_A               .cm2         3.1416                                 :07 DRAW DOWN PISTON AREA
V_SYS                   .cm3         131.0000                               :08 SYSTEM VOLUME
PROBE_ID                .cm          1.2700                                 :09 TTK PROBE ID
G0                      .            4.6700                                 :10 GEOMETRY FACTOR


~A                  TIME     DD_PRESS                              DD_VOLUME               TEMP                                   DD_PRESS_MOD_1000       DD_PRESS_MOD_100        DD_PRESS_MOD_10         DD_PRESS_MOD_1        DD_PRESS_MOD_01       DD_PRESS_MOD_001      DD_PRESS_MOD_0001
# ...
                  105.70    343.38523                               19.79906             73.352                                        3.43385e+002           4.33852e+001           3.38523e+000           3.85234e-001           8.52339e-002           5.23393e-003           2.33931e-004
                  105.80    343.38518                               19.79906             73.352                                        3.43385e+002           4.33852e+001           3.38518e+000           3.85178e-001           8.51780e-002           5.17796e-003           1.77955e-004
                  105.90    343.38524                               19.79906             73.352                                        3.43385e+002           4.33852e+001           3.38524e+000           3.85243e-001           8.52429e-002           5.24288e-003           2.42878e-004
                  106.00    343.38511                               19.79906             73.352                                        3.43385e+002           4.33851e+001           3.38511e+000           3.85109e-001           8.51090e-002           5.10899e-003           1.08992e-004
                  106.10    343.38523                               19.79906             73.352                                        3.43385e+002           4.33852e+001           3.38523e+000           3.85232e-001           8.52325e-002           5.23247e-003           2.32467e-004
                  106.20    343.38530                               19.79906             73.352                                        3.43385e+002           4.33853e+001           3.38530e+000           3.85299e-001           8.52994e-002           5.29936e-003           2.99361e-004
                  106.30    343.38507                               19.79906             73.352                                        3.43385e+002           4.33851e+001           3.38507e+000           3.85073e-001           8.50727e-002           5.07272e-003           7.27207e-005
                  106.40    343.38605                               19.79906             73.352                                        3.43386e+002           4.33860e+001           3.38605e+000           3.86047e-001           8.60470e-002           6.04701e-003           4.70054e-005
                  106.50    343.38699                               19.79906             73.352                                        3.43387e+002           4.33870e+001           3.38699e+000           3.86990e-001           8.69902e-002           6.99023e-003           9.90232e-004
                  106.60    343.38676                               19.79906             73.352                                        3.43387e+002           4.33868e+001           3.38676e+000           3.86758e-001           8.67576e-002           6.75755e-003           7.57553e-004
                  106.70    343.38718                               19.79906             73.352                                        3.43387e+002           4.33872e+001           3.38718e+000           3.87182e-001           8.71819e-002           7.18188e-003           1.81877e-004
                  106.80    343.38813                               19.79906             73.352                                        3.43388e+002           4.33881e+001           3.38813e+000           3.88129e-001           8.81286e-002           8.12859e-003           1.28585e-004
                  106.90    343.38929                               19.79906             73.352                                        3.43389e+002           4.33893e+001           3.38929e+000           3.89295e-001           8.92945e-002           9.29453e-003           2.94527e-004
                  107.00    343.38790                               19.79906             73.352                                        3.43388e+002           4.33879e+001           3.38790e+000           3.87904e-001           8.79036e-002           7.90365e-003           9.03648e-004
                  107.10    343.38585                               19.79906             73.352                                        3.43386e+002           4.33859e+001           3.38585e+000           3.85852e-001           8.58517e-002           5.85170e-003           8.51699e-004
                  107.20    343.38522                               19.79906             73.352                                        3.43385e+002           4.33852e+001           3.38522e+000           3.85216e-001           8.52162e-002           5.21621e-003           2.16213e-004
                  107.30    343.38543                               19.79906             73.352                                        3.43385e+002           4.33854e+001           3.38543e+000           3.85427e-001           8.54273e-002           5.42733e-003           4.27325e-004
                  107.40    343.38543                               19.79906             73.352                                        3.43385e+002           4.33854e+001           3.38543e+000           3.85430e-001           8.54302e-002           5.43021e-003           4.30208e-004
                  107.50    343.38631                               19.79906             73.352                                        3.43386e+002           4.33863e+001           3.38631e+000           3.86308e-001           8.63083e-002           6.30827e-003           3.08267e-004
                  107.60    343.38642                               19.79906             73.352                                        3.43386e+002           4.33864e+001           3.38642e+000           3.86417e-001           8.64171e-002           6.41708e-003           4.17079e-004
                  107.70    343.38552                               19.79906             73.352                                        3.43386e+002           4.33855e+001           3.38552e+000           3.85517e-001           8.55167e-002           5.51674e-003           5.16743e-004
                  107.80    343.38508                               19.79906             73.352                                        3.43385e+002           4.33851e+001           3.38508e+000           3.85079e-001           8.50794e-002           5.07943e-003           7.94290e-005
                  107.90    343.38606                               19.79906             73.352                                        3.43386e+002           4.33861e+001           3.38606e+000           3.86064e-001           8.60637e-002           6.06370e-003           6.36967e-005
                  108.00    343.38772                               19.79906             73.352                                        3.43388e+002           4.33877e+001           3.38772e+000           3.87725e-001           8.77250e-002           7.72499e-003           7.24990e-004
                  108.10    343.38732                               19.79906             73.352                                        3.43387e+002           4.33873e+001           3.38732e+000           3.87318e-001           8.73184e-002           7.31843e-003           3.18434e-004
                  108.20    343.38597                               19.79906             73.352                                        3.43386e+002           4.33860e+001           3.38597e+000           3.85967e-001           8.59673e-002           5.96726e-003           9.67262e-004
                  108.30    343.38712                               19.79906             73.352                                        3.43387e+002           4.33871e+001           3.38712e+000           3.87121e-001           8.71211e-002           7.12107e-003           1.21072e-004
                  108.40    343.38693                               19.79906             73.352                                        3.43387e+002           4.33869e+001           3.38693e+000           3.86931e-001           8.69305e-002           6.93053e-003           9.30533e-004
