~VERSION INFORMATION
VERS                    .            2.0                                    :CWLS LOG ASCII STANDARD
WRAP                    .            NO                                     :ONE LINE PER TIME STEP


~WELL INFORMATION
#MNEM                   .UNIT        DATA                                    DESCRIPTION
#________________________________________________________________________________________
STRTTIME                .HH/MM/SS    10:22:55                               :START TIME
STOPTIME                .HH/MM/SS    10:26:06                               :STOP TIME
STRT                    .s           2.10                                   :START DATA
STOP                    .s           189.80                                 :STOP DATA
STEP                    .s           0.10                                   :MEASUREMENT TIME INTERVAL
NULL                    .            -999.25                                :NULL VALUE
COMP                    .            Statoil ASA                            :COMPANY
FLD                     .            Volve                                  :FIELD
WELL                    .            15/9-F-11 A                            :WELL
RUN                     .            8                                      :RUN
LOC                     .            Maersk Inspirer                        :LOCATION
PROV                    .            na                                     :PROVINCE
SRVC                    .            Baker Hughes INTEQ                     :SERVICE COMPANY
DATE                    .YY/MM/DD    13/05/21                               :LOG DATE
UWI                     .                                                   :UNIQUE WELL ID
DEPTHMD                 .m           3651.0                                 :MEASURED DEPTH
DEPTHTVD                .m           3041.4                                 :TRUE VERTICAL DEPTH


~CURVE INFORMATION
#MNEM                   .UNIT        API CODES                               DESCRIPTION
#________________________________________________________________________________________
TIME                    .s                                                  :01 TIME
DD_PRESS                .bar                                                :02 DRAW DOWN PRESSURE
DD_VOLUME               .cm3                                                :03 INCREMENTAL DRAW DOWN VOLUME
TEMP                    .degC                                               :04 TRANSDUCER TEMPERATURE
DD_PRESS_MOD_1000       .bar                                                :05 DRAW DOWN PRESSURE MOD 1000
DD_PRESS_MOD_100        .bar                                                :06 DRAW DOWN PRESSURE MOD 100
DD_PRESS_MOD_10         .bar                                                :07 DRAW DOWN PRESSURE MOD 10
DD_PRESS_MOD_1          .bar                                                :08 DRAW DOWN PRESSURE MOD 1
DD_PRESS_MOD_01         .bar                                                :09 DRAW DOWN PRESSURE MOD 01
DD_PRESS_MOD_001        .bar                                                :10 DRAW DOWN PRESSURE MOD 001
DD_PRESS_MOD_0001       .bar                                                :11 DRAW DOWN PRESSURE MOD 0001


~PARAMETER INFORMATION
#MNEM                   .UNIT        VALUE                                   DESCRIPTION
#________________________________________________________________________________________
TOOLFACE                .deg         61.5                                   :01 TOOLFACE
PUMP_CAPACITY           .bar         400                                    :02 NOMINAL DRAW DOWN PUMP CAPACITY
PUMP_LIMIT              .bar         240                                    :03 DOWNLINK PUMP LIMIT
TIME_LIMIT              .min         10                                     :04 DOWNLINK MAX TIME
TEST_TYPE               .            REPEAT                                 :05 DOWNLINK
TEST_TYPE               .            HIGH MOBILITY                          :06 DOWNLINK
DD_PIST_A               .cm2         3.1416                                 :07 DRAW DOWN PISTON AREA
V_SYS                   .cm3         131.0000                               :08 SYSTEM VOLUME
PROBE_ID                .cm          1.2700                                 :09 TTK PROBE ID
G0                      .            4.6700                                 :10 GEOMETRY FACTOR


~A                  TIME     DD_PRESS                              DD_VOLUME               TEMP                                   DD_PRESS_MOD_1000       DD_PRESS_MOD_100        DD_PRESS_MOD_10         DD_PRESS_MOD_1        DD_PRESS_MOD_01       DD_PRESS_MOD_001      DD_PRESS_MOD_0001
# ...
                  100.10    343.79189                               19.78571             81.070                                        3.43792e+002           4.37919e+001           3.79189e+000           7.91892e-001           9.18919e-002           1.89189e-003           8.91888e-004
                  100.20    343.79338                               19.78571             81.070                                        3.43793e+002           4.37934e+001           3.79338e+000           7.93377e-001           9.33772e-002           3.37723e-003           3.77228e-004
                  100.30    343.79443                               19.78571             81.070                                        3.43794e+002           4.37944e+001           3.79443e+000           7.94431e-001           9.44311e-002           4.43105e-003           4.31054e-004
                  100.40    343.79041                               19.78571             81.070                                        3.43790e+002           4.37904e+001           3.79041e+000           7.90407e-001           9.04072e-002           4.07232e-004           4.07232e-004
                  100.50    343.78880                               19.78571             81.070                                        3.43789e+002           4.37888e+001           3.78880e+000           7.88800e-001           8.88001e-002           8.80013e-003           8.00134e-004
                  100.60    343.79076                               19.78571             81.070                                        3.43791e+002           4.37908e+001           3.79076e+000           7.90756e-001           9.07560e-002           7.55991e-004           7.55991e-004
                  100.70    343.79374                               19.78571             81.070                                        3.43794e+002           4.37937e+001           3.79374e+000           7.93736e-001           9.37358e-002           3.73576e-003           7.35761e-004
                  100.80    343.79138                               19.78571             81.070                                        3.43791e+002           4.37914e+001           3.79138e+000           7.91384e-001           9.13840e-002           1.38397e-003           3.83967e-004
                  100.90    343.78925                               19.78571             81.070                                        3.43789e+002           4.37892e+001           3.78925e+000           7.89246e-001           8.92455e-002           9.24553e-003           2.45528e-004
                  101.00    343.79074                               19.78571             81.070                                        3.43791e+002           4.37907e+001           3.79074e+000           7.90741e-001           9.07406e-002           7.40551e-004           7.40551e-004
                  101.10    343.79139                               19.78571             81.070                                        3.43791e+002           4.37914e+001           3.79139e+000           7.91394e-001           9.13939e-002           1.39395e-003           3.93946e-004
                  101.20    343.78787                               19.78571             81.070                                        3.43788e+002           4.37879e+001           3.78787e+000           7.87868e-001           8.78679e-002           7.86788e-003           8.67883e-004
                  101.30    343.78755                               19.78571             81.070                                        3.43788e+002           4.37875e+001           3.78755e+000           7.87547e-001           8.75467e-002           7.54671e-003           5.46706e-004
                  101.40    343.79012                               19.78571             81.070                                        3.43790e+002           4.37901e+001           3.79012e+000           7.90121e-001           9.01206e-002           1.20604e-004           1.20604e-004
                  101.50    343.79252                               19.78571             81.070                                        3.43793e+002           4.37925e+001           3.79252e+000           7.92517e-001           9.25165e-002           2.51653e-003           5.16527e-004
                  101.60    343.79205                               19.78571             81.070                                        3.43792e+002           4.37921e+001           3.79205e+000           7.92052e-001           9.20525e-002           2.05249e-003           5.24922e-005
                  101.70    343.79119                               19.78571             81.068                                        3.43791e+002           4.37912e+001           3.79119e+000           7.91185e-001           9.11852e-002           1.18517e-003           1.85166e-004
                  101.80    343.79101                               19.78571             81.067                                        3.43791e+002           4.37910e+001           3.79101e+000           7.91006e-001           9.10059e-002           1.00590e-003           5.90328e-006
                  101.90    343.79013                               19.78571             81.068                                        3.43790e+002           4.37901e+001           3.79013e+000           7.90131e-001           9.01309e-002           1.30900e-004           1.30900e-004
                  102.00    343.79121                               19.78571             81.070                                        3.43791e+002           4.37912e+001           3.79121e+000           7.91207e-001           9.12068e-002           1.20676e-003           2.06761e-004
                  102.10    343.78983                               19.78571             81.070                                        3.43790e+002           4.37898e+001           3.78983e+000           7.89829e-001           8.98294e-002           9.82937e-003           8.29370e-004
                  102.20    343.79128                               19.78571             81.070                                        3.43791e+002           4.37913e+001           3.79128e+000           7.91280e-001           9.12800e-002           1.27996e-003           2.79961e-004
                  102.30    343.79196                               19.78571             81.070                                        3.43792e+002           4.37920e+001           3.79196e+000           7.91960e-001           9.19604e-002           1.96043e-003           9.60430e-004
                  102.40    343.79021                               19.78571             81.070                                        3.43790e+002           4.37902e+001           3.79021e+000           7.90210e-001           9.02100e-002           2.10028e-004           2.10028e-004
                  102.50    343.79260                               19.78571             81.070                                        3.43793e+002           4.37926e+001           3.79260e+000           7.92603e-001           9.26030e-002           2.60300e-003           6.02997e-004
                  102.60    343.79153                               19.78571             81.070                                        3.43792e+002           4.37915e+001           3.79153e+000           7.91530e-001           9.15296e-002           1.52957e-003           5.29567e-004
                  102.70    343.79207                               19.78571             81.070                                        3.43792e+002           4.37921e+001           3.79207e+000           7.92072e-001           9.20721e-002           2.07206e-003           7.20587e-005
                  102.80    343.79310                               19.78571             81.070                                        3.43793e+002           4.37931e+001           3.79310e+000           7.93099e-001           9.30994e-002           3.09940e-003           9.94015e-005
