~VERSION INFORMATION
VERS                    .            2.0                                    :CWLS LOG ASCII STANDARD
WRAP                    .            NO                                     :ONE LINE PER TIME STEP


~WELL INFORMATION
#MNEM                   .UNIT        DATA                                    DESCRIPTION
#________________________________________________________________________________________
STRTTIME                .HH/MM/SS    16:37:30                               :START TIME
STOPTIME                .HH/MM/SS    16:40:36                               :STOP TIME
STRT                    .s           2.10                                   :START DATA
STOP                    .s           184.70                                 :STOP DATA
STEP                    .s           0.10                                   :MEASUREMENT TIME INTERVAL
NULL                    .            -999.25                                :NULL VALUE
COMP                    .            Statoil ASA                            :COMPANY
FLD                     .            Volve                                  :FIELD
WELL                    .            15/9-F-1 B                             :WELL
RUN                     .            7                                      :RUN
LOC                     .            Maersk Inspirer                        :LOCATION
PROV                    .            na                                     :PROVINCE
SRVC                    .            Baker Hughes INTEQ                     :SERVICE COMPANY
DATE                    .YY/MM/DD    13/09/06                               :LOG DATE
UWI                     .                                                   :UNIQUE WELL ID
DEPTHMD                 .m           3247.0                                 :MEASURED DEPTH
DEPTHTVD                .m           3043.3                                 :TRUE VERTICAL DEPTH


~CURVE INFORMATION
#MNEM                   .UNIT        API CODES                               DESCRIPTION
#________________________________________________________________________________________
TIME                    .s                                                  :01 TIME
DD_PRESS                .bar                                                :02 DRAW DOWN PRESSURE
DD_VOLUME               .cm3                                                :03 INCREMENTAL DRAW DOWN VOLUME
TEMP                    .degC                                               :04 TRANSDUCER TEMPERATURE
DD_PRESS_MOD_1000       .bar                                                :05 DRAW DOWN PRESSURE MOD 1000
DD_PRESS_MOD_100        .bar                                                :06 DRAW DOWN PRESSURE MOD 100
DD_PRESS_MOD_10         .bar                                                :07 DRAW DOWN PRESSURE MOD 10
DD_PRESS_MOD_1          .bar                                                :08 DRAW DOWN PRESSURE MOD 1
DD_PRESS_MOD_01         .bar                                                :09 DRAW DOWN PRESSURE MOD 01
DD_PRESS_MOD_001        .bar                                                :10 DRAW DOWN PRESSURE MOD 001
DD_PRESS_MOD_0001       .bar                                                :11 DRAW DOWN PRESSURE MOD 0001


~PARAMETER INFORMATION
#MNEM                   .UNIT        VALUE                                   DESCRIPTION
#________________________________________________________________________________________
TOOLFACE                .deg         na                                     :01 TOOLFACE
PUMP_CAPACITY           .bar         400                                    :02 NOMINAL DRAW DOWN PUMP CAPACITY
PUMP_LIMIT              .bar         400                                    :03 DOWNLINK PUMP LIMIT
TIME_LIMIT              .min         10                                     :04 DOWNLINK MAX TIME
TEST_TYPE               .            LOW MOBILITY                           :05 DOWNLINK
DD_PIST_A               .cm2         3.1416                                 :06 DRAW DOWN PISTON AREA
V_SYS                   .cm3         131.0000                               :07 SYSTEM VOLUME
PROBE_ID                .cm          1.2700                                 :08 TTK PROBE ID
G0                      .            4.6700                                 :09 GEOMETRY FACTOR


~A                  TIME     DD_PRESS                              DD_VOLUME               TEMP                                   DD_PRESS_MOD_1000       DD_PRESS_MOD_100        DD_PRESS_MOD_10         DD_PRESS_MOD_1        DD_PRESS_MOD_01       DD_PRESS_MOD_001      DD_PRESS_MOD_0001
# ...
                   60.90    344.55893                               10.98828             81.547                                        3.44559e+002           4.45589e+001           4.55893e+000           5.58932e-001           5.89319e-002           8.93188e-003           9.31878e-004
                   61.00    344.56920                               10.98828             81.547                                        3.44569e+002           4.45692e+001           4.56920e+000           5.69199e-001           6.91992e-002           9.19915e-003           1.99153e-004
                   61.10    344.56182                               10.98828             81.547                                        3.44562e+002           4.45618e+001           4.56182e+000           5.61816e-001           6.18159e-002           1.81590e-003           8.15896e-004
                   61.20    344.55173                               10.98828             81.547                                        3.44552e+002           4.45517e+001           4.55173e+000           5.51735e-001           5.17347e-002           1.73473e-003           7.34727e-004
                   61.30    344.56165                               10.98828             81.547                                        3.44562e+002           4.45616e+001           4.56165e+000           5.61647e-001           6.16465e-002           1.64650e-003           6.46504e-004
                   61.40    344.57350                               10.98828             81.547                                        3.44574e+002           4.45735e+001           4.57350e+000           5.73504e-001           7.35045e-002           3.50446e-003           5.04464e-004
                   61.50    344.55973                               10.98828             81.547                                        3.44560e+002           4.45597e+001           4.55973e+000           5.59731e-001           5.97313e-002           9.73126e-003           7.31256e-004
                   61.60    344.54852                               10.98828             81.547                                        3.44549e+002           4.45485e+001           4.54852e+000           5.48518e-001           4.85177e-002           8.51773e-003           5.17728e-004
                   61.70    344.55560                               10.98828             81.547                                        3.44556e+002           4.45556e+001           4.55560e+000           5.55601e-001           5.56008e-002           5.60078e-003           6.00784e-004
                   61.80    344.56308                               10.98828             81.547                                        3.44563e+002           4.45631e+001           4.56308e+000           5.63084e-001           6.30839e-002           3.08386e-003           8.38631e-005
                   61.90    344.56311                               10.98828             81.547                                        3.44563e+002           4.45631e+001           4.56311e+000           5.63110e-001           6.31101e-002           3.11008e-003           1.10082e-004
                   62.00    344.56262                               10.98828             81.547                                        3.44563e+002           4.45626e+001           4.56262e+000           5.62624e-001           6.26242e-002           2.62419e-003           6.24188e-004
                   62.10    344.57255                               10.98828             81.547                                        3.44573e+002           4.45726e+001           4.57255e+000           5.72555e-001           7.25545e-002           2.55451e-003           5.54509e-004
                   62.20    344.57950                               10.98828             81.547                                        3.44580e+002           4.45795e+001           4.57950e+000           5.79505e-001           7.95047e-002           9.50469e-003           5.04687e-004
                   62.30    344.56644                               10.98828             81.547                                        3.44566e+002           4.45664e+001           4.56644e+000           5.66436e-001           6.64356e-002           6.43558e-003           4.35582e-004
                   62.40    344.54924                               10.98828             81.547                                        3.44549e+002           4.45492e+001           4.54924e+000           5.49244e-001           4.92436e-002           9.24361e-003           2.43611e-004
                   62.50    344.54994                               10.98828             81.547                                        3.44550e+002           4.45499e+001           4.54994e+000           5.49941e-001           4.99414e-002           9.94143e-003           9.41433e-004
                   62.60    344.55367                               10.98828             81.547                                        3.44554e+002           4.45537e+001           4.55367e+000           5.53669e-001           5.36692e-002           3.66920e-003           6.69199e-004
                   62.70    344.55872                               10.98828             81.547                                        3.44559e+002           4.45587e+001           4.55872e+000           5.58725e-001           5.87247e-002           8.72466e-003           7.24657e-004
                   62.80    344.56698                               10.98828             81.547                                        3.44567e+002           4.45670e+001           4.56698e+000           5.66978e-001           6.69785e-002           6.97847e-003           9.78474e-004
                   62.90    344.57130                               10.98828             81.547                                        3.44571e+002           4.45713e+001           4.57130e+000           5.71302e-001           7.13021e-002           1.30210e-003           3.02099e-004
                   63.00    344.56798                               10.98828             81.547                                        3.44568e+002           4.45680e+001           4.56798e+000           5.67975e-001           6.79752e-002           7.97525e-003           9.75247e-004
                   63.10    344.56337                               10.98828             81.547                                        3.44563e+002           4.45634e+001           4.56337e+000           5.63368e-001           6.33677e-002           3.36767e-003           3.67673e-004
                   63.20    344.56427                               10.98828             81.547                                        3.44564e+002           4.45643e+001           4.56427e+000           5.64270e-001           6.42695e-002           4.26955e-003           2.69548e-004
                   63.30    344.56272                               10.98828             81.547                                        3.44563e+002           4.45627e+001           4.56272e+000           5.62719e-001           6.27189e-002           2.71895e-003           7.18948e-004
                   63.40    344.56192                               10.98828             81.547                                        3.44562e+002           4.45619e+001           4.56192e+000           5.61920e-001           6.19197e-002           1.91967e-003           9.19667e-004
                   63.50    344.57687                               10.98828             81.547                                        3.44577e+002           4.45769e+001           4.57687e+000           5.76871e-001           7.68711e-002           6.87107e-003           8.71074e-004
                   63.60    344.59183                               10.98828             81.547                                        3.44592e+002           4.45918e+001           4.59183e+000           5.91832e-001           9.18323e-002           1.83230e-003           8.32304e-004
