~VERSION INFORMATION
VERS                    .            2.0                                    :CWLS LOG ASCII STANDARD
WRAP                    .            NO                                     :ONE LINE PER TIME STEP


~WELL INFORMATION
#MNEM                   .UNIT        DATA                                    DESCRIPTION
#________________________________________________________________________________________
STRTTIME                .HH/MM/SS    16:37:30                               :START TIME
STOPTIME                .HH/MM/SS    16:40:36                               :STOP TIME
STRT                    .s           2.10                                   :START DATA
STOP                    .s           184.70                                 :STOP DATA
STEP                    .s           0.10                                   :MEASUREMENT TIME INTERVAL
NULL                    .            -999.25                                :NULL VALUE
COMP                    .            Statoil ASA                            :COMPANY
FLD                     .            Volve                                  :FIELD
WELL                    .            15/9-F-1 B                             :WELL
RUN                     .            7                                      :RUN
LOC                     .            Maersk Inspirer                        :LOCATION
PROV                    .            na                                     :PROVINCE
SRVC                    .            Baker Hughes INTEQ                     :SERVICE COMPANY
DATE                    .YY/MM/DD    13/09/06                               :LOG DATE
UWI                     .                                                   :UNIQUE WELL ID
DEPTHMD                 .m           3247.0                                 :MEASURED DEPTH
DEPTHTVD                .m           3043.3                                 :TRUE VERTICAL DEPTH


~CURVE INFORMATION
#MNEM                   .UNIT        API CODES                               DESCRIPTION
#________________________________________________________________________________________
TIME                    .s                                                  :01 TIME
DD_PRESS                .bar                                                :02 DRAW DOWN PRESSURE
DD_VOLUME               .cm3                                                :03 INCREMENTAL DRAW DOWN VOLUME
TEMP                    .degC                                               :04 TRANSDUCER TEMPERATURE
DD_PRESS_MOD_1000       .bar                                                :05 DRAW DOWN PRESSURE MOD 1000
DD_PRESS_MOD_100        .bar                                                :06 DRAW DOWN PRESSURE MOD 100
DD_PRESS_MOD_10         .bar                                                :07 DRAW DOWN PRESSURE MOD 10
DD_PRESS_MOD_1          .bar                                                :08 DRAW DOWN PRESSURE MOD 1
DD_PRESS_MOD_01         .bar                                                :09 DRAW DOWN PRESSURE MOD 01
DD_PRESS_MOD_001        .bar                                                :10 DRAW DOWN PRESSURE MOD 001
DD_PRESS_MOD_0001       .bar                                                :11 DRAW DOWN PRESSURE MOD 0001


~PARAMETER INFORMATION
#MNEM                   .UNIT        VALUE                                   DESCRIPTION
#________________________________________________________________________________________
TOOLFACE                .deg         na                                     :01 TOOLFACE
PUMP_CAPACITY           .bar         400                                    :02 NOMINAL DRAW DOWN PUMP CAPACITY
PUMP_LIMIT              .bar         400                                    :03 DOWNLINK PUMP LIMIT
TIME_LIMIT              .min         10                                     :04 DOWNLINK MAX TIME
TEST_TYPE               .            LOW MOBILITY                           :05 DOWNLINK
DD_PIST_A               .cm2         3.1416                                 :06 DRAW DOWN PISTON AREA
V_SYS                   .cm3         131.0000                               :07 SYSTEM VOLUME
PROBE_ID                .cm          1.2700                                 :08 TTK PROBE ID
G0                      .            4.6700                                 :09 GEOMETRY FACTOR


~A                  TIME     DD_PRESS                              DD_VOLUME               TEMP                                   DD_PRESS_MOD_1000       DD_PRESS_MOD_100        DD_PRESS_MOD_10         DD_PRESS_MOD_1        DD_PRESS_MOD_01       DD_PRESS_MOD_001      DD_PRESS_MOD_0001
# ...
                   74.90    344.55089                               10.98828             81.539                                        3.44551e+002           4.45509e+001           4.55089e+000           5.50893e-001           5.08927e-002           8.92736e-004           8.92736e-004
                   75.00    344.58574                               10.98828             81.539                                        3.44586e+002           4.45857e+001           4.58574e+000           5.85743e-001           8.57432e-002           5.74322e-003           7.43221e-004
                   75.10    344.58284                               10.98828             81.539                                        3.44583e+002           4.45828e+001           4.58284e+000           5.82837e-001           8.28370e-002           2.83702e-003           8.37020e-004
                   75.20    344.55608                               10.98828             81.541                                        3.44556e+002           4.45561e+001           4.55608e+000           5.56077e-001           5.60771e-002           6.07710e-003           7.70997e-005
                   75.30    344.55545                               10.98828             81.543                                        3.44555e+002           4.45555e+001           4.55545e+000           5.55454e-001           5.54537e-002           5.45371e-003           4.53705e-004
                   75.40    344.56599                               10.98828             81.543                                        3.44566e+002           4.45660e+001           4.56599e+000           5.65988e-001           6.59883e-002           5.98834e-003           9.88337e-004
                   75.50    344.56446                               10.98828             81.545                                        3.44564e+002           4.45645e+001           4.56446e+000           5.64462e-001           6.44623e-002           4.46227e-003           4.62275e-004
                   75.60    344.56146                               10.98828             81.547                                        3.44561e+002           4.45615e+001           4.56146e+000           5.61463e-001           6.14628e-002           1.46284e-003           4.62841e-004
                   75.70    344.56858                               10.98828             81.547                                        3.44569e+002           4.45686e+001           4.56858e+000           5.68582e-001           6.85824e-002           8.58244e-003           5.82444e-004
                   75.80    344.56998                               10.98828             81.545                                        3.44570e+002           4.45700e+001           4.56998e+000           5.69984e-001           6.99838e-002           9.98383e-003           9.83833e-004
                   75.90    344.55897                               10.98828             81.541                                        3.44559e+002           4.45590e+001           4.55897e+000           5.58971e-001           5.89714e-002           8.97137e-003           9.71371e-004
                   76.00    344.55270                               10.98828             81.539                                        3.44553e+002           4.45527e+001           4.55270e+000           5.52700e-001           5.27000e-002           2.69995e-003           6.99952e-004
                   76.10    344.56648                               10.98828             81.539                                        3.44566e+002           4.45665e+001           4.56648e+000           5.66483e-001           6.64826e-002           6.48261e-003           4.82612e-004
                   76.20    344.57363                               10.98828             81.539                                        3.44574e+002           4.45736e+001           4.57363e+000           5.73625e-001           7.36251e-002           3.62513e-003           6.25133e-004
                   76.30    344.55893                               10.98828             81.539                                        3.44559e+002           4.45589e+001           4.55893e+000           5.58930e-001           5.89303e-002           8.93032e-003           9.30319e-004
                   76.40    344.54281                               10.98828             81.539                                        3.44543e+002           4.45428e+001           4.54281e+000           5.42814e-001           4.28143e-002           2.81428e-003           8.14280e-004
                   76.50    344.56088                               10.98828             81.539                                        3.44561e+002           4.45609e+001           4.56088e+000           5.60882e-001           6.08824e-002           8.82424e-004           8.82424e-004
                   76.60    344.58367                               10.98828             81.539                                        3.44584e+002           4.45837e+001           4.58367e+000           5.83665e-001           8.36651e-002           3.66509e-003           6.65087e-004
                   76.70    344.58366                               10.98828             81.539                                        3.44584e+002           4.45837e+001           4.58366e+000           5.83665e-001           8.36648e-002           3.66476e-003           6.64757e-004
                   76.80    344.56680                               10.98828             81.539                                        3.44567e+002           4.45668e+001           4.56680e+000           5.66797e-001           6.67971e-002           6.79708e-003           7.97084e-004
                   76.90    344.56470                               10.98828             81.539                                        3.44565e+002           4.45647e+001           4.56470e+000           5.64696e-001           6.46963e-002           4.69628e-003           6.96279e-004
                   77.00    344.56383                               10.98828             81.539                                        3.44564e+002           4.45638e+001           4.56383e+000           5.63832e-001           6.38323e-002           3.83234e-003           8.32340e-004
                   77.10    344.55057                               10.98828             81.539                                        3.44551e+002           4.45506e+001           4.55057e+000           5.50566e-001           5.05664e-002           5.66418e-004           5.66418e-004
                   77.20    344.54678                               10.98828             81.539                                        3.44547e+002           4.45468e+001           4.54678e+000           5.46778e-001           4.67775e-002           6.77753e-003           7.77533e-004
                   77.30    344.56874                               10.98828             81.539                                        3.44569e+002           4.45687e+001           4.56874e+000           5.68737e-001           6.87368e-002           8.73683e-003           7.36825e-004
                   77.40    344.58563                               10.98828             81.539                                        3.44586e+002           4.45856e+001           4.58563e+000           5.85626e-001           8.56259e-002           5.62588e-003           6.25879e-004
                   77.50    344.57442                               10.98828             81.539                                        3.44574e+002           4.45744e+001           4.57442e+000           5.74418e-001           7.44181e-002           4.41812e-003           4.18115e-004
                   77.60    344.54772                               10.98828             81.539                                        3.44548e+002           4.45477e+001           4.54772e+000           5.47721e-001           4.77211e-002           7.72106e-003           7.21064e-004
