~VERSION INFORMATION
VERS                    .            2.0                                    :CWLS LOG ASCII STANDARD
WRAP                    .            NO                                     :ONE LINE PER TIME STEP


~WELL INFORMATION
#MNEM                   .UNIT        DATA                                    DESCRIPTION
#________________________________________________________________________________________
STRTTIME                .HH/MM/SS    02:14:19                               :START TIME
STOPTIME                .HH/MM/SS    02:17:23                               :STOP TIME
STRT                    .s           2.10                                   :START DATA
STOP                    .s           182.70                                 :STOP DATA
STEP                    .s           0.10                                   :MEASUREMENT TIME INTERVAL
NULL                    .            -999.25                                :NULL VALUE
COMP                    .            Statoil ASA                            :COMPANY
FLD                     .            Volve                                  :FIELD
WELL                    .            15/9-F-1 C                             :WELL
RUN                     .            4                                      :RUN
LOC                     .                                                   :LOCATION
PROV                    .            na                                     :PROVINCE
SRVC                    .            Baker Hughes INTEQ                     :SERVICE COMPANY
DATE                    .YY/MM/DD    14/03/15                               :LOG DATE
UWI                     .                                                   :UNIQUE WELL ID
DEPTHMD                 .m           3603.0                                 :MEASURED DEPTH
DEPTHTVD                .m           3006.7                                 :TRUE VERTICAL DEPTH


~CURVE INFORMATION
#MNEM                   .UNIT        API CODES                               DESCRIPTION
#________________________________________________________________________________________
TIME                    .s                                                  :01 TIME
DD_PRESS                .bar                                                :02 DRAW DOWN PRESSURE
DD_VOLUME               .cm3                                                :03 INCREMENTAL DRAW DOWN VOLUME
TEMP                    .degC                                               :04 TRANSDUCER TEMPERATURE
DD_PRESS_MOD_1000       .bar                                                :05 DRAW DOWN PRESSURE MOD 1000
DD_PRESS_MOD_100        .bar                                                :06 DRAW DOWN PRESSURE MOD 100
DD_PRESS_MOD_10         .bar                                                :07 DRAW DOWN PRESSURE MOD 10
DD_PRESS_MOD_1          .bar                                                :08 DRAW DOWN PRESSURE MOD 1
DD_PRESS_MOD_01         .bar                                                :09 DRAW DOWN PRESSURE MOD 01
DD_PRESS_MOD_001        .bar                                                :10 DRAW DOWN PRESSURE MOD 001
DD_PRESS_MOD_0001       .bar                                                :11 DRAW DOWN PRESSURE MOD 0001


~PARAMETER INFORMATION
#MNEM                   .UNIT        VALUE                                   DESCRIPTION
#________________________________________________________________________________________
TOOLFACE                .deg         109.6                                  :01 TOOLFACE
PUMP_CAPACITY           .bar         400                                    :02 NOMINAL DRAW DOWN PUMP CAPACITY
PUMP_LIMIT              .bar         240                                    :03 DOWNLINK PUMP LIMIT
TIME_LIMIT              .min         10                                     :04 DOWNLINK MAX TIME
TEST_TYPE               .            REPEAT                                 :05 DOWNLINK
TEST_TYPE               .            HIGH MOBILITY                          :06 DOWNLINK
DD_PIST_A               .cm2         3.1416                                 :07 DRAW DOWN PISTON AREA
V_SYS                   .cm3         131.0000                               :08 SYSTEM VOLUME
PROBE_ID                .cm          1.2700                                 :09 TTK PROBE ID
G0                      .            4.6700                                 :10 GEOMETRY FACTOR


~A                  TIME     DD_PRESS                              DD_VOLUME               TEMP                                   DD_PRESS_MOD_1000       DD_PRESS_MOD_100        DD_PRESS_MOD_10         DD_PRESS_MOD_1        DD_PRESS_MOD_01       DD_PRESS_MOD_001      DD_PRESS_MOD_0001
# ...
                   38.50    345.35855                               10.76461             86.141                                        3.45359e+002           4.53585e+001           5.35855e+000           3.58545e-001           5.85453e-002           8.54528e-003           5.45282e-004
                   38.60    345.35855                               10.76461             86.141                                        3.45359e+002           4.53586e+001           5.35855e+000           3.58552e-001           5.85522e-002           8.55223e-003           5.52234e-004
                   38.70    345.36048                               10.76461             86.141                                        3.45360e+002           4.53605e+001           5.36048e+000           3.60483e-001           6.04830e-002           4.83008e-004           4.83008e-004
                   38.80    345.36207                               10.76461             86.141                                        3.45362e+002           4.53621e+001           5.36207e+000           3.62069e-001           6.20693e-002           2.06925e-003           6.92530e-005
                   38.90    345.36187                               10.76461             86.141                                        3.45362e+002           4.53619e+001           5.36187e+000           3.61872e-001           6.18724e-002           1.87244e-003           8.72444e-004
                   39.00    345.36235                               10.76461             86.141                                        3.45362e+002           4.53623e+001           5.36235e+000           3.62348e-001           6.23480e-002           2.34805e-003           3.48049e-004
                   39.10    345.36295                               10.76461             86.141                                        3.45363e+002           4.53630e+001           5.36295e+000           3.62954e-001           6.29539e-002           2.95389e-003           9.53891e-004
                   39.20    345.36542                               10.76461             86.141                                        3.45365e+002           4.53654e+001           5.36542e+000           3.65416e-001           6.54164e-002           5.41635e-003           4.16355e-004
                   39.30    345.36928                               10.76461             86.141                                        3.45369e+002           4.53693e+001           5.36928e+000           3.69275e-001           6.92751e-002           9.27511e-003           2.75115e-004
                   39.40    345.36660                               10.76461             86.141                                        3.45367e+002           4.53666e+001           5.36660e+000           3.66598e-001           6.65983e-002           6.59830e-003           5.98303e-004
                   39.50    345.36437                               10.76461             86.141                                        3.45364e+002           4.53644e+001           5.36437e+000           3.64366e-001           6.43662e-002           4.36621e-003           3.66210e-004
                   39.60    345.36839                               10.76461             86.141                                        3.45368e+002           4.53684e+001           5.36839e+000           3.68388e-001           6.83878e-002           8.38776e-003           3.87763e-004
                   39.70    345.37207                               10.76461             86.141                                        3.45372e+002           4.53721e+001           5.37207e+000           3.72065e-001           7.20652e-002           2.06524e-003           6.52429e-005
                   39.80    345.37015                               10.76461             86.141                                        3.45370e+002           4.53702e+001           5.37015e+000           3.70150e-001           7.01504e-002           1.50358e-004           1.50358e-004
                   39.90    345.36795                               10.76461             86.141                                        3.45368e+002           4.53680e+001           5.36795e+000           3.67950e-001           6.79503e-002           7.95030e-003           9.50300e-004
                   40.00    345.36971                               10.76461             86.141                                        3.45370e+002           4.53697e+001           5.36971e+000           3.69714e-001           6.97140e-002           9.71399e-003           7.13988e-004
                   40.10    345.37317                               10.76461             86.141                                        3.45373e+002           4.53732e+001           5.37317e+000           3.73171e-001           7.31710e-002           3.17101e-003           1.71014e-004
                   40.20    345.37317                               10.76461             86.141                                        3.45373e+002           4.53732e+001           5.37317e+000           3.73173e-001           7.31726e-002           3.17261e-003           1.72609e-004
                   40.30    345.36948                               10.76461             86.141                                        3.45369e+002           4.53695e+001           5.36948e+000           3.69477e-001           6.94771e-002           9.47710e-003           4.77096e-004
                   40.40    345.36694                               10.76461             86.141                                        3.45367e+002           4.53669e+001           5.36694e+000           3.66942e-001           6.69419e-002           6.94190e-003           9.41897e-004
                   40.50    345.37200                               10.76461             86.141                                        3.45372e+002           4.53720e+001           5.37200e+000           3.72001e-001           7.20011e-002           2.00113e-003           1.13240e-006
                   40.60    345.37538                               10.76461             86.141                                        3.45375e+002           4.53754e+001           5.37538e+000           3.75384e-001           7.53845e-002           5.38448e-003           3.84477e-004
                   40.70    345.36894                               10.76461             86.141                                        3.45369e+002           4.53689e+001           5.36894e+000           3.68944e-001           6.89444e-002           8.94444e-003           9.44441e-004
                   40.80    345.36799                               10.76461             86.141                                        3.45368e+002           4.53680e+001           5.36799e+000           3.67988e-001           6.79879e-002           7.98790e-003           9.87899e-004
                   40.90    345.37106                               10.76461             86.141                                        3.45371e+002           4.53711e+001           5.37106e+000           3.71064e-001           7.10635e-002           1.06355e-003           6.35471e-005
                   41.00    345.37319                               10.76461             86.141                                        3.45373e+002           4.53732e+001           5.37319e+000           3.73192e-001           7.31920e-002           3.19197e-003           1.91969e-004
                   41.10    345.37500                               10.76461             86.141                                        3.45375e+002           4.53750e+001           5.37500e+000           3.75001e-001           7.50012e-002           5.00117e-003           1.17240e-006
                   41.20    345.37420                               10.76461             86.141                                        3.45374e+002           4.53742e+001           5.37420e+000           3.74200e-001           7.41995e-002           4.19954e-003           1.99537e-004
