~VERSION INFORMATION
VERS                    .            2.0                                    :CWLS LOG ASCII STANDARD
WRAP                    .            NO                                     :ONE LINE PER TIME STEP


~WELL INFORMATION
#MNEM                   .UNIT        DATA                                    DESCRIPTION
#________________________________________________________________________________________
STRTTIME                .HH/MM/SS    16:20:20                               :START TIME
STOPTIME                .HH/MM/SS    16:23:23                               :STOP TIME
STRT                    .s           2.10                                   :START DATA
STOP                    .s           182.00                                 :STOP DATA
STEP                    .s           0.10                                   :MEASUREMENT TIME INTERVAL
NULL                    .            -999.25                                :NULL VALUE
COMP                    .            Statoil ASA                            :COMPANY
FLD                     .            Volve                                  :FIELD
WELL                    .            15/9-F-1 B                             :WELL
RUN                     .            7                                      :RUN
LOC                     .            Maersk Inspirer                        :LOCATION
PROV                    .            na                                     :PROVINCE
SRVC                    .            Baker Hughes INTEQ                     :SERVICE COMPANY
DATE                    .YY/MM/DD    13/09/06                               :LOG DATE
UWI                     .                                                   :UNIQUE WELL ID
DEPTHMD                 .m           3255.0                                 :MEASURED DEPTH
DEPTHTVD                .m           3051.1                                 :TRUE VERTICAL DEPTH


~CURVE INFORMATION
#MNEM                   .UNIT        API CODES                               DESCRIPTION
#________________________________________________________________________________________
TIME                    .s                                                  :01 TIME
DD_PRESS                .bar                                                :02 DRAW DOWN PRESSURE
DD_VOLUME               .cm3                                                :03 INCREMENTAL DRAW DOWN VOLUME
TEMP                    .degC                                               :04 TRANSDUCER TEMPERATURE
DD_PRESS_MOD_1000       .bar                                                :05 DRAW DOWN PRESSURE MOD 1000
DD_PRESS_MOD_100        .bar                                                :06 DRAW DOWN PRESSURE MOD 100
DD_PRESS_MOD_10         .bar                                                :07 DRAW DOWN PRESSURE MOD 10
DD_PRESS_MOD_1          .bar                                                :08 DRAW DOWN PRESSURE MOD 1
DD_PRESS_MOD_01         .bar                                                :09 DRAW DOWN PRESSURE MOD 01
DD_PRESS_MOD_001        .bar                                                :10 DRAW DOWN PRESSURE MOD 001
DD_PRESS_MOD_0001       .bar                                                :11 DRAW DOWN PRESSURE MOD 0001


~PARAMETER INFORMATION
#MNEM                   .UNIT        VALUE                                   DESCRIPTION
#________________________________________________________________________________________
TOOLFACE                .deg         na                                     :01 TOOLFACE
PUMP_CAPACITY           .bar         400                                    :02 NOMINAL DRAW DOWN PUMP CAPACITY
PUMP_LIMIT              .bar         400                                    :03 DOWNLINK PUMP LIMIT
TIME_LIMIT              .min         10                                     :04 DOWNLINK MAX TIME
TEST_TYPE               .            LOW MOBILITY                           :05 DOWNLINK
DD_PIST_A               .cm2         3.1416                                 :06 DRAW DOWN PISTON AREA
V_SYS                   .cm3         131.0000                               :07 SYSTEM VOLUME
PROBE_ID                .cm          1.2700                                 :08 TTK PROBE ID
G0                      .            4.6700                                 :09 GEOMETRY FACTOR


~A                  TIME     DD_PRESS                              DD_VOLUME               TEMP                                   DD_PRESS_MOD_1000       DD_PRESS_MOD_100        DD_PRESS_MOD_10         DD_PRESS_MOD_1        DD_PRESS_MOD_01       DD_PRESS_MOD_001      DD_PRESS_MOD_0001
# ...
                   72.10    345.11426                               10.99651             81.781                                        3.45114e+002           4.51143e+001           5.11426e+000           1.14265e-001           1.42646e-002           4.26464e-003           2.64644e-004
                   72.20    345.11474                               10.99651             81.781                                        3.45115e+002           4.51147e+001           5.11474e+000           1.14739e-001           1.47389e-002           4.73890e-003           7.38904e-004
                   72.30    345.12932                               10.99651             81.781                                        3.45129e+002           4.51293e+001           5.12932e+000           1.29323e-001           2.93233e-002           9.32333e-003           3.23327e-004
                   72.40    345.13277                               10.99651             81.781                                        3.45133e+002           4.51328e+001           5.13277e+000           1.32773e-001           3.27729e-002           2.77293e-003           7.72933e-004
                   72.50    345.12329                               10.99651             81.781                                        3.45123e+002           4.51233e+001           5.12329e+000           1.23287e-001           2.32865e-002           3.28650e-003           2.86500e-004
                   72.60    345.12088                               10.99651             81.781                                        3.45121e+002           4.51209e+001           5.12088e+000           1.20881e-001           2.08811e-002           8.81054e-004           8.81054e-004
                   72.70    345.13032                               10.99651             81.781                                        3.45130e+002           4.51303e+001           5.13032e+000           1.30320e-001           3.03198e-002           3.19830e-004           3.19830e-004
                   72.80    345.13381                               10.99651             81.781                                        3.45134e+002           4.51338e+001           5.13381e+000           1.33807e-001           3.38074e-002           3.80744e-003           8.07444e-004
                   72.90    345.12140                               10.99651             81.781                                        3.45121e+002           4.51214e+001           5.12140e+000           1.21401e-001           2.14009e-002           1.40088e-003           4.00883e-004
                   73.00    345.12098                               10.99651             81.781                                        3.45121e+002           4.51210e+001           5.12098e+000           1.20979e-001           2.09787e-002           9.78704e-004           9.78704e-004
                   73.10    345.12859                               10.99651             81.781                                        3.45129e+002           4.51286e+001           5.12859e+000           1.28587e-001           2.85870e-002           8.58699e-003           5.86990e-004
                   73.20    345.13008                               10.99651             81.781                                        3.45130e+002           4.51301e+001           5.13008e+000           1.30076e-001           3.00755e-002           7.55416e-005           7.55416e-005
                   73.30    345.12233                               10.99651             81.781                                        3.45122e+002           4.51223e+001           5.12233e+000           1.22325e-001           2.23250e-002           2.32505e-003           3.25046e-004
                   73.40    345.12274                               10.99651             81.781                                        3.45123e+002           4.51227e+001           5.12274e+000           1.22740e-001           2.27397e-002           2.73970e-003           7.39699e-004
                   73.50    345.12488                               10.99651             81.781                                        3.45125e+002           4.51249e+001           5.12488e+000           1.24880e-001           2.48796e-002           4.87957e-003           8.79574e-004
                   73.60    345.12772                               10.99651             81.781                                        3.45128e+002           4.51277e+001           5.12772e+000           1.27716e-001           2.77164e-002           7.71638e-003           7.16382e-004
                   73.70    345.12471                               10.99651             81.781                                        3.45125e+002           4.51247e+001           5.12471e+000           1.24709e-001           2.47090e-002           4.70901e-003           7.09013e-004
                   73.80    345.12067                               10.99651             81.781                                        3.45121e+002           4.51207e+001           5.12067e+000           1.20666e-001           2.06658e-002           6.65797e-004           6.65797e-004
                   73.90    345.12540                               10.99651             81.781                                        3.45125e+002           4.51254e+001           5.12540e+000           1.25402e-001           2.54021e-002           5.40207e-003           4.02072e-004
                   74.00    345.13521                               10.99651             81.781                                        3.45135e+002           4.51352e+001           5.13521e+000           1.35213e-001           3.52127e-002           5.21270e-003           2.12699e-004
                   74.10    345.13164                               10.99651             81.781                                        3.45132e+002           4.51316e+001           5.13164e+000           1.31640e-001           3.16403e-002           1.64033e-003           6.40330e-004
                   74.20    345.11923                               10.99651             81.781                                        3.45119e+002           4.51192e+001           5.11923e+000           1.19227e-001           1.92268e-002           9.22676e-003           2.26759e-004
                   74.30    345.12078                               10.99651             81.781                                        3.45121e+002           4.51208e+001           5.12078e+000           1.20779e-001           2.07791e-002           7.79102e-004           7.79102e-004
                   74.40    345.12504                               10.99651             81.781                                        3.45125e+002           4.51250e+001           5.12504e+000           1.25043e-001           2.50434e-002           5.04342e-003           4.34181e-005
                   74.50    345.12303                               10.99651             81.781                                        3.45123e+002           4.51230e+001           5.12303e+000           1.23034e-001           2.30335e-002           3.03354e-003           3.35405e-005
                   74.60    345.12560                               10.99651             81.781                                        3.45126e+002           4.51256e+001           5.12560e+000           1.25598e-001           2.55985e-002           5.59849e-003           5.98486e-004
                   74.70    345.12724                               10.99651             81.781                                        3.45127e+002           4.51272e+001           5.12724e+000           1.27238e-001           2.72376e-002           7.23761e-003           2.37606e-004
                   74.80    345.12092                               10.99651             81.781                                        3.45121e+002           4.51209e+001           5.12092e+000           1.20919e-001           2.09192e-002           9.19221e-004           9.19221e-004
