~VERSION INFORMATION
VERS                    .            2.0                                    :CWLS LOG ASCII STANDARD
WRAP                    .            NO                                     :ONE LINE PER TIME STEP


~WELL INFORMATION
#MNEM                   .UNIT        DATA                                    DESCRIPTION
#________________________________________________________________________________________
STRTTIME                .HH/MM/SS    10:48:38                               :START TIME
STOPTIME                .HH/MM/SS    10:51:35                               :STOP TIME
STRT                    .s           2.10                                   :START DATA
STOP                    .s           175.10                                 :STOP DATA
STEP                    .s           0.10                                   :MEASUREMENT TIME INTERVAL
NULL                    .            -999.25                                :NULL VALUE
COMP                    .            Statoil ASA                            :COMPANY
FLD                     .            Volve                                  :FIELD
WELL                    .            15/9-F-11 A                            :WELL
RUN                     .            8                                      :RUN
LOC                     .            Maersk Inspirer                        :LOCATION
PROV                    .            na                                     :PROVINCE
SRVC                    .            Baker Hughes INTEQ                     :SERVICE COMPANY
DATE                    .YY/MM/DD    13/05/21                               :LOG DATE
UWI                     .                                                   :UNIQUE WELL ID
DEPTHMD                 .m           3635.2                                 :MEASURED DEPTH
DEPTHTVD                .m           3029.3                                 :TRUE VERTICAL DEPTH


~CURVE INFORMATION
#MNEM                   .UNIT        API CODES                               DESCRIPTION
#________________________________________________________________________________________
TIME                    .s                                                  :01 TIME
DD_PRESS                .bar                                                :02 DRAW DOWN PRESSURE
DD_VOLUME               .cm3                                                :03 INCREMENTAL DRAW DOWN VOLUME
TEMP                    .degC                                               :04 TRANSDUCER TEMPERATURE
DD_PRESS_MOD_1000       .bar                                                :05 DRAW DOWN PRESSURE MOD 1000
DD_PRESS_MOD_100        .bar                                                :06 DRAW DOWN PRESSURE MOD 100
DD_PRESS_MOD_10         .bar                                                :07 DRAW DOWN PRESSURE MOD 10
DD_PRESS_MOD_1          .bar                                                :08 DRAW DOWN PRESSURE MOD 1
DD_PRESS_MOD_01         .bar                                                :09 DRAW DOWN PRESSURE MOD 01
DD_PRESS_MOD_001        .bar                                                :10 DRAW DOWN PRESSURE MOD 001
DD_PRESS_MOD_0001       .bar                                                :11 DRAW DOWN PRESSURE MOD 0001


~PARAMETER INFORMATION
#MNEM                   .UNIT        VALUE                                   DESCRIPTION
#________________________________________________________________________________________
TOOLFACE                .deg         69.1                                   :01 TOOLFACE
PUMP_CAPACITY           .bar         400                                    :02 NOMINAL DRAW DOWN PUMP CAPACITY
PUMP_LIMIT              .bar         240                                    :03 DOWNLINK PUMP LIMIT
TIME_LIMIT              .min         10                                     :04 DOWNLINK MAX TIME
TEST_TYPE               .            REPEAT                                 :05 DOWNLINK
TEST_TYPE               .            HIGH MOBILITY                          :06 DOWNLINK
DD_PIST_A               .cm2         3.1416                                 :07 DRAW DOWN PISTON AREA
V_SYS                   .cm3         131.0000                               :08 SYSTEM VOLUME
PROBE_ID                .cm          1.2700                                 :09 TTK PROBE ID
G0                      .            4.6700                                 :10 GEOMETRY FACTOR


~A                  TIME     DD_PRESS                              DD_VOLUME               TEMP                                   DD_PRESS_MOD_1000       DD_PRESS_MOD_100        DD_PRESS_MOD_10         DD_PRESS_MOD_1        DD_PRESS_MOD_01       DD_PRESS_MOD_001      DD_PRESS_MOD_0001
# ...
                  128.10    342.88681                               20.28472             80.648                                        3.42887e+002           4.28868e+001           2.88681e+000           8.86811e-001           8.68106e-002           6.81057e-003           8.10566e-004
                  128.20    342.87122                               20.28472             80.648                                        3.42871e+002           4.28712e+001           2.87122e+000           8.71215e-001           7.12151e-002           1.21515e-003           2.15146e-004
                  128.30    342.85954                               20.28472             80.648                                        3.42860e+002           4.28595e+001           2.85954e+000           8.59539e-001           5.95393e-002           9.53931e-003           5.39309e-004
                  128.40    342.85849                               20.28472             80.648                                        3.42858e+002           4.28585e+001           2.85849e+000           8.58492e-001           5.84924e-002           8.49243e-003           4.92431e-004
                  128.50    342.86188                               20.28472             80.648                                        3.42862e+002           4.28619e+001           2.86188e+000           8.61877e-001           6.18769e-002           1.87692e-003           8.76921e-004
                  128.60    342.85966                               20.28472             80.648                                        3.42860e+002           4.28597e+001           2.85966e+000           8.59655e-001           5.96555e-002           9.65546e-003           6.55464e-004
                  128.70    342.84276                               20.28472             80.648                                        3.42843e+002           4.28428e+001           2.84276e+000           8.42760e-001           4.27602e-002           2.76018e-003           7.60181e-004
                  128.80    342.83001                               20.28472             80.648                                        3.42830e+002           4.28300e+001           2.83001e+000           8.30012e-001           3.00124e-002           1.23955e-005           1.23955e-005
                  128.90    342.84943                               20.28472             80.648                                        3.42849e+002           4.28494e+001           2.84943e+000           8.49428e-001           4.94276e-002           9.42759e-003           4.27590e-004
                  129.00    342.88094                               20.28472             80.648                                        3.42881e+002           4.28809e+001           2.88094e+000           8.80938e-001           8.09384e-002           9.38435e-004           9.38435e-004
                  129.10    342.88182                               20.28472             80.648                                        3.42882e+002           4.28818e+001           2.88182e+000           8.81824e-001           8.18241e-002           1.82411e-003           8.24113e-004
                  129.20    342.86781                               20.28472             80.648                                        3.42868e+002           4.28678e+001           2.86781e+000           8.67808e-001           6.78081e-002           7.80807e-003           8.08066e-004
                  129.30    342.87226                               20.28472             80.648                                        3.42872e+002           4.28723e+001           2.87226e+000           8.72261e-001           7.22609e-002           2.26089e-003           2.60889e-004
                  129.40    342.87854                               20.28472             80.648                                        3.42879e+002           4.28785e+001           2.87854e+000           8.78536e-001           7.85358e-002           8.53583e-003           5.35827e-004
                  129.50    342.87307                               20.28472             80.648                                        3.42873e+002           4.28731e+001           2.87307e+000           8.73071e-001           7.30710e-002           3.07103e-003           7.10333e-005
                  129.60    342.86192                               20.28472             80.648                                        3.42862e+002           4.28619e+001           2.86192e+000           8.61922e-001           6.19222e-002           1.92218e-003           9.22179e-004
                  129.70    342.85680                               20.28472             80.648                                        3.42857e+002           4.28568e+001           2.85680e+000           8.56798e-001           5.67975e-002           6.79753e-003           7.97528e-004
                  129.80    342.86353                               20.28472             80.648                                        3.42864e+002           4.28635e+001           2.86353e+000           8.63526e-001           6.35255e-002           3.52551e-003           5.25514e-004
                  129.90    342.87376                               20.28472             80.648                                        3.42874e+002           4.28738e+001           2.87376e+000           8.73759e-001           7.37588e-002           3.75876e-003           7.58759e-004
                  130.00    342.87657                               20.28472             80.648                                        3.42877e+002           4.28766e+001           2.87657e+000           8.76570e-001           7.65695e-002           6.56951e-003           5.69511e-004
                  130.10    342.85663                               20.28472             80.648                                        3.42857e+002           4.28566e+001           2.85663e+000           8.56631e-001           5.66308e-002           6.63077e-003           6.30771e-004
                  130.20    342.82760                               20.28472             80.651                                        3.42828e+002           4.28276e+001           2.82760e+000           8.27603e-001           2.76035e-002           7.60347e-003           6.03467e-004
                  130.30    342.83474                               20.28472             80.654                                        3.42835e+002           4.28347e+001           2.83474e+000           8.34739e-001           3.47387e-002           4.73872e-003           7.38717e-004
                  130.40    342.85667                               20.28472             80.656                                        3.42857e+002           4.28567e+001           2.85667e+000           8.56666e-001           5.66657e-002           6.66571e-003           6.65714e-004
                  130.50    342.85845                               20.28472             80.656                                        3.42858e+002           4.28585e+001           2.85845e+000           8.58455e-001           5.84548e-002           8.45479e-003           4.54793e-004
                  130.60    342.85434                               20.28472             80.656                                        3.42854e+002           4.28543e+001           2.85434e+000           8.54341e-001           5.43414e-002           4.34143e-003           3.41430e-004
                  130.70    342.85849                               20.28472             80.656                                        3.42858e+002           4.28585e+001           2.85849e+000           8.58495e-001           5.84949e-002           8.49485e-003           4.94853e-004
                  130.80    342.85686                               20.28472             80.656                                        3.42857e+002           4.28569e+001           2.85686e+000           8.56863e-001           5.68629e-002           6.86288e-003           8.62881e-004
