~VERSION INFORMATION
VERS                    .            2.0                                    :CWLS LOG ASCII STANDARD
WRAP                    .            NO                                     :ONE LINE PER TIME STEP


~WELL INFORMATION
#MNEM                   .UNIT        DATA                                    DESCRIPTION
#________________________________________________________________________________________
STRTTIME                .HH/MM/SS    14:04:48                               :START TIME
STOPTIME                .HH/MM/SS    14:07:57                               :STOP TIME
STRT                    .s           2.10                                   :START DATA
STOP                    .s           187.50                                 :STOP DATA
STEP                    .s           0.10                                   :MEASUREMENT TIME INTERVAL
NULL                    .            -999.25                                :NULL VALUE
COMP                    .            Statoil ASA                            :COMPANY
FLD                     .            Volve                                  :FIELD
WELL                    .            15/9-F-1 B                             :WELL
RUN                     .            7                                      :RUN
LOC                     .            Maersk Inspirer                        :LOCATION
PROV                    .            na                                     :PROVINCE
SRVC                    .            Baker Hughes INTEQ                     :SERVICE COMPANY
DATE                    .YY/MM/DD    13/09/06                               :LOG DATE
UWI                     .                                                   :UNIQUE WELL ID
DEPTHMD                 .m           3296.0                                 :MEASURED DEPTH
DEPTHTVD                .m           3091.5                                 :TRUE VERTICAL DEPTH


~CURVE INFORMATION
#MNEM                   .UNIT        API CODES                               DESCRIPTION
#________________________________________________________________________________________
TIME                    .s                                                  :01 TIME
DD_PRESS                .bar                                                :02 DRAW DOWN PRESSURE
DD_VOLUME               .cm3                                                :03 INCREMENTAL DRAW DOWN VOLUME
TEMP                    .degC                                               :04 TRANSDUCER TEMPERATURE
DD_PRESS_MOD_1000       .bar                                                :05 DRAW DOWN PRESSURE MOD 1000
DD_PRESS_MOD_100        .bar                                                :06 DRAW DOWN PRESSURE MOD 100
DD_PRESS_MOD_10         .bar                                                :07 DRAW DOWN PRESSURE MOD 10
DD_PRESS_MOD_1          .bar                                                :08 DRAW DOWN PRESSURE MOD 1
DD_PRESS_MOD_01         .bar                                                :09 DRAW DOWN PRESSURE MOD 01
DD_PRESS_MOD_001        .bar                                                :10 DRAW DOWN PRESSURE MOD 001
DD_PRESS_MOD_0001       .bar                                                :11 DRAW DOWN PRESSURE MOD 0001


~PARAMETER INFORMATION
#MNEM                   .UNIT        VALUE                                   DESCRIPTION
#________________________________________________________________________________________
TOOLFACE                .deg         na                                     :01 TOOLFACE
PUMP_CAPACITY           .bar         400                                    :02 NOMINAL DRAW DOWN PUMP CAPACITY
PUMP_LIMIT              .bar         400                                    :03 DOWNLINK PUMP LIMIT
TIME_LIMIT              .min         10                                     :04 DOWNLINK MAX TIME
TEST_TYPE               .            LOW MOBILITY                           :05 DOWNLINK
DD_PIST_A               .cm2         3.1416                                 :06 DRAW DOWN PISTON AREA
V_SYS                   .cm3         131.0000                               :07 SYSTEM VOLUME
PROBE_ID                .cm          1.2700                                 :08 TTK PROBE ID
G0                      .            4.6700                                 :09 GEOMETRY FACTOR


~A                  TIME     DD_PRESS                              DD_VOLUME               TEMP                                   DD_PRESS_MOD_1000       DD_PRESS_MOD_100        DD_PRESS_MOD_10         DD_PRESS_MOD_1        DD_PRESS_MOD_01       DD_PRESS_MOD_001      DD_PRESS_MOD_0001
# ...
                  111.30    348.62078                               19.96297             83.266                                        3.48621e+002           4.86208e+001           8.62078e+000           6.20778e-001           2.07776e-002           7.77553e-004           7.77553e-004
                  111.40    348.62809                               19.96297             83.266                                        3.48628e+002           4.86281e+001           8.62809e+000           6.28086e-001           2.80860e-002           8.08598e-003           8.59813e-005
                  111.50    348.63970                               19.96297             83.266                                        3.48640e+002           4.86397e+001           8.63970e+000           6.39697e-001           3.96965e-002           9.69654e-003           6.96537e-004
                  111.60    348.64431                               19.96297             83.266                                        3.48644e+002           4.86443e+001           8.64431e+000           6.44305e-001           4.43051e-002           4.30512e-003           3.05117e-004
                  111.70    348.64555                               19.96297             83.266                                        3.48646e+002           4.86455e+001           8.64555e+000           6.45546e-001           4.55458e-002           5.54576e-003           5.45764e-004
                  111.80    348.63896                               19.96297             83.266                                        3.48639e+002           4.86390e+001           8.63896e+000           6.38961e-001           3.89608e-002           8.96080e-003           9.60803e-004
                  111.90    348.61868                               19.96297             83.266                                        3.48619e+002           4.86187e+001           8.61868e+000           6.18683e-001           1.86829e-002           8.68293e-003           6.82929e-004
                  112.00    348.61729                               19.96297             83.266                                        3.48617e+002           4.86173e+001           8.61729e+000           6.17291e-001           1.72912e-002           7.29119e-003           2.91190e-004
                  112.10    348.63631                               19.96297             83.266                                        3.48636e+002           4.86363e+001           8.63631e+000           6.36314e-001           3.63141e-002           6.31411e-003           3.14106e-004
                  112.20    348.65128                               19.96297             83.266                                        3.48651e+002           4.86513e+001           8.65128e+000           6.51284e-001           5.12840e-002           1.28397e-003           2.83969e-004
                  112.30    348.64595                               19.96297             83.266                                        3.48646e+002           4.86459e+001           8.64595e+000           6.45950e-001           4.59499e-002           5.94990e-003           9.49903e-004
                  112.40    348.64143                               19.96297             83.266                                        3.48641e+002           4.86414e+001           8.64143e+000           6.41428e-001           4.14283e-002           1.42826e-003           4.28263e-004
                  112.50    348.63215                               19.96297             83.266                                        3.48632e+002           4.86322e+001           8.63215e+000           6.32151e-001           3.21512e-002           2.15118e-003           1.51185e-004
                  112.60    348.62751                               19.96297             83.266                                        3.48628e+002           4.86275e+001           8.62751e+000           6.27513e-001           2.75133e-002           7.51333e-003           5.13328e-004
                  112.70    348.62705                               19.96297             83.266                                        3.48627e+002           4.86271e+001           8.62705e+000           6.27053e-001           2.70528e-002           7.05282e-003           5.28173e-005
                  112.80    348.64175                               19.96297             83.266                                        3.48642e+002           4.86417e+001           8.64175e+000           6.41750e-001           4.17499e-002           1.74988e-003           7.49882e-004
                  112.90    348.65939                               19.96297             83.266                                        3.48659e+002           4.86594e+001           8.65939e+000           6.59387e-001           5.93870e-002           9.38696e-003           3.86956e-004
                  113.00    348.64195                               19.96297             83.266                                        3.48642e+002           4.86420e+001           8.64195e+000           6.41953e-001           4.19530e-002           1.95296e-003           9.52959e-004
                  113.10    348.61867                               19.96297             83.266                                        3.48619e+002           4.86187e+001           8.61867e+000           6.18673e-001           1.86732e-002           8.67316e-003           6.73155e-004
                  113.20    348.64418                               19.96297             83.266                                        3.48644e+002           4.86442e+001           8.64418e+000           6.44180e-001           4.41804e-002           4.18039e-003           1.80389e-004
                  113.30    348.65301                               19.96297             83.266                                        3.48653e+002           4.86530e+001           8.65301e+000           6.53007e-001           5.30073e-002           3.00735e-003           7.34723e-006
                  113.40    348.62776                               19.96297             83.266                                        3.48628e+002           4.86278e+001           8.62776e+000           6.27761e-001           2.77607e-002           7.76074e-003           7.60736e-004
                  113.50    348.63212                               19.96297             83.266                                        3.48632e+002           4.86321e+001           8.63212e+000           6.32124e-001           3.21242e-002           2.12425e-003           1.24247e-004
                  113.60    348.65648                               19.96297             83.266                                        3.48656e+002           4.86565e+001           8.65648e+000           6.56479e-001           5.64791e-002           6.47907e-003           4.79070e-004
                  113.70    348.64172                               19.96297             83.266                                        3.48642e+002           4.86417e+001           8.64172e+000           6.41716e-001           4.17158e-002           1.71584e-003           7.15844e-004
                  113.80    348.61311                               19.96297             83.266                                        3.48613e+002           4.86131e+001           8.61311e+000           6.13106e-001           1.31059e-002           3.10591e-003           1.05905e-004
                  113.90    348.60622                               19.96297             83.266                                        3.48606e+002           4.86062e+001           8.60622e+000           6.06225e-001           6.22492e-003           6.22492e-003           2.24922e-004
                  114.00    348.62730                               19.96297             83.266                                        3.48627e+002           4.86273e+001           8.62730e+000           6.27300e-001           2.73002e-002           7.30015e-003           3.00153e-004
