~VERSION INFORMATION
VERS                    .            2.0                                    :CWLS LOG ASCII STANDARD
WRAP                    .            NO                                     :ONE LINE PER TIME STEP


~WELL INFORMATION
#MNEM                   .UNIT        DATA                                    DESCRIPTION
#________________________________________________________________________________________
STRTTIME                .HH/MM/SS    23:13:04                               :START TIME
STOPTIME                .HH/MM/SS    23:16:31                               :STOP TIME
STRT                    .s           2.10                                   :START DATA
STOP                    .s           205.60                                 :STOP DATA
STEP                    .s           0.10                                   :MEASUREMENT TIME INTERVAL
NULL                    .            -999.25                                :NULL VALUE
COMP                    .            Statoil ASA                            :COMPANY
FLD                     .            Volve                                  :FIELD
WELL                    .            15/9-F-1 C                             :WELL
RUN                     .            4                                      :RUN
LOC                     .                                                   :LOCATION
PROV                    .            na                                     :PROVINCE
SRVC                    .            Baker Hughes INTEQ                     :SERVICE COMPANY
DATE                    .YY/MM/DD    14/03/14                               :LOG DATE
UWI                     .                                                   :UNIQUE WELL ID
DEPTHMD                 .m           3858.0                                 :MEASURED DEPTH
DEPTHTVD                .m           3096.5                                 :TRUE VERTICAL DEPTH


~CURVE INFORMATION
#MNEM                   .UNIT        API CODES                               DESCRIPTION
#________________________________________________________________________________________
TIME                    .s                                                  :01 TIME
DD_PRESS                .bar                                                :02 DRAW DOWN PRESSURE
DD_VOLUME               .cm3                                                :03 INCREMENTAL DRAW DOWN VOLUME
TEMP                    .degC                                               :04 TRANSDUCER TEMPERATURE
DD_PRESS_MOD_1000       .bar                                                :05 DRAW DOWN PRESSURE MOD 1000
DD_PRESS_MOD_100        .bar                                                :06 DRAW DOWN PRESSURE MOD 100
DD_PRESS_MOD_10         .bar                                                :07 DRAW DOWN PRESSURE MOD 10
DD_PRESS_MOD_1          .bar                                                :08 DRAW DOWN PRESSURE MOD 1
DD_PRESS_MOD_01         .bar                                                :09 DRAW DOWN PRESSURE MOD 01
DD_PRESS_MOD_001        .bar                                                :10 DRAW DOWN PRESSURE MOD 001
DD_PRESS_MOD_0001       .bar                                                :11 DRAW DOWN PRESSURE MOD 0001


~PARAMETER INFORMATION
#MNEM                   .UNIT        VALUE                                   DESCRIPTION
#________________________________________________________________________________________
TOOLFACE                .deg         88.6                                   :01 TOOLFACE
PUMP_CAPACITY           .bar         400                                    :02 NOMINAL DRAW DOWN PUMP CAPACITY
PUMP_LIMIT              .bar         240                                    :03 DOWNLINK PUMP LIMIT
TIME_LIMIT              .min         10                                     :04 DOWNLINK MAX TIME
TEST_TYPE               .            HIGH MOBILITY                          :05 DOWNLINK
DD_PIST_A               .cm2         3.1416                                 :06 DRAW DOWN PISTON AREA
V_SYS                   .cm3         131.0000                               :07 SYSTEM VOLUME
PROBE_ID                .cm          1.2700                                 :08 TTK PROBE ID
G0                      .            4.6700                                 :09 GEOMETRY FACTOR


~A                  TIME     DD_PRESS                              DD_VOLUME               TEMP                                   DD_PRESS_MOD_1000       DD_PRESS_MOD_100        DD_PRESS_MOD_10         DD_PRESS_MOD_1        DD_PRESS_MOD_01       DD_PRESS_MOD_001      DD_PRESS_MOD_0001
# ...
                   55.30    352.21614                               10.56428             90.094                                        3.52216e+002           5.22161e+001           2.21614e+000           2.16141e-001           1.61406e-002           6.14058e-003           1.40578e-004
                   55.40    352.21072                               10.56428             90.094                                        3.52211e+002           5.22107e+001           2.21072e+000           2.10719e-001           1.07193e-002           7.19336e-004           7.19336e-004
                   55.50    352.20935                               10.56428             90.094                                        3.52209e+002           5.22094e+001           2.20935e+000           2.09352e-001           9.35193e-003           9.35193e-003           3.51929e-004
                   55.60    352.21499                               10.56428             90.094                                        3.52215e+002           5.22150e+001           2.21499e+000           2.14987e-001           1.49875e-002           4.98745e-003           9.87454e-004
                   55.70    352.21927                               10.56428             90.094                                        3.52219e+002           5.22193e+001           2.21927e+000           2.19271e-001           1.92709e-002           9.27088e-003           2.70884e-004
                   55.80    352.21662                               10.56428             90.094                                        3.52217e+002           5.22166e+001           2.21662e+000           2.16615e-001           1.66154e-002           6.61539e-003           6.15392e-004
                   55.90    352.21203                               10.56428             90.094                                        3.52212e+002           5.22120e+001           2.21203e+000           2.12025e-001           1.20254e-002           2.02539e-003           2.53921e-005
                   56.00    352.21297                               10.56428             90.094                                        3.52213e+002           5.22130e+001           2.21297e+000           2.12965e-001           1.29653e-002           2.96532e-003           9.65315e-004
                   56.10    352.21690                               10.56428             90.094                                        3.52217e+002           5.22169e+001           2.21690e+000           2.16896e-001           1.68958e-002           6.89581e-003           8.95807e-004
                   56.20    352.21587                               10.56428             90.094                                        3.52216e+002           5.22159e+001           2.21587e+000           2.15869e-001           1.58693e-002           5.86931e-003           8.69314e-004
                   56.30    352.20989                               10.56428             90.094                                        3.52210e+002           5.22099e+001           2.20989e+000           2.09892e-001           9.89228e-003           9.89228e-003           8.92276e-004
                   56.40    352.20674                               10.56428             90.094                                        3.52207e+002           5.22067e+001           2.20674e+000           2.06741e-001           6.74143e-003           6.74143e-003           7.41427e-004
                   56.50    352.20945                               10.56428             90.094                                        3.52209e+002           5.22095e+001           2.20945e+000           2.09451e-001           9.45066e-003           9.45066e-003           4.50664e-004
                   56.60    352.21414                               10.56428             90.094                                        3.52214e+002           5.22141e+001           2.21414e+000           2.14136e-001           1.41356e-002           4.13563e-003           1.35627e-004
                   56.70    352.21399                               10.56428             90.094                                        3.52214e+002           5.22140e+001           2.21399e+000           2.13985e-001           1.39855e-002           3.98550e-003           9.85500e-004
                   56.80    352.21403                               10.56428             90.094                                        3.52214e+002           5.22140e+001           2.21403e+000           2.14026e-001           1.40262e-002           4.02624e-003           2.62370e-005
                   56.90    352.21524                               10.56428             90.094                                        3.52215e+002           5.22152e+001           2.21524e+000           2.15243e-001           1.52426e-002           5.24262e-003           2.42618e-004
                   57.00    352.21432                               10.56428             90.094                                        3.52214e+002           5.22143e+001           2.21432e+000           2.14321e-001           1.43213e-002           4.32134e-003           3.21337e-004
                   57.10    352.21554                               10.56428             90.094                                        3.52216e+002           5.22155e+001           2.21554e+000           2.15536e-001           1.55357e-002           5.53574e-003           5.35745e-004
                   57.20    352.21522                               10.56428             90.094                                        3.52215e+002           5.22152e+001           2.21522e+000           2.15221e-001           1.52209e-002           5.22094e-003           2.20944e-004
                   57.30    352.21414                               10.56428             90.094                                        3.52214e+002           5.22141e+001           2.21414e+000           2.14144e-001           1.41435e-002           4.14351e-003           1.43513e-004
                   57.40    352.21481                               10.56428             90.094                                        3.52215e+002           5.22148e+001           2.21481e+000           2.14811e-001           1.48109e-002           4.81095e-003           8.10946e-004
                   57.50    352.21670                               10.56428             90.094                                        3.52217e+002           5.22167e+001           2.21670e+000           2.16701e-001           1.67009e-002           6.70086e-003           7.00862e-004
                   57.60    352.21632                               10.56428             90.094                                        3.52216e+002           5.22163e+001           2.21632e+000           2.16321e-001           1.63206e-002           6.32057e-003           3.20571e-004
                   57.70    352.21674                               10.56428             90.094                                        3.52217e+002           5.22167e+001           2.21674e+000           2.16742e-001           1.67420e-002           6.74199e-003           7.41986e-004
                   57.80    352.21825                               10.56428             90.094                                        3.52218e+002           5.22182e+001           2.21825e+000           2.18246e-001           1.82462e-002           8.24620e-003           2.46204e-004
                   57.90    352.21911                               10.56428             90.094                                        3.52219e+002           5.22191e+001           2.21911e+000           2.19113e-001           1.91127e-002           9.11272e-003           1.12717e-004
                   58.00    352.21796                               10.56428             90.094                                        3.52218e+002           5.22180e+001           2.21796e+000           2.17955e-001           1.79550e-002           7.95502e-003           9.55015e-004
