~VERSION INFORMATION
VERS                    .            2.0                                    :CWLS LOG ASCII STANDARD
WRAP                    .            NO                                     :ONE LINE PER TIME STEP


~WELL INFORMATION
#MNEM                   .UNIT        DATA                                    DESCRIPTION
#________________________________________________________________________________________
STRTTIME                .HH/MM/SS    19:20:48                               :START TIME
STOPTIME                .HH/MM/SS    19:23:33                               :STOP TIME
STRT                    .s           2.10                                   :START DATA
STOP                    .s           164.00                                 :STOP DATA
STEP                    .s           0.10                                   :MEASUREMENT TIME INTERVAL
NULL                    .            -999.25                                :NULL VALUE
COMP                    .            Statoil ASA                            :COMPANY
FLD                     .            Volve                                  :FIELD
WELL                    .            15/9-F-11 A                            :WELL
RUN                     .            8                                      :RUN
LOC                     .            Maersk Inspirer                        :LOCATION
PROV                    .            na                                     :PROVINCE
SRVC                    .            Baker Hughes INTEQ                     :SERVICE COMPANY
DATE                    .YY/MM/DD    13/05/23                               :LOG DATE
UWI                     .                                                   :UNIQUE WELL ID
DEPTHMD                 .m           3617.0                                 :MEASURED DEPTH
DEPTHTVD                .m           3015.4                                 :TRUE VERTICAL DEPTH


~CURVE INFORMATION
#MNEM                   .UNIT        API CODES                               DESCRIPTION
#________________________________________________________________________________________
TIME                    .s                                                  :01 TIME
DD_PRESS                .bar                                                :02 DRAW DOWN PRESSURE
DD_VOLUME               .cm3                                                :03 INCREMENTAL DRAW DOWN VOLUME
TEMP                    .degC                                               :04 TRANSDUCER TEMPERATURE
DD_PRESS_MOD_1000       .bar                                                :05 DRAW DOWN PRESSURE MOD 1000
DD_PRESS_MOD_100        .bar                                                :06 DRAW DOWN PRESSURE MOD 100
DD_PRESS_MOD_10         .bar                                                :07 DRAW DOWN PRESSURE MOD 10
DD_PRESS_MOD_1          .bar                                                :08 DRAW DOWN PRESSURE MOD 1
DD_PRESS_MOD_01         .bar                                                :09 DRAW DOWN PRESSURE MOD 01
DD_PRESS_MOD_001        .bar                                                :10 DRAW DOWN PRESSURE MOD 001
DD_PRESS_MOD_0001       .bar                                                :11 DRAW DOWN PRESSURE MOD 0001


~PARAMETER INFORMATION
#MNEM                   .UNIT        VALUE                                   DESCRIPTION
#________________________________________________________________________________________
TOOLFACE                .deg         -39.9                                  :01 TOOLFACE
PUMP_CAPACITY           .bar         400                                    :02 NOMINAL DRAW DOWN PUMP CAPACITY
PUMP_LIMIT              .bar         240                                    :03 DOWNLINK PUMP LIMIT
TIME_LIMIT              .min         10                                     :04 DOWNLINK MAX TIME
TEST_TYPE               .            REPEAT                                 :05 DOWNLINK
TEST_TYPE               .            HIGH MOBILITY                          :06 DOWNLINK
DD_PIST_A               .cm2         3.1416                                 :07 DRAW DOWN PISTON AREA
V_SYS                   .cm3         131.0000                               :08 SYSTEM VOLUME
PROBE_ID                .cm          1.2700                                 :09 TTK PROBE ID
G0                      .            4.6700                                 :10 GEOMETRY FACTOR


~A                  TIME     DD_PRESS                              DD_VOLUME               TEMP                                   DD_PRESS_MOD_1000       DD_PRESS_MOD_100        DD_PRESS_MOD_10         DD_PRESS_MOD_1        DD_PRESS_MOD_01       DD_PRESS_MOD_001      DD_PRESS_MOD_0001
# ...
                   86.10    340.84049                               19.82577             72.094                                        3.40840e+002           4.08405e+001           8.40485e-001           8.40485e-001           4.04852e-002           4.85159e-004           4.85159e-004
                   86.20    340.83987                               19.82577             72.094                                        3.40840e+002           4.08399e+001           8.39871e-001           8.39871e-001           3.98709e-002           9.87094e-003           8.70937e-004
                   86.30    340.84314                               19.82577             72.094                                        3.40843e+002           4.08431e+001           8.43141e-001           8.43141e-001           4.31411e-002           3.14113e-003           1.41127e-004
                   86.40    340.84632                               19.82577             72.094                                        3.40846e+002           4.08463e+001           8.46321e-001           8.46321e-001           4.63213e-002           6.32133e-003           3.21329e-004
                   86.50    340.84677                               19.82577             72.094                                        3.40847e+002           4.08468e+001           8.46774e-001           8.46774e-001           4.67739e-002           6.77386e-003           7.73862e-004
                   86.60    340.84458                               19.82577             72.094                                        3.40845e+002           4.08446e+001           8.44580e-001           8.44580e-001           4.45795e-002           4.57951e-003           5.79508e-004
                   86.70    340.84558                               19.82577             72.094                                        3.40846e+002           4.08456e+001           8.45575e-001           8.45575e-001           4.55755e-002           5.57546e-003           5.75459e-004
                   86.80    340.84583                               19.82577             72.094                                        3.40846e+002           4.08458e+001           8.45832e-001           8.45832e-001           4.58324e-002           5.83242e-003           8.32424e-004
                   86.90    340.84257                               19.82577             72.094                                        3.40843e+002           4.08426e+001           8.42574e-001           8.42574e-001           4.25739e-002           2.57388e-003           5.73877e-004
                   87.00    340.84009                               19.82577             72.094                                        3.40840e+002           4.08401e+001           8.40086e-001           8.40086e-001           4.00862e-002           8.61773e-005           8.61773e-005
                   87.10    340.84036                               19.82577             72.094                                        3.40840e+002           4.08404e+001           8.40364e-001           8.40364e-001           4.03644e-002           3.64394e-004           3.64394e-004
                   87.20    340.84212                               19.82577             72.094                                        3.40842e+002           4.08421e+001           8.42118e-001           8.42118e-001           4.21182e-002           2.11822e-003           1.18223e-004
                   87.30    340.84471                               19.82577             72.094                                        3.40845e+002           4.08447e+001           8.44709e-001           8.44709e-001           4.47093e-002           4.70928e-003           7.09275e-004
                   87.40    340.84186                               19.82577             72.094                                        3.40842e+002           4.08419e+001           8.41856e-001           8.41856e-001           4.18561e-002           1.85612e-003           8.56121e-004
                   87.50    340.84087                               19.82577             72.094                                        3.40841e+002           4.08409e+001           8.40872e-001           8.40872e-001           4.08721e-002           8.72078e-004           8.72078e-004
                   87.60    340.84351                               19.82577             72.094                                        3.40844e+002           4.08435e+001           8.43507e-001           8.43507e-001           4.35069e-002           3.50691e-003           5.06913e-004
                   87.70    340.84332                               19.82577             72.094                                        3.40843e+002           4.08433e+001           8.43321e-001           8.43321e-001           4.33212e-002           3.32117e-003           3.21172e-004
                   87.80    340.84051                               19.82577             72.094                                        3.40841e+002           4.08405e+001           8.40505e-001           8.40505e-001           4.05053e-002           5.05342e-004           5.05342e-004
                   87.90    340.84083                               19.82577             72.094                                        3.40841e+002           4.08408e+001           8.40828e-001           8.40828e-001           4.08277e-002           8.27733e-004           8.27733e-004
                   88.00    340.84366                               19.82577             72.094                                        3.40844e+002           4.08437e+001           8.43656e-001           8.43656e-001           4.36562e-002           3.65619e-003           6.56187e-004
                   88.10    340.84278                               19.82577             72.094                                        3.40843e+002           4.08428e+001           8.42778e-001           8.42778e-001           4.27783e-002           2.77831e-003           7.78312e-004
                   88.20    340.84263                               19.82577             72.094                                        3.40843e+002           4.08426e+001           8.42632e-001           8.42632e-001           4.26317e-002           2.63172e-003           6.31720e-004
                   88.30    340.84462                               19.82577             72.094                                        3.40845e+002           4.08446e+001           8.44616e-001           8.44616e-001           4.46156e-002           4.61558e-003           6.15583e-004
                   88.40    340.84503                               19.82577             72.094                                        3.40845e+002           4.08450e+001           8.45035e-001           8.45035e-001           4.50350e-002           5.03497e-003           3.49681e-005
                   88.50    340.84488                               19.82577             72.094                                        3.40845e+002           4.08449e+001           8.44878e-001           8.44878e-001           4.48778e-002           4.87775e-003           8.77752e-004
                   88.60    340.84264                               19.82577             72.094                                        3.40843e+002           4.08426e+001           8.42645e-001           8.42645e-001           4.26446e-002           2.64462e-003           6.44616e-004
                   88.70    340.84028                               19.82577             72.094                                        3.40840e+002           4.08403e+001           8.40282e-001           8.40282e-001           4.02824e-002           2.82445e-004           2.82445e-004
                   88.80    340.83996                               19.82577             72.094                                        3.40840e+002           4.08400e+001           8.39961e-001           8.39961e-001           3.99607e-002           9.96067e-003           9.60671e-004
