~VERSION INFORMATION
VERS                    .            2.0                                    :CWLS LOG ASCII STANDARD
WRAP                    .            NO                                     :ONE LINE PER TIME STEP


~WELL INFORMATION
#MNEM                   .UNIT        DATA                                    DESCRIPTION
#________________________________________________________________________________________
STRTTIME                .HH/MM/SS    22:05:32                               :START TIME
STOPTIME                .HH/MM/SS    22:09:32                               :STOP TIME
STRT                    .s           2.10                                   :START DATA
STOP                    .s           238.90                                 :STOP DATA
STEP                    .s           0.10                                   :MEASUREMENT TIME INTERVAL
NULL                    .            -999.25                                :NULL VALUE
COMP                    .            Statoil                                :COMPANY
FLD                     .            Volve                                  :FIELD
WELL                    .            15/9-F-11 T2                           :WELL
RUN                     .            7                                      :RUN
LOC                     .            Maersk Inspirer                        :LOCATION
PROV                    .            na                                     :PROVINCE
SRVC                    .            Baker Hughes INTEQ                     :SERVICE COMPANY
DATE                    .YY/MM/DD    13/05/04                               :LOG DATE
UWI                     .                                                   :UNIQUE WELL ID
DEPTHMD                 .m           4490.1                                 :MEASURED DEPTH
DEPTHTVD                .m           3328.5                                 :TRUE VERTICAL DEPTH


~CURVE INFORMATION
#MNEM                   .UNIT        API CODES                               DESCRIPTION
#________________________________________________________________________________________
TIME                    .s                                                  :01 TIME
DD_PRESS                .bar                                                :02 DRAW DOWN PRESSURE
DD_VOLUME               .cm3                                                :03 INCREMENTAL DRAW DOWN VOLUME
TEMP                    .degC                                               :04 TRANSDUCER TEMPERATURE
DD_PRESS_MOD_1000       .bar                                                :05 DRAW DOWN PRESSURE MOD 1000
DD_PRESS_MOD_100        .bar                                                :06 DRAW DOWN PRESSURE MOD 100
DD_PRESS_MOD_10         .bar                                                :07 DRAW DOWN PRESSURE MOD 10
DD_PRESS_MOD_1          .bar                                                :08 DRAW DOWN PRESSURE MOD 1
DD_PRESS_MOD_01         .bar                                                :09 DRAW DOWN PRESSURE MOD 01
DD_PRESS_MOD_001        .bar                                                :10 DRAW DOWN PRESSURE MOD 001
DD_PRESS_MOD_0001       .bar                                                :11 DRAW DOWN PRESSURE MOD 0001


~PARAMETER INFORMATION
#MNEM                   .UNIT        VALUE                                   DESCRIPTION
#________________________________________________________________________________________
TOOLFACE                .deg         na                                     :01 TOOLFACE
PUMP_CAPACITY           .bar         400                                    :02 NOMINAL DRAW DOWN PUMP CAPACITY
PUMP_LIMIT              .bar         240                                    :03 DOWNLINK PUMP LIMIT
TIME_LIMIT              .min         10                                     :04 DOWNLINK MAX TIME
TEST_TYPE               .            HIGH MOBILITY                          :05 DOWNLINK
DD_PIST_A               .cm2         3.1416                                 :06 DRAW DOWN PISTON AREA
V_SYS                   .cm3         131.0000                               :07 SYSTEM VOLUME
PROBE_ID                .cm          1.2700                                 :08 TTK PROBE ID
G0                      .            4.6700                                 :09 GEOMETRY FACTOR


~A                  TIME     DD_PRESS                              DD_VOLUME               TEMP                                   DD_PRESS_MOD_1000       DD_PRESS_MOD_100        DD_PRESS_MOD_10         DD_PRESS_MOD_1        DD_PRESS_MOD_01       DD_PRESS_MOD_001      DD_PRESS_MOD_0001
                    2.10    465.52520                                0.00000             97.367                                        4.65525e+002           6.55252e+001           5.52520e+000           5.25196e-001           2.51964e-002           5.19644e-003           1.96438e-004
                    2.20    465.50392                                0.00000             97.367                                        4.65504e+002           6.55039e+001           5.50392e+000           5.03918e-001           3.91810e-003           3.91810e-003           9.18097e-004
                    2.30    465.50860                                0.00000             97.367                                        4.65509e+002           6.55086e+001           5.50860e+000           5.08598e-001           8.59807e-003           8.59807e-003           5.98069e-004
                    2.40    465.56753                                0.00000             97.367                                        4.65568e+002           6.55675e+001           5.56753e+000           5.67529e-001           6.75288e-002           7.52885e-003           5.28846e-004
                    2.50    465.62863                                0.00000             97.367                                        4.65629e+002           6.56286e+001           5.62863e+000           6.28629e-001           2.86293e-002           8.62929e-003           6.29288e-004
                    2.60    465.65209                                0.00000             97.367                                        4.65652e+002           6.56521e+001           5.65209e+000           6.52087e-001           5.20868e-002           2.08676e-003           8.67563e-005
                    2.70    465.65798                                0.00000             97.367                                        4.65658e+002           6.56580e+001           5.65798e+000           6.57978e-001           5.79778e-002           7.97777e-003           9.77766e-004
                    2.80    465.67783                                0.00000             97.367                                        4.65678e+002           6.56778e+001           5.67783e+000           6.77830e-001           7.78295e-002           7.82950e-003           8.29502e-004
                    2.90    465.69463                                0.00000             97.367                                        4.65695e+002           6.56946e+001           5.69463e+000           6.94633e-001           9.46326e-002           4.63259e-003           6.32585e-004
                    3.00    465.69910                                0.00000             97.367                                        4.65699e+002           6.56991e+001           5.69910e+000           6.99096e-001           9.90961e-002           9.09606e-003           9.60589e-005
                    3.10    465.74280                                0.00000             97.367                                        4.65743e+002           6.57428e+001           5.74280e+000           7.42797e-001           4.27972e-002           2.79719e-003           7.97194e-004
                    3.20    465.82755                                0.00000             97.367                                        4.65828e+002           6.58275e+001           5.82755e+000           8.27546e-001           2.75458e-002           7.54576e-003           5.45760e-004
                    3.30    465.87805                                0.00000             97.367                                        4.65878e+002           6.58781e+001           5.87805e+000           8.78054e-001           7.80541e-002           8.05407e-003           5.40652e-005
                    3.40    465.87340                                0.00000             97.367                                        4.65873e+002           6.58734e+001           5.87340e+000           8.73401e-001           7.34013e-002           3.40126e-003           4.01263e-004
                    3.50    465.88308                                0.00000             97.367                                        4.65883e+002           6.58831e+001           5.88308e+000           8.83080e-001           8.30800e-002           3.07999e-003           7.99909e-005
                    3.60    465.91110                                0.00000             97.367                                        4.65911e+002           6.59111e+001           5.91110e+000           9.11098e-001           1.10983e-002           1.09832e-003           9.83182e-005
                    3.70    465.92927                                0.00000             97.365                                        4.65929e+002           6.59293e+001           5.92927e+000           9.29274e-001           2.92741e-002           9.27409e-003           2.74089e-004
                    3.80    465.93933                                0.00000             97.361                                        4.65939e+002           6.59393e+001           5.93933e+000           9.39327e-001           3.93274e-002           9.32739e-003           3.27390e-004
                    3.90    465.97967                                0.00000             97.359                                        4.65980e+002           6.59797e+001           5.97967e+000           9.79667e-001           7.96671e-002           9.66710e-003           6.67101e-004
                    4.00    466.03897                                0.00000             97.359                                        4.66039e+002           6.60390e+001           6.03897e+000           3.89746e-002           3.89746e-002           8.97461e-003           9.74612e-004
                    4.10    466.04454                                0.00000             97.359                                        4.66045e+002           6.60445e+001           6.04454e+000           4.45367e-002           4.45367e-002           4.53666e-003           5.36659e-004
                    4.20    466.00427                                0.00000             97.359                                        4.66004e+002           6.60043e+001           6.00427e+000           4.27086e-003           4.27086e-003           4.27086e-003           2.70864e-004
                    4.30    465.98421                                0.00000             97.359                                        4.65984e+002           6.59842e+001           5.98421e+000           9.84207e-001           8.42070e-002           4.20702e-003           2.07021e-004
                    4.40    465.97659                                0.00000             97.359                                        4.65977e+002           6.59766e+001           5.97659e+000           9.76589e-001           7.65892e-002           6.58917e-003           5.89170e-004
                    4.50    465.95775                                0.00000             97.359                                        4.65958e+002           6.59577e+001           5.95775e+000           9.57747e-001           5.77474e-002           7.74744e-003           7.47437e-004
                    4.60    465.97887                                0.00000             97.359                                        4.65979e+002           6.59789e+001           5.97887e+000           9.78873e-001           7.88727e-002           8.87268e-003           8.72681e-004
                    4.70    466.04698                                0.00000             97.359                                        4.66047e+002           6.60470e+001           6.04698e+000           4.69820e-002           4.69820e-002           6.98198e-003           9.81980e-004
                    4.80    466.09506                                0.00000             97.359                                        4.66095e+002           6.60951e+001           6.09506e+000           9.50588e-002           9.50588e-002           5.05880e-003           5.87979e-005
