~VERSION INFORMATION
VERS                    .            2.0                                    :CWLS LOG ASCII STANDARD
WRAP                    .            NO                                     :ONE LINE PER TIME STEP


~WELL INFORMATION
#MNEM                   .UNIT        DATA                                    DESCRIPTION
#________________________________________________________________________________________
STRTTIME                .HH/MM/SS    09:43:23                               :START TIME
STOPTIME                .HH/MM/SS    09:46:50                               :STOP TIME
STRT                    .s           2.10                                   :START DATA
STOP                    .s           205.20                                 :STOP DATA
STEP                    .s           0.10                                   :MEASUREMENT TIME INTERVAL
NULL                    .            -999.25                                :NULL VALUE
COMP                    .            Statoil ASA                            :COMPANY
FLD                     .            Volve                                  :FIELD
WELL                    .            15/9-F-11 A                            :WELL
RUN                     .            8                                      :RUN
LOC                     .            Maersk Inspirer                        :LOCATION
PROV                    .            na                                     :PROVINCE
SRVC                    .            Baker Hughes INTEQ                     :SERVICE COMPANY
DATE                    .YY/MM/DD    13/05/21                               :LOG DATE
UWI                     .                                                   :UNIQUE WELL ID
DEPTHMD                 .m           3665.9                                 :MEASURED DEPTH
DEPTHTVD                .m           3052.8                                 :TRUE VERTICAL DEPTH


~CURVE INFORMATION
#MNEM                   .UNIT        API CODES                               DESCRIPTION
#________________________________________________________________________________________
TIME                    .s                                                  :01 TIME
DD_PRESS                .bar                                                :02 DRAW DOWN PRESSURE
DD_VOLUME               .cm3                                                :03 INCREMENTAL DRAW DOWN VOLUME
TEMP                    .degC                                               :04 TRANSDUCER TEMPERATURE
DD_PRESS_MOD_1000       .bar                                                :05 DRAW DOWN PRESSURE MOD 1000
DD_PRESS_MOD_100        .bar                                                :06 DRAW DOWN PRESSURE MOD 100
DD_PRESS_MOD_10         .bar                                                :07 DRAW DOWN PRESSURE MOD 10
DD_PRESS_MOD_1          .bar                                                :08 DRAW DOWN PRESSURE MOD 1
DD_PRESS_MOD_01         .bar                                                :09 DRAW DOWN PRESSURE MOD 01
DD_PRESS_MOD_001        .bar                                                :10 DRAW DOWN PRESSURE MOD 001
DD_PRESS_MOD_0001       .bar                                                :11 DRAW DOWN PRESSURE MOD 0001


~PARAMETER INFORMATION
#MNEM                   .UNIT        VALUE                                   DESCRIPTION
#________________________________________________________________________________________
TOOLFACE                .deg         60.0                                   :01 TOOLFACE
PUMP_CAPACITY           .bar         400                                    :02 NOMINAL DRAW DOWN PUMP CAPACITY
PUMP_LIMIT              .bar         240                                    :03 DOWNLINK PUMP LIMIT
TIME_LIMIT              .min         10                                     :04 DOWNLINK MAX TIME
TEST_TYPE               .            REPEAT                                 :05 DOWNLINK
TEST_TYPE               .            HIGH MOBILITY                          :06 DOWNLINK
DD_PIST_A               .cm2         3.1416                                 :07 DRAW DOWN PISTON AREA
V_SYS                   .cm3         131.0000                               :08 SYSTEM VOLUME
PROBE_ID                .cm          1.2700                                 :09 TTK PROBE ID
G0                      .            4.6700                                 :10 GEOMETRY FACTOR


~A                  TIME     DD_PRESS                              DD_VOLUME               TEMP                                   DD_PRESS_MOD_1000       DD_PRESS_MOD_100        DD_PRESS_MOD_10         DD_PRESS_MOD_1        DD_PRESS_MOD_01       DD_PRESS_MOD_001      DD_PRESS_MOD_0001
# ...
                   16.10    421.74971                                0.00000             83.234                                        4.21750e+002           2.17497e+001           1.74971e+000           7.49708e-001           4.97080e-002           9.70799e-003           7.07992e-004
                   16.20    421.75101                                0.00000             83.234                                        4.21751e+002           2.17510e+001           1.75101e+000           7.51010e-001           5.10096e-002           1.00958e-003           9.57992e-006
                   16.30    421.74963                                0.00000             83.234                                        4.21750e+002           2.17496e+001           1.74963e+000           7.49631e-001           4.96314e-002           9.63138e-003           6.31382e-004
                   16.40    421.74138                                0.00000             83.234                                        4.21741e+002           2.17414e+001           1.74138e+000           7.41382e-001           4.13822e-002           1.38223e-003           3.82229e-004
                   16.50    421.74476                                0.00000             83.234                                        4.21745e+002           2.17448e+001           1.74476e+000           7.44757e-001           4.47572e-002           4.75717e-003           7.57166e-004
                   16.60    421.77005                                0.00000             83.234                                        4.21770e+002           2.17700e+001           1.77005e+000           7.70049e-001           7.00493e-002           4.92580e-005           4.92580e-005
                   16.70    421.78403                                0.00000             83.234                                        4.21784e+002           2.17840e+001           1.78403e+000           7.84034e-001           8.40338e-002           4.03381e-003           3.38063e-005
                   16.80    421.75850                                0.00000             83.234                                        4.21758e+002           2.17585e+001           1.75850e+000           7.58496e-001           5.84959e-002           8.49588e-003           4.95884e-004
                   16.90    421.74209                                0.00000             83.234                                        4.21742e+002           2.17421e+001           1.74209e+000           7.42088e-001           4.20878e-002           2.08777e-003           8.77719e-005
                   17.00    421.76978                                0.00000             83.234                                        4.21770e+002           2.17698e+001           1.76978e+000           7.69776e-001           6.97756e-002           9.77564e-003           7.75644e-004
                   17.10    421.79387                                0.00000             83.234                                        4.21794e+002           2.17939e+001           1.79387e+000           7.93872e-001           9.38721e-002           3.87210e-003           8.72104e-004
                   17.20    421.76294                                0.00000             83.234                                        4.21763e+002           2.17629e+001           1.76294e+000           7.62938e-001           6.29378e-002           2.93781e-003           9.37811e-004
                   17.30    421.72225                                0.00000             83.234                                        4.21722e+002           2.17223e+001           1.72225e+000           7.22253e-001           2.22531e-002           2.25310e-003           2.53098e-004
                   17.40    421.74617                                0.00000             83.234                                        4.21746e+002           2.17462e+001           1.74617e+000           7.46173e-001           4.61727e-002           6.17270e-003           1.72697e-004
                   17.50    421.78334                                0.00000             83.234                                        4.21783e+002           2.17833e+001           1.78334e+000           7.83342e-001           8.33421e-002           3.34213e-003           3.42134e-004
                   17.60    421.77212                                0.00000             83.234                                        4.21772e+002           2.17721e+001           1.77212e+000           7.72116e-001           7.21162e-002           2.11616e-003           1.16157e-004
                   17.70    421.74249                                0.00000             83.234                                        4.21742e+002           2.17425e+001           1.74249e+000           7.42488e-001           4.24880e-002           2.48800e-003           4.88004e-004
                   17.80    421.74987                                0.00000             83.234                                        4.21750e+002           2.17499e+001           1.74987e+000           7.49871e-001           4.98712e-002           9.87117e-003           8.71174e-004
                   17.90    421.76805                                0.00000             83.234                                        4.21768e+002           2.17681e+001           1.76805e+000           7.68055e-001           6.80549e-002           8.05486e-003           5.48558e-005
                   18.00    421.76217                                0.00000             83.234                                        4.21762e+002           2.17622e+001           1.76217e+000           7.62170e-001           6.21701e-002           2.17012e-003           1.70122e-004
                   18.10    421.74301                                0.00000             83.234                                        4.21743e+002           2.17430e+001           1.74301e+000           7.43006e-001           4.30057e-002           3.00575e-003           5.74803e-006
                   18.20    421.74792                                0.00000             83.234                                        4.21748e+002           2.17479e+001           1.74792e+000           7.47925e-001           4.79247e-002           7.92475e-003           9.24747e-004
                   18.30    421.76860                                0.00000             83.234                                        4.21769e+002           2.17686e+001           1.76860e+000           7.68597e-001           6.85969e-002           8.59692e-003           5.96918e-004
                   18.40    421.77709                                0.00000             83.234                                        4.21777e+002           2.17771e+001           1.77709e+000           7.77093e-001           7.70934e-002           7.09337e-003           9.33668e-005
                   18.50    421.75939                                0.00000             83.234                                        4.21759e+002           2.17594e+001           1.75939e+000           7.59391e-001           5.93912e-002           9.39123e-003           3.91230e-004
                   18.60    421.73216                                0.00000             83.234                                        4.21732e+002           2.17322e+001           1.73216e+000           7.32159e-001           3.21586e-002           2.15856e-003           1.58561e-004
                   18.70    421.72420                                0.00000             83.234                                        4.21724e+002           2.17242e+001           1.72420e+000           7.24201e-001           2.42010e-002           4.20099e-003           2.00988e-004
                   18.80    421.72606                                0.00000             83.234                                        4.21726e+002           2.17261e+001           1.72606e+000           7.26059e-001           2.60588e-002           6.05877e-003           5.87670e-005
