~VERSION INFORMATION
VERS                    .            2.0                                    :CWLS LOG ASCII STANDARD
WRAP                    .            NO                                     :ONE LINE PER TIME STEP


~WELL INFORMATION
#MNEM                   .UNIT        DATA                                    DESCRIPTION
#________________________________________________________________________________________
STRTTIME                .HH/MM/SS    01:04:55                               :START TIME
STOPTIME                .HH/MM/SS    01:07:44                               :STOP TIME
STRT                    .s           2.10                                   :START DATA
STOP                    .s           167.40                                 :STOP DATA
STEP                    .s           0.10                                   :MEASUREMENT TIME INTERVAL
NULL                    .            -999.25                                :NULL VALUE
COMP                    .            Statoil ASA                            :COMPANY
FLD                     .            Volve                                  :FIELD
WELL                    .            15/9-F-1 C                             :WELL
RUN                     .            4                                      :RUN
LOC                     .                                                   :LOCATION
PROV                    .            na                                     :PROVINCE
SRVC                    .            Baker Hughes INTEQ                     :SERVICE COMPANY
DATE                    .YY/MM/DD    14/03/15                               :LOG DATE
UWI                     .                                                   :UNIQUE WELL ID
DEPTHMD                 .m           3720.1                                 :MEASURED DEPTH
DEPTHTVD                .m           3050.6                                 :TRUE VERTICAL DEPTH


~CURVE INFORMATION
#MNEM                   .UNIT        API CODES                               DESCRIPTION
#________________________________________________________________________________________
TIME                    .s                                                  :01 TIME
DD_PRESS                .bar                                                :02 DRAW DOWN PRESSURE
DD_VOLUME               .cm3                                                :03 INCREMENTAL DRAW DOWN VOLUME
TEMP                    .degC                                               :04 TRANSDUCER TEMPERATURE
DD_PRESS_MOD_1000       .bar                                                :05 DRAW DOWN PRESSURE MOD 1000
DD_PRESS_MOD_100        .bar                                                :06 DRAW DOWN PRESSURE MOD 100
DD_PRESS_MOD_10         .bar                                                :07 DRAW DOWN PRESSURE MOD 10
DD_PRESS_MOD_1          .bar                                                :08 DRAW DOWN PRESSURE MOD 1
DD_PRESS_MOD_01         .bar                                                :09 DRAW DOWN PRESSURE MOD 01
DD_PRESS_MOD_001        .bar                                                :10 DRAW DOWN PRESSURE MOD 001
DD_PRESS_MOD_0001       .bar                                                :11 DRAW DOWN PRESSURE MOD 0001


~PARAMETER INFORMATION
#MNEM                   .UNIT        VALUE                                   DESCRIPTION
#________________________________________________________________________________________
TOOLFACE                .deg         134.6                                  :01 TOOLFACE
PUMP_CAPACITY           .bar         400                                    :02 NOMINAL DRAW DOWN PUMP CAPACITY
PUMP_LIMIT              .bar         240                                    :03 DOWNLINK PUMP LIMIT
TIME_LIMIT              .min         10                                     :04 DOWNLINK MAX TIME
TEST_TYPE               .            REPEAT                                 :05 DOWNLINK
TEST_TYPE               .            HIGH MOBILITY                          :06 DOWNLINK
DD_PIST_A               .cm2         3.1416                                 :07 DRAW DOWN PISTON AREA
V_SYS                   .cm3         131.0000                               :08 SYSTEM VOLUME
PROBE_ID                .cm          1.2700                                 :09 TTK PROBE ID
G0                      .            4.6700                                 :10 GEOMETRY FACTOR


~A                  TIME     DD_PRESS                              DD_VOLUME               TEMP                                   DD_PRESS_MOD_1000       DD_PRESS_MOD_100        DD_PRESS_MOD_10         DD_PRESS_MOD_1        DD_PRESS_MOD_01       DD_PRESS_MOD_001      DD_PRESS_MOD_0001
# ...
                   13.30    433.48520                                0.00000             87.344                                        4.33485e+002           3.34852e+001           3.48520e+000           4.85203e-001           8.52025e-002           5.20255e-003           2.02550e-004
                   13.40    433.47095                                0.00000             87.344                                        4.33471e+002           3.34709e+001           3.47095e+000           4.70948e-001           7.09485e-002           9.48484e-004           9.48484e-004
                   13.50    433.45897                                0.00000             87.344                                        4.33459e+002           3.34590e+001           3.45897e+000           4.58968e-001           5.89684e-002           8.96838e-003           9.68379e-004
                   13.60    433.47364                                0.00000             87.344                                        4.33474e+002           3.34736e+001           3.47364e+000           4.73635e-001           7.36352e-002           3.63522e-003           6.35220e-004
                   13.70    433.49570                                0.00000             87.344                                        4.33496e+002           3.34957e+001           3.49570e+000           4.95702e-001           9.57018e-002           5.70179e-003           7.01793e-004
                   13.80    433.49333                                0.00000             87.344                                        4.33493e+002           3.34933e+001           3.49333e+000           4.93332e-001           9.33317e-002           3.33170e-003           3.31696e-004
                   13.90    433.47960                                0.00000             87.344                                        4.33480e+002           3.34796e+001           3.47960e+000           4.79599e-001           7.95987e-002           9.59869e-003           5.98688e-004
                   14.00    433.47747                                0.00000             87.344                                        4.33477e+002           3.34775e+001           3.47747e+000           4.77471e-001           7.74711e-002           7.47106e-003           4.71058e-004
                   14.10    433.48939                                0.00000             87.344                                        4.33489e+002           3.34894e+001           3.48939e+000           4.89395e-001           8.93948e-002           9.39481e-003           3.94813e-004
                   14.20    433.50327                                0.00000             87.344                                        4.33503e+002           3.35033e+001           3.50327e+000           5.03267e-001           3.26664e-003           3.26664e-003           2.66644e-004
                   14.30    433.50323                                0.00000             87.344                                        4.33503e+002           3.35032e+001           3.50323e+000           5.03233e-001           3.23270e-003           3.23270e-003           2.32698e-004
                   14.40    433.50218                                0.00000             87.344                                        4.33502e+002           3.35022e+001           3.50218e+000           5.02183e-001           2.18254e-003           2.18254e-003           1.82538e-004
                   14.50    433.50498                                0.00000             87.344                                        4.33505e+002           3.35050e+001           3.50498e+000           5.04982e-001           4.98164e-003           4.98164e-003           9.81643e-004
                   14.60    433.50907                                0.00000             87.344                                        4.33509e+002           3.35091e+001           3.50907e+000           5.09071e-001           9.07145e-003           9.07145e-003           7.14539e-005
                   14.70    433.50379                                0.00000             87.344                                        4.33504e+002           3.35038e+001           3.50379e+000           5.03793e-001           3.79250e-003           3.79250e-003           7.92504e-004
                   14.80    433.50956                                0.00000             87.344                                        4.33510e+002           3.35096e+001           3.50956e+000           5.09561e-001           9.56141e-003           9.56141e-003           5.61415e-004
                   14.90    433.52141                                0.00000             87.344                                        4.33521e+002           3.35214e+001           3.52141e+000           5.21412e-001           2.14120e-002           1.41203e-003           4.12033e-004
                   15.00    433.51686                                0.00000             87.344                                        4.33517e+002           3.35169e+001           3.51686e+000           5.16857e-001           1.68567e-002           6.85670e-003           8.56704e-004
                   15.10    433.50600                                0.00000             87.344                                        4.33506e+002           3.35060e+001           3.50600e+000           5.05998e-001           5.99755e-003           5.99755e-003           9.97551e-004
                   15.20    433.50640                                0.00000             87.344                                        4.33506e+002           3.35064e+001           3.50640e+000           5.06400e-001           6.40024e-003           6.40024e-003           4.00243e-004
                   15.30    433.50638                                0.00000             87.344                                        4.33506e+002           3.35064e+001           3.50638e+000           5.06380e-001           6.37980e-003           6.37980e-003           3.79799e-004
                   15.40    433.50908                                0.00000             87.344                                        4.33509e+002           3.35091e+001           3.50908e+000           5.09075e-001           9.07529e-003           9.07529e-003           7.52921e-005
                   15.50    433.50767                                0.00000             87.344                                        4.33508e+002           3.35077e+001           3.50767e+000           5.07673e-001           7.67300e-003           7.67300e-003           6.72995e-004
                   15.60    433.49718                                0.00000             87.344                                        4.33497e+002           3.34972e+001           3.49718e+000           4.97184e-001           9.71840e-002           7.18396e-003           1.83963e-004
                   15.70    433.49520                                0.00000             87.344                                        4.33495e+002           3.34952e+001           3.49520e+000           4.95205e-001           9.52049e-002           5.20486e-003           2.04857e-004
                   15.80    433.50508                                0.00000             87.344                                        4.33505e+002           3.35051e+001           3.50508e+000           5.05076e-001           5.07618e-003           5.07618e-003           7.61773e-005
                   15.90    433.51520                                0.00000             87.341                                        4.33515e+002           3.35152e+001           3.51520e+000           5.15199e-001           1.51989e-002           5.19891e-003           1.98911e-004
                   16.00    433.51014                                0.00000             87.338                                        4.33510e+002           3.35101e+001           3.51014e+000           5.10140e-001           1.01396e-002           1.39557e-004           1.39557e-004
