~VERSION INFORMATION
VERS                    .            2.0                                    :CWLS LOG ASCII STANDARD
WRAP                    .            NO                                     :ONE LINE PER TIME STEP


~WELL INFORMATION
#MNEM                   .UNIT        DATA                                    DESCRIPTION
#________________________________________________________________________________________
STRTTIME                .HH/MM/SS    04:27:44                               :START TIME
STOPTIME                .HH/MM/SS    04:30:31                               :STOP TIME
STRT                    .s           2.10                                   :START DATA
STOP                    .s           165.30                                 :STOP DATA
STEP                    .s           0.10                                   :MEASUREMENT TIME INTERVAL
NULL                    .            -999.25                                :NULL VALUE
COMP                    .            Statoil ASA                            :COMPANY
FLD                     .            Volve                                  :FIELD
WELL                    .            15/9-F-1 C                             :WELL
RUN                     .            4                                      :RUN
LOC                     .                                                   :LOCATION
PROV                    .            na                                     :PROVINCE
SRVC                    .            Baker Hughes INTEQ                     :SERVICE COMPANY
DATE                    .YY/MM/DD    14/03/15                               :LOG DATE
UWI                     .                                                   :UNIQUE WELL ID
DEPTHMD                 .m           3273.1                                 :MEASURED DEPTH
DEPTHTVD                .m           2948.3                                 :TRUE VERTICAL DEPTH


~CURVE INFORMATION
#MNEM                   .UNIT        API CODES                               DESCRIPTION
#________________________________________________________________________________________
TIME                    .s                                                  :01 TIME
DD_PRESS                .bar                                                :02 DRAW DOWN PRESSURE
DD_VOLUME               .cm3                                                :03 INCREMENTAL DRAW DOWN VOLUME
TEMP                    .degC                                               :04 TRANSDUCER TEMPERATURE
DD_PRESS_MOD_1000       .bar                                                :05 DRAW DOWN PRESSURE MOD 1000
DD_PRESS_MOD_100        .bar                                                :06 DRAW DOWN PRESSURE MOD 100
DD_PRESS_MOD_10         .bar                                                :07 DRAW DOWN PRESSURE MOD 10
DD_PRESS_MOD_1          .bar                                                :08 DRAW DOWN PRESSURE MOD 1
DD_PRESS_MOD_01         .bar                                                :09 DRAW DOWN PRESSURE MOD 01
DD_PRESS_MOD_001        .bar                                                :10 DRAW DOWN PRESSURE MOD 001
DD_PRESS_MOD_0001       .bar                                                :11 DRAW DOWN PRESSURE MOD 0001


~PARAMETER INFORMATION
#MNEM                   .UNIT        VALUE                                   DESCRIPTION
#________________________________________________________________________________________
TOOLFACE                .deg         76.8                                   :01 TOOLFACE
PUMP_CAPACITY           .bar         400                                    :02 NOMINAL DRAW DOWN PUMP CAPACITY
PUMP_LIMIT              .bar         240                                    :03 DOWNLINK PUMP LIMIT
TIME_LIMIT              .min         10                                     :04 DOWNLINK MAX TIME
TEST_TYPE               .            REPEAT                                 :05 DOWNLINK
TEST_TYPE               .            HIGH MOBILITY                          :06 DOWNLINK
DD_PIST_A               .cm2         3.1416                                 :07 DRAW DOWN PISTON AREA
V_SYS                   .cm3         131.0000                               :08 SYSTEM VOLUME
PROBE_ID                .cm          1.2700                                 :09 TTK PROBE ID
G0                      .            4.6700                                 :10 GEOMETRY FACTOR


~A                  TIME     DD_PRESS                              DD_VOLUME               TEMP                                   DD_PRESS_MOD_1000       DD_PRESS_MOD_100        DD_PRESS_MOD_10         DD_PRESS_MOD_1        DD_PRESS_MOD_01       DD_PRESS_MOD_001      DD_PRESS_MOD_0001
# ...
                  108.50    338.17212                               19.70800             84.938                                        3.38172e+002           3.81721e+001           8.17212e+000           1.72123e-001           7.21226e-002           2.12255e-003           1.22551e-004
                  108.60    338.17500                               19.70800             84.938                                        3.38175e+002           3.81750e+001           8.17500e+000           1.74997e-001           7.49966e-002           4.99661e-003           9.96609e-004
                  108.70    338.17228                               19.70800             84.938                                        3.38172e+002           3.81723e+001           8.17228e+000           1.72281e-001           7.22807e-002           2.28067e-003           2.80667e-004
                  108.80    338.16932                               19.70800             84.938                                        3.38169e+002           3.81693e+001           8.16932e+000           1.69321e-001           6.93213e-002           9.32129e-003           3.21288e-004
                  108.90    338.17102                               19.70800             84.938                                        3.38171e+002           3.81710e+001           8.17102e+000           1.71021e-001           7.10212e-002           1.02124e-003           2.12428e-005
                  109.00    338.17255                               19.70800             84.938                                        3.38173e+002           3.81726e+001           8.17255e+000           1.72555e-001           7.25548e-002           2.55484e-003           5.54842e-004
                  109.10    338.17279                               19.70800             84.938                                        3.38173e+002           3.81728e+001           8.17279e+000           1.72791e-001           7.27907e-002           2.79069e-003           7.90687e-004
                  109.20    338.17442                               19.70800             84.938                                        3.38174e+002           3.81744e+001           8.17442e+000           1.74419e-001           7.44187e-002           4.41867e-003           4.18675e-004
                  109.30    338.17554                               19.70800             84.938                                        3.38176e+002           3.81755e+001           8.17554e+000           1.75535e-001           7.55351e-002           5.53505e-003           5.35051e-004
                  109.40    338.17532                               19.70800             84.938                                        3.38175e+002           3.81753e+001           8.17532e+000           1.75324e-001           7.53241e-002           5.32409e-003           3.24092e-004
                  109.50    338.17172                               19.70800             84.938                                        3.38172e+002           3.81717e+001           8.17172e+000           1.71721e-001           7.17215e-002           1.72147e-003           7.21470e-004
                  109.60    338.16856                               19.70800             84.938                                        3.38169e+002           3.81686e+001           8.16856e+000           1.68562e-001           6.85617e-002           8.56170e-003           5.61704e-004
                  109.70    338.17150                               19.70800             84.938                                        3.38171e+002           3.81715e+001           8.17150e+000           1.71497e-001           7.14969e-002           1.49686e-003           4.96858e-004
                  109.80    338.17551                               19.70800             84.938                                        3.38176e+002           3.81755e+001           8.17551e+000           1.75513e-001           7.55128e-002           5.51277e-003           5.12767e-004
                  109.90    338.17513                               19.70800             84.938                                        3.38175e+002           3.81751e+001           8.17513e+000           1.75127e-001           7.51272e-002           5.12718e-003           1.27178e-004
                  110.00    338.17467                               19.70800             84.938                                        3.38175e+002           3.81747e+001           8.17467e+000           1.74669e-001           7.46689e-002           4.66887e-003           6.68870e-004
                  110.10    338.17340                               19.70800             84.938                                        3.38173e+002           3.81734e+001           8.17340e+000           1.73399e-001           7.33995e-002           3.39949e-003           3.99490e-004
                  110.20    338.17120                               19.70800             84.938                                        3.38171e+002           3.81712e+001           8.17120e+000           1.71195e-001           7.11954e-002           1.19542e-003           1.95417e-004
                  110.30    338.17007                               19.70800             84.938                                        3.38170e+002           3.81701e+001           8.17007e+000           1.70073e-001           7.00727e-002           7.27145e-005           7.27145e-005
                  110.40    338.17167                               19.70800             84.938                                        3.38172e+002           3.81717e+001           8.17167e+000           1.71666e-001           7.16657e-002           1.66571e-003           6.65711e-004
                  110.50    338.14319                               19.71006             84.935                                        3.38143e+002           3.81432e+001           8.14319e+000           1.43188e-001           4.31883e-002           3.18828e-003           1.88277e-004
                  110.60    337.88693                               19.76256             84.932                                        3.37887e+002           3.78869e+001           7.88693e+000           8.86928e-001           8.69277e-002           6.92767e-003           9.27673e-004
                  110.70    337.52374                               19.93326             84.930                                        3.37524e+002           3.75237e+001           7.52374e+000           5.23744e-001           2.37435e-002           3.74353e-003           7.43535e-004
                  110.80    337.33392                               20.20369             84.930                                        3.37334e+002           3.73339e+001           7.33392e+000           3.33918e-001           3.39182e-002           3.91824e-003           9.18243e-004
                  110.90    337.31935                               20.49791             84.930                                        3.37319e+002           3.73193e+001           7.31935e+000           3.19350e-001           1.93497e-002           9.34975e-003           3.49749e-004
                  111.00    337.31685                               20.79261             84.930                                        3.37317e+002           3.73168e+001           7.31685e+000           3.16845e-001           1.68454e-002           6.84536e-003           8.45362e-004
                  111.10    337.31364                               21.08754             84.930                                        3.37314e+002           3.73136e+001           7.31364e+000           3.13635e-001           1.36351e-002           3.63508e-003           6.35078e-004
                  111.20    337.31258                               21.38245             84.930                                        3.37313e+002           3.73126e+001           7.31258e+000           3.12584e-001           1.25840e-002           2.58403e-003           5.84025e-004
