~VERSION INFORMATION
VERS                    .            2.0                                    :CWLS LOG ASCII STANDARD
WRAP                    .            NO                                     :ONE LINE PER TIME STEP


~WELL INFORMATION
#MNEM                   .UNIT        DATA                                    DESCRIPTION
#________________________________________________________________________________________
STRTTIME                .HH/MM/SS    10:02:47                               :START TIME
STOPTIME                .HH/MM/SS    10:07:04                               :STOP TIME
STRT                    .s           2.10                                   :START DATA
STOP                    .s           255.20                                 :STOP DATA
STEP                    .s           0.10                                   :MEASUREMENT TIME INTERVAL
NULL                    .            -999.25                                :NULL VALUE
COMP                    .            Statoil ASA                            :COMPANY
FLD                     .            Volve                                  :FIELD
WELL                    .            15/9-F-11 A                            :WELL
RUN                     .            8                                      :RUN
LOC                     .            Maersk Inspirer                        :LOCATION
PROV                    .            na                                     :PROVINCE
SRVC                    .            Baker Hughes INTEQ                     :SERVICE COMPANY
DATE                    .YY/MM/DD    13/05/21                               :LOG DATE
UWI                     .                                                   :UNIQUE WELL ID
DEPTHMD                 .m           3657.3                                 :MEASURED DEPTH
DEPTHTVD                .m           3046.2                                 :TRUE VERTICAL DEPTH


~CURVE INFORMATION
#MNEM                   .UNIT        API CODES                               DESCRIPTION
#________________________________________________________________________________________
TIME                    .s                                                  :01 TIME
DD_PRESS                .bar                                                :02 DRAW DOWN PRESSURE
DD_VOLUME               .cm3                                                :03 INCREMENTAL DRAW DOWN VOLUME
TEMP                    .degC                                               :04 TRANSDUCER TEMPERATURE
DD_PRESS_MOD_1000       .bar                                                :05 DRAW DOWN PRESSURE MOD 1000
DD_PRESS_MOD_100        .bar                                                :06 DRAW DOWN PRESSURE MOD 100
DD_PRESS_MOD_10         .bar                                                :07 DRAW DOWN PRESSURE MOD 10
DD_PRESS_MOD_1          .bar                                                :08 DRAW DOWN PRESSURE MOD 1
DD_PRESS_MOD_01         .bar                                                :09 DRAW DOWN PRESSURE MOD 01
DD_PRESS_MOD_001        .bar                                                :10 DRAW DOWN PRESSURE MOD 001
DD_PRESS_MOD_0001       .bar                                                :11 DRAW DOWN PRESSURE MOD 0001


~PARAMETER INFORMATION
#MNEM                   .UNIT        VALUE                                   DESCRIPTION
#________________________________________________________________________________________
TOOLFACE                .deg         60.1                                   :01 TOOLFACE
PUMP_CAPACITY           .bar         400                                    :02 NOMINAL DRAW DOWN PUMP CAPACITY
PUMP_LIMIT              .bar         240                                    :03 DOWNLINK PUMP LIMIT
TIME_LIMIT              .min         10                                     :04 DOWNLINK MAX TIME
TEST_TYPE               .            REPEAT                                 :05 DOWNLINK
TEST_TYPE               .            HIGH MOBILITY                          :06 DOWNLINK
DD_PIST_A               .cm2         3.1416                                 :07 DRAW DOWN PISTON AREA
V_SYS                   .cm3         131.0000                               :08 SYSTEM VOLUME
PROBE_ID                .cm          1.2700                                 :09 TTK PROBE ID
G0                      .            4.6700                                 :10 GEOMETRY FACTOR


~A                  TIME     DD_PRESS                              DD_VOLUME               TEMP                                   DD_PRESS_MOD_1000       DD_PRESS_MOD_100        DD_PRESS_MOD_10         DD_PRESS_MOD_1        DD_PRESS_MOD_01       DD_PRESS_MOD_001      DD_PRESS_MOD_0001
# ...
                  217.70    344.38944                               13.65670             82.102                                        3.44389e+002           4.43894e+001           4.38944e+000           3.89440e-001           8.94404e-002           9.44037e-003           4.40372e-004
                  217.80    344.39625                               13.65670             82.102                                        3.44396e+002           4.43962e+001           4.39625e+000           3.96246e-001           9.62461e-002           6.24610e-003           2.46102e-004
                  217.90    344.40668                               13.65670             82.102                                        3.44407e+002           4.44067e+001           4.40668e+000           4.06681e-001           6.68094e-003           6.68094e-003           6.80936e-004
                  218.00    344.40251                               13.65670             82.102                                        3.44403e+002           4.44025e+001           4.40251e+000           4.02508e-001           2.50750e-003           2.50750e-003           5.07504e-004
                  218.10    344.39209                               13.65670             82.102                                        3.44392e+002           4.43921e+001           4.39209e+000           3.92085e-001           9.20853e-002           2.08533e-003           8.53262e-005
                  218.20    344.39500                               13.65670             82.102                                        3.44395e+002           4.43950e+001           4.39500e+000           3.94996e-001           9.49964e-002           4.99643e-003           9.96427e-004
                  218.30    344.40457                               13.65670             82.102                                        3.44405e+002           4.44046e+001           4.40457e+000           4.04572e-001           4.57224e-003           4.57224e-003           5.72242e-004
                  218.40    344.39712                               13.65670             82.102                                        3.44397e+002           4.43971e+001           4.39712e+000           3.97118e-001           9.71184e-002           7.11837e-003           1.18369e-004
                  218.50    344.38625                               13.65670             82.102                                        3.44386e+002           4.43863e+001           4.38625e+000           3.86252e-001           8.62518e-002           6.25180e-003           2.51801e-004
                  218.60    344.39480                               13.65670             82.102                                        3.44395e+002           4.43948e+001           4.39480e+000           3.94796e-001           9.47957e-002           4.79570e-003           7.95696e-004
                  218.70    344.40422                               13.65670             82.102                                        3.44404e+002           4.44042e+001           4.40422e+000           4.04219e-001           4.21916e-003           4.21916e-003           2.19159e-004
                  218.80    344.39729                               13.65670             82.102                                        3.44397e+002           4.43973e+001           4.39729e+000           3.97292e-001           9.72919e-002           7.29191e-003           2.91913e-004
                  218.90    344.38797                               13.65670             82.102                                        3.44388e+002           4.43880e+001           4.38797e+000           3.87972e-001           8.79717e-002           7.97170e-003           9.71696e-004
                  219.00    344.39205                               13.65670             82.102                                        3.44392e+002           4.43921e+001           4.39205e+000           3.92053e-001           9.20528e-002           2.05277e-003           5.27734e-005
                  219.10    344.39963                               13.65670             82.102                                        3.44400e+002           4.43996e+001           4.39963e+000           3.99629e-001           9.96287e-002           9.62867e-003           6.28670e-004
                  219.20    344.40082                               13.65670             82.102                                        3.44401e+002           4.44008e+001           4.40082e+000           4.00824e-001           8.24349e-004           8.24349e-004           8.24349e-004
                  219.30    344.40051                               13.65670             82.102                                        3.44401e+002           4.44005e+001           4.40051e+000           4.00511e-001           5.10721e-004           5.10721e-004           5.10721e-004
                  219.40    344.40521                               13.65670             82.102                                        3.44405e+002           4.44052e+001           4.40521e+000           4.05208e-001           5.20846e-003           5.20846e-003           2.08464e-004
                  219.50    344.40683                               13.65670             82.102                                        3.44407e+002           4.44068e+001           4.40683e+000           4.06835e-001           6.83491e-003           6.83491e-003           8.34909e-004
                  219.60    344.39650                               13.65670             82.102                                        3.44397e+002           4.43965e+001           4.39650e+000           3.96502e-001           9.65018e-002           6.50180e-003           5.01798e-004
                  219.70    344.38803                               13.65670             82.102                                        3.44388e+002           4.43880e+001           4.38803e+000           3.88034e-001           8.80337e-002           8.03372e-003           3.37238e-005
                  219.80    344.38734                               13.65670             82.102                                        3.44387e+002           4.43873e+001           4.38734e+000           3.87344e-001           8.73439e-002           7.34395e-003           3.43946e-004
                  219.90    344.38814                               13.65670             82.102                                        3.44388e+002           4.43881e+001           4.38814e+000           3.88138e-001           8.81381e-002           8.13809e-003           1.38088e-004
                  220.00    344.39277                               13.65670             82.102                                        3.44393e+002           4.43928e+001           4.39277e+000           3.92770e-001           9.27705e-002           2.77050e-003           7.70499e-004
                  220.10    344.39791                               13.65670             82.102                                        3.44398e+002           4.43979e+001           4.39791e+000           3.97907e-001           9.79070e-002           7.90700e-003           9.06999e-004
                  220.20    344.39494                               13.65670             82.102                                        3.44395e+002           4.43949e+001           4.39494e+000           3.94942e-001           9.49416e-002           4.94164e-003           9.41639e-004
                  220.30    344.38653                               13.65670             82.102                                        3.44387e+002           4.43865e+001           4.38653e+000           3.86532e-001           8.65319e-002           6.53190e-003           5.31897e-004
                  220.40    344.38218                               13.65670             82.102                                        3.44382e+002           4.43822e+001           4.38218e+000           3.82175e-001           8.21752e-002           2.17525e-003           1.75248e-004
