~VERSION INFORMATION
VERS                    .            2.0                                    :CWLS LOG ASCII STANDARD
WRAP                    .            NO                                     :ONE LINE PER TIME STEP


~WELL INFORMATION
#MNEM                   .UNIT        DATA                                    DESCRIPTION
#________________________________________________________________________________________
STRTTIME                .HH/MM/SS    03:09:23                               :START TIME
STOPTIME                .HH/MM/SS    03:12:09                               :STOP TIME
STRT                    .s           2.10                                   :START DATA
STOP                    .s           164.80                                 :STOP DATA
STEP                    .s           0.10                                   :MEASUREMENT TIME INTERVAL
NULL                    .            -999.25                                :NULL VALUE
COMP                    .            Statoil ASA                            :COMPANY
FLD                     .            Volve                                  :FIELD
WELL                    .            15/9-F-1 C                             :WELL
RUN                     .            4                                      :RUN
LOC                     .                                                   :LOCATION
PROV                    .            na                                     :PROVINCE
SRVC                    .            Baker Hughes INTEQ                     :SERVICE COMPANY
DATE                    .YY/MM/DD    14/03/15                               :LOG DATE
UWI                     .                                                   :UNIQUE WELL ID
DEPTHMD                 .m           3523.2                                 :MEASURED DEPTH
DEPTHTVD                .m           2986.7                                 :TRUE VERTICAL DEPTH


~CURVE INFORMATION
#MNEM                   .UNIT        API CODES                               DESCRIPTION
#________________________________________________________________________________________
TIME                    .s                                                  :01 TIME
DD_PRESS                .bar                                                :02 DRAW DOWN PRESSURE
DD_VOLUME               .cm3                                                :03 INCREMENTAL DRAW DOWN VOLUME
TEMP                    .degC                                               :04 TRANSDUCER TEMPERATURE
DD_PRESS_MOD_1000       .bar                                                :05 DRAW DOWN PRESSURE MOD 1000
DD_PRESS_MOD_100        .bar                                                :06 DRAW DOWN PRESSURE MOD 100
DD_PRESS_MOD_10         .bar                                                :07 DRAW DOWN PRESSURE MOD 10
DD_PRESS_MOD_1          .bar                                                :08 DRAW DOWN PRESSURE MOD 1
DD_PRESS_MOD_01         .bar                                                :09 DRAW DOWN PRESSURE MOD 01
DD_PRESS_MOD_001        .bar                                                :10 DRAW DOWN PRESSURE MOD 001
DD_PRESS_MOD_0001       .bar                                                :11 DRAW DOWN PRESSURE MOD 0001


~PARAMETER INFORMATION
#MNEM                   .UNIT        VALUE                                   DESCRIPTION
#________________________________________________________________________________________
TOOLFACE                .deg         104.9                                  :01 TOOLFACE
PUMP_CAPACITY           .bar         400                                    :02 NOMINAL DRAW DOWN PUMP CAPACITY
PUMP_LIMIT              .bar         240                                    :03 DOWNLINK PUMP LIMIT
TIME_LIMIT              .min         10                                     :04 DOWNLINK MAX TIME
TEST_TYPE               .            REPEAT                                 :05 DOWNLINK
TEST_TYPE               .            HIGH MOBILITY                          :06 DOWNLINK
DD_PIST_A               .cm2         3.1416                                 :07 DRAW DOWN PISTON AREA
V_SYS                   .cm3         131.0000                               :08 SYSTEM VOLUME
PROBE_ID                .cm          1.2700                                 :09 TTK PROBE ID
G0                      .            4.6700                                 :10 GEOMETRY FACTOR


~A                  TIME     DD_PRESS                              DD_VOLUME               TEMP                                   DD_PRESS_MOD_1000       DD_PRESS_MOD_100        DD_PRESS_MOD_10         DD_PRESS_MOD_1        DD_PRESS_MOD_01       DD_PRESS_MOD_001      DD_PRESS_MOD_0001
# ...
                   77.70    325.00501                               17.59525             84.500                                        3.25005e+002           2.50050e+001           5.00501e+000           5.01096e-003           5.01096e-003           5.01096e-003           1.09641e-005
                   77.80    324.86512                               17.85084             84.500                                        3.24865e+002           2.48651e+001           4.86512e+000           8.65118e-001           6.51178e-002           5.11783e-003           1.17834e-004
                   77.90    325.11178                               18.10105             84.500                                        3.25112e+002           2.51118e+001           5.11178e+000           1.11783e-001           1.17832e-002           1.78316e-003           7.83159e-004
                   78.00    325.81758                               18.33758             84.500                                        3.25818e+002           2.58176e+001           5.81758e+000           8.17584e-001           1.75839e-002           7.58394e-003           5.83937e-004
                   78.10    326.77739                               18.55711             84.500                                        3.26777e+002           2.67774e+001           6.77739e+000           7.77391e-001           7.73909e-002           7.39086e-003           3.90856e-004
                   78.20    327.82555                               18.75950             84.500                                        3.27826e+002           2.78255e+001           7.82555e+000           8.25549e-001           2.55486e-002           5.54860e-003           5.48596e-004
                   78.30    328.89740                               18.94478             84.500                                        3.28897e+002           2.88974e+001           8.89740e+000           8.97397e-001           9.73968e-002           7.39679e-003           3.96791e-004
                   78.40    329.97247                               19.11289             84.500                                        3.29972e+002           2.99725e+001           9.97247e+000           9.72471e-001           7.24710e-002           2.47096e-003           4.70960e-004
                   78.50    331.05316                               19.26380             84.500                                        3.31053e+002           3.10532e+001           1.05316e+000           5.31557e-002           5.31557e-002           3.15566e-003           1.55656e-004
                   78.60    332.13375                               19.39757             84.500                                        3.32134e+002           3.21337e+001           2.13375e+000           1.33746e-001           3.37456e-002           3.74559e-003           7.45593e-004
                   78.70    333.22540                               19.51431             84.500                                        3.33225e+002           3.32254e+001           3.22540e+000           2.25404e-001           2.54041e-002           5.40408e-003           4.04082e-004
                   78.80    334.32382                               19.61387             84.500                                        3.34324e+002           3.43238e+001           4.32382e+000           3.23821e-001           2.38209e-002           3.82086e-003           8.20862e-004
                   78.90    335.41233                               19.69599             84.500                                        3.35412e+002           3.54123e+001           5.41233e+000           4.12332e-001           1.23324e-002           2.33239e-003           3.32392e-004
                   79.00    336.48895                               19.76074             84.500                                        3.36489e+002           3.64890e+001           6.48895e+000           4.88952e-001           8.89521e-002           8.95212e-003           9.52116e-004
                   79.10    337.56549                               19.80829             84.500                                        3.37565e+002           3.75655e+001           7.56549e+000           5.65490e-001           6.54903e-002           5.49031e-003           4.90311e-004
                   79.20    338.72859                               19.83681             84.500                                        3.38729e+002           3.87286e+001           8.72859e+000           7.28587e-001           2.85872e-002           8.58721e-003           5.87212e-004
                   79.30    339.82779                               19.84759             84.500                                        3.39828e+002           3.98278e+001           9.82779e+000           8.27785e-001           2.77851e-002           7.78513e-003           7.85134e-004
                   79.40    340.53907                               19.84884             84.500                                        3.40539e+002           4.05391e+001           5.39071e-001           5.39071e-001           3.90705e-002           9.07051e-003           7.05088e-005
                   79.50    340.80506                               19.84884             84.500                                        3.40805e+002           4.08051e+001           8.05064e-001           8.05064e-001           5.06432e-003           5.06432e-003           6.43194e-005
                   79.60    340.88799                               19.84884             84.500                                        3.40888e+002           4.08880e+001           8.87995e-001           8.87995e-001           8.79949e-002           7.99489e-003           9.94895e-004
                   79.70    340.91503                               19.84884             84.500                                        3.40915e+002           4.09150e+001           9.15029e-001           9.15029e-001           1.50289e-002           5.02894e-003           2.89384e-005
                   79.80    340.92913                               19.84884             84.500                                        3.40929e+002           4.09291e+001           9.29132e-001           9.29132e-001           2.91317e-002           9.13173e-003           1.31734e-004
                   79.90    340.93729                               19.84884             84.500                                        3.40937e+002           4.09373e+001           9.37288e-001           9.37288e-001           3.72876e-002           7.28761e-003           2.87612e-004
                   80.00    340.93712                               19.84884             84.500                                        3.40937e+002           4.09371e+001           9.37121e-001           9.37121e-001           3.71212e-002           7.12117e-003           1.21171e-004
                   80.10    340.93663                               19.84884             84.500                                        3.40937e+002           4.09366e+001           9.36627e-001           9.36627e-001           3.66269e-002           6.62690e-003           6.26900e-004
                   80.20    340.94767                               19.84884             84.500                                        3.40948e+002           4.09477e+001           9.47666e-001           9.47666e-001           4.76656e-002           7.66560e-003           6.65599e-004
                   80.30    340.95582                               19.84884             84.500                                        3.40956e+002           4.09558e+001           9.55821e-001           9.55821e-001           5.58213e-002           5.82126e-003           8.21261e-004
                   80.40    340.95319                               19.84884             84.500                                        3.40953e+002           4.09532e+001           9.53188e-001           9.53188e-001           5.31883e-002           3.18829e-003           1.88288e-004
