~VERSION INFORMATION
VERS                    .            2.0                                    :CWLS LOG ASCII STANDARD
WRAP                    .            NO                                     :ONE LINE PER TIME STEP


~WELL INFORMATION
#MNEM                   .UNIT        DATA                                    DESCRIPTION
#________________________________________________________________________________________
STRTTIME                .HH/MM/SS    14:50:05                               :START TIME
STOPTIME                .HH/MM/SS    14:53:18                               :STOP TIME
STRT                    .s           2.10                                   :START DATA
STOP                    .s           191.60                                 :STOP DATA
STEP                    .s           0.10                                   :MEASUREMENT TIME INTERVAL
NULL                    .            -999.25                                :NULL VALUE
COMP                    .            Statoil ASA                            :COMPANY
FLD                     .            Volve                                  :FIELD
WELL                    .            15/9-F-1 B                             :WELL
RUN                     .            7                                      :RUN
LOC                     .            Maersk Inspirer                        :LOCATION
PROV                    .            na                                     :PROVINCE
SRVC                    .            Baker Hughes INTEQ                     :SERVICE COMPANY
DATE                    .YY/MM/DD    13/09/06                               :LOG DATE
UWI                     .                                                   :UNIQUE WELL ID
DEPTHMD                 .m           3280.5                                 :MEASURED DEPTH
DEPTHTVD                .m           3076.1                                 :TRUE VERTICAL DEPTH


~CURVE INFORMATION
#MNEM                   .UNIT        API CODES                               DESCRIPTION
#________________________________________________________________________________________
TIME                    .s                                                  :01 TIME
DD_PRESS                .bar                                                :02 DRAW DOWN PRESSURE
DD_VOLUME               .cm3                                                :03 INCREMENTAL DRAW DOWN VOLUME
TEMP                    .degC                                               :04 TRANSDUCER TEMPERATURE
DD_PRESS_MOD_1000       .bar                                                :05 DRAW DOWN PRESSURE MOD 1000
DD_PRESS_MOD_100        .bar                                                :06 DRAW DOWN PRESSURE MOD 100
DD_PRESS_MOD_10         .bar                                                :07 DRAW DOWN PRESSURE MOD 10
DD_PRESS_MOD_1          .bar                                                :08 DRAW DOWN PRESSURE MOD 1
DD_PRESS_MOD_01         .bar                                                :09 DRAW DOWN PRESSURE MOD 01
DD_PRESS_MOD_001        .bar                                                :10 DRAW DOWN PRESSURE MOD 001
DD_PRESS_MOD_0001       .bar                                                :11 DRAW DOWN PRESSURE MOD 0001


~PARAMETER INFORMATION
#MNEM                   .UNIT        VALUE                                   DESCRIPTION
#________________________________________________________________________________________
TOOLFACE                .deg         na                                     :01 TOOLFACE
PUMP_CAPACITY           .bar         400                                    :02 NOMINAL DRAW DOWN PUMP CAPACITY
PUMP_LIMIT              .bar         400                                    :03 DOWNLINK PUMP LIMIT
TIME_LIMIT              .min         10                                     :04 DOWNLINK MAX TIME
TEST_TYPE               .            LOW MOBILITY                           :05 DOWNLINK
DD_PIST_A               .cm2         3.1416                                 :06 DRAW DOWN PISTON AREA
V_SYS                   .cm3         131.0000                               :07 SYSTEM VOLUME
PROBE_ID                .cm          1.2700                                 :08 TTK PROBE ID
G0                      .            4.6700                                 :09 GEOMETRY FACTOR


~A                  TIME     DD_PRESS                              DD_VOLUME               TEMP                                   DD_PRESS_MOD_1000       DD_PRESS_MOD_100        DD_PRESS_MOD_10         DD_PRESS_MOD_1        DD_PRESS_MOD_01       DD_PRESS_MOD_001      DD_PRESS_MOD_0001
# ...
                  153.30    347.57913                               29.22933             82.453                                        3.47579e+002           4.75791e+001           7.57913e+000           5.79129e-001           7.91288e-002           9.12878e-003           1.28783e-004
                  153.40    347.58347                               29.22933             82.453                                        3.47583e+002           4.75835e+001           7.58347e+000           5.83473e-001           8.34730e-002           3.47298e-003           4.72977e-004
                  153.50    347.58504                               29.22933             82.453                                        3.47585e+002           4.75850e+001           7.58504e+000           5.85039e-001           8.50391e-002           5.03910e-003           3.90955e-005
                  153.60    347.58763                               29.22933             82.453                                        3.47588e+002           4.75876e+001           7.58763e+000           5.87634e-001           8.76339e-002           7.63387e-003           6.33871e-004
                  153.70    347.58161                               29.22933             82.453                                        3.47582e+002           4.75816e+001           7.58161e+000           5.81606e-001           8.16056e-002           1.60560e-003           6.05601e-004
                  153.80    347.58394                               29.22933             82.453                                        3.47584e+002           4.75839e+001           7.58394e+000           5.83935e-001           8.39354e-002           3.93539e-003           9.35389e-004
                  153.90    347.58980                               29.22933             82.453                                        3.47590e+002           4.75898e+001           7.58980e+000           5.89796e-001           8.97957e-002           9.79569e-003           7.95694e-004
                  154.00    347.59030                               29.22933             82.453                                        3.47590e+002           4.75903e+001           7.59030e+000           5.90296e-001           9.02959e-002           2.95910e-004           2.95910e-004
                  154.10    347.58542                               29.22933             82.453                                        3.47585e+002           4.75854e+001           7.58542e+000           5.85424e-001           8.54244e-002           5.42437e-003           4.24367e-004
                  154.20    347.58333                               29.22933             82.453                                        3.47583e+002           4.75833e+001           7.58333e+000           5.83332e-001           8.33317e-002           3.33169e-003           3.31686e-004
                  154.30    347.58137                               29.22933             82.453                                        3.47581e+002           4.75814e+001           7.58137e+000           5.81374e-001           8.13743e-002           1.37429e-003           3.74288e-004
                  154.40    347.58476                               29.22933             82.453                                        3.47585e+002           4.75848e+001           7.58476e+000           5.84760e-001           8.47596e-002           4.75957e-003           7.59573e-004
                  154.50    347.58459                               29.22933             82.453                                        3.47585e+002           4.75846e+001           7.58459e+000           5.84587e-001           8.45872e-002           4.58718e-003           5.87180e-004
                  154.60    347.58336                               29.22933             82.453                                        3.47583e+002           4.75834e+001           7.58336e+000           5.83365e-001           8.33650e-002           3.36498e-003           3.64982e-004
                  154.70    347.58079                               29.22933             82.453                                        3.47581e+002           4.75808e+001           7.58079e+000           5.80791e-001           8.07913e-002           7.91313e-004           7.91313e-004
                  154.80    347.58465                               29.22933             82.453                                        3.47585e+002           4.75847e+001           7.58465e+000           5.84654e-001           8.46536e-002           4.65357e-003           6.53574e-004
                  154.90    347.58856                               29.22933             82.453                                        3.47589e+002           4.75886e+001           7.58856e+000           5.88560e-001           8.85601e-002           8.56008e-003           5.60079e-004
                  155.00    347.58630                               29.22933             82.453                                        3.47586e+002           4.75863e+001           7.58630e+000           5.86304e-001           8.63037e-002           6.30370e-003           3.03696e-004
                  155.10    347.58000                               29.22933             82.453                                        3.47580e+002           4.75800e+001           7.58000e+000           5.79999e-001           7.99993e-002           9.99933e-003           9.99334e-004
                  155.20    347.58238                               29.22933             82.453                                        3.47582e+002           4.75824e+001           7.58238e+000           5.82385e-001           8.23848e-002           2.38484e-003           3.84841e-004
                  155.30    347.58850                               29.22933             82.453                                        3.47588e+002           4.75885e+001           7.58850e+000           5.88499e-001           8.84988e-002           8.49883e-003           4.98829e-004
                  155.40    347.58759                               29.22933             82.453                                        3.47588e+002           4.75876e+001           7.58759e+000           5.87586e-001           8.75855e-002           7.58554e-003           5.85537e-004
                  155.50    347.57911                               29.22933             82.453                                        3.47579e+002           4.75791e+001           7.57911e+000           5.79113e-001           7.91132e-002           9.11319e-003           1.13191e-004
                  155.60    347.58144                               29.22933             82.453                                        3.47581e+002           4.75814e+001           7.58144e+000           5.81443e-001           8.14427e-002           1.44271e-003           4.42707e-004
                  155.70    347.58891                               29.22933             82.453                                        3.47589e+002           4.75889e+001           7.58891e+000           5.88906e-001           8.89059e-002           8.90588e-003           9.05877e-004
                  155.80    347.58809                               29.22933             82.453                                        3.47588e+002           4.75881e+001           7.58809e+000           5.88093e-001           8.80931e-002           8.09307e-003           9.30723e-005
                  155.90    347.58339                               29.22933             82.453                                        3.47583e+002           4.75834e+001           7.58339e+000           5.83388e-001           8.33882e-002           3.38819e-003           3.88189e-004
                  156.00    347.58060                               29.22933             82.453                                        3.47581e+002           4.75806e+001           7.58060e+000           5.80599e-001           8.05989e-002           5.98893e-004           5.98893e-004
