~VERSION INFORMATION
VERS                    .            2.0                                    :CWLS LOG ASCII STANDARD
WRAP                    .            NO                                     :ONE LINE PER TIME STEP


~WELL INFORMATION
#MNEM                   .UNIT        DATA                                    DESCRIPTION
#________________________________________________________________________________________
STRTTIME                .HH/MM/SS    02:42:03                               :START TIME
STOPTIME                .HH/MM/SS    02:44:56                               :STOP TIME
STRT                    .s           2.10                                   :START DATA
STOP                    .s           171.40                                 :STOP DATA
STEP                    .s           0.10                                   :MEASUREMENT TIME INTERVAL
NULL                    .            -999.25                                :NULL VALUE
COMP                    .            Statoil ASA                            :COMPANY
FLD                     .            Volve                                  :FIELD
WELL                    .            15/9-F-1 C                             :WELL
RUN                     .            4                                      :RUN
LOC                     .                                                   :LOCATION
PROV                    .            na                                     :PROVINCE
SRVC                    .            Baker Hughes INTEQ                     :SERVICE COMPANY
DATE                    .YY/MM/DD    14/03/15                               :LOG DATE
UWI                     .                                                   :UNIQUE WELL ID
DEPTHMD                 .m           3551.1                                 :MEASURED DEPTH
DEPTHTVD                .m           2992.9                                 :TRUE VERTICAL DEPTH


~CURVE INFORMATION
#MNEM                   .UNIT        API CODES                               DESCRIPTION
#________________________________________________________________________________________
TIME                    .s                                                  :01 TIME
DD_PRESS                .bar                                                :02 DRAW DOWN PRESSURE
DD_VOLUME               .cm3                                                :03 INCREMENTAL DRAW DOWN VOLUME
TEMP                    .degC                                               :04 TRANSDUCER TEMPERATURE
DD_PRESS_MOD_1000       .bar                                                :05 DRAW DOWN PRESSURE MOD 1000
DD_PRESS_MOD_100        .bar                                                :06 DRAW DOWN PRESSURE MOD 100
DD_PRESS_MOD_10         .bar                                                :07 DRAW DOWN PRESSURE MOD 10
DD_PRESS_MOD_1          .bar                                                :08 DRAW DOWN PRESSURE MOD 1
DD_PRESS_MOD_01         .bar                                                :09 DRAW DOWN PRESSURE MOD 01
DD_PRESS_MOD_001        .bar                                                :10 DRAW DOWN PRESSURE MOD 001
DD_PRESS_MOD_0001       .bar                                                :11 DRAW DOWN PRESSURE MOD 0001


~PARAMETER INFORMATION
#MNEM                   .UNIT        VALUE                                   DESCRIPTION
#________________________________________________________________________________________
TOOLFACE                .deg         84.6                                   :01 TOOLFACE
PUMP_CAPACITY           .bar         400                                    :02 NOMINAL DRAW DOWN PUMP CAPACITY
PUMP_LIMIT              .bar         240                                    :03 DOWNLINK PUMP LIMIT
TIME_LIMIT              .min         10                                     :04 DOWNLINK MAX TIME
TEST_TYPE               .            REPEAT                                 :05 DOWNLINK
TEST_TYPE               .            HIGH MOBILITY                          :06 DOWNLINK
DD_PIST_A               .cm2         3.1416                                 :07 DRAW DOWN PISTON AREA
V_SYS                   .cm3         131.0000                               :08 SYSTEM VOLUME
PROBE_ID                .cm          1.2700                                 :09 TTK PROBE ID
G0                      .            4.6700                                 :10 GEOMETRY FACTOR


~A                  TIME     DD_PRESS                              DD_VOLUME               TEMP                                   DD_PRESS_MOD_1000       DD_PRESS_MOD_100        DD_PRESS_MOD_10         DD_PRESS_MOD_1        DD_PRESS_MOD_01       DD_PRESS_MOD_001      DD_PRESS_MOD_0001
# ...
                  125.30    341.50155                               29.44302             85.125                                        3.41502e+002           4.15016e+001           1.50155e+000           5.01551e-001           1.55124e-003           1.55124e-003           5.51235e-004
                  125.40    341.50702                               29.44302             85.125                                        3.41507e+002           4.15070e+001           1.50702e+000           5.07024e-001           7.02363e-003           7.02363e-003           2.36326e-005
                  125.50    341.50729                               29.44302             85.125                                        3.41507e+002           4.15073e+001           1.50729e+000           5.07288e-001           7.28803e-003           7.28803e-003           2.88031e-004
                  125.60    341.50277                               29.44302             85.125                                        3.41503e+002           4.15028e+001           1.50277e+000           5.02767e-001           2.76748e-003           2.76748e-003           7.67485e-004
                  125.70    341.50053                               29.44302             85.125                                        3.41501e+002           4.15005e+001           1.50053e+000           5.00531e-001           5.30902e-004           5.30902e-004           5.30902e-004
                  125.80    341.50477                               29.44302             85.125                                        3.41505e+002           4.15048e+001           1.50477e+000           5.04774e-001           4.77385e-003           4.77385e-003           7.73852e-004
                  125.90    341.51218                               29.44302             85.125                                        3.41512e+002           4.15122e+001           1.51218e+000           5.12179e-001           1.21792e-002           2.17920e-003           1.79202e-004
                  126.00    341.51102                               29.44302             85.125                                        3.41511e+002           4.15110e+001           1.51102e+000           5.11023e-001           1.10233e-002           1.02326e-003           2.32614e-005
                  126.10    341.50807                               29.44302             85.125                                        3.41508e+002           4.15081e+001           1.50807e+000           5.08069e-001           8.06944e-003           8.06944e-003           6.94431e-005
                  126.20    341.50370                               29.44302             85.125                                        3.41504e+002           4.15037e+001           1.50370e+000           5.03696e-001           3.69570e-003           3.69570e-003           6.95696e-004
                  126.30    341.50335                               29.44302             85.125                                        3.41503e+002           4.15034e+001           1.50335e+000           5.03350e-001           3.35018e-003           3.35018e-003           3.50182e-004
                  126.40    341.50790                               29.44302             85.125                                        3.41508e+002           4.15079e+001           1.50790e+000           5.07903e-001           7.90323e-003           7.90323e-003           9.03226e-004
                  126.50    341.51087                               29.44302             85.125                                        3.41511e+002           4.15109e+001           1.51087e+000           5.10873e-001           1.08729e-002           8.72922e-004           8.72922e-004
                  126.60    341.50840                               29.44302             85.125                                        3.41508e+002           4.15084e+001           1.50840e+000           5.08400e-001           8.39995e-003           8.39995e-003           3.99948e-004
                  126.70    341.50544                               29.44302             85.125                                        3.41505e+002           4.15054e+001           1.50544e+000           5.05445e-001           5.44488e-003           5.44488e-003           4.44878e-004
                  126.80    341.50271                               29.44302             85.125                                        3.41503e+002           4.15027e+001           1.50271e+000           5.02710e-001           2.70977e-003           2.70977e-003           7.09773e-004
                  126.90    341.50058                               29.44302             85.125                                        3.41501e+002           4.15006e+001           1.50058e+000           5.00579e-001           5.79026e-004           5.79026e-004           5.79026e-004
                  127.00    341.50064                               29.44302             85.125                                        3.41501e+002           4.15006e+001           1.50064e+000           5.00638e-001           6.37644e-004           6.37644e-004           6.37644e-004
                  127.10    341.50229                               29.44302             85.125                                        3.41502e+002           4.15023e+001           1.50229e+000           5.02292e-001           2.29221e-003           2.29221e-003           2.92215e-004
                  127.20    341.50535                               29.44302             85.125                                        3.41505e+002           4.15053e+001           1.50535e+000           5.05349e-001           5.34854e-003           5.34854e-003           3.48539e-004
                  127.30    341.50470                               29.44302             85.125                                        3.41505e+002           4.15047e+001           1.50470e+000           5.04702e-001           4.70248e-003           4.70248e-003           7.02484e-004
                  127.40    341.50074                               29.44302             85.125                                        3.41501e+002           4.15007e+001           1.50074e+000           5.00740e-001           7.39877e-004           7.39877e-004           7.39877e-004
                  127.50    341.50266                               29.44302             85.125                                        3.41503e+002           4.15027e+001           1.50266e+000           5.02661e-001           2.66065e-003           2.66065e-003           6.60651e-004
                  127.60    341.50901                               29.44302             85.125                                        3.41509e+002           4.15090e+001           1.50901e+000           5.09009e-001           9.00881e-003           9.00881e-003           8.81065e-006
                  127.70    341.50977                               29.44302             85.125                                        3.41510e+002           4.15098e+001           1.50977e+000           5.09767e-001           9.76670e-003           9.76670e-003           7.66698e-004
                  127.80    341.50386                               29.44302             85.125                                        3.41504e+002           4.15039e+001           1.50386e+000           5.03862e-001           3.86158e-003           3.86158e-003           8.61580e-004
                  127.90    341.50452                               29.44302             85.125                                        3.41505e+002           4.15045e+001           1.50452e+000           5.04522e-001           4.52223e-003           4.52223e-003           5.22226e-004
                  128.00    341.50959                               29.44302             85.125                                        3.41510e+002           4.15096e+001           1.50959e+000           5.09585e-001           9.58549e-003           9.58549e-003           5.85489e-004
