~VERSION INFORMATION
VERS                    .            2.0                                    :CWLS LOG ASCII STANDARD
WRAP                    .            NO                                     :ONE LINE PER TIME STEP


~WELL INFORMATION
#MNEM                   .UNIT        DATA                                    DESCRIPTION
#________________________________________________________________________________________
STRTTIME                .HH/MM/SS    03:09:23                               :START TIME
STOPTIME                .HH/MM/SS    03:12:09                               :STOP TIME
STRT                    .s           2.10                                   :START DATA
STOP                    .s           164.80                                 :STOP DATA
STEP                    .s           0.10                                   :MEASUREMENT TIME INTERVAL
NULL                    .            -999.25                                :NULL VALUE
COMP                    .            Statoil ASA                            :COMPANY
FLD                     .            Volve                                  :FIELD
WELL                    .            15/9-F-1 C                             :WELL
RUN                     .            4                                      :RUN
LOC                     .                                                   :LOCATION
PROV                    .            na                                     :PROVINCE
SRVC                    .            Baker Hughes INTEQ                     :SERVICE COMPANY
DATE                    .YY/MM/DD    14/03/15                               :LOG DATE
UWI                     .                                                   :UNIQUE WELL ID
DEPTHMD                 .m           3523.2                                 :MEASURED DEPTH
DEPTHTVD                .m           2986.7                                 :TRUE VERTICAL DEPTH


~CURVE INFORMATION
#MNEM                   .UNIT        API CODES                               DESCRIPTION
#________________________________________________________________________________________
TIME                    .s                                                  :01 TIME
DD_PRESS                .bar                                                :02 DRAW DOWN PRESSURE
DD_VOLUME               .cm3                                                :03 INCREMENTAL DRAW DOWN VOLUME
TEMP                    .degC                                               :04 TRANSDUCER TEMPERATURE
DD_PRESS_MOD_1000       .bar                                                :05 DRAW DOWN PRESSURE MOD 1000
DD_PRESS_MOD_100        .bar                                                :06 DRAW DOWN PRESSURE MOD 100
DD_PRESS_MOD_10         .bar                                                :07 DRAW DOWN PRESSURE MOD 10
DD_PRESS_MOD_1          .bar                                                :08 DRAW DOWN PRESSURE MOD 1
DD_PRESS_MOD_01         .bar                                                :09 DRAW DOWN PRESSURE MOD 01
DD_PRESS_MOD_001        .bar                                                :10 DRAW DOWN PRESSURE MOD 001
DD_PRESS_MOD_0001       .bar                                                :11 DRAW DOWN PRESSURE MOD 0001


~PARAMETER INFORMATION
#MNEM                   .UNIT        VALUE                                   DESCRIPTION
#________________________________________________________________________________________
TOOLFACE                .deg         104.9                                  :01 TOOLFACE
PUMP_CAPACITY           .bar         400                                    :02 NOMINAL DRAW DOWN PUMP CAPACITY
PUMP_LIMIT              .bar         240                                    :03 DOWNLINK PUMP LIMIT
TIME_LIMIT              .min         10                                     :04 DOWNLINK MAX TIME
TEST_TYPE               .            REPEAT                                 :05 DOWNLINK
TEST_TYPE               .            HIGH MOBILITY                          :06 DOWNLINK
DD_PIST_A               .cm2         3.1416                                 :07 DRAW DOWN PISTON AREA
V_SYS                   .cm3         131.0000                               :08 SYSTEM VOLUME
PROBE_ID                .cm          1.2700                                 :09 TTK PROBE ID
G0                      .            4.6700                                 :10 GEOMETRY FACTOR


~A                  TIME     DD_PRESS                              DD_VOLUME               TEMP                                   DD_PRESS_MOD_1000       DD_PRESS_MOD_100        DD_PRESS_MOD_10         DD_PRESS_MOD_1        DD_PRESS_MOD_01       DD_PRESS_MOD_001      DD_PRESS_MOD_0001
# ...
                   55.30    340.99974                               10.76582             84.516                                        3.41000e+002           4.09997e+001           9.99740e-001           9.99740e-001           9.97404e-002           9.74036e-003           7.40358e-004
                   55.40    341.00170                               10.76582             84.516                                        3.41002e+002           4.10017e+001           1.00170e+000           1.69859e-003           1.69859e-003           1.69859e-003           6.98592e-004
                   55.50    340.99546                               10.76582             84.516                                        3.40995e+002           4.09955e+001           9.95458e-001           9.95458e-001           9.54579e-002           5.45786e-003           4.57859e-004
                   55.60    340.99086                               10.76582             84.516                                        3.40991e+002           4.09909e+001           9.90858e-001           9.90858e-001           9.08582e-002           8.58176e-004           8.58176e-004
                   55.70    340.99994                               10.76582             84.516                                        3.41000e+002           4.09999e+001           9.99942e-001           9.99942e-001           9.99420e-002           9.94200e-003           9.41998e-004
                   55.80    341.00275                               10.76582             84.516                                        3.41003e+002           4.10028e+001           1.00275e+000           2.75222e-003           2.75222e-003           2.75222e-003           7.52217e-004
                   55.90    340.99213                               10.76582             84.516                                        3.40992e+002           4.09921e+001           9.92127e-001           9.92127e-001           9.21274e-002           2.12744e-003           1.27442e-004
                   56.00    340.98606                               10.76582             84.516                                        3.40986e+002           4.09861e+001           9.86056e-001           9.86056e-001           8.60564e-002           6.05639e-003           5.63852e-005
                   56.10    340.98951                               10.76582             84.516                                        3.40990e+002           4.09895e+001           9.89514e-001           9.89514e-001           8.95139e-002           9.51387e-003           5.13866e-004
                   56.20    340.99045                               10.76582             84.516                                        3.40990e+002           4.09905e+001           9.90454e-001           9.90454e-001           9.04541e-002           4.54108e-004           4.54108e-004
                   56.30    340.99763                               10.76582             84.516                                        3.40998e+002           4.09976e+001           9.97628e-001           9.97628e-001           9.76281e-002           7.62812e-003           6.28120e-004
                   56.40    341.00414                               10.76582             84.516                                        3.41004e+002           4.10041e+001           1.00414e+000           4.14092e-003           4.14092e-003           4.14092e-003           1.40919e-004
                   56.50    341.00034                               10.76582             84.516                                        3.41000e+002           4.10003e+001           1.00034e+000           3.41430e-004           3.41430e-004           3.41430e-004           3.41430e-004
                   56.60    340.99300                               10.76582             84.516                                        3.40993e+002           4.09930e+001           9.92996e-001           9.92996e-001           9.29961e-002           2.99605e-003           9.96050e-004
                   56.70    340.99566                               10.76582             84.516                                        3.40996e+002           4.09957e+001           9.95656e-001           9.95656e-001           9.56561e-002           5.65606e-003           6.56062e-004
                   56.80    340.99808                               10.76582             84.516                                        3.40998e+002           4.09981e+001           9.98078e-001           9.98078e-001           9.80782e-002           8.07822e-003           7.82205e-005
                   56.90    340.99347                               10.76582             84.516                                        3.40993e+002           4.09935e+001           9.93470e-001           9.93470e-001           9.34700e-002           3.47000e-003           4.70002e-004
                   57.00    340.98738                               10.76582             84.516                                        3.40987e+002           4.09874e+001           9.87384e-001           9.87384e-001           8.73844e-002           7.38445e-003           3.84449e-004
                   57.10    340.99376                               10.76582             84.516                                        3.40994e+002           4.09938e+001           9.93758e-001           9.93758e-001           9.37584e-002           3.75841e-003           7.58412e-004
                   57.20    341.00516                               10.76582             84.516                                        3.41005e+002           4.10052e+001           1.00516e+000           5.15957e-003           5.15957e-003           5.15957e-003           1.59569e-004
                   57.30    341.00208                               10.76582             84.516                                        3.41002e+002           4.10021e+001           1.00208e+000           2.07719e-003           2.07719e-003           2.07719e-003           7.71886e-005
                   57.40    340.99164                               10.76582             84.516                                        3.40992e+002           4.09916e+001           9.91637e-001           9.91637e-001           9.16371e-002           1.63708e-003           6.37079e-004
                   57.50    340.99136                               10.76582             84.516                                        3.40991e+002           4.09914e+001           9.91365e-001           9.91365e-001           9.13648e-002           1.36481e-003           3.64810e-004
                   57.60    340.99992                               10.76582             84.516                                        3.41000e+002           4.09999e+001           9.99919e-001           9.99919e-001           9.99195e-002           9.91949e-003           9.19492e-004
                   57.70    341.00153                               10.76582             84.516                                        3.41002e+002           4.10015e+001           1.00153e+000           1.53120e-003           1.53120e-003           1.53120e-003           5.31198e-004
                   57.80    340.99449                               10.76582             84.516                                        3.40994e+002           4.09945e+001           9.94487e-001           9.94487e-001           9.44873e-002           4.48730e-003           4.87302e-004
                   57.90    340.98990                               10.76582             84.516                                        3.40990e+002           4.09899e+001           9.89897e-001           9.89897e-001           8.98971e-002           9.89710e-003           8.97097e-004
                   58.00    340.99555                               10.76582             84.516                                        3.40996e+002           4.09955e+001           9.95548e-001           9.95548e-001           9.55476e-002           5.54763e-003           5.47629e-004
