~VERSION INFORMATION
VERS                    .            2.0                                    :CWLS LOG ASCII STANDARD
WRAP                    .            NO                                     :ONE LINE PER TIME STEP


~WELL INFORMATION
#MNEM                   .UNIT        DATA                                    DESCRIPTION
#________________________________________________________________________________________
STRTTIME                .HH/MM/SS    19:20:48                               :START TIME
STOPTIME                .HH/MM/SS    19:23:33                               :STOP TIME
STRT                    .s           2.10                                   :START DATA
STOP                    .s           164.00                                 :STOP DATA
STEP                    .s           0.10                                   :MEASUREMENT TIME INTERVAL
NULL                    .            -999.25                                :NULL VALUE
COMP                    .            Statoil ASA                            :COMPANY
FLD                     .            Volve                                  :FIELD
WELL                    .            15/9-F-11 A                            :WELL
RUN                     .            8                                      :RUN
LOC                     .            Maersk Inspirer                        :LOCATION
PROV                    .            na                                     :PROVINCE
SRVC                    .            Baker Hughes INTEQ                     :SERVICE COMPANY
DATE                    .YY/MM/DD    13/05/23                               :LOG DATE
UWI                     .                                                   :UNIQUE WELL ID
DEPTHMD                 .m           3617.0                                 :MEASURED DEPTH
DEPTHTVD                .m           3015.4                                 :TRUE VERTICAL DEPTH


~CURVE INFORMATION
#MNEM                   .UNIT        API CODES                               DESCRIPTION
#________________________________________________________________________________________
TIME                    .s                                                  :01 TIME
DD_PRESS                .bar                                                :02 DRAW DOWN PRESSURE
DD_VOLUME               .cm3                                                :03 INCREMENTAL DRAW DOWN VOLUME
TEMP                    .degC                                               :04 TRANSDUCER TEMPERATURE
DD_PRESS_MOD_1000       .bar                                                :05 DRAW DOWN PRESSURE MOD 1000
DD_PRESS_MOD_100        .bar                                                :06 DRAW DOWN PRESSURE MOD 100
DD_PRESS_MOD_10         .bar                                                :07 DRAW DOWN PRESSURE MOD 10
DD_PRESS_MOD_1          .bar                                                :08 DRAW DOWN PRESSURE MOD 1
DD_PRESS_MOD_01         .bar                                                :09 DRAW DOWN PRESSURE MOD 01
DD_PRESS_MOD_001        .bar                                                :10 DRAW DOWN PRESSURE MOD 001
DD_PRESS_MOD_0001       .bar                                                :11 DRAW DOWN PRESSURE MOD 0001


~PARAMETER INFORMATION
#MNEM                   .UNIT        VALUE                                   DESCRIPTION
#________________________________________________________________________________________
TOOLFACE                .deg         -39.9                                  :01 TOOLFACE
PUMP_CAPACITY           .bar         400                                    :02 NOMINAL DRAW DOWN PUMP CAPACITY
PUMP_LIMIT              .bar         240                                    :03 DOWNLINK PUMP LIMIT
TIME_LIMIT              .min         10                                     :04 DOWNLINK MAX TIME
TEST_TYPE               .            REPEAT                                 :05 DOWNLINK
TEST_TYPE               .            HIGH MOBILITY                          :06 DOWNLINK
DD_PIST_A               .cm2         3.1416                                 :07 DRAW DOWN PISTON AREA
V_SYS                   .cm3         131.0000                               :08 SYSTEM VOLUME
PROBE_ID                .cm          1.2700                                 :09 TTK PROBE ID
G0                      .            4.6700                                 :10 GEOMETRY FACTOR


~A                  TIME     DD_PRESS                              DD_VOLUME               TEMP                                   DD_PRESS_MOD_1000       DD_PRESS_MOD_100        DD_PRESS_MOD_10         DD_PRESS_MOD_1        DD_PRESS_MOD_01       DD_PRESS_MOD_001      DD_PRESS_MOD_0001
                    2.10    418.86108                                0.00000             72.211                                        4.18861e+002           1.88611e+001           8.86108e+000           8.61079e-001           6.10793e-002           1.07930e-003           7.93011e-005
                    2.20    418.82303                                0.00000             72.211                                        4.18823e+002           1.88230e+001           8.82303e+000           8.23031e-001           2.30310e-002           3.03104e-003           3.10364e-005
                    2.30    418.84786                                0.00000             72.209                                        4.18848e+002           1.88479e+001           8.84786e+000           8.47864e-001           4.78642e-002           7.86416e-003           8.64155e-004
                    2.40    418.89847                                0.00000             72.205                                        4.18898e+002           1.88985e+001           8.89847e+000           8.98470e-001           9.84696e-002           8.46963e-003           4.69634e-004
                    2.50    418.92135                                0.00000             72.203                                        4.18921e+002           1.89214e+001           8.92135e+000           9.21354e-001           2.13538e-002           1.35382e-003           3.53823e-004
                    2.60    418.93628                                0.00000             72.203                                        4.18936e+002           1.89363e+001           8.93628e+000           9.36277e-001           3.62773e-002           6.27732e-003           2.77319e-004
                    2.70    419.00648                                0.00000             72.203                                        4.19006e+002           1.90065e+001           9.00648e+000           6.47819e-003           6.47819e-003           6.47819e-003           4.78193e-004
                    2.80    419.06959                                0.00000             72.203                                        4.19070e+002           1.90696e+001           9.06959e+000           6.95876e-002           6.95876e-002           9.58763e-003           5.87625e-004
                    2.90    419.10489                                0.00000             72.203                                        4.19105e+002           1.91049e+001           9.10489e+000           1.04890e-001           4.88979e-003           4.88979e-003           8.89791e-004
                    3.00    419.14845                                0.00000             72.203                                        4.19148e+002           1.91484e+001           9.14845e+000           1.48448e-001           4.84482e-002           8.44824e-003           4.48239e-004
                    3.10    419.21326                                0.00000             72.203                                        4.19213e+002           1.92133e+001           9.21326e+000           2.13264e-001           1.32643e-002           3.26427e-003           2.64269e-004
                    3.20    419.23104                                0.00000             72.203                                        4.19231e+002           1.92310e+001           9.23104e+000           2.31040e-001           3.10396e-002           1.03960e-003           3.96021e-005
                    3.30    419.19504                                0.00000             72.203                                        4.19195e+002           1.91950e+001           9.19504e+000           1.95045e-001           9.50446e-002           5.04461e-003           4.46133e-005
                    3.40    419.16189                                0.00000             72.203                                        4.19162e+002           1.91619e+001           9.16189e+000           1.61894e-001           6.18937e-002           1.89369e-003           8.93691e-004
                    3.50    419.15702                                0.00000             72.203                                        4.19157e+002           1.91570e+001           9.15702e+000           1.57019e-001           5.70192e-002           7.01925e-003           1.92455e-005
                    3.60    419.14120                                0.00000             72.203                                        4.19141e+002           1.91412e+001           9.14120e+000           1.41201e-001           4.12011e-002           1.20107e-003           2.01073e-004
                    3.70    419.11399                                0.00000             72.203                                        4.19114e+002           1.91140e+001           9.11399e+000           1.13995e-001           1.39946e-002           3.99456e-003           9.94556e-004
                    3.80    419.10572                                0.00000             72.203                                        4.19106e+002           1.91057e+001           9.10572e+000           1.05723e-001           5.72275e-003           5.72275e-003           7.22749e-004
                    3.90    419.12090                                0.00000             72.203                                        4.19121e+002           1.91209e+001           9.12090e+000           1.20896e-001           2.08958e-002           8.95848e-004           8.95848e-004
                    4.00    419.13673                                0.00000             72.203                                        4.19137e+002           1.91367e+001           9.13673e+000           1.36729e-001           3.67294e-002           6.72938e-003           7.29377e-004
                    4.10    419.15669                                0.00000             72.203                                        4.19157e+002           1.91567e+001           9.15669e+000           1.56690e-001           5.66901e-002           6.69007e-003           6.90072e-004
                    4.20    419.20792                                0.00000             72.203                                        4.19208e+002           1.92079e+001           9.20792e+000           2.07920e-001           7.92045e-003           7.92045e-003           9.20447e-004
                    4.30    419.26203                                0.00000             72.203                                        4.19262e+002           1.92620e+001           9.26203e+000           2.62034e-001           6.20335e-002           2.03354e-003           3.35362e-005
                    4.40    419.30601                                0.00000             72.203                                        4.19306e+002           1.93060e+001           9.30601e+000           3.06014e-001           6.01366e-003           6.01366e-003           1.36607e-005
                    4.50    419.34500                                0.00000             72.203                                        4.19345e+002           1.93450e+001           9.34500e+000           3.45000e-001           4.49995e-002           4.99953e-003           9.99527e-004
                    4.60    419.37760                                0.00000             72.203                                        4.19378e+002           1.93776e+001           9.37760e+000           3.77597e-001           7.75970e-002           7.59700e-003           5.96999e-004
                    4.70    419.38548                                0.00000             72.203                                        4.19385e+002           1.93855e+001           9.38548e+000           3.85481e-001           8.54813e-002           5.48128e-003           4.81282e-004
                    4.80    419.36844                                0.00000             72.203                                        4.19368e+002           1.93684e+001           9.36844e+000           3.68437e-001           6.84372e-002           8.43718e-003           4.37184e-004
