~VERSION INFORMATION
VERS                    .            2.0                                    :CWLS LOG ASCII STANDARD
WRAP                    .            NO                                     :ONE LINE PER TIME STEP


~WELL INFORMATION
#MNEM                   .UNIT        DATA                                    DESCRIPTION
#________________________________________________________________________________________
STRTTIME                .HH/MM/SS    15:31:36                               :START TIME
STOPTIME                .HH/MM/SS    15:34:21                               :STOP TIME
STRT                    .s           2.10                                   :START DATA
STOP                    .s           163.50                                 :STOP DATA
STEP                    .s           0.10                                   :MEASUREMENT TIME INTERVAL
NULL                    .            -999.25                                :NULL VALUE
COMP                    .            Statoil ASA                            :COMPANY
FLD                     .            Volve                                  :FIELD
WELL                    .            15/9-F-11 A                            :WELL
RUN                     .            8                                      :RUN
LOC                     .            Maersk Inspirer                        :LOCATION
PROV                    .            na                                     :PROVINCE
SRVC                    .            Baker Hughes INTEQ                     :SERVICE COMPANY
DATE                    .YY/MM/DD    13/05/21                               :LOG DATE
UWI                     .                                                   :UNIQUE WELL ID
DEPTHMD                 .m           3617.2                                 :MEASURED DEPTH
DEPTHTVD                .m           3015.5                                 :TRUE VERTICAL DEPTH


~CURVE INFORMATION
#MNEM                   .UNIT        API CODES                               DESCRIPTION
#________________________________________________________________________________________
TIME                    .s                                                  :01 TIME
DD_PRESS                .bar                                                :02 DRAW DOWN PRESSURE
DD_VOLUME               .cm3                                                :03 INCREMENTAL DRAW DOWN VOLUME
TEMP                    .degC                                               :04 TRANSDUCER TEMPERATURE
DD_PRESS_MOD_1000       .bar                                                :05 DRAW DOWN PRESSURE MOD 1000
DD_PRESS_MOD_100        .bar                                                :06 DRAW DOWN PRESSURE MOD 100
DD_PRESS_MOD_10         .bar                                                :07 DRAW DOWN PRESSURE MOD 10
DD_PRESS_MOD_1          .bar                                                :08 DRAW DOWN PRESSURE MOD 1
DD_PRESS_MOD_01         .bar                                                :09 DRAW DOWN PRESSURE MOD 01
DD_PRESS_MOD_001        .bar                                                :10 DRAW DOWN PRESSURE MOD 001
DD_PRESS_MOD_0001       .bar                                                :11 DRAW DOWN PRESSURE MOD 0001


~PARAMETER INFORMATION
#MNEM                   .UNIT        VALUE                                   DESCRIPTION
#________________________________________________________________________________________
TOOLFACE                .deg         63.0                                   :01 TOOLFACE
PUMP_CAPACITY           .bar         400                                    :02 NOMINAL DRAW DOWN PUMP CAPACITY
PUMP_LIMIT              .bar         240                                    :03 DOWNLINK PUMP LIMIT
TIME_LIMIT              .min         10                                     :04 DOWNLINK MAX TIME
TEST_TYPE               .            HIGH MOBILITY                          :05 DOWNLINK
DD_PIST_A               .cm2         3.1416                                 :06 DRAW DOWN PISTON AREA
V_SYS                   .cm3         131.0000                               :07 SYSTEM VOLUME
PROBE_ID                .cm          1.2700                                 :08 TTK PROBE ID
G0                      .            4.6700                                 :09 GEOMETRY FACTOR


~A                  TIME     DD_PRESS                              DD_VOLUME               TEMP                                   DD_PRESS_MOD_1000       DD_PRESS_MOD_100        DD_PRESS_MOD_10         DD_PRESS_MOD_1        DD_PRESS_MOD_01       DD_PRESS_MOD_001      DD_PRESS_MOD_0001
# ...
                  130.90    341.68933                               29.44180             80.250                                        3.41689e+002           4.16893e+001           1.68933e+000           6.89329e-001           8.93287e-002           9.32870e-003           3.28700e-004
                  131.00    341.68965                               29.44180             80.250                                        3.41690e+002           4.16896e+001           1.68965e+000           6.89649e-001           8.96491e-002           9.64910e-003           6.49102e-004
                  131.10    341.68835                               29.44180             80.250                                        3.41688e+002           4.16884e+001           1.68835e+000           6.88354e-001           8.83543e-002           8.35427e-003           3.54271e-004
                  131.20    341.68596                               29.44180             80.250                                        3.41686e+002           4.16860e+001           1.68596e+000           6.85959e-001           8.59593e-002           5.95928e-003           9.59279e-004
                  131.30    341.68654                               29.44180             80.250                                        3.41687e+002           4.16865e+001           1.68654e+000           6.86542e-001           8.65424e-002           6.54236e-003           5.42363e-004
                  131.40    341.68646                               29.44180             80.250                                        3.41686e+002           4.16865e+001           1.68646e+000           6.86463e-001           8.64626e-002           6.46256e-003           4.62564e-004
                  131.50    341.68736                               29.44180             80.250                                        3.41687e+002           4.16874e+001           1.68736e+000           6.87363e-001           8.73630e-002           7.36300e-003           3.63003e-004
                  131.60    341.69015                               29.44180             80.250                                        3.41690e+002           4.16902e+001           1.69015e+000           6.90151e-001           9.01514e-002           1.51354e-004           1.51354e-004
                  131.70    341.69057                               29.44180             80.250                                        3.41691e+002           4.16906e+001           1.69057e+000           6.90571e-001           9.05711e-002           5.71098e-004           5.71098e-004
                  131.80    341.68673                               29.44180             80.250                                        3.41687e+002           4.16867e+001           1.68673e+000           6.86731e-001           8.67308e-002           6.73076e-003           7.30761e-004
                  131.90    341.68565                               29.44180             80.250                                        3.41686e+002           4.16857e+001           1.68565e+000           6.85653e-001           8.56528e-002           5.65279e-003           6.52787e-004
                  132.00    341.68841                               29.44180             80.250                                        3.41688e+002           4.16884e+001           1.68841e+000           6.88411e-001           8.84113e-002           8.41128e-003           4.11284e-004
                  132.10    341.68871                               29.44180             80.250                                        3.41689e+002           4.16887e+001           1.68871e+000           6.88709e-001           8.87092e-002           8.70918e-003           7.09179e-004
                  132.20    341.68754                               29.44180             80.250                                        3.41688e+002           4.16875e+001           1.68754e+000           6.87542e-001           8.75415e-002           7.54150e-003           5.41502e-004
                  132.30    341.68716                               29.44180             80.250                                        3.41687e+002           4.16872e+001           1.68716e+000           6.87155e-001           8.71554e-002           7.15536e-003           1.55360e-004
                  132.40    341.68714                               29.44180             80.250                                        3.41687e+002           4.16871e+001           1.68714e+000           6.87144e-001           8.71435e-002           7.14353e-003           1.43527e-004
                  132.50    341.68634                               29.44180             80.250                                        3.41686e+002           4.16863e+001           1.68634e+000           6.86341e-001           8.63409e-002           6.34088e-003           3.40877e-004
                  132.60    341.68828                               29.44180             80.250                                        3.41688e+002           4.16883e+001           1.68828e+000           6.88282e-001           8.82824e-002           8.28243e-003           2.82434e-004
                  132.70    341.68969                               29.44180             80.250                                        3.41690e+002           4.16897e+001           1.68969e+000           6.89693e-001           8.96927e-002           9.69268e-003           6.92683e-004
                  132.80    341.69070                               29.44180             80.250                                        3.41691e+002           4.16907e+001           1.69070e+000           6.90701e-001           9.07011e-002           7.01084e-004           7.01084e-004
                  132.90    341.69006                               29.44180             80.250                                        3.41690e+002           4.16901e+001           1.69006e+000           6.90060e-001           9.00599e-002           5.99231e-005           5.99231e-005
                  133.00    341.68915                               29.44180             80.250                                        3.41689e+002           4.16892e+001           1.68915e+000           6.89152e-001           8.91518e-002           9.15180e-003           1.51804e-004
                  133.10    341.69056                               29.44180             80.250                                        3.41691e+002           4.16906e+001           1.69056e+000           6.90556e-001           9.05557e-002           5.55675e-004           5.55675e-004
                  133.20    341.68975                               29.44180             80.250                                        3.41690e+002           4.16897e+001           1.68975e+000           6.89746e-001           8.97464e-002           9.74643e-003           7.46426e-004
                  133.30    341.68704                               29.44180             80.252                                        3.41687e+002           4.16870e+001           1.68704e+000           6.87042e-001           8.70420e-002           7.04200e-003           4.19981e-005
                  133.40    341.68890                               29.44180             80.254                                        3.41689e+002           4.16889e+001           1.68890e+000           6.88901e-001           8.89013e-002           8.90134e-003           9.01343e-004
                  133.50    341.68971                               29.44180             80.254                                        3.41690e+002           4.16897e+001           1.68971e+000           6.89707e-001           8.97070e-002           9.70701e-003           7.07009e-004
                  133.60    341.68935                               29.44180             80.256                                        3.41689e+002           4.16893e+001           1.68935e+000           6.89348e-001           8.93478e-002           9.34777e-003           3.47767e-004
