~VERSION INFORMATION
VERS                    .            2.0                                    :CWLS LOG ASCII STANDARD
WRAP                    .            NO                                     :ONE LINE PER TIME STEP


~WELL INFORMATION
#MNEM                   .UNIT        DATA                                    DESCRIPTION
#________________________________________________________________________________________
STRTTIME                .HH/MM/SS    22:39:37                               :START TIME
STOPTIME                .HH/MM/SS    22:43:03                               :STOP TIME
STRT                    .s           2.10                                   :START DATA
STOP                    .s           204.10                                 :STOP DATA
STEP                    .s           0.10                                   :MEASUREMENT TIME INTERVAL
NULL                    .            -999.25                                :NULL VALUE
COMP                    .            Statoil ASA                            :COMPANY
FLD                     .            Volve                                  :FIELD
WELL                    .            15/9-F-1 C                             :WELL
RUN                     .            4                                      :RUN
LOC                     .                                                   :LOCATION
PROV                    .            na                                     :PROVINCE
SRVC                    .            Baker Hughes INTEQ                     :SERVICE COMPANY
DATE                    .YY/MM/DD    14/03/14                               :LOG DATE
UWI                     .                                                   :UNIQUE WELL ID
DEPTHMD                 .m           3925.1                                 :MEASURED DEPTH
DEPTHTVD                .m           3120.2                                 :TRUE VERTICAL DEPTH


~CURVE INFORMATION
#MNEM                   .UNIT        API CODES                               DESCRIPTION
#________________________________________________________________________________________
TIME                    .s                                                  :01 TIME
DD_PRESS                .bar                                                :02 DRAW DOWN PRESSURE
DD_VOLUME               .cm3                                                :03 INCREMENTAL DRAW DOWN VOLUME
TEMP                    .degC                                               :04 TRANSDUCER TEMPERATURE
DD_PRESS_MOD_1000       .bar                                                :05 DRAW DOWN PRESSURE MOD 1000
DD_PRESS_MOD_100        .bar                                                :06 DRAW DOWN PRESSURE MOD 100
DD_PRESS_MOD_10         .bar                                                :07 DRAW DOWN PRESSURE MOD 10
DD_PRESS_MOD_1          .bar                                                :08 DRAW DOWN PRESSURE MOD 1
DD_PRESS_MOD_01         .bar                                                :09 DRAW DOWN PRESSURE MOD 01
DD_PRESS_MOD_001        .bar                                                :10 DRAW DOWN PRESSURE MOD 001
DD_PRESS_MOD_0001       .bar                                                :11 DRAW DOWN PRESSURE MOD 0001


~PARAMETER INFORMATION
#MNEM                   .UNIT        VALUE                                   DESCRIPTION
#________________________________________________________________________________________
TOOLFACE                .deg         -7.4                                   :01 TOOLFACE
PUMP_CAPACITY           .bar         400                                    :02 NOMINAL DRAW DOWN PUMP CAPACITY
PUMP_LIMIT              .bar         240                                    :03 DOWNLINK PUMP LIMIT
TIME_LIMIT              .min         10                                     :04 DOWNLINK MAX TIME
TEST_TYPE               .            HIGH MOBILITY                          :05 DOWNLINK
DD_PIST_A               .cm2         3.1416                                 :06 DRAW DOWN PISTON AREA
V_SYS                   .cm3         131.0000                               :07 SYSTEM VOLUME
PROBE_ID                .cm          1.2700                                 :08 TTK PROBE ID
G0                      .            4.6700                                 :09 GEOMETRY FACTOR


~A                  TIME     DD_PRESS                              DD_VOLUME               TEMP                                   DD_PRESS_MOD_1000       DD_PRESS_MOD_100        DD_PRESS_MOD_10         DD_PRESS_MOD_1        DD_PRESS_MOD_01       DD_PRESS_MOD_001      DD_PRESS_MOD_0001
# ...
                   16.10    444.32923                                0.00000             91.430                                        4.44329e+002           4.43292e+001           4.32923e+000           3.29234e-001           2.92342e-002           9.23421e-003           2.34213e-004
                   16.20    444.32781                                0.00000             91.430                                        4.44328e+002           4.43278e+001           4.32781e+000           3.27814e-001           2.78141e-002           7.81409e-003           8.14089e-004
                   16.30    444.32352                                0.00000             91.430                                        4.44324e+002           4.43235e+001           4.32352e+000           3.23518e-001           2.35182e-002           3.51820e-003           5.18197e-004
                   16.40    444.32563                                0.00000             91.430                                        4.44326e+002           4.43256e+001           4.32563e+000           3.25626e-001           2.56259e-002           5.62586e-003           6.25857e-004
                   16.50    444.32247                                0.00000             91.430                                        4.44322e+002           4.43225e+001           4.32247e+000           3.22474e-001           2.24740e-002           2.47398e-003           4.73979e-004
                   16.60    444.31401                                0.00000             91.430                                        4.44314e+002           4.43140e+001           4.31401e+000           3.14015e-001           1.40148e-002           4.01481e-003           1.48126e-005
                   16.70    444.30721                                0.00000             91.430                                        4.44307e+002           4.43072e+001           4.30721e+000           3.07212e-001           7.21197e-003           7.21197e-003           2.11971e-004
                   16.80    444.30931                                0.00000             91.430                                        4.44309e+002           4.43093e+001           4.30931e+000           3.09307e-001           9.30690e-003           9.30690e-003           3.06899e-004
                   16.90    444.31865                                0.00000             91.430                                        4.44319e+002           4.43186e+001           4.31865e+000           3.18650e-001           1.86498e-002           8.64983e-003           6.49829e-004
                   17.00    444.32167                                0.00000             91.430                                        4.44322e+002           4.43217e+001           4.32167e+000           3.21675e-001           2.16746e-002           1.67463e-003           6.74629e-004
                   17.10    444.31879                                0.00000             91.430                                        4.44319e+002           4.43188e+001           4.31879e+000           3.18793e-001           1.87931e-002           8.79312e-003           7.93116e-004
                   17.20    444.32344                                0.00000             91.430                                        4.44323e+002           4.43234e+001           4.32344e+000           3.23443e-001           2.34427e-002           3.44275e-003           4.42749e-004
                   17.30    444.34222                                0.00000             91.430                                        4.44342e+002           4.43422e+001           4.34222e+000           3.42221e-001           4.22211e-002           2.22113e-003           2.21132e-004
                   17.40    444.35257                                0.00000             91.430                                        4.44353e+002           4.43526e+001           4.35257e+000           3.52569e-001           5.25686e-002           2.56863e-003           5.68635e-004
                   17.50    444.35139                                0.00000             91.430                                        4.44351e+002           4.43514e+001           4.35139e+000           3.51389e-001           5.13888e-002           1.38878e-003           3.88780e-004
                   17.60    444.35137                                0.00000             91.430                                        4.44351e+002           4.43514e+001           4.35137e+000           3.51371e-001           5.13712e-002           1.37125e-003           3.71250e-004
                   17.70    444.35693                                0.00000             91.430                                        4.44357e+002           4.43569e+001           4.35693e+000           3.56933e-001           5.69330e-002           6.93298e-003           9.32975e-004
                   17.80    444.36793                                0.00000             91.430                                        4.44368e+002           4.43679e+001           4.36793e+000           3.67928e-001           6.79282e-002           7.92819e-003           9.28192e-004
                   17.90    444.37197                                0.00000             91.430                                        4.44372e+002           4.43720e+001           4.37197e+000           3.71966e-001           7.19663e-002           1.96631e-003           9.66314e-004
                   18.00    444.36654                                0.00000             91.430                                        4.44367e+002           4.43665e+001           4.36654e+000           3.66543e-001           6.65430e-002           6.54298e-003           5.42979e-004
                   18.10    444.36760                                0.00000             91.430                                        4.44368e+002           4.43676e+001           4.36760e+000           3.67602e-001           6.76022e-002           7.60221e-003           6.02209e-004
                   18.20    444.37572                                0.00000             91.430                                        4.44376e+002           4.43757e+001           4.37572e+000           3.75721e-001           7.57213e-002           5.72131e-003           7.21312e-004
                   18.30    444.38964                                0.00000             91.430                                        4.44390e+002           4.43896e+001           4.38964e+000           3.89641e-001           8.96414e-002           9.64139e-003           6.41394e-004
                   18.40    444.38525                                0.00000             91.430                                        4.44385e+002           4.43852e+001           4.38525e+000           3.85246e-001           8.52464e-002           5.24635e-003           2.46352e-004
                   18.50    444.37281                                0.00000             91.430                                        4.44373e+002           4.43728e+001           4.37281e+000           3.72815e-001           7.28148e-002           2.81475e-003           8.14754e-004
                   18.60    444.37596                                0.00000             91.430                                        4.44376e+002           4.43760e+001           4.37596e+000           3.75956e-001           7.59559e-002           5.95587e-003           9.55871e-004
                   18.70    444.38780                                0.00000             91.430                                        4.44388e+002           4.43878e+001           4.38780e+000           3.87803e-001           8.78035e-002           7.80348e-003           8.03480e-004
                   18.80    444.38905                                0.00000             91.430                                        4.44389e+002           4.43891e+001           4.38905e+000           3.89053e-001           8.90531e-002           9.05314e-003           5.31381e-005
