~VERSION INFORMATION
VERS                    .            2.0                                    :CWLS LOG ASCII STANDARD
WRAP                    .            NO                                     :ONE LINE PER TIME STEP


~WELL INFORMATION
#MNEM                   .UNIT        DATA                                    DESCRIPTION
#________________________________________________________________________________________
STRTTIME                .HH/MM/SS    08:08:34                               :START TIME
STOPTIME                .HH/MM/SS    08:11:25                               :STOP TIME
STRT                    .s           2.10                                   :START DATA
STOP                    .s           169.10                                 :STOP DATA
STEP                    .s           0.10                                   :MEASUREMENT TIME INTERVAL
NULL                    .            -999.25                                :NULL VALUE
COMP                    .            Statoil ASA                            :COMPANY
FLD                     .            Volve                                  :FIELD
WELL                    .            15/9-F-11 A                            :WELL
RUN                     .            8                                      :RUN
LOC                     .            Maersk Inspirer                        :LOCATION
PROV                    .            na                                     :PROVINCE
SRVC                    .            Baker Hughes INTEQ                     :SERVICE COMPANY
DATE                    .YY/MM/DD    13/05/21                               :LOG DATE
UWI                     .                                                   :UNIQUE WELL ID
DEPTHMD                 .m           3694.5                                 :MEASURED DEPTH
DEPTHTVD                .m           3074.7                                 :TRUE VERTICAL DEPTH


~CURVE INFORMATION
#MNEM                   .UNIT        API CODES                               DESCRIPTION
#________________________________________________________________________________________
TIME                    .s                                                  :01 TIME
DD_PRESS                .bar                                                :02 DRAW DOWN PRESSURE
DD_VOLUME               .cm3                                                :03 INCREMENTAL DRAW DOWN VOLUME
TEMP                    .degC                                               :04 TRANSDUCER TEMPERATURE
DD_PRESS_MOD_1000       .bar                                                :05 DRAW DOWN PRESSURE MOD 1000
DD_PRESS_MOD_100        .bar                                                :06 DRAW DOWN PRESSURE MOD 100
DD_PRESS_MOD_10         .bar                                                :07 DRAW DOWN PRESSURE MOD 10
DD_PRESS_MOD_1          .bar                                                :08 DRAW DOWN PRESSURE MOD 1
DD_PRESS_MOD_01         .bar                                                :09 DRAW DOWN PRESSURE MOD 01
DD_PRESS_MOD_001        .bar                                                :10 DRAW DOWN PRESSURE MOD 001
DD_PRESS_MOD_0001       .bar                                                :11 DRAW DOWN PRESSURE MOD 0001


~PARAMETER INFORMATION
#MNEM                   .UNIT        VALUE                                   DESCRIPTION
#________________________________________________________________________________________
TOOLFACE                .deg         -107.9                                 :01 TOOLFACE
PUMP_CAPACITY           .bar         400                                    :02 NOMINAL DRAW DOWN PUMP CAPACITY
PUMP_LIMIT              .bar         240                                    :03 DOWNLINK PUMP LIMIT
TIME_LIMIT              .min         10                                     :04 DOWNLINK MAX TIME
TEST_TYPE               .            HIGH MOBILITY                          :05 DOWNLINK
DD_PIST_A               .cm2         3.1416                                 :06 DRAW DOWN PISTON AREA
V_SYS                   .cm3         131.0000                               :07 SYSTEM VOLUME
PROBE_ID                .cm          1.2700                                 :08 TTK PROBE ID
G0                      .            4.6700                                 :09 GEOMETRY FACTOR


~A                  TIME     DD_PRESS                              DD_VOLUME               TEMP                                   DD_PRESS_MOD_1000       DD_PRESS_MOD_100        DD_PRESS_MOD_10         DD_PRESS_MOD_1        DD_PRESS_MOD_01       DD_PRESS_MOD_001      DD_PRESS_MOD_0001
# ...
                  133.70    346.39717                               29.43087             84.859                                        3.46397e+002           4.63972e+001           6.39717e+000           3.97167e-001           9.71670e-002           7.16699e-003           1.66986e-004
                  133.80    346.39966                               29.43087             84.859                                        3.46400e+002           4.63997e+001           6.39966e+000           3.99660e-001           9.96597e-002           9.65970e-003           6.59702e-004
                  133.90    346.40525                               29.43087             84.859                                        3.46405e+002           4.64053e+001           6.40525e+000           4.05252e-001           5.25229e-003           5.25229e-003           2.52291e-004
                  134.00    346.40287                               29.43087             84.859                                        3.46403e+002           4.64029e+001           6.40287e+000           4.02868e-001           2.86782e-003           2.86782e-003           8.67817e-004
                  134.10    346.40217                               29.43087             84.859                                        3.46402e+002           4.64022e+001           6.40217e+000           4.02167e-001           2.16726e-003           2.16726e-003           1.67263e-004
                  134.20    346.40625                               29.43087             84.859                                        3.46406e+002           4.64062e+001           6.40625e+000           4.06249e-001           6.24867e-003           6.24867e-003           2.48670e-004
                  134.30    346.40793                               29.43087             84.859                                        3.46408e+002           4.64079e+001           6.40793e+000           4.07933e-001           7.93337e-003           7.93337e-003           9.33368e-004
                  134.40    346.40517                               29.43087             84.859                                        3.46405e+002           4.64052e+001           6.40517e+000           4.05166e-001           5.16634e-003           5.16634e-003           1.66337e-004
                  134.50    346.40188                               29.43087             84.859                                        3.46402e+002           4.64019e+001           6.40188e+000           4.01882e-001           1.88207e-003           1.88207e-003           8.82069e-004
                  134.60    346.40351                               29.43087             84.859                                        3.46404e+002           4.64035e+001           6.40351e+000           4.03515e-001           3.51459e-003           3.51459e-003           5.14586e-004
                  134.70    346.40679                               29.43087             84.859                                        3.46407e+002           4.64068e+001           6.40679e+000           4.06790e-001           6.79031e-003           6.79031e-003           7.90312e-004
                  134.80    346.40367                               29.43087             84.859                                        3.46404e+002           4.64037e+001           6.40367e+000           4.03673e-001           3.67293e-003           3.67293e-003           6.72934e-004
                  134.90    346.40005                               29.43087             84.859                                        3.46400e+002           4.64001e+001           6.40005e+000           4.00052e-001           5.23140e-005           5.23140e-005           5.23140e-005
                  135.00    346.40018                               29.43087             84.859                                        3.46400e+002           4.64002e+001           6.40018e+000           4.00177e-001           1.76638e-004           1.76638e-004           1.76638e-004
                  135.10    346.40286                               29.43087             84.859                                        3.46403e+002           4.64029e+001           6.40286e+000           4.02858e-001           2.85839e-003           2.85839e-003           8.58386e-004
                  135.20    346.40421                               29.43087             84.859                                        3.46404e+002           4.64042e+001           6.40421e+000           4.04211e-001           4.21071e-003           4.21071e-003           2.10708e-004
                  135.30    346.40635                               29.43087             84.859                                        3.46406e+002           4.64063e+001           6.40635e+000           4.06350e-001           6.34969e-003           6.34969e-003           3.49695e-004
                  135.40    346.40770                               29.43087             84.859                                        3.46408e+002           4.64077e+001           6.40770e+000           4.07696e-001           7.69555e-003           7.69555e-003           6.95546e-004
                  135.50    346.40635                               29.43087             84.859                                        3.46406e+002           4.64064e+001           6.40635e+000           4.06352e-001           6.35218e-003           6.35218e-003           3.52185e-004
                  135.60    346.40412                               29.43087             84.859                                        3.46404e+002           4.64041e+001           6.40412e+000           4.04115e-001           4.11517e-003           4.11517e-003           1.15173e-004
                  135.70    346.40518                               29.43087             84.859                                        3.46405e+002           4.64052e+001           6.40518e+000           4.05183e-001           5.18255e-003           5.18255e-003           1.82545e-004
                  135.80    346.40670                               29.43087             84.859                                        3.46407e+002           4.64067e+001           6.40670e+000           4.06699e-001           6.69948e-003           6.69948e-003           6.99484e-004
                  135.90    346.40330                               29.43087             84.859                                        3.46403e+002           4.64033e+001           6.40330e+000           4.03302e-001           3.30239e-003           3.30239e-003           3.02391e-004
                  136.00    346.40115                               29.43087             84.859                                        3.46401e+002           4.64012e+001           6.40115e+000           4.01152e-001           1.15171e-003           1.15171e-003           1.51715e-004
                  136.10    346.40485                               29.43087             84.859                                        3.46405e+002           4.64049e+001           6.40485e+000           4.04852e-001           4.85196e-003           4.85196e-003           8.51964e-004
                  136.20    346.40502                               29.43087             84.859                                        3.46405e+002           4.64050e+001           6.40502e+000           4.05019e-001           5.01944e-003           5.01944e-003           1.94447e-005
                  136.30    346.40255                               29.43087             84.859                                        3.46403e+002           4.64025e+001           6.40255e+000           4.02549e-001           2.54887e-003           2.54887e-003           5.48867e-004
                  136.40    346.40096                               29.43087             84.859                                        3.46401e+002           4.64010e+001           6.40096e+000           4.00962e-001           9.62252e-004           9.62252e-004           9.62252e-004
