~VERSION INFORMATION
VERS                    .            2.0                                    :CWLS LOG ASCII STANDARD
WRAP                    .            NO                                     :ONE LINE PER TIME STEP


~WELL INFORMATION
#MNEM                   .UNIT        DATA                                    DESCRIPTION
#________________________________________________________________________________________
STRTTIME                .HH/MM/SS    14:04:48                               :START TIME
STOPTIME                .HH/MM/SS    14:07:57                               :STOP TIME
STRT                    .s           2.10                                   :START DATA
STOP                    .s           187.50                                 :STOP DATA
STEP                    .s           0.10                                   :MEASUREMENT TIME INTERVAL
NULL                    .            -999.25                                :NULL VALUE
COMP                    .            Statoil ASA                            :COMPANY
FLD                     .            Volve                                  :FIELD
WELL                    .            15/9-F-1 B                             :WELL
RUN                     .            7                                      :RUN
LOC                     .            Maersk Inspirer                        :LOCATION
PROV                    .            na                                     :PROVINCE
SRVC                    .            Baker Hughes INTEQ                     :SERVICE COMPANY
DATE                    .YY/MM/DD    13/09/06                               :LOG DATE
UWI                     .                                                   :UNIQUE WELL ID
DEPTHMD                 .m           3296.0                                 :MEASURED DEPTH
DEPTHTVD                .m           3091.5                                 :TRUE VERTICAL DEPTH


~CURVE INFORMATION
#MNEM                   .UNIT        API CODES                               DESCRIPTION
#________________________________________________________________________________________
TIME                    .s                                                  :01 TIME
DD_PRESS                .bar                                                :02 DRAW DOWN PRESSURE
DD_VOLUME               .cm3                                                :03 INCREMENTAL DRAW DOWN VOLUME
TEMP                    .degC                                               :04 TRANSDUCER TEMPERATURE
DD_PRESS_MOD_1000       .bar                                                :05 DRAW DOWN PRESSURE MOD 1000
DD_PRESS_MOD_100        .bar                                                :06 DRAW DOWN PRESSURE MOD 100
DD_PRESS_MOD_10         .bar                                                :07 DRAW DOWN PRESSURE MOD 10
DD_PRESS_MOD_1          .bar                                                :08 DRAW DOWN PRESSURE MOD 1
DD_PRESS_MOD_01         .bar                                                :09 DRAW DOWN PRESSURE MOD 01
DD_PRESS_MOD_001        .bar                                                :10 DRAW DOWN PRESSURE MOD 001
DD_PRESS_MOD_0001       .bar                                                :11 DRAW DOWN PRESSURE MOD 0001


~PARAMETER INFORMATION
#MNEM                   .UNIT        VALUE                                   DESCRIPTION
#________________________________________________________________________________________
TOOLFACE                .deg         na                                     :01 TOOLFACE
PUMP_CAPACITY           .bar         400                                    :02 NOMINAL DRAW DOWN PUMP CAPACITY
PUMP_LIMIT              .bar         400                                    :03 DOWNLINK PUMP LIMIT
TIME_LIMIT              .min         10                                     :04 DOWNLINK MAX TIME
TEST_TYPE               .            LOW MOBILITY                           :05 DOWNLINK
DD_PIST_A               .cm2         3.1416                                 :06 DRAW DOWN PISTON AREA
V_SYS                   .cm3         131.0000                               :07 SYSTEM VOLUME
PROBE_ID                .cm          1.2700                                 :08 TTK PROBE ID
G0                      .            4.6700                                 :09 GEOMETRY FACTOR


~A                  TIME     DD_PRESS                              DD_VOLUME               TEMP                                   DD_PRESS_MOD_1000       DD_PRESS_MOD_100        DD_PRESS_MOD_10         DD_PRESS_MOD_1        DD_PRESS_MOD_01       DD_PRESS_MOD_001      DD_PRESS_MOD_0001
# ...
                   49.70    348.63124                               11.00622             83.313                                        3.48631e+002           4.86312e+001           8.63124e+000           6.31238e-001           3.12383e-002           1.23832e-003           2.38322e-004
                   49.80    348.63368                               11.00622             83.313                                        3.48634e+002           4.86337e+001           8.63368e+000           6.33676e-001           3.36763e-002           3.67631e-003           6.76312e-004
                   49.90    348.62068                               11.00622             83.313                                        3.48621e+002           4.86207e+001           8.62068e+000           6.20676e-001           2.06762e-002           6.76211e-004           6.76211e-004
                   50.00    348.59781                               11.00622             83.313                                        3.48598e+002           4.85978e+001           8.59781e+000           5.97808e-001           9.78084e-002           7.80844e-003           8.08442e-004
                   50.10    348.60723                               11.00622             83.313                                        3.48607e+002           4.86072e+001           8.60723e+000           6.07234e-001           7.23378e-003           7.23378e-003           2.33777e-004
                   50.20    348.62772                               11.00622             83.313                                        3.48628e+002           4.86277e+001           8.62772e+000           6.27720e-001           2.77198e-002           7.71980e-003           7.19796e-004
                   50.30    348.63003                               11.00622             83.313                                        3.48630e+002           4.86300e+001           8.63003e+000           6.30033e-001           3.00326e-002           3.25608e-005           3.25608e-005
                   50.40    348.62652                               11.00622             83.313                                        3.48627e+002           4.86265e+001           8.62652e+000           6.26518e-001           2.65175e-002           6.51751e-003           5.17510e-004
                   50.50    348.63108                               11.00622             83.313                                        3.48631e+002           4.86311e+001           8.63108e+000           6.31084e-001           3.10840e-002           1.08402e-003           8.40215e-005
                   50.60    348.62765                               11.00622             83.313                                        3.48628e+002           4.86277e+001           8.62765e+000           6.27653e-001           2.76529e-002           7.65291e-003           6.52914e-004
                   50.70    348.62461                               11.00622             83.313                                        3.48625e+002           4.86246e+001           8.62461e+000           6.24605e-001           2.46054e-002           4.60539e-003           6.05393e-004
                   50.80    348.62486                               11.00622             83.313                                        3.48625e+002           4.86249e+001           8.62486e+000           6.24856e-001           2.48558e-002           4.85577e-003           8.55774e-004
                   50.90    348.63398                               11.00622             83.313                                        3.48634e+002           4.86340e+001           8.63398e+000           6.33983e-001           3.39826e-002           3.98264e-003           9.82639e-004
                   51.00    348.63793                               11.00622             83.313                                        3.48638e+002           4.86379e+001           8.63793e+000           6.37929e-001           3.79294e-002           7.92943e-003           9.29426e-004
                   51.10    348.63230                               11.00622             83.313                                        3.48632e+002           4.86323e+001           8.63230e+000           6.32301e-001           3.23015e-002           2.30149e-003           3.01490e-004
                   51.20    348.62688                               11.00622             83.313                                        3.48627e+002           4.86269e+001           8.62688e+000           6.26882e-001           2.68820e-002           6.88205e-003           8.82045e-004
                   51.30    348.62228                               11.00622             83.313                                        3.48622e+002           4.86223e+001           8.62228e+000           6.22283e-001           2.22835e-002           2.28347e-003           2.83474e-004
                   51.40    348.61685                               11.00622             83.313                                        3.48617e+002           4.86168e+001           8.61685e+000           6.16848e-001           1.68484e-002           6.84844e-003           8.48436e-004
                   51.50    348.63619                               11.00622             83.313                                        3.48636e+002           4.86362e+001           8.63619e+000           6.36190e-001           3.61904e-002           6.19043e-003           1.90431e-004
                   51.60    348.65873                               11.00622             83.313                                        3.48659e+002           4.86587e+001           8.65873e+000           6.58735e-001           5.87345e-002           8.73455e-003           7.34546e-004
                   51.70    348.62894                               11.00622             83.313                                        3.48629e+002           4.86289e+001           8.62894e+000           6.28940e-001           2.89401e-002           8.94005e-003           9.40053e-004
                   51.80    348.59748                               11.00622             83.310                                        3.48597e+002           4.85975e+001           8.59748e+000           5.97478e-001           9.74785e-002           7.47848e-003           4.78476e-004
                   51.90    348.61398                               11.00622             83.307                                        3.48614e+002           4.86140e+001           8.61398e+000           6.13980e-001           1.39800e-002           3.98002e-003           9.80025e-004
                   52.00    348.62662                               11.00622             83.305                                        3.48627e+002           4.86266e+001           8.62662e+000           6.26623e-001           2.66226e-002           6.62256e-003           6.22561e-004
                   52.10    348.63099                               11.00622             83.305                                        3.48631e+002           4.86310e+001           8.63099e+000           6.30994e-001           3.09940e-002           9.93989e-004           9.93989e-004
                   52.20    348.66328                               11.00622             83.305                                        3.48663e+002           4.86633e+001           8.66328e+000           6.63279e-001           6.32791e-002           3.27908e-003           2.79076e-004
                   52.30    348.68226                               11.00622             83.305                                        3.48682e+002           4.86823e+001           8.68226e+000           6.82257e-001           8.22569e-002           2.25686e-003           2.56860e-004
                   52.40    348.65903                               11.00622             83.307                                        3.48659e+002           4.86590e+001           8.65903e+000           6.59034e-001           5.90342e-002           9.03420e-003           3.42025e-005
