~VERSION INFORMATION
VERS                    .            2.0                                    :CWLS LOG ASCII STANDARD
WRAP                    .            NO                                     :ONE LINE PER TIME STEP


~WELL INFORMATION
#MNEM                   .UNIT        DATA                                    DESCRIPTION
#________________________________________________________________________________________
STRTTIME                .HH/MM/SS    16:02:11                               :START TIME
STOPTIME                .HH/MM/SS    16:05:47                               :STOP TIME
STRT                    .s           2.10                                   :START DATA
STOP                    .s           214.40                                 :STOP DATA
STEP                    .s           0.10                                   :MEASUREMENT TIME INTERVAL
NULL                    .            -999.25                                :NULL VALUE
COMP                    .            Statoil ASA                            :COMPANY
FLD                     .            Volve                                  :FIELD
WELL                    .            15/9-F-1 B                             :WELL
RUN                     .            7                                      :RUN
LOC                     .            Maersk Inspirer                        :LOCATION
PROV                    .            na                                     :PROVINCE
SRVC                    .            Baker Hughes INTEQ                     :SERVICE COMPANY
DATE                    .YY/MM/DD    13/09/06                               :LOG DATE
UWI                     .                                                   :UNIQUE WELL ID
DEPTHMD                 .m           3261.0                                 :MEASURED DEPTH
DEPTHTVD                .m           3057.0                                 :TRUE VERTICAL DEPTH


~CURVE INFORMATION
#MNEM                   .UNIT        API CODES                               DESCRIPTION
#________________________________________________________________________________________
TIME                    .s                                                  :01 TIME
DD_PRESS                .bar                                                :02 DRAW DOWN PRESSURE
DD_VOLUME               .cm3                                                :03 INCREMENTAL DRAW DOWN VOLUME
TEMP                    .degC                                               :04 TRANSDUCER TEMPERATURE
DD_PRESS_MOD_1000       .bar                                                :05 DRAW DOWN PRESSURE MOD 1000
DD_PRESS_MOD_100        .bar                                                :06 DRAW DOWN PRESSURE MOD 100
DD_PRESS_MOD_10         .bar                                                :07 DRAW DOWN PRESSURE MOD 10
DD_PRESS_MOD_1          .bar                                                :08 DRAW DOWN PRESSURE MOD 1
DD_PRESS_MOD_01         .bar                                                :09 DRAW DOWN PRESSURE MOD 01
DD_PRESS_MOD_001        .bar                                                :10 DRAW DOWN PRESSURE MOD 001
DD_PRESS_MOD_0001       .bar                                                :11 DRAW DOWN PRESSURE MOD 0001


~PARAMETER INFORMATION
#MNEM                   .UNIT        VALUE                                   DESCRIPTION
#________________________________________________________________________________________
TOOLFACE                .deg         na                                     :01 TOOLFACE
PUMP_CAPACITY           .bar         400                                    :02 NOMINAL DRAW DOWN PUMP CAPACITY
PUMP_LIMIT              .bar         400                                    :03 DOWNLINK PUMP LIMIT
TIME_LIMIT              .min         10                                     :04 DOWNLINK MAX TIME
TEST_TYPE               .            LOW MOBILITY                           :05 DOWNLINK
DD_PIST_A               .cm2         3.1416                                 :06 DRAW DOWN PISTON AREA
V_SYS                   .cm3         131.0000                               :07 SYSTEM VOLUME
PROBE_ID                .cm          1.2700                                 :08 TTK PROBE ID
G0                      .            4.6700                                 :09 GEOMETRY FACTOR


~A                  TIME     DD_PRESS                              DD_VOLUME               TEMP                                   DD_PRESS_MOD_1000       DD_PRESS_MOD_100        DD_PRESS_MOD_10         DD_PRESS_MOD_1        DD_PRESS_MOD_01       DD_PRESS_MOD_001      DD_PRESS_MOD_0001
# ...
                  184.10    345.59708                               29.22690             82.023                                        3.45597e+002           4.55971e+001           5.59708e+000           5.97075e-001           9.70752e-002           7.07522e-003           7.52246e-005
                  184.20    345.59515                               29.22690             82.023                                        3.45595e+002           4.55952e+001           5.59515e+000           5.95155e-001           9.51546e-002           5.15456e-003           1.54562e-004
                  184.30    345.60701                               29.22690             82.023                                        3.45607e+002           4.56070e+001           5.60701e+000           6.07010e-001           7.01032e-003           7.01032e-003           1.03244e-005
                  184.40    345.61052                               29.22690             82.023                                        3.45611e+002           4.56105e+001           5.61052e+000           6.10518e-001           1.05180e-002           5.17990e-004           5.17990e-004
                  184.50    345.59480                               29.22690             82.023                                        3.45595e+002           4.55948e+001           5.59480e+000           5.94797e-001           9.47966e-002           4.79664e-003           7.96636e-004
                  184.60    345.59150                               29.22690             82.023                                        3.45591e+002           4.55915e+001           5.59150e+000           5.91500e-001           9.14999e-002           1.49985e-003           4.99855e-004
                  184.70    345.60717                               29.22690             82.023                                        3.45607e+002           4.56072e+001           5.60717e+000           6.07174e-001           7.17396e-003           7.17396e-003           1.73964e-004
                  184.80    345.61204                               29.22690             82.023                                        3.45612e+002           4.56120e+001           5.61204e+000           6.12037e-001           1.20365e-002           2.03651e-003           3.65143e-005
                  184.90    345.60110                               29.22690             82.023                                        3.45601e+002           4.56011e+001           5.60110e+000           6.01101e-001           1.10051e-003           1.10051e-003           1.00507e-004
                  185.00    345.59761                               29.22690             82.023                                        3.45598e+002           4.55976e+001           5.59761e+000           5.97609e-001           9.76087e-002           7.60869e-003           6.08691e-004
                  185.10    345.60598                               29.22690             82.023                                        3.45606e+002           4.56060e+001           5.60598e+000           6.05978e-001           5.97787e-003           5.97787e-003           9.77866e-004
                  185.20    345.60505                               29.22690             82.023                                        3.45605e+002           4.56051e+001           5.60505e+000           6.05055e-001           5.05483e-003           5.05483e-003           5.48326e-005
                  185.30    345.59297                               29.22690             82.023                                        3.45593e+002           4.55930e+001           5.59297e+000           5.92971e-001           9.29709e-002           2.97089e-003           9.70894e-004
                  185.40    345.59497                               29.22690             82.023                                        3.45595e+002           4.55950e+001           5.59497e+000           5.94974e-001           9.49740e-002           4.97396e-003           9.73960e-004
                  185.50    345.60997                               29.22690             82.023                                        3.45610e+002           4.56100e+001           5.60997e+000           6.09973e-001           9.97349e-003           9.97349e-003           9.73485e-004
                  185.60    345.61135                               29.22690             82.023                                        3.45611e+002           4.56114e+001           5.61135e+000           6.11355e-001           1.13549e-002           1.35491e-003           3.54908e-004
                  185.70    345.59809                               29.22690             82.023                                        3.45598e+002           4.55981e+001           5.59809e+000           5.98095e-001           9.80945e-002           8.09450e-003           9.45007e-005
                  185.80    345.59202                               29.22690             82.023                                        3.45592e+002           4.55920e+001           5.59202e+000           5.92016e-001           9.20160e-002           2.01603e-003           1.60307e-005
                  185.90    345.60239                               29.22690             82.023                                        3.45602e+002           4.56024e+001           5.60239e+000           6.02395e-001           2.39487e-003           2.39487e-003           3.94869e-004
                  186.00    345.60511                               29.22690             82.023                                        3.45605e+002           4.56051e+001           5.60511e+000           6.05112e-001           5.11212e-003           5.11212e-003           1.12119e-004
                  186.10    345.59710                               29.22690             82.023                                        3.45597e+002           4.55971e+001           5.59710e+000           5.97101e-001           9.71008e-002           7.10077e-003           1.00770e-004
                  186.20    345.59570                               29.22690             82.023                                        3.45596e+002           4.55957e+001           5.59570e+000           5.95703e-001           9.57033e-002           5.70329e-003           7.03287e-004
                  186.30    345.60681                               29.22690             82.023                                        3.45607e+002           4.56068e+001           5.60681e+000           6.06807e-001           6.80677e-003           6.80677e-003           8.06767e-004
                  186.40    345.61005                               29.22690             82.023                                        3.45610e+002           4.56100e+001           5.61005e+000           6.10045e-001           1.00454e-002           4.53879e-005           4.53879e-005
                  186.50    345.60189                               29.22690             82.023                                        3.45602e+002           4.56019e+001           5.60189e+000           6.01892e-001           1.89193e-003           1.89193e-003           8.91933e-004
                  186.60    345.59869                               29.22690             82.023                                        3.45599e+002           4.55987e+001           5.59869e+000           5.98687e-001           9.86873e-002           8.68733e-003           6.87326e-004
                  186.70    345.60854                               29.22690             82.023                                        3.45609e+002           4.56085e+001           5.60854e+000           6.08537e-001           8.53659e-003           8.53659e-003           5.36591e-004
                  186.80    345.61154                               29.22690             82.023                                        3.45612e+002           4.56115e+001           5.61154e+000           6.11538e-001           1.15383e-002           1.53831e-003           5.38314e-004
