~VERSION INFORMATION
VERS                    .            2.0                                    :CWLS LOG ASCII STANDARD
WRAP                    .            NO                                     :ONE LINE PER TIME STEP


~WELL INFORMATION
#MNEM                   .UNIT        DATA                                    DESCRIPTION
#________________________________________________________________________________________
STRTTIME                .HH/MM/SS    08:48:41                               :START TIME
STOPTIME                .HH/MM/SS    08:51:35                               :STOP TIME
STRT                    .s           2.10                                   :START DATA
STOP                    .s           172.50                                 :STOP DATA
STEP                    .s           0.10                                   :MEASUREMENT TIME INTERVAL
NULL                    .            -999.25                                :NULL VALUE
COMP                    .            Statoil ASA                            :COMPANY
FLD                     .            Volve                                  :FIELD
WELL                    .            15/9-F-11 A                            :WELL
RUN                     .            8                                      :RUN
LOC                     .            Maersk Inspirer                        :LOCATION
PROV                    .            na                                     :PROVINCE
SRVC                    .            Baker Hughes INTEQ                     :SERVICE COMPANY
DATE                    .YY/MM/DD    13/05/21                               :LOG DATE
UWI                     .                                                   :UNIQUE WELL ID
DEPTHMD                 .m           3681.0                                 :MEASURED DEPTH
DEPTHTVD                .m           3064.4                                 :TRUE VERTICAL DEPTH


~CURVE INFORMATION
#MNEM                   .UNIT        API CODES                               DESCRIPTION
#________________________________________________________________________________________
TIME                    .s                                                  :01 TIME
DD_PRESS                .bar                                                :02 DRAW DOWN PRESSURE
DD_VOLUME               .cm3                                                :03 INCREMENTAL DRAW DOWN VOLUME
TEMP                    .degC                                               :04 TRANSDUCER TEMPERATURE
DD_PRESS_MOD_1000       .bar                                                :05 DRAW DOWN PRESSURE MOD 1000
DD_PRESS_MOD_100        .bar                                                :06 DRAW DOWN PRESSURE MOD 100
DD_PRESS_MOD_10         .bar                                                :07 DRAW DOWN PRESSURE MOD 10
DD_PRESS_MOD_1          .bar                                                :08 DRAW DOWN PRESSURE MOD 1
DD_PRESS_MOD_01         .bar                                                :09 DRAW DOWN PRESSURE MOD 01
DD_PRESS_MOD_001        .bar                                                :10 DRAW DOWN PRESSURE MOD 001
DD_PRESS_MOD_0001       .bar                                                :11 DRAW DOWN PRESSURE MOD 0001


~PARAMETER INFORMATION
#MNEM                   .UNIT        VALUE                                   DESCRIPTION
#________________________________________________________________________________________
TOOLFACE                .deg         -59.5                                  :01 TOOLFACE
PUMP_CAPACITY           .bar         400                                    :02 NOMINAL DRAW DOWN PUMP CAPACITY
PUMP_LIMIT              .bar         240                                    :03 DOWNLINK PUMP LIMIT
TIME_LIMIT              .min         10                                     :04 DOWNLINK MAX TIME
TEST_TYPE               .            REPEAT                                 :05 DOWNLINK
TEST_TYPE               .            HIGH MOBILITY                          :06 DOWNLINK
DD_PIST_A               .cm2         3.1416                                 :07 DRAW DOWN PISTON AREA
V_SYS                   .cm3         131.0000                               :08 SYSTEM VOLUME
PROBE_ID                .cm          1.2700                                 :09 TTK PROBE ID
G0                      .            4.6700                                 :10 GEOMETRY FACTOR


~A                  TIME     DD_PRESS                              DD_VOLUME               TEMP                                   DD_PRESS_MOD_1000       DD_PRESS_MOD_100        DD_PRESS_MOD_10         DD_PRESS_MOD_1        DD_PRESS_MOD_01       DD_PRESS_MOD_001      DD_PRESS_MOD_0001
# ...
                  102.90    345.54793                               19.86705             82.578                                        3.45548e+002           4.55479e+001           5.54793e+000           5.47931e-001           4.79307e-002           7.93072e-003           9.30723e-004
                  103.00    345.54775                               19.86705             82.578                                        3.45548e+002           4.55477e+001           5.54775e+000           5.47745e-001           4.77450e-002           7.74501e-003           7.45015e-004
                  103.10    345.54155                               19.86705             82.578                                        3.45542e+002           4.55415e+001           5.54155e+000           5.41546e-001           4.15455e-002           1.54550e-003           5.45501e-004
                  103.20    345.54256                               19.86705             82.578                                        3.45543e+002           4.55426e+001           5.54256e+000           5.42557e-001           4.25566e-002           2.55664e-003           5.56640e-004
                  103.30    345.54325                               19.86705             82.578                                        3.45543e+002           4.55432e+001           5.54325e+000           5.43247e-001           4.32468e-002           3.24678e-003           2.46779e-004
                  103.40    345.54213                               19.86705             82.578                                        3.45542e+002           4.55421e+001           5.54213e+000           5.42130e-001           4.21298e-002           2.12984e-003           1.29835e-004
                  103.50    345.54465                               19.86705             82.578                                        3.45545e+002           4.55447e+001           5.54465e+000           5.44652e-001           4.46518e-002           4.65183e-003           6.51827e-004
                  103.60    345.54492                               19.86705             82.578                                        3.45545e+002           4.55449e+001           5.54492e+000           5.44917e-001           4.49175e-002           4.91749e-003           9.17488e-004
                  103.70    345.54154                               19.86705             82.578                                        3.45542e+002           4.55415e+001           5.54154e+000           5.41542e-001           4.15425e-002           1.54246e-003           5.42457e-004
                  103.80    345.54150                               19.86705             82.578                                        3.45541e+002           4.55415e+001           5.54150e+000           5.41495e-001           4.14950e-002           1.49502e-003           4.95017e-004
                  103.90    345.54718                               19.86705             82.578                                        3.45547e+002           4.55472e+001           5.54718e+000           5.47176e-001           4.71762e-002           7.17624e-003           1.76235e-004
                  104.00    345.55159                               19.86705             82.578                                        3.45552e+002           4.55516e+001           5.55159e+000           5.51594e-001           5.15942e-002           1.59415e-003           5.94153e-004
                  104.10    345.54607                               19.86705             82.578                                        3.45546e+002           4.55461e+001           5.54607e+000           5.46073e-001           4.60726e-002           6.07261e-003           7.26074e-005
                  104.20    345.53656                               19.86705             82.578                                        3.45537e+002           4.55366e+001           5.53656e+000           5.36557e-001           3.65566e-002           6.55655e-003           5.56554e-004
                  104.30    345.53972                               19.86705             82.578                                        3.45540e+002           4.55397e+001           5.53972e+000           5.39722e-001           3.97223e-002           9.72228e-003           7.22279e-004
                  104.40    345.54855                               19.86705             82.578                                        3.45549e+002           4.55486e+001           5.54855e+000           5.48553e-001           4.85534e-002           8.55338e-003           5.53382e-004
                  104.50    345.54684                               19.86705             82.578                                        3.45547e+002           4.55468e+001           5.54684e+000           5.46840e-001           4.68396e-002           6.83956e-003           8.39557e-004
                  104.60    345.53741                               19.86705             82.578                                        3.45537e+002           4.55374e+001           5.53741e+000           5.37411e-001           3.74113e-002           7.41130e-003           4.11303e-004
                  104.70    345.53285                               19.86705             82.578                                        3.45533e+002           4.55329e+001           5.53285e+000           5.32852e-001           3.28524e-002           2.85239e-003           8.52387e-004
                  104.80    345.54215                               19.86705             82.578                                        3.45542e+002           4.55422e+001           5.54215e+000           5.42154e-001           4.21540e-002           2.15399e-003           1.53985e-004
                  104.90    345.54537                               19.86705             82.578                                        3.45545e+002           4.55454e+001           5.54537e+000           5.45370e-001           4.53696e-002           5.36965e-003           3.69649e-004
                  105.00    345.54505                               19.86705             82.578                                        3.45545e+002           4.55450e+001           5.54505e+000           5.45046e-001           4.50459e-002           5.04591e-003           4.59125e-005
                  105.10    345.54642                               19.86705             82.578                                        3.45546e+002           4.55464e+001           5.54642e+000           5.46417e-001           4.64167e-002           6.41670e-003           4.16704e-004
                  105.20    345.54752                               19.86705             82.578                                        3.45548e+002           4.55475e+001           5.54752e+000           5.47523e-001           4.75225e-002           7.52254e-003           5.22536e-004
                  105.30    345.54358                               19.86705             82.578                                        3.45544e+002           4.55436e+001           5.54358e+000           5.43583e-001           4.35827e-002           3.58268e-003           5.82680e-004
                  105.40    345.54622                               19.86705             82.578                                        3.45546e+002           4.55462e+001           5.54622e+000           5.46224e-001           4.62242e-002           6.22424e-003           2.24244e-004
                  105.50    345.55392                               19.86705             82.578                                        3.45554e+002           4.55539e+001           5.55392e+000           5.53922e-001           5.39216e-002           3.92161e-003           9.21615e-004
                  105.60    345.55298                               19.86705             82.578                                        3.45553e+002           4.55530e+001           5.55298e+000           5.52984e-001           5.29839e-002           2.98394e-003           9.83940e-004
