~VERSION INFORMATION
VERS                    .            2.0                                    :CWLS LOG ASCII STANDARD
WRAP                    .            NO                                     :ONE LINE PER TIME STEP


~WELL INFORMATION
#MNEM                   .UNIT        DATA                                    DESCRIPTION
#________________________________________________________________________________________
STRTTIME                .HH/MM/SS    08:48:41                               :START TIME
STOPTIME                .HH/MM/SS    08:51:35                               :STOP TIME
STRT                    .s           2.10                                   :START DATA
STOP                    .s           172.50                                 :STOP DATA
STEP                    .s           0.10                                   :MEASUREMENT TIME INTERVAL
NULL                    .            -999.25                                :NULL VALUE
COMP                    .            Statoil ASA                            :COMPANY
FLD                     .            Volve                                  :FIELD
WELL                    .            15/9-F-11 A                            :WELL
RUN                     .            8                                      :RUN
LOC                     .            Maersk Inspirer                        :LOCATION
PROV                    .            na                                     :PROVINCE
SRVC                    .            Baker Hughes INTEQ                     :SERVICE COMPANY
DATE                    .YY/MM/DD    13/05/21                               :LOG DATE
UWI                     .                                                   :UNIQUE WELL ID
DEPTHMD                 .m           3681.0                                 :MEASURED DEPTH
DEPTHTVD                .m           3064.4                                 :TRUE VERTICAL DEPTH


~CURVE INFORMATION
#MNEM                   .UNIT        API CODES                               DESCRIPTION
#________________________________________________________________________________________
TIME                    .s                                                  :01 TIME
DD_PRESS                .bar                                                :02 DRAW DOWN PRESSURE
DD_VOLUME               .cm3                                                :03 INCREMENTAL DRAW DOWN VOLUME
TEMP                    .degC                                               :04 TRANSDUCER TEMPERATURE
DD_PRESS_MOD_1000       .bar                                                :05 DRAW DOWN PRESSURE MOD 1000
DD_PRESS_MOD_100        .bar                                                :06 DRAW DOWN PRESSURE MOD 100
DD_PRESS_MOD_10         .bar                                                :07 DRAW DOWN PRESSURE MOD 10
DD_PRESS_MOD_1          .bar                                                :08 DRAW DOWN PRESSURE MOD 1
DD_PRESS_MOD_01         .bar                                                :09 DRAW DOWN PRESSURE MOD 01
DD_PRESS_MOD_001        .bar                                                :10 DRAW DOWN PRESSURE MOD 001
DD_PRESS_MOD_0001       .bar                                                :11 DRAW DOWN PRESSURE MOD 0001


~PARAMETER INFORMATION
#MNEM                   .UNIT        VALUE                                   DESCRIPTION
#________________________________________________________________________________________
TOOLFACE                .deg         -59.5                                  :01 TOOLFACE
PUMP_CAPACITY           .bar         400                                    :02 NOMINAL DRAW DOWN PUMP CAPACITY
PUMP_LIMIT              .bar         240                                    :03 DOWNLINK PUMP LIMIT
TIME_LIMIT              .min         10                                     :04 DOWNLINK MAX TIME
TEST_TYPE               .            REPEAT                                 :05 DOWNLINK
TEST_TYPE               .            HIGH MOBILITY                          :06 DOWNLINK
DD_PIST_A               .cm2         3.1416                                 :07 DRAW DOWN PISTON AREA
V_SYS                   .cm3         131.0000                               :08 SYSTEM VOLUME
PROBE_ID                .cm          1.2700                                 :09 TTK PROBE ID
G0                      .            4.6700                                 :10 GEOMETRY FACTOR


~A                  TIME     DD_PRESS                              DD_VOLUME               TEMP                                   DD_PRESS_MOD_1000       DD_PRESS_MOD_100        DD_PRESS_MOD_10         DD_PRESS_MOD_1        DD_PRESS_MOD_01       DD_PRESS_MOD_001      DD_PRESS_MOD_0001
# ...
                  125.30    345.54442                               29.44423             82.578                                        3.45544e+002           4.55444e+001           5.54442e+000           5.44420e-001           4.44196e-002           4.41959e-003           4.19595e-004
                  125.40    345.53818                               29.44423             82.578                                        3.45538e+002           4.55382e+001           5.53818e+000           5.38180e-001           3.81795e-002           8.17953e-003           1.79527e-004
                  125.50    345.53395                               29.44423             82.578                                        3.45534e+002           4.55340e+001           5.53395e+000           5.33954e-001           3.39541e-002           3.95406e-003           9.54057e-004
                  125.60    345.53126                               29.44423             82.578                                        3.45531e+002           4.55313e+001           5.53126e+000           5.31261e-001           3.12615e-002           1.26145e-003           2.61452e-004
                  125.70    345.53311                               29.44423             82.578                                        3.45533e+002           4.55331e+001           5.53311e+000           5.33105e-001           3.31050e-002           3.10503e-003           1.05028e-004
                  125.80    345.53859                               29.44423             82.578                                        3.45539e+002           4.55386e+001           5.53859e+000           5.38588e-001           3.85881e-002           8.58810e-003           5.88104e-004
                  125.90    345.53979                               29.44423             82.578                                        3.45540e+002           4.55398e+001           5.53979e+000           5.39786e-001           3.97864e-002           9.78643e-003           7.86431e-004
                  126.00    345.53862                               29.44423             82.578                                        3.45539e+002           4.55386e+001           5.53862e+000           5.38621e-001           3.86205e-002           8.62054e-003           6.20544e-004
                  126.10    345.53508                               29.44423             82.578                                        3.45535e+002           4.55351e+001           5.53508e+000           5.35084e-001           3.50844e-002           5.08441e-003           8.44128e-005
                  126.20    345.53432                               29.44423             82.578                                        3.45534e+002           4.55343e+001           5.53432e+000           5.34319e-001           3.43192e-002           4.31920e-003           3.19200e-004
                  126.30    345.53614                               29.44423             82.578                                        3.45536e+002           4.55361e+001           5.53614e+000           5.36140e-001           3.61400e-002           6.13998e-003           1.39983e-004
                  126.40    345.53621                               29.44423             82.578                                        3.45536e+002           4.55362e+001           5.53621e+000           5.36211e-001           3.62111e-002           6.21113e-003           2.11128e-004
                  126.50    345.53642                               29.44423             82.578                                        3.45536e+002           4.55364e+001           5.53642e+000           5.36421e-001           3.64208e-002           6.42084e-003           4.20838e-004
                  126.60    345.53854                               29.44423             82.578                                        3.45539e+002           4.55385e+001           5.53854e+000           5.38537e-001           3.85366e-002           8.53662e-003           5.36621e-004
                  126.70    345.53999                               29.44423             82.578                                        3.45540e+002           4.55400e+001           5.53999e+000           5.39989e-001           3.99887e-002           9.98865e-003           9.88653e-004
                  126.80    345.54155                               29.44423             82.578                                        3.45542e+002           4.55416e+001           5.54155e+000           5.41551e-001           4.15514e-002           1.55141e-003           5.51409e-004
                  126.90    345.53684                               29.44423             82.578                                        3.45537e+002           4.55368e+001           5.53684e+000           5.36837e-001           3.68370e-002           6.83701e-003           8.37008e-004
                  127.00    345.53110                               29.44423             82.578                                        3.45531e+002           4.55311e+001           5.53110e+000           5.31098e-001           3.10980e-002           1.09803e-003           9.80260e-005
                  127.10    345.53550                               29.44423             82.578                                        3.45535e+002           4.55355e+001           5.53550e+000           5.35495e-001           3.54953e-002           5.49529e-003           4.95292e-004
                  127.20    345.54161                               29.44423             82.578                                        3.45542e+002           4.55416e+001           5.54161e+000           5.41606e-001           4.16060e-002           1.60598e-003           6.05981e-004
                  127.30    345.54231                               29.44423             82.578                                        3.45542e+002           4.55423e+001           5.54231e+000           5.42308e-001           4.23081e-002           2.30810e-003           3.08095e-004
                  127.40    345.53892                               29.44423             82.578                                        3.45539e+002           4.55389e+001           5.53892e+000           5.38925e-001           3.89247e-002           8.92473e-003           9.24728e-004
                  127.50    345.53393                               29.44423             82.578                                        3.45534e+002           4.55339e+001           5.53393e+000           5.33928e-001           3.39283e-002           3.92830e-003           9.28304e-004
                  127.60    345.53770                               29.44423             82.578                                        3.45538e+002           4.55377e+001           5.53770e+000           5.37703e-001           3.77034e-002           7.70342e-003           7.03416e-004
                  127.70    345.53908                               29.44423             82.578                                        3.45539e+002           4.55391e+001           5.53908e+000           5.39080e-001           3.90804e-002           9.08039e-003           8.03886e-005
                  127.80    345.53705                               29.44423             82.578                                        3.45537e+002           4.55370e+001           5.53705e+000           5.37047e-001           3.70467e-002           7.04668e-003           4.66782e-005
                  127.90    345.54122                               29.44423             82.578                                        3.45541e+002           4.55412e+001           5.54122e+000           5.41223e-001           4.12227e-002           1.22267e-003           2.22674e-004
                  128.00    345.54414                               29.44423             82.578                                        3.45544e+002           4.55441e+001           5.54414e+000           5.44138e-001           4.41380e-002           4.13801e-003           1.38007e-004
