~VERSION INFORMATION
VERS                    .            2.0                                    :CWLS LOG ASCII STANDARD
WRAP                    .            NO                                     :ONE LINE PER TIME STEP


~WELL INFORMATION
#MNEM                   .UNIT        DATA                                    DESCRIPTION
#________________________________________________________________________________________
STRTTIME                .HH/MM/SS    19:20:48                               :START TIME
STOPTIME                .HH/MM/SS    19:23:33                               :STOP TIME
STRT                    .s           2.10                                   :START DATA
STOP                    .s           164.00                                 :STOP DATA
STEP                    .s           0.10                                   :MEASUREMENT TIME INTERVAL
NULL                    .            -999.25                                :NULL VALUE
COMP                    .            Statoil ASA                            :COMPANY
FLD                     .            Volve                                  :FIELD
WELL                    .            15/9-F-11 A                            :WELL
RUN                     .            8                                      :RUN
LOC                     .            Maersk Inspirer                        :LOCATION
PROV                    .            na                                     :PROVINCE
SRVC                    .            Baker Hughes INTEQ                     :SERVICE COMPANY
DATE                    .YY/MM/DD    13/05/23                               :LOG DATE
UWI                     .                                                   :UNIQUE WELL ID
DEPTHMD                 .m           3617.0                                 :MEASURED DEPTH
DEPTHTVD                .m           3015.4                                 :TRUE VERTICAL DEPTH


~CURVE INFORMATION
#MNEM                   .UNIT        API CODES                               DESCRIPTION
#________________________________________________________________________________________
TIME                    .s                                                  :01 TIME
DD_PRESS                .bar                                                :02 DRAW DOWN PRESSURE
DD_VOLUME               .cm3                                                :03 INCREMENTAL DRAW DOWN VOLUME
TEMP                    .degC                                               :04 TRANSDUCER TEMPERATURE
DD_PRESS_MOD_1000       .bar                                                :05 DRAW DOWN PRESSURE MOD 1000
DD_PRESS_MOD_100        .bar                                                :06 DRAW DOWN PRESSURE MOD 100
DD_PRESS_MOD_10         .bar                                                :07 DRAW DOWN PRESSURE MOD 10
DD_PRESS_MOD_1          .bar                                                :08 DRAW DOWN PRESSURE MOD 1
DD_PRESS_MOD_01         .bar                                                :09 DRAW DOWN PRESSURE MOD 01
DD_PRESS_MOD_001        .bar                                                :10 DRAW DOWN PRESSURE MOD 001
DD_PRESS_MOD_0001       .bar                                                :11 DRAW DOWN PRESSURE MOD 0001


~PARAMETER INFORMATION
#MNEM                   .UNIT        VALUE                                   DESCRIPTION
#________________________________________________________________________________________
TOOLFACE                .deg         -39.9                                  :01 TOOLFACE
PUMP_CAPACITY           .bar         400                                    :02 NOMINAL DRAW DOWN PUMP CAPACITY
PUMP_LIMIT              .bar         240                                    :03 DOWNLINK PUMP LIMIT
TIME_LIMIT              .min         10                                     :04 DOWNLINK MAX TIME
TEST_TYPE               .            REPEAT                                 :05 DOWNLINK
TEST_TYPE               .            HIGH MOBILITY                          :06 DOWNLINK
DD_PIST_A               .cm2         3.1416                                 :07 DRAW DOWN PISTON AREA
V_SYS                   .cm3         131.0000                               :08 SYSTEM VOLUME
PROBE_ID                .cm          1.2700                                 :09 TTK PROBE ID
G0                      .            4.6700                                 :10 GEOMETRY FACTOR


~A                  TIME     DD_PRESS                              DD_VOLUME               TEMP                                   DD_PRESS_MOD_1000       DD_PRESS_MOD_100        DD_PRESS_MOD_10         DD_PRESS_MOD_1        DD_PRESS_MOD_01       DD_PRESS_MOD_001      DD_PRESS_MOD_0001
# ...
                   13.30    419.01811                                0.00000             72.195                                        4.19018e+002           1.90181e+001           9.01811e+000           1.81139e-002           1.81139e-002           8.11390e-003           1.13897e-004
                   13.40    418.99823                                0.00000             72.195                                        4.18998e+002           1.89982e+001           8.99823e+000           9.98229e-001           9.82289e-002           8.22891e-003           2.28908e-004
                   13.50    419.02170                                0.00000             72.195                                        4.19022e+002           1.90217e+001           9.02170e+000           2.16999e-002           2.16999e-002           1.69992e-003           6.99923e-004
                   13.60    419.05476                                0.00000             72.195                                        4.19055e+002           1.90548e+001           9.05476e+000           5.47592e-002           5.47592e-002           4.75920e-003           7.59197e-004
                   13.70    419.04380                                0.00000             72.195                                        4.19044e+002           1.90438e+001           9.04380e+000           4.37952e-002           4.37952e-002           3.79524e-003           7.95238e-004
                   13.80    419.02070                                0.00000             72.195                                        4.19021e+002           1.90207e+001           9.02070e+000           2.07007e-002           2.07007e-002           7.00732e-004           7.00732e-004
                   13.90    419.05812                                0.00000             72.195                                        4.19058e+002           1.90581e+001           9.05812e+000           5.81156e-002           5.81156e-002           8.11556e-003           1.15560e-004
                   14.00    419.08874                                0.00000             72.195                                        4.19089e+002           1.90887e+001           9.08874e+000           8.87432e-002           8.87432e-002           8.74322e-003           7.43218e-004
                   14.10    419.07452                                0.00000             72.195                                        4.19075e+002           1.90745e+001           9.07452e+000           7.45174e-002           7.45174e-002           4.51736e-003           5.17358e-004
                   14.20    419.06342                                0.00000             72.195                                        4.19063e+002           1.90634e+001           9.06342e+000           6.34228e-002           6.34228e-002           3.42275e-003           4.22751e-004
                   14.30    419.12029                                0.00000             72.195                                        4.19120e+002           1.91203e+001           9.12029e+000           1.20294e-001           2.02936e-002           2.93614e-004           2.93614e-004
                   14.40    419.15191                                0.00000             72.195                                        4.19152e+002           1.91519e+001           9.15191e+000           1.51907e-001           5.19070e-002           1.90702e-003           9.07021e-004
                   14.50    419.12785                                0.00000             72.195                                        4.19128e+002           1.91278e+001           9.12785e+000           1.27848e-001           2.78476e-002           7.84762e-003           8.47617e-004
                   14.60    419.11030                                0.00000             72.195                                        4.19110e+002           1.91103e+001           9.11030e+000           1.10305e-001           1.03048e-002           3.04769e-004           3.04769e-004
                   14.70    419.15663                                0.00000             72.195                                        4.19157e+002           1.91566e+001           9.15663e+000           1.56629e-001           5.66288e-002           6.62879e-003           6.28788e-004
                   14.80    419.16728                                0.00000             72.195                                        4.19167e+002           1.91673e+001           9.16728e+000           1.67278e-001           6.72779e-002           7.27787e-003           2.77865e-004
                   14.90    419.13830                                0.00000             72.195                                        4.19138e+002           1.91383e+001           9.13830e+000           1.38304e-001           3.83043e-002           8.30427e-003           3.04269e-004
                   15.00    419.13118                                0.00000             72.195                                        4.19131e+002           1.91312e+001           9.13118e+000           1.31179e-001           3.11791e-002           1.17906e-003           1.79064e-004
                   15.10    419.15888                                0.00000             72.195                                        4.19159e+002           1.91589e+001           9.15888e+000           1.58880e-001           5.88805e-002           8.88048e-003           8.80483e-004
                   15.20    419.15780                                0.00000             72.195                                        4.19158e+002           1.91578e+001           9.15780e+000           1.57797e-001           5.77969e-002           7.79692e-003           7.96918e-004
                   15.30    419.14251                                0.00000             72.195                                        4.19143e+002           1.91425e+001           9.14251e+000           1.42507e-001           4.25073e-002           2.50733e-003           5.07332e-004
                   15.40    419.14706                                0.00000             72.195                                        4.19147e+002           1.91471e+001           9.14706e+000           1.47060e-001           4.70597e-002           7.05972e-003           5.97200e-005
                   15.50    419.17067                                0.00000             72.195                                        4.19171e+002           1.91707e+001           9.17067e+000           1.70665e-001           7.06654e-002           6.65378e-004           6.65378e-004
                   15.60    419.17946                                0.00000             72.195                                        4.19179e+002           1.91795e+001           9.17946e+000           1.79465e-001           7.94649e-002           9.46494e-003           4.64942e-004
                   15.70    419.17629                                0.00000             72.195                                        4.19176e+002           1.91763e+001           9.17629e+000           1.76291e-001           7.62911e-002           6.29108e-003           2.91076e-004
                   15.80    419.19691                                0.00000             72.193                                        4.19197e+002           1.91969e+001           9.19691e+000           1.96907e-001           9.69068e-002           6.90677e-003           9.06772e-004
                   15.90    419.22397                                0.00000             72.192                                        4.19224e+002           1.92240e+001           9.22397e+000           2.23969e-001           2.39693e-002           3.96932e-003           9.69322e-004
                   16.00    419.21943                                0.00000             72.191                                        4.19219e+002           1.92194e+001           9.21943e+000           2.19432e-001           1.94321e-002           9.43209e-003           4.32087e-004
