~VERSION INFORMATION
VERS                    .            2.0                                    :CWLS LOG ASCII STANDARD
WRAP                    .            NO                                     :ONE LINE PER TIME STEP


~WELL INFORMATION
#MNEM                   .UNIT        DATA                                    DESCRIPTION
#________________________________________________________________________________________
STRTTIME                .HH/MM/SS    09:43:23                               :START TIME
STOPTIME                .HH/MM/SS    09:46:50                               :STOP TIME
STRT                    .s           2.10                                   :START DATA
STOP                    .s           205.20                                 :STOP DATA
STEP                    .s           0.10                                   :MEASUREMENT TIME INTERVAL
NULL                    .            -999.25                                :NULL VALUE
COMP                    .            Statoil ASA                            :COMPANY
FLD                     .            Volve                                  :FIELD
WELL                    .            15/9-F-11 A                            :WELL
RUN                     .            8                                      :RUN
LOC                     .            Maersk Inspirer                        :LOCATION
PROV                    .            na                                     :PROVINCE
SRVC                    .            Baker Hughes INTEQ                     :SERVICE COMPANY
DATE                    .YY/MM/DD    13/05/21                               :LOG DATE
UWI                     .                                                   :UNIQUE WELL ID
DEPTHMD                 .m           3665.9                                 :MEASURED DEPTH
DEPTHTVD                .m           3052.8                                 :TRUE VERTICAL DEPTH


~CURVE INFORMATION
#MNEM                   .UNIT        API CODES                               DESCRIPTION
#________________________________________________________________________________________
TIME                    .s                                                  :01 TIME
DD_PRESS                .bar                                                :02 DRAW DOWN PRESSURE
DD_VOLUME               .cm3                                                :03 INCREMENTAL DRAW DOWN VOLUME
TEMP                    .degC                                               :04 TRANSDUCER TEMPERATURE
DD_PRESS_MOD_1000       .bar                                                :05 DRAW DOWN PRESSURE MOD 1000
DD_PRESS_MOD_100        .bar                                                :06 DRAW DOWN PRESSURE MOD 100
DD_PRESS_MOD_10         .bar                                                :07 DRAW DOWN PRESSURE MOD 10
DD_PRESS_MOD_1          .bar                                                :08 DRAW DOWN PRESSURE MOD 1
DD_PRESS_MOD_01         .bar                                                :09 DRAW DOWN PRESSURE MOD 01
DD_PRESS_MOD_001        .bar                                                :10 DRAW DOWN PRESSURE MOD 001
DD_PRESS_MOD_0001       .bar                                                :11 DRAW DOWN PRESSURE MOD 0001


~PARAMETER INFORMATION
#MNEM                   .UNIT        VALUE                                   DESCRIPTION
#________________________________________________________________________________________
TOOLFACE                .deg         60.0                                   :01 TOOLFACE
PUMP_CAPACITY           .bar         400                                    :02 NOMINAL DRAW DOWN PUMP CAPACITY
PUMP_LIMIT              .bar         240                                    :03 DOWNLINK PUMP LIMIT
TIME_LIMIT              .min         10                                     :04 DOWNLINK MAX TIME
TEST_TYPE               .            REPEAT                                 :05 DOWNLINK
TEST_TYPE               .            HIGH MOBILITY                          :06 DOWNLINK
DD_PIST_A               .cm2         3.1416                                 :07 DRAW DOWN PISTON AREA
V_SYS                   .cm3         131.0000                               :08 SYSTEM VOLUME
PROBE_ID                .cm          1.2700                                 :09 TTK PROBE ID
G0                      .            4.6700                                 :10 GEOMETRY FACTOR


~A                  TIME     DD_PRESS                              DD_VOLUME               TEMP                                   DD_PRESS_MOD_1000       DD_PRESS_MOD_100        DD_PRESS_MOD_10         DD_PRESS_MOD_1        DD_PRESS_MOD_01       DD_PRESS_MOD_001      DD_PRESS_MOD_0001
# ...
                  189.70    421.67695                                0.00000             83.133                                        4.21677e+002           2.16769e+001           1.67695e+000           6.76945e-001           7.69454e-002           6.94542e-003           9.45424e-004
                  189.80    421.70435                                0.00000             83.133                                        4.21704e+002           2.17044e+001           1.70435e+000           7.04351e-001           4.35106e-003           4.35106e-003           3.51060e-004
                  189.90    421.71269                                0.00000             83.133                                        4.21713e+002           2.17127e+001           1.71269e+000           7.12689e-001           1.26889e-002           2.68892e-003           6.88915e-004
                  190.00    421.70661                                0.00000             83.133                                        4.21707e+002           2.17066e+001           1.70661e+000           7.06608e-001           6.60771e-003           6.60771e-003           6.07711e-004
                  190.10    421.71175                                0.00000             83.133                                        4.21712e+002           2.17117e+001           1.71175e+000           7.11746e-001           1.17460e-002           1.74605e-003           7.46049e-004
                  190.20    421.73449                                0.00000             83.133                                        4.21734e+002           2.17345e+001           1.73449e+000           7.34490e-001           3.44896e-002           4.48959e-003           4.89590e-004
                  190.30    421.77319                                0.00000             83.133                                        4.21773e+002           2.17732e+001           1.77319e+000           7.73191e-001           7.31906e-002           3.19064e-003           1.90645e-004
                  190.40    421.79492                                0.00000             83.133                                        4.21795e+002           2.17949e+001           1.79492e+000           7.94915e-001           9.49154e-002           4.91537e-003           9.15370e-004
                  190.50    421.81326                                0.00000             83.133                                        4.21813e+002           2.18133e+001           1.81326e+000           8.13256e-001           1.32557e-002           3.25567e-003           2.55673e-004
                  190.60    421.82107                                0.00000             83.133                                        4.21821e+002           2.18211e+001           1.82107e+000           8.21069e-001           2.10693e-002           1.06929e-003           6.92902e-005
                  190.70    421.82400                                0.00000             83.133                                        4.21824e+002           2.18240e+001           1.82400e+000           8.24003e-001           2.40035e-002           4.00350e-003           3.49580e-006
                  190.80    421.83102                                0.00000             83.133                                        4.21831e+002           2.18310e+001           1.83102e+000           8.31019e-001           3.10187e-002           1.01874e-003           1.87375e-005
                  190.90    421.84033                                0.00000             83.133                                        4.21840e+002           2.18403e+001           1.84033e+000           8.40334e-001           4.03336e-002           3.33648e-004           3.33648e-004
                  191.00    421.83552                                0.00000             83.135                                        4.21836e+002           2.18355e+001           1.83552e+000           8.35518e-001           3.55181e-002           5.51805e-003           5.18054e-004
                  191.10    421.83084                                0.00000             83.139                                        4.21831e+002           2.18308e+001           1.83084e+000           8.30835e-001           3.08352e-002           8.35234e-004           8.35234e-004
                  191.20    421.82882                                0.00000             83.141                                        4.21829e+002           2.18288e+001           1.82882e+000           8.28819e-001           2.88193e-002           8.81934e-003           8.19336e-004
                  191.30    421.81743                                0.00000             83.141                                        4.21817e+002           2.18174e+001           1.81743e+000           8.17426e-001           1.74256e-002           7.42565e-003           4.25646e-004
                  191.40    421.81522                                0.00000             83.141                                        4.21815e+002           2.18152e+001           1.81522e+000           8.15220e-001           1.52196e-002           5.21958e-003           2.19576e-004
                  191.50    421.82759                                0.00000             83.141                                        4.21828e+002           2.18276e+001           1.82759e+000           8.27589e-001           2.75885e-002           7.58855e-003           5.88546e-004
                  191.60    421.83165                                0.00000             83.141                                        4.21832e+002           2.18316e+001           1.83165e+000           8.31650e-001           3.16498e-002           1.64982e-003           6.49820e-004
                  191.70    421.81569                                0.00000             83.141                                        4.21816e+002           2.18157e+001           1.81569e+000           8.15687e-001           1.56865e-002           5.68654e-003           6.86542e-004
                  191.80    421.80135                                0.00000             83.141                                        4.21801e+002           2.18013e+001           1.80135e+000           8.01348e-001           1.34819e-003           1.34819e-003           3.48191e-004
                  191.90    421.79499                                0.00000             83.141                                        4.21795e+002           2.17950e+001           1.79499e+000           7.94992e-001           9.49924e-002           4.99241e-003           9.92415e-004
                  192.00    421.79369                                0.00000             83.141                                        4.21794e+002           2.17937e+001           1.79369e+000           7.93688e-001           9.36877e-002           3.68771e-003           6.87708e-004
                  192.10    421.77633                                0.00000             83.141                                        4.21776e+002           2.17763e+001           1.77633e+000           7.76328e-001           7.63279e-002           6.32786e-003           3.27857e-004
                  192.20    421.76731                                0.00000             83.141                                        4.21767e+002           2.17673e+001           1.76731e+000           7.67307e-001           6.73072e-002           7.30723e-003           3.07229e-004
                  192.30    421.77184                                0.00000             83.141                                        4.21772e+002           2.17718e+001           1.77184e+000           7.71839e-001           7.18388e-002           1.83879e-003           8.38792e-004
                  192.40    421.76614                                0.00000             83.141                                        4.21766e+002           2.17661e+001           1.76614e+000           7.66138e-001           6.61382e-002           6.13822e-003           1.38220e-004
