~VERSION INFORMATION
VERS                    .            2.0                                    :CWLS LOG ASCII STANDARD
WRAP                    .            NO                                     :ONE LINE PER TIME STEP


~WELL INFORMATION
#MNEM                   .UNIT        DATA                                    DESCRIPTION
#________________________________________________________________________________________
STRTTIME                .HH/MM/SS    04:27:44                               :START TIME
STOPTIME                .HH/MM/SS    04:30:31                               :STOP TIME
STRT                    .s           2.10                                   :START DATA
STOP                    .s           165.30                                 :STOP DATA
STEP                    .s           0.10                                   :MEASUREMENT TIME INTERVAL
NULL                    .            -999.25                                :NULL VALUE
COMP                    .            Statoil ASA                            :COMPANY
FLD                     .            Volve                                  :FIELD
WELL                    .            15/9-F-1 C                             :WELL
RUN                     .            4                                      :RUN
LOC                     .                                                   :LOCATION
PROV                    .            na                                     :PROVINCE
SRVC                    .            Baker Hughes INTEQ                     :SERVICE COMPANY
DATE                    .YY/MM/DD    14/03/15                               :LOG DATE
UWI                     .                                                   :UNIQUE WELL ID
DEPTHMD                 .m           3273.1                                 :MEASURED DEPTH
DEPTHTVD                .m           2948.3                                 :TRUE VERTICAL DEPTH


~CURVE INFORMATION
#MNEM                   .UNIT        API CODES                               DESCRIPTION
#________________________________________________________________________________________
TIME                    .s                                                  :01 TIME
DD_PRESS                .bar                                                :02 DRAW DOWN PRESSURE
DD_VOLUME               .cm3                                                :03 INCREMENTAL DRAW DOWN VOLUME
TEMP                    .degC                                               :04 TRANSDUCER TEMPERATURE
DD_PRESS_MOD_1000       .bar                                                :05 DRAW DOWN PRESSURE MOD 1000
DD_PRESS_MOD_100        .bar                                                :06 DRAW DOWN PRESSURE MOD 100
DD_PRESS_MOD_10         .bar                                                :07 DRAW DOWN PRESSURE MOD 10
DD_PRESS_MOD_1          .bar                                                :08 DRAW DOWN PRESSURE MOD 1
DD_PRESS_MOD_01         .bar                                                :09 DRAW DOWN PRESSURE MOD 01
DD_PRESS_MOD_001        .bar                                                :10 DRAW DOWN PRESSURE MOD 001
DD_PRESS_MOD_0001       .bar                                                :11 DRAW DOWN PRESSURE MOD 0001


~PARAMETER INFORMATION
#MNEM                   .UNIT        VALUE                                   DESCRIPTION
#________________________________________________________________________________________
TOOLFACE                .deg         76.8                                   :01 TOOLFACE
PUMP_CAPACITY           .bar         400                                    :02 NOMINAL DRAW DOWN PUMP CAPACITY
PUMP_LIMIT              .bar         240                                    :03 DOWNLINK PUMP LIMIT
TIME_LIMIT              .min         10                                     :04 DOWNLINK MAX TIME
TEST_TYPE               .            REPEAT                                 :05 DOWNLINK
TEST_TYPE               .            HIGH MOBILITY                          :06 DOWNLINK
DD_PIST_A               .cm2         3.1416                                 :07 DRAW DOWN PISTON AREA
V_SYS                   .cm3         131.0000                               :08 SYSTEM VOLUME
PROBE_ID                .cm          1.2700                                 :09 TTK PROBE ID
G0                      .            4.6700                                 :10 GEOMETRY FACTOR


~A                  TIME     DD_PRESS                              DD_VOLUME               TEMP                                   DD_PRESS_MOD_1000       DD_PRESS_MOD_100        DD_PRESS_MOD_10         DD_PRESS_MOD_1        DD_PRESS_MOD_01       DD_PRESS_MOD_001      DD_PRESS_MOD_0001
# ...
                  150.50    415.77212                                0.00000             84.898                                        4.15772e+002           1.57721e+001           5.77212e+000           7.72120e-001           7.21202e-002           2.12018e-003           1.20184e-004
                  150.60    415.75888                                0.00000             84.898                                        4.15759e+002           1.57589e+001           5.75888e+000           7.58884e-001           5.88836e-002           8.88364e-003           8.83644e-004
                  150.70    415.76162                                0.00000             84.898                                        4.15762e+002           1.57616e+001           5.76162e+000           7.61618e-001           6.16183e-002           1.61835e-003           6.18350e-004
                  150.80    415.77442                                0.00000             84.898                                        4.15774e+002           1.57744e+001           5.77442e+000           7.74423e-001           7.44227e-002           4.42272e-003           4.22716e-004
                  150.90    415.77959                                0.00000             84.898                                        4.15780e+002           1.57796e+001           5.77959e+000           7.79592e-001           7.95916e-002           9.59164e-003           5.91639e-004
                  151.00    415.76463                                0.00000             84.898                                        4.15765e+002           1.57646e+001           5.76463e+000           7.64631e-001           6.46307e-002           4.63073e-003           6.30733e-004
                  151.10    415.74673                                0.00000             84.898                                        4.15747e+002           1.57467e+001           5.74673e+000           7.46734e-001           4.67338e-002           6.73382e-003           7.33819e-004
                  151.20    415.75690                                0.00000             84.898                                        4.15757e+002           1.57569e+001           5.75690e+000           7.56901e-001           5.69006e-002           6.90059e-003           9.00592e-004
                  151.30    415.77408                                0.00000             84.898                                        4.15774e+002           1.57741e+001           5.77408e+000           7.74078e-001           7.40784e-002           4.07845e-003           7.84495e-005
                  151.40    415.76768                                0.00000             84.898                                        4.15768e+002           1.57677e+001           5.76768e+000           7.67678e-001           6.76781e-002           7.67814e-003           6.78138e-004
                  151.50    415.75526                                0.00000             84.898                                        4.15755e+002           1.57553e+001           5.75526e+000           7.55257e-001           5.52569e-002           5.25685e-003           2.56852e-004
                  151.60    415.76033                                0.00000             84.898                                        4.15760e+002           1.57603e+001           5.76033e+000           7.60330e-001           6.03296e-002           3.29588e-004           3.29588e-004
                  151.70    415.77319                                0.00000             84.898                                        4.15773e+002           1.57732e+001           5.77319e+000           7.73192e-001           7.31918e-002           3.19181e-003           1.91811e-004
                  151.80    415.77404                                0.00000             84.898                                        4.15774e+002           1.57740e+001           5.77404e+000           7.74043e-001           7.40434e-002           4.04343e-003           4.34345e-005
                  151.90    415.76788                                0.00000             84.898                                        4.15768e+002           1.57679e+001           5.76788e+000           7.67882e-001           6.78821e-002           7.88209e-003           8.82086e-004
                  152.00    415.76425                                0.00000             84.898                                        4.15764e+002           1.57642e+001           5.76425e+000           7.64246e-001           6.42456e-002           4.24563e-003           2.45627e-004
                  152.10    415.77263                                0.00000             84.898                                        4.15773e+002           1.57726e+001           5.77263e+000           7.72634e-001           7.26344e-002           2.63441e-003           6.34410e-004
                  152.20    415.78113                                0.00000             84.898                                        4.15781e+002           1.57811e+001           5.78113e+000           7.81126e-001           8.11263e-002           1.12635e-003           1.26348e-004
                  152.30    415.78042                                0.00000             84.898                                        4.15780e+002           1.57804e+001           5.78042e+000           7.80421e-001           8.04206e-002           4.20604e-004           4.20604e-004
                  152.40    415.76397                                0.00000             84.898                                        4.15764e+002           1.57640e+001           5.76397e+000           7.63974e-001           6.39740e-002           3.97401e-003           9.74014e-004
                  152.50    415.76220                                0.00000             84.898                                        4.15762e+002           1.57622e+001           5.76220e+000           7.62204e-001           6.22035e-002           2.20353e-003           2.03532e-004
                  152.60    415.77358                                0.00000             84.898                                        4.15774e+002           1.57736e+001           5.77358e+000           7.73582e-001           7.35824e-002           3.58236e-003           5.82360e-004
                  152.70    415.77777                                0.00000             84.898                                        4.15778e+002           1.57778e+001           5.77777e+000           7.77774e-001           7.77744e-002           7.77437e-003           7.74370e-004
                  152.80    415.76744                                0.00000             84.898                                        4.15767e+002           1.57674e+001           5.76744e+000           7.67438e-001           6.74381e-002           7.43809e-003           4.38089e-004
                  152.90    415.75884                                0.00000             84.898                                        4.15759e+002           1.57588e+001           5.75884e+000           7.58841e-001           5.88406e-002           8.84058e-003           8.40585e-004
                  153.00    415.76902                                0.00000             84.898                                        4.15769e+002           1.57690e+001           5.76902e+000           7.69024e-001           6.90238e-002           9.02379e-003           2.37858e-005
                  153.10    415.78594                                0.00000             84.896                                        4.15786e+002           1.57859e+001           5.78594e+000           7.85944e-001           8.59438e-002           5.94382e-003           9.43823e-004
                  153.20    415.78772                                0.00000             84.893                                        4.15788e+002           1.57877e+001           5.78772e+000           7.87715e-001           8.77153e-002           7.71532e-003           7.15324e-004
