~VERSION INFORMATION
VERS                    .            2.0                                    :CWLS LOG ASCII STANDARD
WRAP                    .            NO                                     :ONE LINE PER TIME STEP


~WELL INFORMATION
#MNEM                   .UNIT        DATA                                    DESCRIPTION
#________________________________________________________________________________________
STRTTIME                .HH/MM/SS    01:44:52                               :START TIME
STOPTIME                .HH/MM/SS    01:47:47                               :STOP TIME
STRT                    .s           2.10                                   :START DATA
STOP                    .s           173.40                                 :STOP DATA
STEP                    .s           0.10                                   :MEASUREMENT TIME INTERVAL
NULL                    .            -999.25                                :NULL VALUE
COMP                    .            Statoil ASA                            :COMPANY
FLD                     .            Volve                                  :FIELD
WELL                    .            15/9-F-1 C                             :WELL
RUN                     .            4                                      :RUN
LOC                     .                                                   :LOCATION
PROV                    .            na                                     :PROVINCE
SRVC                    .            Baker Hughes INTEQ                     :SERVICE COMPANY
DATE                    .YY/MM/DD    14/03/15                               :LOG DATE
UWI                     .                                                   :UNIQUE WELL ID
DEPTHMD                 .m           3620.2                                 :MEASURED DEPTH
DEPTHTVD                .m           3012.3                                 :TRUE VERTICAL DEPTH


~CURVE INFORMATION
#MNEM                   .UNIT        API CODES                               DESCRIPTION
#________________________________________________________________________________________
TIME                    .s                                                  :01 TIME
DD_PRESS                .bar                                                :02 DRAW DOWN PRESSURE
DD_VOLUME               .cm3                                                :03 INCREMENTAL DRAW DOWN VOLUME
TEMP                    .degC                                               :04 TRANSDUCER TEMPERATURE
DD_PRESS_MOD_1000       .bar                                                :05 DRAW DOWN PRESSURE MOD 1000
DD_PRESS_MOD_100        .bar                                                :06 DRAW DOWN PRESSURE MOD 100
DD_PRESS_MOD_10         .bar                                                :07 DRAW DOWN PRESSURE MOD 10
DD_PRESS_MOD_1          .bar                                                :08 DRAW DOWN PRESSURE MOD 1
DD_PRESS_MOD_01         .bar                                                :09 DRAW DOWN PRESSURE MOD 01
DD_PRESS_MOD_001        .bar                                                :10 DRAW DOWN PRESSURE MOD 001
DD_PRESS_MOD_0001       .bar                                                :11 DRAW DOWN PRESSURE MOD 0001


~PARAMETER INFORMATION
#MNEM                   .UNIT        VALUE                                   DESCRIPTION
#________________________________________________________________________________________
TOOLFACE                .deg         108.7                                  :01 TOOLFACE
PUMP_CAPACITY           .bar         400                                    :02 NOMINAL DRAW DOWN PUMP CAPACITY
PUMP_LIMIT              .bar         240                                    :03 DOWNLINK PUMP LIMIT
TIME_LIMIT              .min         10                                     :04 DOWNLINK MAX TIME
TEST_TYPE               .            REPEAT                                 :05 DOWNLINK
TEST_TYPE               .            HIGH MOBILITY                          :06 DOWNLINK
DD_PIST_A               .cm2         3.1416                                 :07 DRAW DOWN PISTON AREA
V_SYS                   .cm3         131.0000                               :08 SYSTEM VOLUME
PROBE_ID                .cm          1.2700                                 :09 TTK PROBE ID
G0                      .            4.6700                                 :10 GEOMETRY FACTOR


~A                  TIME     DD_PRESS                              DD_VOLUME               TEMP                                   DD_PRESS_MOD_1000       DD_PRESS_MOD_100        DD_PRESS_MOD_10         DD_PRESS_MOD_1        DD_PRESS_MOD_01       DD_PRESS_MOD_001      DD_PRESS_MOD_0001
# ...
                  170.10    429.11429                                0.00000             87.084                                        4.29114e+002           2.91143e+001           9.11429e+000           1.14293e-001           1.42934e-002           4.29339e-003           2.93393e-004
                  170.20    429.09901                                0.00000             87.082                                        4.29099e+002           2.90990e+001           9.09901e+000           9.90115e-002           9.90115e-002           9.01146e-003           1.14599e-005
                  170.30    429.10321                                0.00000             87.082                                        4.29103e+002           2.91032e+001           9.10321e+000           1.03207e-001           3.20704e-003           3.20704e-003           2.07035e-004
                  170.40    429.11200                                0.00000             87.080                                        4.29112e+002           2.91120e+001           9.11200e+000           1.12000e-001           1.19995e-002           1.99952e-003           9.99523e-004
                  170.50    429.11120                                0.00000             87.078                                        4.29111e+002           2.91112e+001           9.11120e+000           1.11201e-001           1.12008e-002           1.20080e-003           2.00798e-004
                  170.60    429.10542                                0.00000             87.078                                        4.29105e+002           2.91054e+001           9.10542e+000           1.05422e-001           5.42232e-003           5.42232e-003           4.22322e-004
                  170.70    429.09915                                0.00000             87.078                                        4.29099e+002           2.90991e+001           9.09915e+000           9.91451e-002           9.91451e-002           9.14515e-003           1.45146e-004
                  170.80    429.10108                                0.00000             87.078                                        4.29101e+002           2.91011e+001           9.10108e+000           1.01075e-001           1.07538e-003           1.07538e-003           7.53804e-005
                  170.90    429.10506                                0.00000             87.078                                        4.29105e+002           2.91051e+001           9.10506e+000           1.05056e-001           5.05567e-003           5.05567e-003           5.56651e-005
                  171.00    429.09659                                0.00000             87.078                                        4.29097e+002           2.90966e+001           9.09659e+000           9.65917e-002           9.65917e-002           6.59168e-003           5.91681e-004
                  171.10    429.09991                                0.00000             87.078                                        4.29100e+002           2.90999e+001           9.09991e+000           9.99138e-002           9.99138e-002           9.91384e-003           9.13838e-004
                  171.20    429.11833                                0.00000             87.078                                        4.29118e+002           2.91183e+001           9.11833e+000           1.18333e-001           1.83333e-002           8.33331e-003           3.33312e-004
                  171.30    429.11857                                0.00000             87.078                                        4.29119e+002           2.91186e+001           9.11857e+000           1.18570e-001           1.85695e-002           8.56950e-003           5.69500e-004
                  171.40    429.09940                                0.00000             87.078                                        4.29099e+002           2.90994e+001           9.09940e+000           9.93956e-002           9.93956e-002           9.39558e-003           3.95582e-004
                  171.50    429.09297                                0.00000             87.078                                        4.29093e+002           2.90930e+001           9.09297e+000           9.29704e-002           9.29704e-002           2.97040e-003           9.70401e-004
                  171.60    429.10430                                0.00000             87.078                                        4.29104e+002           2.91043e+001           9.10430e+000           1.04303e-001           4.30263e-003           4.30263e-003           3.02630e-004
                  171.70    429.11419                                0.00000             87.078                                        4.29114e+002           2.91142e+001           9.11419e+000           1.14189e-001           1.41893e-002           4.18934e-003           1.89339e-004
                  171.80    429.11677                                0.00000             87.078                                        4.29117e+002           2.91168e+001           9.11677e+000           1.16767e-001           1.67673e-002           6.76729e-003           7.67289e-004
                  171.90    429.11204                                0.00000             87.078                                        4.29112e+002           2.91120e+001           9.11204e+000           1.12042e-001           1.20422e-002           2.04224e-003           4.22394e-005
                  172.00    429.10517                                0.00000             87.078                                        4.29105e+002           2.91052e+001           9.10517e+000           1.05168e-001           5.16837e-003           5.16837e-003           1.68369e-004
                  172.10    429.11561                                0.00000             87.078                                        4.29116e+002           2.91156e+001           9.11561e+000           1.15606e-001           1.56060e-002           5.60605e-003           6.06047e-004
                  172.20    429.12773                                0.00000             87.078                                        4.29128e+002           2.91277e+001           9.12773e+000           1.27734e-001           2.77335e-002           7.73355e-003           7.33548e-004
                  172.30    429.11494                                0.00000             87.078                                        4.29115e+002           2.91149e+001           9.11494e+000           1.14943e-001           1.49427e-002           4.94269e-003           9.42691e-004
                  172.40    429.09386                                0.00000             87.078                                        4.29094e+002           2.90939e+001           9.09386e+000           9.38648e-002           9.38648e-002           3.86476e-003           8.64765e-004
                  172.50    429.10140                                0.00000             87.078                                        4.29101e+002           2.91014e+001           9.10140e+000           1.01402e-001           1.40166e-003           1.40166e-003           4.01659e-004
                  172.60    429.12535                                0.00000             87.078                                        4.29125e+002           2.91253e+001           9.12535e+000           1.25348e-001           2.53484e-002           5.34837e-003           3.48373e-004
                  172.70    429.12732                                0.00000             87.078                                        4.29127e+002           2.91273e+001           9.12732e+000           1.27317e-001           2.73173e-002           7.31729e-003           3.17289e-004
                  172.80    429.10478                                0.00000             87.078                                        4.29105e+002           2.91048e+001           9.10478e+000           1.04785e-001           4.78468e-003           4.78468e-003           7.84675e-004
