~VERSION INFORMATION
VERS                    .            2.0                                    :CWLS LOG ASCII STANDARD
WRAP                    .            NO                                     :ONE LINE PER TIME STEP


~WELL INFORMATION
#MNEM                   .UNIT        DATA                                    DESCRIPTION
#________________________________________________________________________________________
STRTTIME                .HH/MM/SS    19:20:48                               :START TIME
STOPTIME                .HH/MM/SS    19:23:33                               :STOP TIME
STRT                    .s           2.10                                   :START DATA
STOP                    .s           164.00                                 :STOP DATA
STEP                    .s           0.10                                   :MEASUREMENT TIME INTERVAL
NULL                    .            -999.25                                :NULL VALUE
COMP                    .            Statoil ASA                            :COMPANY
FLD                     .            Volve                                  :FIELD
WELL                    .            15/9-F-11 A                            :WELL
RUN                     .            8                                      :RUN
LOC                     .            Maersk Inspirer                        :LOCATION
PROV                    .            na                                     :PROVINCE
SRVC                    .            Baker Hughes INTEQ                     :SERVICE COMPANY
DATE                    .YY/MM/DD    13/05/23                               :LOG DATE
UWI                     .                                                   :UNIQUE WELL ID
DEPTHMD                 .m           3617.0                                 :MEASURED DEPTH
DEPTHTVD                .m           3015.4                                 :TRUE VERTICAL DEPTH


~CURVE INFORMATION
#MNEM                   .UNIT        API CODES                               DESCRIPTION
#________________________________________________________________________________________
TIME                    .s                                                  :01 TIME
DD_PRESS                .bar                                                :02 DRAW DOWN PRESSURE
DD_VOLUME               .cm3                                                :03 INCREMENTAL DRAW DOWN VOLUME
TEMP                    .degC                                               :04 TRANSDUCER TEMPERATURE
DD_PRESS_MOD_1000       .bar                                                :05 DRAW DOWN PRESSURE MOD 1000
DD_PRESS_MOD_100        .bar                                                :06 DRAW DOWN PRESSURE MOD 100
DD_PRESS_MOD_10         .bar                                                :07 DRAW DOWN PRESSURE MOD 10
DD_PRESS_MOD_1          .bar                                                :08 DRAW DOWN PRESSURE MOD 1
DD_PRESS_MOD_01         .bar                                                :09 DRAW DOWN PRESSURE MOD 01
DD_PRESS_MOD_001        .bar                                                :10 DRAW DOWN PRESSURE MOD 001
DD_PRESS_MOD_0001       .bar                                                :11 DRAW DOWN PRESSURE MOD 0001


~PARAMETER INFORMATION
#MNEM                   .UNIT        VALUE                                   DESCRIPTION
#________________________________________________________________________________________
TOOLFACE                .deg         -39.9                                  :01 TOOLFACE
PUMP_CAPACITY           .bar         400                                    :02 NOMINAL DRAW DOWN PUMP CAPACITY
PUMP_LIMIT              .bar         240                                    :03 DOWNLINK PUMP LIMIT
TIME_LIMIT              .min         10                                     :04 DOWNLINK MAX TIME
TEST_TYPE               .            REPEAT                                 :05 DOWNLINK
TEST_TYPE               .            HIGH MOBILITY                          :06 DOWNLINK
DD_PIST_A               .cm2         3.1416                                 :07 DRAW DOWN PISTON AREA
V_SYS                   .cm3         131.0000                               :08 SYSTEM VOLUME
PROBE_ID                .cm          1.2700                                 :09 TTK PROBE ID
G0                      .            4.6700                                 :10 GEOMETRY FACTOR


~A                  TIME     DD_PRESS                              DD_VOLUME               TEMP                                   DD_PRESS_MOD_1000       DD_PRESS_MOD_100        DD_PRESS_MOD_10         DD_PRESS_MOD_1        DD_PRESS_MOD_01       DD_PRESS_MOD_001      DD_PRESS_MOD_0001
# ...
                  161.70    419.29781                                0.00000             72.070                                        4.19298e+002           1.92978e+001           9.29781e+000           2.97809e-001           9.78094e-002           7.80935e-003           8.09354e-004
                  161.80    419.29923                                0.00000             72.070                                        4.19299e+002           1.92992e+001           9.29923e+000           2.99234e-001           9.92336e-002           9.23359e-003           2.33593e-004
                  161.90    419.35016                                0.00000             72.070                                        4.19350e+002           1.93502e+001           9.35016e+000           3.50162e-001           5.01621e-002           1.62113e-004           1.62113e-004
                  162.00    419.35250                                0.00000             72.070                                        4.19353e+002           1.93525e+001           9.35250e+000           3.52501e-001           5.25010e-002           2.50096e-003           5.00964e-004
                  162.10    419.31722                                0.00000             72.070                                        4.19317e+002           1.93172e+001           9.31722e+000           3.17217e-001           1.72173e-002           7.21729e-003           2.17290e-004
                  162.20    419.30496                                0.00000             72.070                                        4.19305e+002           1.93050e+001           9.30496e+000           3.04962e-001           4.96157e-003           4.96157e-003           9.61568e-004
                  162.30    419.31781                                0.00000             72.070                                        4.19318e+002           1.93178e+001           9.31781e+000           3.17807e-001           1.78067e-002           7.80667e-003           8.06670e-004
                  162.40    419.29857                                0.00000             72.070                                        4.19299e+002           1.92986e+001           9.29857e+000           2.98568e-001           9.85675e-002           8.56751e-003           5.67511e-004
                  162.50    419.27665                                0.00000             72.070                                        4.19277e+002           1.92766e+001           9.27665e+000           2.76648e-001           7.66483e-002           6.64834e-003           6.48338e-004
                  162.60    419.28993                                0.00000             72.070                                        4.19290e+002           1.92899e+001           9.28993e+000           2.89931e-001           8.99313e-002           9.93126e-003           9.31265e-004
                  162.70    419.30277                                0.00000             72.070                                        4.19303e+002           1.93028e+001           9.30277e+000           3.02768e-001           2.76829e-003           2.76829e-003           7.68286e-004
                  162.80    419.28689                                0.00000             72.070                                        4.19287e+002           1.92869e+001           9.28689e+000           2.86885e-001           8.68852e-002           6.88523e-003           8.85228e-004
                  162.90    419.27449                                0.00000             72.070                                        4.19274e+002           1.92745e+001           9.27449e+000           2.74488e-001           7.44879e-002           4.48790e-003           4.87902e-004
                  163.00    419.29816                                0.00000             72.070                                        4.19298e+002           1.92982e+001           9.29816e+000           2.98157e-001           9.81565e-002           8.15653e-003           1.56533e-004
                  163.10    419.32569                                0.00000             72.070                                        4.19326e+002           1.93257e+001           9.32569e+000           3.25687e-001           2.56868e-002           5.68675e-003           6.86752e-004
                  163.20    419.32630                                0.00000             72.070                                        4.19326e+002           1.93263e+001           9.32630e+000           3.26304e-001           2.63043e-002           6.30428e-003           3.04276e-004
                  163.30    419.31974                                0.00000             72.070                                        4.19320e+002           1.93197e+001           9.31974e+000           3.19743e-001           1.97434e-002           9.74342e-003           7.43418e-004
                  163.40    419.33581                                0.00000             72.070                                        4.19336e+002           1.93358e+001           9.33581e+000           3.35814e-001           3.58144e-002           5.81440e-003           8.14404e-004
                  163.50    419.34692                                0.00000             72.070                                        4.19347e+002           1.93469e+001           9.34692e+000           3.46924e-001           4.69237e-002           6.92374e-003           9.23738e-004
                  163.60    419.33102                                0.00000             72.070                                        4.19331e+002           1.93310e+001           9.33102e+000           3.31021e-001           3.10210e-002           1.02098e-003           2.09835e-005
                  163.70    419.32545                                0.00000             72.070                                        4.19325e+002           1.93255e+001           9.32545e+000           3.25455e-001           2.54546e-002           5.45455e-003           4.54552e-004
                  163.80    419.33529                                0.00000             72.070                                        4.19335e+002           1.93353e+001           9.33529e+000           3.35293e-001           3.52931e-002           5.29306e-003           2.93063e-004
                  163.90    419.34015                                0.00000             72.070                                        4.19340e+002           1.93402e+001           9.34015e+000           3.40151e-001           4.01510e-002           1.51010e-004           1.51010e-004
                  164.00    419.32047                                0.00000             72.070                                        4.19320e+002           1.93205e+001           9.32047e+000           3.20471e-001           2.04710e-002           4.71046e-004           4.71046e-004
