~VERSION INFORMATION
VERS                    .            2.0                                    :CWLS LOG ASCII STANDARD
WRAP                    .            NO                                     :ONE LINE PER TIME STEP


~WELL INFORMATION
#MNEM                   .UNIT        DATA                                    DESCRIPTION
#________________________________________________________________________________________
STRTTIME                .HH/MM/SS    14:50:05                               :START TIME
STOPTIME                .HH/MM/SS    14:53:18                               :STOP TIME
STRT                    .s           2.10                                   :START DATA
STOP                    .s           191.60                                 :STOP DATA
STEP                    .s           0.10                                   :MEASUREMENT TIME INTERVAL
NULL                    .            -999.25                                :NULL VALUE
COMP                    .            Statoil ASA                            :COMPANY
FLD                     .            Volve                                  :FIELD
WELL                    .            15/9-F-1 B                             :WELL
RUN                     .            7                                      :RUN
LOC                     .            Maersk Inspirer                        :LOCATION
PROV                    .            na                                     :PROVINCE
SRVC                    .            Baker Hughes INTEQ                     :SERVICE COMPANY
DATE                    .YY/MM/DD    13/09/06                               :LOG DATE
UWI                     .                                                   :UNIQUE WELL ID
DEPTHMD                 .m           3280.5                                 :MEASURED DEPTH
DEPTHTVD                .m           3076.1                                 :TRUE VERTICAL DEPTH


~CURVE INFORMATION
#MNEM                   .UNIT        API CODES                               DESCRIPTION
#________________________________________________________________________________________
TIME                    .s                                                  :01 TIME
DD_PRESS                .bar                                                :02 DRAW DOWN PRESSURE
DD_VOLUME               .cm3                                                :03 INCREMENTAL DRAW DOWN VOLUME
TEMP                    .degC                                               :04 TRANSDUCER TEMPERATURE
DD_PRESS_MOD_1000       .bar                                                :05 DRAW DOWN PRESSURE MOD 1000
DD_PRESS_MOD_100        .bar                                                :06 DRAW DOWN PRESSURE MOD 100
DD_PRESS_MOD_10         .bar                                                :07 DRAW DOWN PRESSURE MOD 10
DD_PRESS_MOD_1          .bar                                                :08 DRAW DOWN PRESSURE MOD 1
DD_PRESS_MOD_01         .bar                                                :09 DRAW DOWN PRESSURE MOD 01
DD_PRESS_MOD_001        .bar                                                :10 DRAW DOWN PRESSURE MOD 001
DD_PRESS_MOD_0001       .bar                                                :11 DRAW DOWN PRESSURE MOD 0001


~PARAMETER INFORMATION
#MNEM                   .UNIT        VALUE                                   DESCRIPTION
#________________________________________________________________________________________
TOOLFACE                .deg         na                                     :01 TOOLFACE
PUMP_CAPACITY           .bar         400                                    :02 NOMINAL DRAW DOWN PUMP CAPACITY
PUMP_LIMIT              .bar         400                                    :03 DOWNLINK PUMP LIMIT
TIME_LIMIT              .min         10                                     :04 DOWNLINK MAX TIME
TEST_TYPE               .            LOW MOBILITY                           :05 DOWNLINK
DD_PIST_A               .cm2         3.1416                                 :06 DRAW DOWN PISTON AREA
V_SYS                   .cm3         131.0000                               :07 SYSTEM VOLUME
PROBE_ID                .cm          1.2700                                 :08 TTK PROBE ID
G0                      .            4.6700                                 :09 GEOMETRY FACTOR


~A                  TIME     DD_PRESS                              DD_VOLUME               TEMP                                   DD_PRESS_MOD_1000       DD_PRESS_MOD_100        DD_PRESS_MOD_10         DD_PRESS_MOD_1        DD_PRESS_MOD_01       DD_PRESS_MOD_001      DD_PRESS_MOD_0001
# ...
                   38.50    345.30743                                9.77305             82.516                                        3.45307e+002           4.53074e+001           5.30743e+000           3.07433e-001           7.43264e-003           7.43264e-003           4.32644e-004
                   38.60    345.35550                                9.84183             82.516                                        3.45356e+002           4.53555e+001           5.35550e+000           3.55502e-001           5.55021e-002           5.50214e-003           5.02142e-004
                   38.70    345.40101                                9.90923             82.516                                        3.45401e+002           4.54010e+001           5.40101e+000           4.01008e-001           1.00846e-003           1.00846e-003           8.45752e-006
                   38.80    345.44307                                9.97517             82.516                                        3.45443e+002           4.54431e+001           5.44307e+000           4.43070e-001           4.30698e-002           3.06980e-003           6.98002e-005
                   38.90    345.48839                               10.03962             82.516                                        3.45488e+002           4.54884e+001           5.48839e+000           4.88388e-001           8.83878e-002           8.38785e-003           3.87850e-004
                   39.00    345.54510                               10.10240             82.516                                        3.45545e+002           4.55451e+001           5.54510e+000           5.45097e-001           4.50969e-002           5.09693e-003           9.69277e-005
                   39.10    345.59692                               10.16365             82.516                                        3.45597e+002           4.55969e+001           5.59692e+000           5.96920e-001           9.69205e-002           6.92046e-003           9.20455e-004
                   39.20    345.64441                               10.22338             82.516                                        3.45644e+002           4.56444e+001           5.64441e+000           6.44414e-001           4.44144e-002           4.41439e-003           4.14390e-004
                   39.30    345.70083                               10.28151             82.513                                        3.45701e+002           4.57008e+001           5.70083e+000           7.00825e-001           8.25423e-004           8.25423e-004           8.25423e-004
                   39.40    345.76342                               10.33798             82.510                                        3.45763e+002           4.57634e+001           5.76342e+000           7.63420e-001           6.34203e-002           3.42026e-003           4.20258e-004
                   39.50    345.81253                               10.39286             82.508                                        3.45813e+002           4.58125e+001           5.81253e+000           8.12534e-001           1.25339e-002           2.53391e-003           5.33905e-004
                   39.60    345.85698                               10.44603             82.508                                        3.45857e+002           4.58570e+001           5.85698e+000           8.56983e-001           5.69833e-002           6.98334e-003           9.83339e-004
                   39.70    345.91093                               10.49741             82.508                                        3.45911e+002           4.59109e+001           5.91093e+000           9.10930e-001           1.09296e-002           9.29596e-004           9.29596e-004
                   39.80    345.97530                               10.54706             82.508                                        3.45975e+002           4.59753e+001           5.97530e+000           9.75295e-001           7.52951e-002           5.29506e-003           2.95056e-004
                   39.90    346.03287                               10.59509             82.508                                        3.46033e+002           4.60329e+001           6.03287e+000           3.28741e-002           3.28741e-002           2.87407e-003           8.74073e-004
                   40.00    346.07934                               10.64139             82.508                                        3.46079e+002           4.60793e+001           6.07934e+000           7.93420e-002           7.93420e-002           9.34199e-003           3.41986e-004
                   40.10    346.12606                               10.68581             82.508                                        3.46126e+002           4.61261e+001           6.12606e+000           1.26064e-001           2.60644e-002           6.06443e-003           6.44332e-005
                   40.20    346.18996                               10.72844             82.508                                        3.46190e+002           4.61900e+001           6.18996e+000           1.89957e-001           8.99572e-002           9.95719e-003           9.57192e-004
                   40.30    346.25492                               10.76935             82.508                                        3.46255e+002           4.62549e+001           6.25492e+000           2.54925e-001           5.49246e-002           4.92463e-003           9.24632e-004
                   40.40    346.30207                               10.80843             82.508                                        3.46302e+002           4.63021e+001           6.30207e+000           3.02066e-001           2.06627e-003           2.06627e-003           6.62659e-005
                   40.50    346.35396                               10.84566             82.508                                        3.46354e+002           4.63540e+001           6.35396e+000           3.53960e-001           5.39603e-002           3.96030e-003           9.60305e-004
                   40.60    346.41879                               10.88097             82.508                                        3.46419e+002           4.64188e+001           6.41879e+000           4.18790e-001           1.87901e-002           8.79013e-003           7.90134e-004
                   40.70    346.63082                               10.91095             82.508                                        3.46631e+002           4.66308e+001           6.63082e+000           6.30819e-001           3.08193e-002           8.19291e-004           8.19291e-004
                   40.80    347.07257                               10.92726             82.508                                        3.47073e+002           4.70726e+001           7.07257e+000           7.25699e-002           7.25699e-002           2.56991e-003           5.69907e-004
                   40.90    347.45100                               10.93082             82.508                                        3.47451e+002           4.74510e+001           7.45100e+000           4.50999e-001           5.09985e-002           9.98507e-004           9.98507e-004
                   41.00    347.54442                               10.93095             82.508                                        3.47544e+002           4.75444e+001           7.54442e+000           5.44419e-001           4.44187e-002           4.41869e-003           4.18686e-004
                   41.10    347.56084                               10.93095             82.508                                        3.47561e+002           4.75608e+001           7.56084e+000           5.60844e-001           6.08442e-002           8.44175e-004           8.44175e-004
                   41.20    347.55564                               10.93095             82.508                                        3.47556e+002           4.75556e+001           7.55564e+000           5.55636e-001           5.56356e-002           5.63557e-003           6.35573e-004
