~VERSION INFORMATION
VERS                    .            2.0                                    :CWLS LOG ASCII STANDARD
WRAP                    .            NO                                     :ONE LINE PER TIME STEP


~WELL INFORMATION
#MNEM                   .UNIT        DATA                                    DESCRIPTION
#________________________________________________________________________________________
STRTTIME                .HH/MM/SS    10:22:55                               :START TIME
STOPTIME                .HH/MM/SS    10:26:06                               :STOP TIME
STRT                    .s           2.10                                   :START DATA
STOP                    .s           189.80                                 :STOP DATA
STEP                    .s           0.10                                   :MEASUREMENT TIME INTERVAL
NULL                    .            -999.25                                :NULL VALUE
COMP                    .            Statoil ASA                            :COMPANY
FLD                     .            Volve                                  :FIELD
WELL                    .            15/9-F-11 A                            :WELL
RUN                     .            8                                      :RUN
LOC                     .            Maersk Inspirer                        :LOCATION
PROV                    .            na                                     :PROVINCE
SRVC                    .            Baker Hughes INTEQ                     :SERVICE COMPANY
DATE                    .YY/MM/DD    13/05/21                               :LOG DATE
UWI                     .                                                   :UNIQUE WELL ID
DEPTHMD                 .m           3651.0                                 :MEASURED DEPTH
DEPTHTVD                .m           3041.4                                 :TRUE VERTICAL DEPTH


~CURVE INFORMATION
#MNEM                   .UNIT        API CODES                               DESCRIPTION
#________________________________________________________________________________________
TIME                    .s                                                  :01 TIME
DD_PRESS                .bar                                                :02 DRAW DOWN PRESSURE
DD_VOLUME               .cm3                                                :03 INCREMENTAL DRAW DOWN VOLUME
TEMP                    .degC                                               :04 TRANSDUCER TEMPERATURE
DD_PRESS_MOD_1000       .bar                                                :05 DRAW DOWN PRESSURE MOD 1000
DD_PRESS_MOD_100        .bar                                                :06 DRAW DOWN PRESSURE MOD 100
DD_PRESS_MOD_10         .bar                                                :07 DRAW DOWN PRESSURE MOD 10
DD_PRESS_MOD_1          .bar                                                :08 DRAW DOWN PRESSURE MOD 1
DD_PRESS_MOD_01         .bar                                                :09 DRAW DOWN PRESSURE MOD 01
DD_PRESS_MOD_001        .bar                                                :10 DRAW DOWN PRESSURE MOD 001
DD_PRESS_MOD_0001       .bar                                                :11 DRAW DOWN PRESSURE MOD 0001


~PARAMETER INFORMATION
#MNEM                   .UNIT        VALUE                                   DESCRIPTION
#________________________________________________________________________________________
TOOLFACE                .deg         61.5                                   :01 TOOLFACE
PUMP_CAPACITY           .bar         400                                    :02 NOMINAL DRAW DOWN PUMP CAPACITY
PUMP_LIMIT              .bar         240                                    :03 DOWNLINK PUMP LIMIT
TIME_LIMIT              .min         10                                     :04 DOWNLINK MAX TIME
TEST_TYPE               .            REPEAT                                 :05 DOWNLINK
TEST_TYPE               .            HIGH MOBILITY                          :06 DOWNLINK
DD_PIST_A               .cm2         3.1416                                 :07 DRAW DOWN PISTON AREA
V_SYS                   .cm3         131.0000                               :08 SYSTEM VOLUME
PROBE_ID                .cm          1.2700                                 :09 TTK PROBE ID
G0                      .            4.6700                                 :10 GEOMETRY FACTOR


~A                  TIME     DD_PRESS                              DD_VOLUME               TEMP                                   DD_PRESS_MOD_1000       DD_PRESS_MOD_100        DD_PRESS_MOD_10         DD_PRESS_MOD_1        DD_PRESS_MOD_01       DD_PRESS_MOD_001      DD_PRESS_MOD_0001
# ...
                   13.30    418.53957                                0.00000             81.109                                        4.18540e+002           1.85396e+001           8.53957e+000           5.39574e-001           3.95742e-002           9.57424e-003           5.74241e-004
                   13.40    418.54014                                0.00000             81.109                                        4.18540e+002           1.85401e+001           8.54014e+000           5.40137e-001           4.01373e-002           1.37350e-004           1.37350e-004
                   13.50    418.53948                                0.00000             81.109                                        4.18539e+002           1.85395e+001           8.53948e+000           5.39483e-001           3.94826e-002           9.48259e-003           4.82586e-004
                   13.60    418.54952                                0.00000             81.109                                        4.18550e+002           1.85495e+001           8.54952e+000           5.49517e-001           4.95168e-002           9.51676e-003           5.16762e-004
                   13.70    418.56963                                0.00000             81.109                                        4.18570e+002           1.85696e+001           8.56963e+000           5.69633e-001           6.96331e-002           9.63313e-003           6.33133e-004
                   13.80    418.57217                                0.00000             81.109                                        4.18572e+002           1.85722e+001           8.57217e+000           5.72175e-001           7.21749e-002           2.17495e-003           1.74949e-004
                   13.90    418.57302                                0.00000             81.109                                        4.18573e+002           1.85730e+001           8.57302e+000           5.73019e-001           7.30186e-002           3.01857e-003           1.85734e-005
                   14.00    418.58257                                0.00000             81.109                                        4.18583e+002           1.85826e+001           8.58257e+000           5.82573e-001           8.25727e-002           2.57273e-003           5.72729e-004
                   14.10    418.59522                                0.00000             81.109                                        4.18595e+002           1.85952e+001           8.59522e+000           5.95225e-001           9.52248e-002           5.22478e-003           2.24783e-004
                   14.20    418.60455                                0.00000             81.109                                        4.18605e+002           1.86046e+001           8.60455e+000           6.04552e-001           4.55211e-003           4.55211e-003           5.52110e-004
                   14.30    418.60231                                0.00000             81.109                                        4.18602e+002           1.86023e+001           8.60231e+000           6.02314e-001           2.31405e-003           2.31405e-003           3.14053e-004
                   14.40    418.60551                                0.00000             81.109                                        4.18606e+002           1.86055e+001           8.60551e+000           6.05508e-001           5.50770e-003           5.50770e-003           5.07703e-004
                   14.50    418.62484                                0.00000             81.109                                        4.18625e+002           1.86248e+001           8.62484e+000           6.24839e-001           2.48386e-002           4.83862e-003           8.38615e-004
                   14.60    418.63538                                0.00000             81.109                                        4.18635e+002           1.86354e+001           8.63538e+000           6.35380e-001           3.53804e-002           5.38042e-003           3.80422e-004
                   14.70    418.62343                                0.00000             81.109                                        4.18623e+002           1.86234e+001           8.62343e+000           6.23432e-001           2.34315e-002           3.43154e-003           4.31544e-004
                   14.80    418.63101                                0.00000             81.109                                        4.18631e+002           1.86310e+001           8.63101e+000           6.31010e-001           3.10100e-002           1.00998e-003           9.98167e-006
                   14.90    418.64915                                0.00000             81.109                                        4.18649e+002           1.86492e+001           8.64915e+000           6.49153e-001           4.91528e-002           9.15279e-003           1.52794e-004
                   15.00    418.65674                                0.00000             81.109                                        4.18657e+002           1.86567e+001           8.65674e+000           6.56744e-001           5.67443e-002           6.74434e-003           7.44342e-004
                   15.10    418.65231                                0.00000             81.109                                        4.18652e+002           1.86523e+001           8.65231e+000           6.52306e-001           5.23062e-002           2.30617e-003           3.06170e-004
                   15.20    418.65720                                0.00000             81.109                                        4.18657e+002           1.86572e+001           8.65720e+000           6.57204e-001           5.72040e-002           7.20395e-003           2.03955e-004
                   15.30    418.67364                                0.00000             81.109                                        4.18674e+002           1.86736e+001           8.67364e+000           6.73642e-001           7.36424e-002           3.64235e-003           6.42354e-004
                   15.40    418.68442                                0.00000             81.109                                        4.18684e+002           1.86844e+001           8.68442e+000           6.84421e-001           8.44210e-002           4.42099e-003           4.20993e-004
                   15.50    418.69028                                0.00000             81.109                                        4.18690e+002           1.86903e+001           8.69028e+000           6.90284e-001           9.02838e-002           2.83825e-004           2.83825e-004
                   15.60    418.70488                                0.00000             81.109                                        4.18705e+002           1.87049e+001           8.70488e+000           7.04880e-001           4.87974e-003           4.87974e-003           8.79741e-004
                   15.70    418.71678                                0.00000             81.109                                        4.18717e+002           1.87168e+001           8.71678e+000           7.16776e-001           1.67762e-002           6.77620e-003           7.76204e-004
                   15.80    418.71098                                0.00000             81.109                                        4.18711e+002           1.87110e+001           8.71098e+000           7.10983e-001           1.09826e-002           9.82595e-004           9.82595e-004
                   15.90    418.70804                                0.00000             81.109                                        4.18708e+002           1.87080e+001           8.70804e+000           7.08036e-001           8.03574e-003           8.03574e-003           3.57351e-005
                   16.00    418.71090                                0.00000             81.109                                        4.18711e+002           1.87109e+001           8.71090e+000           7.10904e-001           1.09038e-002           9.03756e-004           9.03756e-004
