~VERSION INFORMATION
VERS                    .            2.0                                    :CWLS LOG ASCII STANDARD
WRAP                    .            NO                                     :ONE LINE PER TIME STEP


~WELL INFORMATION
#MNEM                   .UNIT        DATA                                    DESCRIPTION
#________________________________________________________________________________________
STRTTIME                .HH/MM/SS    13:32:32                               :START TIME
STOPTIME                .HH/MM/SS    13:36:23                               :STOP TIME
STRT                    .s           2.10                                   :START DATA
STOP                    .s           229.20                                 :STOP DATA
STEP                    .s           0.10                                   :MEASUREMENT TIME INTERVAL
NULL                    .            -999.25                                :NULL VALUE
COMP                    .            Statoil ASA                            :COMPANY
FLD                     .            Volve                                  :FIELD
WELL                    .            15/9-F-1 B                             :WELL
RUN                     .            7                                      :RUN
LOC                     .            Maersk Inspirer                        :LOCATION
PROV                    .            na                                     :PROVINCE
SRVC                    .            Baker Hughes INTEQ                     :SERVICE COMPANY
DATE                    .YY/MM/DD    13/09/06                               :LOG DATE
UWI                     .                                                   :UNIQUE WELL ID
DEPTHMD                 .m           3301.5                                 :MEASURED DEPTH
DEPTHTVD                .m           3096.9                                 :TRUE VERTICAL DEPTH


~CURVE INFORMATION
#MNEM                   .UNIT        API CODES                               DESCRIPTION
#________________________________________________________________________________________
TIME                    .s                                                  :01 TIME
DD_PRESS                .bar                                                :02 DRAW DOWN PRESSURE
DD_VOLUME               .cm3                                                :03 INCREMENTAL DRAW DOWN VOLUME
TEMP                    .degC                                               :04 TRANSDUCER TEMPERATURE
DD_PRESS_MOD_1000       .bar                                                :05 DRAW DOWN PRESSURE MOD 1000
DD_PRESS_MOD_100        .bar                                                :06 DRAW DOWN PRESSURE MOD 100
DD_PRESS_MOD_10         .bar                                                :07 DRAW DOWN PRESSURE MOD 10
DD_PRESS_MOD_1          .bar                                                :08 DRAW DOWN PRESSURE MOD 1
DD_PRESS_MOD_01         .bar                                                :09 DRAW DOWN PRESSURE MOD 01
DD_PRESS_MOD_001        .bar                                                :10 DRAW DOWN PRESSURE MOD 001
DD_PRESS_MOD_0001       .bar                                                :11 DRAW DOWN PRESSURE MOD 0001


~PARAMETER INFORMATION
#MNEM                   .UNIT        VALUE                                   DESCRIPTION
#________________________________________________________________________________________
TOOLFACE                .deg         na                                     :01 TOOLFACE
PUMP_CAPACITY           .bar         400                                    :02 NOMINAL DRAW DOWN PUMP CAPACITY
PUMP_LIMIT              .bar         400                                    :03 DOWNLINK PUMP LIMIT
TIME_LIMIT              .min         10                                     :04 DOWNLINK MAX TIME
TEST_TYPE               .            LOW MOBILITY                           :05 DOWNLINK
DD_PIST_A               .cm2         3.1416                                 :06 DRAW DOWN PISTON AREA
V_SYS                   .cm3         131.0000                               :07 SYSTEM VOLUME
PROBE_ID                .cm          1.2700                                 :08 TTK PROBE ID
G0                      .            4.6700                                 :09 GEOMETRY FACTOR


~A                  TIME     DD_PRESS                              DD_VOLUME               TEMP                                   DD_PRESS_MOD_1000       DD_PRESS_MOD_100        DD_PRESS_MOD_10         DD_PRESS_MOD_1        DD_PRESS_MOD_01       DD_PRESS_MOD_001      DD_PRESS_MOD_0001
                    2.10    440.83639                                0.00000             85.500                                        4.40836e+002           4.08364e+001           8.36394e-001           8.36394e-001           3.63941e-002           6.39410e-003           3.94104e-004
                    2.20    440.76809                                0.00000             85.500                                        4.40768e+002           4.07681e+001           7.68089e-001           7.68089e-001           6.80892e-002           8.08918e-003           8.91843e-005
                    2.30    440.79279                                0.00000             85.500                                        4.40793e+002           4.07928e+001           7.92789e-001           7.92789e-001           9.27890e-002           2.78902e-003           7.89022e-004
                    2.40    440.86640                                0.00000             85.500                                        4.40866e+002           4.08664e+001           8.66405e-001           8.66405e-001           6.64049e-002           6.40492e-003           4.04916e-004
                    2.50    440.88339                                0.00000             85.500                                        4.40883e+002           4.08834e+001           8.83387e-001           8.83387e-001           8.33871e-002           3.38709e-003           3.87091e-004
                    2.60    440.89787                                0.00000             85.500                                        4.40898e+002           4.08979e+001           8.97869e-001           8.97869e-001           9.78692e-002           7.86920e-003           8.69199e-004
                    2.70    440.96486                                0.00000             85.500                                        4.40965e+002           4.09649e+001           9.64864e-001           9.64864e-001           6.48640e-002           4.86403e-003           8.64030e-004
                    2.80    441.05514                                0.00000             85.500                                        4.41055e+002           4.10551e+001           1.05514e+000           5.51364e-002           5.51364e-002           5.13644e-003           1.36437e-004
                    2.90    441.11800                                0.00000             85.500                                        4.41118e+002           4.11180e+001           1.11800e+000           1.18001e-001           1.80011e-002           8.00110e-003           1.10038e-006
                    3.00    441.16830                                0.00000             85.500                                        4.41168e+002           4.11683e+001           1.16830e+000           1.68295e-001           6.82951e-002           8.29515e-003           2.95148e-004
                    3.10    441.25159                                0.00000             85.500                                        4.41252e+002           4.12516e+001           1.25159e+000           2.51586e-001           5.15857e-002           1.58566e-003           5.85662e-004
                    3.20    441.32888                                0.00000             85.500                                        4.41329e+002           4.13289e+001           1.32888e+000           3.28883e-001           2.88826e-002           8.88257e-003           8.82570e-004
                    3.30    441.31990                                0.00000             85.500                                        4.41320e+002           4.13199e+001           1.31990e+000           3.19903e-001           1.99033e-002           9.90334e-003           9.03338e-004
                    3.40    441.28547                                0.00000             85.500                                        4.41285e+002           4.12855e+001           1.28547e+000           2.85465e-001           8.54651e-002           5.46508e-003           4.65081e-004
                    3.50    441.28652                                0.00000             85.500                                        4.41287e+002           4.12865e+001           1.28652e+000           2.86520e-001           8.65201e-002           6.52009e-003           5.20086e-004
                    3.60    441.27632                                0.00000             85.500                                        4.41276e+002           4.12763e+001           1.27632e+000           2.76318e-001           7.63178e-002           6.31785e-003           3.17848e-004
                    3.70    441.21743                                0.00000             85.500                                        4.41217e+002           4.12174e+001           1.21743e+000           2.17431e-001           1.74306e-002           7.43055e-003           4.30551e-004
                    3.80    441.18095                                0.00000             85.500                                        4.41181e+002           4.11809e+001           1.18095e+000           1.80946e-001           8.09463e-002           9.46335e-004           9.46335e-004
                    3.90    441.18244                                0.00000             85.500                                        4.41182e+002           4.11824e+001           1.18244e+000           1.82443e-001           8.24425e-002           2.44251e-003           4.42515e-004
                    4.00    441.20622                                0.00000             85.500                                        4.41206e+002           4.12062e+001           1.20622e+000           2.06216e-001           6.21589e-003           6.21589e-003           2.15895e-004
                    4.10    441.24152                                0.00000             85.500                                        4.41242e+002           4.12415e+001           1.24152e+000           2.41518e-001           4.15185e-002           1.51846e-003           5.18456e-004
                    4.20    441.27317                                0.00000             85.500                                        4.41273e+002           4.12732e+001           1.27317e+000           2.73167e-001           7.31673e-002           3.16735e-003           1.67350e-004
                    4.30    441.28932                                0.00000             85.500                                        4.41289e+002           4.12893e+001           1.28932e+000           2.89323e-001           8.93234e-002           9.32337e-003           3.23368e-004
                    4.40    441.32244                                0.00000             85.500                                        4.41322e+002           4.13224e+001           1.32244e+000           3.22439e-001           2.24394e-002           2.43941e-003           4.39406e-004
                    4.50    441.33335                                0.00000             85.500                                        4.41333e+002           4.13334e+001           1.33335e+000           3.33352e-001           3.33521e-002           3.35211e-003           3.52110e-004
                    4.60    441.33249                                0.00000             85.500                                        4.41332e+002           4.13325e+001           1.33249e+000           3.32486e-001           3.24864e-002           2.48637e-003           4.86367e-004
                    4.70    441.36533                                0.00000             85.500                                        4.41365e+002           4.13653e+001           1.36533e+000           3.65332e-001           6.53320e-002           5.33196e-003           3.31964e-004
                    4.80    441.40904                                0.00000             85.500                                        4.41409e+002           4.14090e+001           1.40904e+000           4.09042e-001           9.04160e-003           9.04160e-003           4.15988e-005
