~VERSION INFORMATION
VERS                    .            2.0                                    :CWLS LOG ASCII STANDARD
WRAP                    .            NO                                     :ONE LINE PER TIME STEP


~WELL INFORMATION
#MNEM                   .UNIT        DATA                                    DESCRIPTION
#________________________________________________________________________________________
STRTTIME                .HH/MM/SS    23:13:04                               :START TIME
STOPTIME                .HH/MM/SS    23:16:31                               :STOP TIME
STRT                    .s           2.10                                   :START DATA
STOP                    .s           205.60                                 :STOP DATA
STEP                    .s           0.10                                   :MEASUREMENT TIME INTERVAL
NULL                    .            -999.25                                :NULL VALUE
COMP                    .            Statoil ASA                            :COMPANY
FLD                     .            Volve                                  :FIELD
WELL                    .            15/9-F-1 C                             :WELL
RUN                     .            4                                      :RUN
LOC                     .                                                   :LOCATION
PROV                    .            na                                     :PROVINCE
SRVC                    .            Baker Hughes INTEQ                     :SERVICE COMPANY
DATE                    .YY/MM/DD    14/03/14                               :LOG DATE
UWI                     .                                                   :UNIQUE WELL ID
DEPTHMD                 .m           3858.0                                 :MEASURED DEPTH
DEPTHTVD                .m           3096.5                                 :TRUE VERTICAL DEPTH


~CURVE INFORMATION
#MNEM                   .UNIT        API CODES                               DESCRIPTION
#________________________________________________________________________________________
TIME                    .s                                                  :01 TIME
DD_PRESS                .bar                                                :02 DRAW DOWN PRESSURE
DD_VOLUME               .cm3                                                :03 INCREMENTAL DRAW DOWN VOLUME
TEMP                    .degC                                               :04 TRANSDUCER TEMPERATURE
DD_PRESS_MOD_1000       .bar                                                :05 DRAW DOWN PRESSURE MOD 1000
DD_PRESS_MOD_100        .bar                                                :06 DRAW DOWN PRESSURE MOD 100
DD_PRESS_MOD_10         .bar                                                :07 DRAW DOWN PRESSURE MOD 10
DD_PRESS_MOD_1          .bar                                                :08 DRAW DOWN PRESSURE MOD 1
DD_PRESS_MOD_01         .bar                                                :09 DRAW DOWN PRESSURE MOD 01
DD_PRESS_MOD_001        .bar                                                :10 DRAW DOWN PRESSURE MOD 001
DD_PRESS_MOD_0001       .bar                                                :11 DRAW DOWN PRESSURE MOD 0001


~PARAMETER INFORMATION
#MNEM                   .UNIT        VALUE                                   DESCRIPTION
#________________________________________________________________________________________
TOOLFACE                .deg         88.6                                   :01 TOOLFACE
PUMP_CAPACITY           .bar         400                                    :02 NOMINAL DRAW DOWN PUMP CAPACITY
PUMP_LIMIT              .bar         240                                    :03 DOWNLINK PUMP LIMIT
TIME_LIMIT              .min         10                                     :04 DOWNLINK MAX TIME
TEST_TYPE               .            HIGH MOBILITY                          :05 DOWNLINK
DD_PIST_A               .cm2         3.1416                                 :06 DRAW DOWN PISTON AREA
V_SYS                   .cm3         131.0000                               :07 SYSTEM VOLUME
PROBE_ID                .cm          1.2700                                 :08 TTK PROBE ID
G0                      .            4.6700                                 :09 GEOMETRY FACTOR


~A                  TIME     DD_PRESS                              DD_VOLUME               TEMP                                   DD_PRESS_MOD_1000       DD_PRESS_MOD_100        DD_PRESS_MOD_10         DD_PRESS_MOD_1        DD_PRESS_MOD_01       DD_PRESS_MOD_001      DD_PRESS_MOD_0001
# ...
                   41.30    352.19264                               10.56428             90.102                                        3.52193e+002           5.21926e+001           2.19264e+000           1.92640e-001           9.26404e-002           2.64042e-003           6.40424e-004
                   41.40    352.19303                               10.56428             90.102                                        3.52193e+002           5.21930e+001           2.19303e+000           1.93029e-001           9.30287e-002           3.02872e-003           2.87195e-005
                   41.50    352.19542                               10.56428             90.102                                        3.52195e+002           5.21954e+001           2.19542e+000           1.95421e-001           9.54207e-002           5.42073e-003           4.20725e-004
                   41.60    352.19636                               10.56428             90.102                                        3.52196e+002           5.21964e+001           2.19636e+000           1.96362e-001           9.63624e-002           6.36235e-003           3.62353e-004
                   41.70    352.19484                               10.56428             90.102                                        3.52195e+002           5.21948e+001           2.19484e+000           1.94839e-001           9.48393e-002           4.83932e-003           8.39317e-004
                   41.80    352.19295                               10.56428             90.102                                        3.52193e+002           5.21929e+001           2.19295e+000           1.92946e-001           9.29461e-002           2.94614e-003           9.46138e-004
                   41.90    352.19737                               10.56428             90.102                                        3.52197e+002           5.21974e+001           2.19737e+000           1.97369e-001           9.73690e-002           7.36896e-003           3.68958e-004
                   42.00    352.20141                               10.56428             90.102                                        3.52201e+002           5.22014e+001           2.20141e+000           2.01406e-001           1.40639e-003           1.40639e-003           4.06394e-004
                   42.10    352.19957                               10.56428             90.102                                        3.52200e+002           5.21996e+001           2.19957e+000           1.99566e-001           9.95655e-002           9.56554e-003           5.65545e-004
                   42.20    352.19716                               10.56428             90.102                                        3.52197e+002           5.21972e+001           2.19716e+000           1.97164e-001           9.71638e-002           7.16378e-003           1.63778e-004
                   42.30    352.19888                               10.56428             90.102                                        3.52199e+002           5.21989e+001           2.19888e+000           1.98884e-001           9.88836e-002           8.88361e-003           8.83611e-004
                   42.40    352.20341                               10.56428             90.102                                        3.52203e+002           5.22034e+001           2.20341e+000           2.03410e-001           3.41027e-003           3.41027e-003           4.10274e-004
                   42.50    352.20280                               10.56428             90.102                                        3.52203e+002           5.22028e+001           2.20280e+000           2.02797e-001           2.79683e-003           2.79683e-003           7.96828e-004
                   42.60    352.20273                               10.56428             90.102                                        3.52203e+002           5.22027e+001           2.20273e+000           2.02728e-001           2.72767e-003           2.72767e-003           7.27673e-004
                   42.70    352.20176                               10.56428             90.102                                        3.52202e+002           5.22018e+001           2.20176e+000           2.01756e-001           1.75554e-003           1.75554e-003           7.55544e-004
                   42.80    352.20159                               10.56428             90.102                                        3.52202e+002           5.22016e+001           2.20159e+000           2.01587e-001           1.58684e-003           1.58684e-003           5.86837e-004
                   42.90    352.20358                               10.56428             90.102                                        3.52204e+002           5.22036e+001           2.20358e+000           2.03579e-001           3.57937e-003           3.57937e-003           5.79366e-004
                   43.00    352.20375                               10.56428             90.102                                        3.52204e+002           5.22038e+001           2.20375e+000           2.03750e-001           3.75032e-003           3.75032e-003           7.50318e-004
                   43.10    352.20040                               10.56428             90.102                                        3.52200e+002           5.22004e+001           2.20040e+000           2.00403e-001           4.03140e-004           4.03140e-004           4.03140e-004
                   43.20    352.19933                               10.56428             90.102                                        3.52199e+002           5.21993e+001           2.19933e+000           1.99327e-001           9.93275e-002           9.32750e-003           3.27496e-004
                   43.30    352.20212                               10.56428             90.102                                        3.52202e+002           5.22021e+001           2.20212e+000           2.02124e-001           2.12400e-003           2.12400e-003           1.24002e-004
                   43.40    352.20318                               10.56428             90.102                                        3.52203e+002           5.22032e+001           2.20318e+000           2.03182e-001           3.18189e-003           3.18189e-003           1.81895e-004
                   43.50    352.20033                               10.56428             90.102                                        3.52200e+002           5.22003e+001           2.20033e+000           2.00334e-001           3.33577e-004           3.33577e-004           3.33577e-004
                   43.60    352.19993                               10.56428             90.102                                        3.52200e+002           5.21999e+001           2.19993e+000           1.99933e-001           9.99328e-002           9.93280e-003           9.32799e-004
                   43.70    352.20096                               10.56428             90.102                                        3.52201e+002           5.22010e+001           2.20096e+000           2.00961e-001           9.61121e-004           9.61121e-004           9.61121e-004
                   43.80    352.20269                               10.56428             90.102                                        3.52203e+002           5.22027e+001           2.20269e+000           2.02685e-001           2.68531e-003           2.68531e-003           6.85309e-004
                   43.90    352.20240                               10.56428             90.102                                        3.52202e+002           5.22024e+001           2.20240e+000           2.02404e-001           2.40385e-003           2.40385e-003           4.03853e-004
                   44.00    352.20400                               10.56428             90.102                                        3.52204e+002           5.22040e+001           2.20400e+000           2.04004e-001           4.00364e-003           4.00364e-003           3.64372e-006
