~VERSION INFORMATION
VERS                    .            2.0                                    :CWLS LOG ASCII STANDARD
WRAP                    .            NO                                     :ONE LINE PER TIME STEP


~WELL INFORMATION
#MNEM                   .UNIT        DATA                                    DESCRIPTION
#________________________________________________________________________________________
STRTTIME                .HH/MM/SS    09:43:23                               :START TIME
STOPTIME                .HH/MM/SS    09:46:50                               :STOP TIME
STRT                    .s           2.10                                   :START DATA
STOP                    .s           205.20                                 :STOP DATA
STEP                    .s           0.10                                   :MEASUREMENT TIME INTERVAL
NULL                    .            -999.25                                :NULL VALUE
COMP                    .            Statoil ASA                            :COMPANY
FLD                     .            Volve                                  :FIELD
WELL                    .            15/9-F-11 A                            :WELL
RUN                     .            8                                      :RUN
LOC                     .            Maersk Inspirer                        :LOCATION
PROV                    .            na                                     :PROVINCE
SRVC                    .            Baker Hughes INTEQ                     :SERVICE COMPANY
DATE                    .YY/MM/DD    13/05/21                               :LOG DATE
UWI                     .                                                   :UNIQUE WELL ID
DEPTHMD                 .m           3665.9                                 :MEASURED DEPTH
DEPTHTVD                .m           3052.8                                 :TRUE VERTICAL DEPTH


~CURVE INFORMATION
#MNEM                   .UNIT        API CODES                               DESCRIPTION
#________________________________________________________________________________________
TIME                    .s                                                  :01 TIME
DD_PRESS                .bar                                                :02 DRAW DOWN PRESSURE
DD_VOLUME               .cm3                                                :03 INCREMENTAL DRAW DOWN VOLUME
TEMP                    .degC                                               :04 TRANSDUCER TEMPERATURE
DD_PRESS_MOD_1000       .bar                                                :05 DRAW DOWN PRESSURE MOD 1000
DD_PRESS_MOD_100        .bar                                                :06 DRAW DOWN PRESSURE MOD 100
DD_PRESS_MOD_10         .bar                                                :07 DRAW DOWN PRESSURE MOD 10
DD_PRESS_MOD_1          .bar                                                :08 DRAW DOWN PRESSURE MOD 1
DD_PRESS_MOD_01         .bar                                                :09 DRAW DOWN PRESSURE MOD 01
DD_PRESS_MOD_001        .bar                                                :10 DRAW DOWN PRESSURE MOD 001
DD_PRESS_MOD_0001       .bar                                                :11 DRAW DOWN PRESSURE MOD 0001


~PARAMETER INFORMATION
#MNEM                   .UNIT        VALUE                                   DESCRIPTION
#________________________________________________________________________________________
TOOLFACE                .deg         60.0                                   :01 TOOLFACE
PUMP_CAPACITY           .bar         400                                    :02 NOMINAL DRAW DOWN PUMP CAPACITY
PUMP_LIMIT              .bar         240                                    :03 DOWNLINK PUMP LIMIT
TIME_LIMIT              .min         10                                     :04 DOWNLINK MAX TIME
TEST_TYPE               .            REPEAT                                 :05 DOWNLINK
TEST_TYPE               .            HIGH MOBILITY                          :06 DOWNLINK
DD_PIST_A               .cm2         3.1416                                 :07 DRAW DOWN PISTON AREA
V_SYS                   .cm3         131.0000                               :08 SYSTEM VOLUME
PROBE_ID                .cm          1.2700                                 :09 TTK PROBE ID
G0                      .            4.6700                                 :10 GEOMETRY FACTOR


~A                  TIME     DD_PRESS                              DD_VOLUME               TEMP                                   DD_PRESS_MOD_1000       DD_PRESS_MOD_100        DD_PRESS_MOD_10         DD_PRESS_MOD_1        DD_PRESS_MOD_01       DD_PRESS_MOD_001      DD_PRESS_MOD_0001
# ...
                  203.70    421.76207                                0.00000             83.156                                        4.21762e+002           2.17621e+001           1.76207e+000           7.62071e-001           6.20706e-002           2.07064e-003           7.06410e-005
                  203.80    421.75549                                0.00000             83.156                                        4.21755e+002           2.17555e+001           1.75549e+000           7.55489e-001           5.54886e-002           5.48857e-003           4.88569e-004
                  203.90    421.77180                                0.00000             83.156                                        4.21772e+002           2.17718e+001           1.77180e+000           7.71804e-001           7.18035e-002           1.80354e-003           8.03536e-004
                  204.00    421.78539                                0.00000             83.156                                        4.21785e+002           2.17854e+001           1.78539e+000           7.85388e-001           8.53882e-002           5.38823e-003           3.88228e-004
                  204.10    421.77463                                0.00000             83.156                                        4.21775e+002           2.17746e+001           1.77463e+000           7.74627e-001           7.46271e-002           4.62710e-003           6.27096e-004
                  204.20    421.75328                                0.00000             83.156                                        4.21753e+002           2.17533e+001           1.75328e+000           7.53277e-001           5.32765e-002           3.27652e-003           2.76525e-004
                  204.30    421.74882                                0.00000             83.156                                        4.21749e+002           2.17488e+001           1.74882e+000           7.48816e-001           4.88157e-002           8.81571e-003           8.15710e-004
                  204.40    421.75840                                0.00000             83.156                                        4.21758e+002           2.17584e+001           1.75840e+000           7.58398e-001           5.83982e-002           8.39821e-003           3.98210e-004
                  204.50    421.76925                                0.00000             83.156                                        4.21769e+002           2.17693e+001           1.76925e+000           7.69254e-001           6.92539e-002           9.25395e-003           2.53949e-004
                  204.60    421.76829                                0.00000             83.156                                        4.21768e+002           2.17683e+001           1.76829e+000           7.68287e-001           6.82870e-002           8.28695e-003           2.86953e-004
                  204.70    421.75691                                0.00000             83.156                                        4.21757e+002           2.17569e+001           1.75691e+000           7.56913e-001           5.69134e-002           6.91338e-003           9.13380e-004
                  204.80    421.76040                                0.00000             83.156                                        4.21760e+002           2.17604e+001           1.76040e+000           7.60400e-001           6.04005e-002           4.00498e-004           4.00498e-004
                  204.90    421.78315                                0.00000             83.156                                        4.21783e+002           2.17831e+001           1.78315e+000           7.83149e-001           8.31493e-002           3.14931e-003           1.49312e-004
                  205.00    421.79895                                0.00000             83.156                                        4.21799e+002           2.17989e+001           1.79895e+000           7.98947e-001           9.89473e-002           8.94727e-003           9.47270e-004
                  205.10    421.79960                                0.00000             83.156                                        4.21800e+002           2.17996e+001           1.79960e+000           7.99601e-001           9.96010e-002           9.60105e-003           6.01050e-004
                  205.20    421.78562                                0.00000             83.156                                        4.21786e+002           2.17856e+001           1.78562e+000           7.85621e-001           8.56206e-002           5.62063e-003           6.20629e-004
