~VERSION INFORMATION
VERS                    .            2.0                                    :CWLS LOG ASCII STANDARD
WRAP                    .            NO                                     :ONE LINE PER TIME STEP


~WELL INFORMATION
#MNEM                   .UNIT        DATA                                    DESCRIPTION
#________________________________________________________________________________________
STRTTIME                .HH/MM/SS    08:08:34                               :START TIME
STOPTIME                .HH/MM/SS    08:11:25                               :STOP TIME
STRT                    .s           2.10                                   :START DATA
STOP                    .s           169.10                                 :STOP DATA
STEP                    .s           0.10                                   :MEASUREMENT TIME INTERVAL
NULL                    .            -999.25                                :NULL VALUE
COMP                    .            Statoil ASA                            :COMPANY
FLD                     .            Volve                                  :FIELD
WELL                    .            15/9-F-11 A                            :WELL
RUN                     .            8                                      :RUN
LOC                     .            Maersk Inspirer                        :LOCATION
PROV                    .            na                                     :PROVINCE
SRVC                    .            Baker Hughes INTEQ                     :SERVICE COMPANY
DATE                    .YY/MM/DD    13/05/21                               :LOG DATE
UWI                     .                                                   :UNIQUE WELL ID
DEPTHMD                 .m           3694.5                                 :MEASURED DEPTH
DEPTHTVD                .m           3074.7                                 :TRUE VERTICAL DEPTH


~CURVE INFORMATION
#MNEM                   .UNIT        API CODES                               DESCRIPTION
#________________________________________________________________________________________
TIME                    .s                                                  :01 TIME
DD_PRESS                .bar                                                :02 DRAW DOWN PRESSURE
DD_VOLUME               .cm3                                                :03 INCREMENTAL DRAW DOWN VOLUME
TEMP                    .degC                                               :04 TRANSDUCER TEMPERATURE
DD_PRESS_MOD_1000       .bar                                                :05 DRAW DOWN PRESSURE MOD 1000
DD_PRESS_MOD_100        .bar                                                :06 DRAW DOWN PRESSURE MOD 100
DD_PRESS_MOD_10         .bar                                                :07 DRAW DOWN PRESSURE MOD 10
DD_PRESS_MOD_1          .bar                                                :08 DRAW DOWN PRESSURE MOD 1
DD_PRESS_MOD_01         .bar                                                :09 DRAW DOWN PRESSURE MOD 01
DD_PRESS_MOD_001        .bar                                                :10 DRAW DOWN PRESSURE MOD 001
DD_PRESS_MOD_0001       .bar                                                :11 DRAW DOWN PRESSURE MOD 0001


~PARAMETER INFORMATION
#MNEM                   .UNIT        VALUE                                   DESCRIPTION
#________________________________________________________________________________________
TOOLFACE                .deg         -107.9                                 :01 TOOLFACE
PUMP_CAPACITY           .bar         400                                    :02 NOMINAL DRAW DOWN PUMP CAPACITY
PUMP_LIMIT              .bar         240                                    :03 DOWNLINK PUMP LIMIT
TIME_LIMIT              .min         10                                     :04 DOWNLINK MAX TIME
TEST_TYPE               .            HIGH MOBILITY                          :05 DOWNLINK
DD_PIST_A               .cm2         3.1416                                 :06 DRAW DOWN PISTON AREA
V_SYS                   .cm3         131.0000                               :07 SYSTEM VOLUME
PROBE_ID                .cm          1.2700                                 :08 TTK PROBE ID
G0                      .            4.6700                                 :09 GEOMETRY FACTOR


~A                  TIME     DD_PRESS                              DD_VOLUME               TEMP                                   DD_PRESS_MOD_1000       DD_PRESS_MOD_100        DD_PRESS_MOD_10         DD_PRESS_MOD_1        DD_PRESS_MOD_01       DD_PRESS_MOD_001      DD_PRESS_MOD_0001
# ...
                  167.30    425.51905                                0.00000             84.891                                        4.25519e+002           2.55191e+001           5.51905e+000           5.19051e-001           1.90511e-002           9.05115e-003           5.11463e-005
                  167.40    425.53845                                0.00000             84.891                                        4.25538e+002           2.55385e+001           5.53845e+000           5.38454e-001           3.84544e-002           8.45442e-003           4.54418e-004
                  167.50    425.54326                                0.00000             84.891                                        4.25543e+002           2.55433e+001           5.54326e+000           5.43259e-001           4.32586e-002           3.25861e-003           2.58612e-004
                  167.60    425.53350                                0.00000             84.891                                        4.25533e+002           2.55335e+001           5.53350e+000           5.33500e-001           3.34998e-002           3.49984e-003           4.99843e-004
                  167.70    425.53305                                0.00000             84.891                                        4.25533e+002           2.55331e+001           5.53305e+000           5.33052e-001           3.30517e-002           3.05169e-003           5.16940e-005
                  167.80    425.54715                                0.00000             84.891                                        4.25547e+002           2.55471e+001           5.54715e+000           5.47146e-001           4.71463e-002           7.14633e-003           1.46334e-004
                  167.90    425.55765                                0.00000             84.891                                        4.25558e+002           2.55577e+001           5.55765e+000           5.57652e-001           5.76522e-002           7.65219e-003           6.52185e-004
                  168.00    425.55732                                0.00000             84.891                                        4.25557e+002           2.55573e+001           5.55732e+000           5.57325e-001           5.73250e-002           7.32496e-003           3.24960e-004
                  168.10    425.54699                                0.00000             84.891                                        4.25547e+002           2.55470e+001           5.54699e+000           5.46992e-001           4.69924e-002           6.99244e-003           9.92445e-004
                  168.20    425.55161                                0.00000             84.891                                        4.25552e+002           2.55516e+001           5.55161e+000           5.51607e-001           5.16069e-002           1.60693e-003           6.06928e-004
                  168.30    425.57267                                0.00000             84.891                                        4.25573e+002           2.55727e+001           5.57267e+000           5.72672e-001           7.26721e-002           2.67210e-003           6.72098e-004
                  168.40    425.57513                                0.00000             84.891                                        4.25575e+002           2.55751e+001           5.57513e+000           5.75127e-001           7.51265e-002           5.12654e-003           1.26539e-004
                  168.50    425.55379                                0.00000             84.891                                        4.25554e+002           2.55538e+001           5.55379e+000           5.53794e-001           5.37942e-002           3.79422e-003           7.94219e-004
                  168.60    425.54156                                0.00000             84.891                                        4.25542e+002           2.55416e+001           5.54156e+000           5.41564e-001           4.15638e-002           1.56379e-003           5.63791e-004
                  168.70    425.55375                                0.00000             84.891                                        4.25554e+002           2.55537e+001           5.55375e+000           5.53746e-001           5.37455e-002           3.74552e-003           7.45518e-004
                  168.80    425.55943                                0.00000             84.888                                        4.25559e+002           2.55594e+001           5.55943e+000           5.59428e-001           5.94277e-002           9.42773e-003           4.27729e-004
                  168.90    425.54085                                0.00000             84.885                                        4.25541e+002           2.55409e+001           5.54085e+000           5.40853e-001           4.08530e-002           8.52987e-004           8.52987e-004
                  169.00    425.52680                                0.00000             84.885                                        4.25527e+002           2.55268e+001           5.52680e+000           5.26804e-001           2.68035e-002           6.80352e-003           8.03517e-004
                  169.10    425.53352                                0.00000             84.889                                        4.25534e+002           2.55335e+001           5.53352e+000           5.33523e-001           3.35231e-002           3.52312e-003           5.23123e-004
