~VERSION INFORMATION
VERS                    .            2.0                                    :CWLS LOG ASCII STANDARD
WRAP                    .            NO                                     :ONE LINE PER TIME STEP


~WELL INFORMATION
#MNEM                   .UNIT        DATA                                    DESCRIPTION
#________________________________________________________________________________________
STRTTIME                .HH/MM/SS    22:05:32                               :START TIME
STOPTIME                .HH/MM/SS    22:09:32                               :STOP TIME
STRT                    .s           2.10                                   :START DATA
STOP                    .s           238.90                                 :STOP DATA
STEP                    .s           0.10                                   :MEASUREMENT TIME INTERVAL
NULL                    .            -999.25                                :NULL VALUE
COMP                    .            Statoil                                :COMPANY
FLD                     .            Volve                                  :FIELD
WELL                    .            15/9-F-11 T2                           :WELL
RUN                     .            7                                      :RUN
LOC                     .            Maersk Inspirer                        :LOCATION
PROV                    .            na                                     :PROVINCE
SRVC                    .            Baker Hughes INTEQ                     :SERVICE COMPANY
DATE                    .YY/MM/DD    13/05/04                               :LOG DATE
UWI                     .                                                   :UNIQUE WELL ID
DEPTHMD                 .m           4490.1                                 :MEASURED DEPTH
DEPTHTVD                .m           3328.5                                 :TRUE VERTICAL DEPTH


~CURVE INFORMATION
#MNEM                   .UNIT        API CODES                               DESCRIPTION
#________________________________________________________________________________________
TIME                    .s                                                  :01 TIME
DD_PRESS                .bar                                                :02 DRAW DOWN PRESSURE
DD_VOLUME               .cm3                                                :03 INCREMENTAL DRAW DOWN VOLUME
TEMP                    .degC                                               :04 TRANSDUCER TEMPERATURE
DD_PRESS_MOD_1000       .bar                                                :05 DRAW DOWN PRESSURE MOD 1000
DD_PRESS_MOD_100        .bar                                                :06 DRAW DOWN PRESSURE MOD 100
DD_PRESS_MOD_10         .bar                                                :07 DRAW DOWN PRESSURE MOD 10
DD_PRESS_MOD_1          .bar                                                :08 DRAW DOWN PRESSURE MOD 1
DD_PRESS_MOD_01         .bar                                                :09 DRAW DOWN PRESSURE MOD 01
DD_PRESS_MOD_001        .bar                                                :10 DRAW DOWN PRESSURE MOD 001
DD_PRESS_MOD_0001       .bar                                                :11 DRAW DOWN PRESSURE MOD 0001


~PARAMETER INFORMATION
#MNEM                   .UNIT        VALUE                                   DESCRIPTION
#________________________________________________________________________________________
TOOLFACE                .deg         na                                     :01 TOOLFACE
PUMP_CAPACITY           .bar         400                                    :02 NOMINAL DRAW DOWN PUMP CAPACITY
PUMP_LIMIT              .bar         240                                    :03 DOWNLINK PUMP LIMIT
TIME_LIMIT              .min         10                                     :04 DOWNLINK MAX TIME
TEST_TYPE               .            HIGH MOBILITY                          :05 DOWNLINK
DD_PIST_A               .cm2         3.1416                                 :06 DRAW DOWN PISTON AREA
V_SYS                   .cm3         131.0000                               :07 SYSTEM VOLUME
PROBE_ID                .cm          1.2700                                 :08 TTK PROBE ID
G0                      .            4.6700                                 :09 GEOMETRY FACTOR


~A                  TIME     DD_PRESS                              DD_VOLUME               TEMP                                   DD_PRESS_MOD_1000       DD_PRESS_MOD_100        DD_PRESS_MOD_10         DD_PRESS_MOD_1        DD_PRESS_MOD_01       DD_PRESS_MOD_001      DD_PRESS_MOD_0001
# ...
                   63.70    367.49592                               11.09486             97.273                                        3.67496e+002           6.74959e+001           7.49592e+000           4.95925e-001           9.59247e-002           5.92468e-003           9.24676e-004
                   63.80    367.46387                               11.09486             97.273                                        3.67464e+002           6.74639e+001           7.46387e+000           4.63870e-001           6.38701e-002           3.87009e-003           8.70087e-004
                   63.90    367.45326                               11.09486             97.273                                        3.67453e+002           6.74533e+001           7.45326e+000           4.53259e-001           5.32587e-002           3.25868e-003           2.58680e-004
                   64.00    367.49162                               11.09486             97.273                                        3.67492e+002           6.74916e+001           7.49162e+000           4.91621e-001           9.16212e-002           1.62121e-003           6.21215e-004
                   64.10    367.50611                               11.09486             97.273                                        3.67506e+002           6.75061e+001           7.50611e+000           5.06106e-001           6.10631e-003           6.10631e-003           1.06312e-004
                   64.20    367.48759                               11.09486             97.273                                        3.67488e+002           6.74876e+001           7.48759e+000           4.87592e-001           8.75920e-002           7.59197e-003           5.91967e-004
                   64.30    367.49971                               11.09486             97.273                                        3.67500e+002           6.74997e+001           7.49971e+000           4.99711e-001           9.97109e-002           9.71094e-003           7.10944e-004
                   64.40    367.52501                               11.09486             97.273                                        3.67525e+002           6.75250e+001           7.52501e+000           5.25013e-001           2.50133e-002           5.01326e-003           1.32618e-005
                   64.50    367.52412                               11.09486             97.273                                        3.67524e+002           6.75241e+001           7.52412e+000           5.24124e-001           2.41237e-002           4.12373e-003           1.23733e-004
                   64.60    367.47302                               11.09486             97.273                                        3.67473e+002           6.74730e+001           7.47302e+000           4.73019e-001           7.30193e-002           3.01929e-003           1.92857e-005
                   64.70    367.42914                               11.09486             97.273                                        3.67429e+002           6.74291e+001           7.42914e+000           4.29140e-001           2.91404e-002           9.14039e-003           1.40388e-004
                   64.80    367.45966                               11.09486             97.273                                        3.67460e+002           6.74597e+001           7.45966e+000           4.59655e-001           5.96553e-002           9.65534e-003           6.55344e-004
                   64.90    367.49367                               11.09486             97.273                                        3.67494e+002           6.74937e+001           7.49367e+000           4.93668e-001           9.36677e-002           3.66772e-003           6.67717e-004
                   65.00    367.49873                               11.09486             97.273                                        3.67499e+002           6.74987e+001           7.49873e+000           4.98726e-001           9.87260e-002           8.72601e-003           7.26015e-004
                   65.10    367.49757                               11.09486             97.273                                        3.67498e+002           6.74976e+001           7.49757e+000           4.97568e-001           9.75676e-002           7.56762e-003           5.67622e-004
                   65.20    367.48026                               11.09486             97.273                                        3.67480e+002           6.74803e+001           7.48026e+000           4.80256e-001           8.02563e-002           2.56338e-004           2.56338e-004
                   65.30    367.44772                               11.09486             97.273                                        3.67448e+002           6.74477e+001           7.44772e+000           4.47723e-001           4.77235e-002           7.72349e-003           7.23488e-004
                   65.40    367.46644                               11.09486             97.273                                        3.67466e+002           6.74664e+001           7.46644e+000           4.66438e-001           6.64377e-002           6.43768e-003           4.37684e-004
                   65.50    367.48063                               11.09486             97.273                                        3.67481e+002           6.74806e+001           7.48063e+000           4.80629e-001           8.06285e-002           6.28538e-004           6.28538e-004
                   65.60    367.44871                               11.09486             97.273                                        3.67449e+002           6.74487e+001           7.44871e+000           4.48708e-001           4.87076e-002           8.70764e-003           7.07640e-004
                   65.70    367.43859                               11.09486             97.273                                        3.67439e+002           6.74386e+001           7.43859e+000           4.38590e-001           3.85904e-002           8.59040e-003           5.90398e-004
                   65.80    367.49334                               11.09486             97.273                                        3.67493e+002           6.74933e+001           7.49334e+000           4.93344e-001           9.33435e-002           3.34354e-003           3.43540e-004
                   65.90    367.55292                               11.09486             97.273                                        3.67553e+002           6.75529e+001           7.55292e+000           5.52924e-001           5.29237e-002           2.92369e-003           9.23688e-004
                   66.00    367.51743                               11.09486             97.273                                        3.67517e+002           6.75174e+001           7.51743e+000           5.17430e-001           1.74297e-002           7.42970e-003           4.29701e-004
                   66.10    367.43813                               11.09486             97.273                                        3.67438e+002           6.74381e+001           7.43813e+000           4.38130e-001           3.81301e-002           8.13012e-003           1.30123e-004
                   66.20    367.44341                               11.09486             97.273                                        3.67443e+002           6.74434e+001           7.44341e+000           4.43407e-001           4.34074e-002           3.40743e-003           4.07427e-004
                   66.30    367.49287                               11.09486             97.273                                        3.67493e+002           6.74929e+001           7.49287e+000           4.92869e-001           9.28688e-002           2.86879e-003           8.68793e-004
                   66.40    367.50301                               11.09486             97.273                                        3.67503e+002           6.75030e+001           7.50301e+000           5.03011e-001           3.01068e-003           3.01068e-003           1.06808e-005
