~VERSION INFORMATION
VERS                    .            2.0                                    :CWLS LOG ASCII STANDARD
WRAP                    .            NO                                     :ONE LINE PER TIME STEP


~WELL INFORMATION
#MNEM                   .UNIT        DATA                                    DESCRIPTION
#________________________________________________________________________________________
STRTTIME                .HH/MM/SS    11:44:47                               :START TIME
STOPTIME                .HH/MM/SS    11:47:33                               :STOP TIME
STRT                    .s           2.10                                   :START DATA
STOP                    .s           164.50                                 :STOP DATA
STEP                    .s           0.10                                   :MEASUREMENT TIME INTERVAL
NULL                    .            -999.25                                :NULL VALUE
COMP                    .            Statoil ASA                            :COMPANY
FLD                     .            Volve                                  :FIELD
WELL                    .            15/9-F-11 A                            :WELL
RUN                     .            8                                      :RUN
LOC                     .            Maersk Inspirer                        :LOCATION
PROV                    .            na                                     :PROVINCE
SRVC                    .            Baker Hughes INTEQ                     :SERVICE COMPANY
DATE                    .YY/MM/DD    13/05/21                               :LOG DATE
UWI                     .                                                   :UNIQUE WELL ID
DEPTHMD                 .m           3624.0                                 :MEASURED DEPTH
DEPTHTVD                .m           3020.7                                 :TRUE VERTICAL DEPTH


~CURVE INFORMATION
#MNEM                   .UNIT        API CODES                               DESCRIPTION
#________________________________________________________________________________________
TIME                    .s                                                  :01 TIME
DD_PRESS                .bar                                                :02 DRAW DOWN PRESSURE
DD_VOLUME               .cm3                                                :03 INCREMENTAL DRAW DOWN VOLUME
TEMP                    .degC                                               :04 TRANSDUCER TEMPERATURE
DD_PRESS_MOD_1000       .bar                                                :05 DRAW DOWN PRESSURE MOD 1000
DD_PRESS_MOD_100        .bar                                                :06 DRAW DOWN PRESSURE MOD 100
DD_PRESS_MOD_10         .bar                                                :07 DRAW DOWN PRESSURE MOD 10
DD_PRESS_MOD_1          .bar                                                :08 DRAW DOWN PRESSURE MOD 1
DD_PRESS_MOD_01         .bar                                                :09 DRAW DOWN PRESSURE MOD 01
DD_PRESS_MOD_001        .bar                                                :10 DRAW DOWN PRESSURE MOD 001
DD_PRESS_MOD_0001       .bar                                                :11 DRAW DOWN PRESSURE MOD 0001


~PARAMETER INFORMATION
#MNEM                   .UNIT        VALUE                                   DESCRIPTION
#________________________________________________________________________________________
TOOLFACE                .deg         61.7                                   :01 TOOLFACE
PUMP_CAPACITY           .bar         400                                    :02 NOMINAL DRAW DOWN PUMP CAPACITY
PUMP_LIMIT              .bar         240                                    :03 DOWNLINK PUMP LIMIT
TIME_LIMIT              .min         10                                     :04 DOWNLINK MAX TIME
TEST_TYPE               .            REPEAT                                 :05 DOWNLINK
TEST_TYPE               .            HIGH MOBILITY                          :06 DOWNLINK
DD_PIST_A               .cm2         3.1416                                 :07 DRAW DOWN PISTON AREA
V_SYS                   .cm3         131.0000                               :08 SYSTEM VOLUME
PROBE_ID                .cm          1.2700                                 :09 TTK PROBE ID
G0                      .            4.6700                                 :10 GEOMETRY FACTOR


~A                  TIME     DD_PRESS                              DD_VOLUME               TEMP                                   DD_PRESS_MOD_1000       DD_PRESS_MOD_100        DD_PRESS_MOD_10         DD_PRESS_MOD_1        DD_PRESS_MOD_01       DD_PRESS_MOD_001      DD_PRESS_MOD_0001
# ...
                   13.30    414.93391                                0.00000             81.516                                        4.14934e+002           1.49339e+001           4.93391e+000           9.33911e-001           3.39112e-002           3.91125e-003           9.11248e-004
                   13.40    414.95752                                0.00000             81.516                                        4.14958e+002           1.49575e+001           4.95752e+000           9.57520e-001           5.75205e-002           7.52049e-003           5.20486e-004
                   13.50    414.97065                                0.00000             81.516                                        4.14971e+002           1.49706e+001           4.97065e+000           9.70647e-001           7.06467e-002           6.46653e-004           6.46653e-004
                   13.60    414.98566                                0.00000             81.516                                        4.14986e+002           1.49857e+001           4.98566e+000           9.85658e-001           8.56582e-002           5.65816e-003           6.58160e-004
                   13.70    415.00181                                0.00000             81.516                                        4.15002e+002           1.50018e+001           5.00181e+000           1.81235e-003           1.81235e-003           1.81235e-003           8.12350e-004
                   13.80    415.01301                                0.00000             81.516                                        4.15013e+002           1.50130e+001           5.01301e+000           1.30137e-002           1.30137e-002           3.01370e-003           1.37012e-005
                   13.90    415.00689                                0.00000             81.516                                        4.15007e+002           1.50069e+001           5.00689e+000           6.89453e-003           6.89453e-003           6.89453e-003           8.94534e-004
                   14.00    415.00926                                0.00000             81.516                                        4.15009e+002           1.50093e+001           5.00926e+000           9.25532e-003           9.25532e-003           9.25532e-003           2.55322e-004
                   14.10    415.02882                                0.00000             81.516                                        4.15029e+002           1.50288e+001           5.02882e+000           2.88207e-002           2.88207e-002           8.82067e-003           8.20668e-004
                   14.20    415.04513                                0.00000             81.516                                        4.15045e+002           1.50451e+001           5.04513e+000           4.51307e-002           4.51307e-002           5.13070e-003           1.30700e-004
                   14.30    415.03245                                0.00000             81.516                                        4.15032e+002           1.50324e+001           5.03245e+000           3.24487e-002           3.24487e-002           2.44873e-003           4.48726e-004
                   14.40    415.02505                                0.00000             81.516                                        4.15025e+002           1.50250e+001           5.02505e+000           2.50462e-002           2.50462e-002           5.04623e-003           4.62330e-005
                   14.50    415.04709                                0.00000             81.516                                        4.15047e+002           1.50471e+001           5.04709e+000           4.70940e-002           4.70940e-002           7.09401e-003           9.40112e-005
                   14.60    415.06940                                0.00000             81.516                                        4.15069e+002           1.50694e+001           5.06940e+000           6.94009e-002           6.94009e-002           9.40091e-003           4.00913e-004
                   14.70    415.06906                                0.00000             81.516                                        4.15069e+002           1.50691e+001           5.06906e+000           6.90587e-002           6.90587e-002           9.05873e-003           5.87334e-005
                   14.80    415.08111                                0.00000             81.516                                        4.15081e+002           1.50811e+001           5.08111e+000           8.11150e-002           8.11150e-002           1.11499e-003           1.14992e-004
                   14.90    415.10883                                0.00000             81.516                                        4.15109e+002           1.51088e+001           5.10883e+000           1.08829e-001           8.82896e-003           8.82896e-003           8.28958e-004
                   15.00    415.10487                                0.00000             81.516                                        4.15105e+002           1.51049e+001           5.10487e+000           1.04868e-001           4.86799e-003           4.86799e-003           8.67990e-004
                   15.10    415.07546                                0.00000             81.516                                        4.15075e+002           1.50755e+001           5.07546e+000           7.54622e-002           7.54622e-002           5.46222e-003           4.62221e-004
                   15.20    415.06912                                0.00000             81.516                                        4.15069e+002           1.50691e+001           5.06912e+000           6.91216e-002           6.91216e-002           9.12163e-003           1.21631e-004
                   15.30    415.10655                                0.00000             81.516                                        4.15107e+002           1.51065e+001           5.10655e+000           1.06546e-001           6.54551e-003           6.54551e-003           5.45511e-004
                   15.40    415.12623                                0.00000             81.516                                        4.15126e+002           1.51262e+001           5.12623e+000           1.26233e-001           2.62330e-002           6.23297e-003           2.32970e-004
                   15.50    415.10309                                0.00000             81.516                                        4.15103e+002           1.51031e+001           5.10309e+000           1.03092e-001           3.09203e-003           3.09203e-003           9.20311e-005
                   15.60    415.07772                                0.00000             81.516                                        4.15078e+002           1.50777e+001           5.07772e+000           7.77233e-002           7.77233e-002           7.72333e-003           7.23329e-004
                   15.70    415.09310                                0.00000             81.516                                        4.15093e+002           1.50931e+001           5.09310e+000           9.30983e-002           9.30983e-002           3.09828e-003           9.82760e-005
                   15.80    415.10592                                0.00000             81.516                                        4.15106e+002           1.51059e+001           5.10592e+000           1.05922e-001           5.92208e-003           5.92208e-003           9.22080e-004
                   15.90    415.10417                                0.00000             81.516                                        4.15104e+002           1.51042e+001           5.10417e+000           1.04175e-001           4.17454e-003           4.17454e-003           1.74543e-004
                   16.00    415.11469                                0.00000             81.516                                        4.15115e+002           1.51147e+001           5.11469e+000           1.14690e-001           1.46903e-002           4.69033e-003           6.90333e-004
