~VERSION INFORMATION
VERS                    .            2.0                                    :CWLS LOG ASCII STANDARD
WRAP                    .            NO                                     :ONE LINE PER TIME STEP


~WELL INFORMATION
#MNEM                   .UNIT        DATA                                    DESCRIPTION
#________________________________________________________________________________________
STRTTIME                .HH/MM/SS    23:39:21                               :START TIME
STOPTIME                .HH/MM/SS    23:43:19                               :STOP TIME
STRT                    .s           2.10                                   :START DATA
STOP                    .s           236.60                                 :STOP DATA
STEP                    .s           0.10                                   :MEASUREMENT TIME INTERVAL
NULL                    .            -999.25                                :NULL VALUE
COMP                    .            Statoil                                :COMPANY
FLD                     .            Volve                                  :FIELD
WELL                    .            15/9-F-11 T2                           :WELL
RUN                     .            7                                      :RUN
LOC                     .            Maersk Inspirer                        :LOCATION
PROV                    .            na                                     :PROVINCE
SRVC                    .            Baker Hughes INTEQ                     :SERVICE COMPANY
DATE                    .YY/MM/DD    13/05/04                               :LOG DATE
UWI                     .                                                   :UNIQUE WELL ID
DEPTHMD                 .m           4417.0                                 :MEASURED DEPTH
DEPTHTVD                .m           3257.6                                 :TRUE VERTICAL DEPTH


~CURVE INFORMATION
#MNEM                   .UNIT        API CODES                               DESCRIPTION
#________________________________________________________________________________________
TIME                    .s                                                  :01 TIME
DD_PRESS                .bar                                                :02 DRAW DOWN PRESSURE
DD_VOLUME               .cm3                                                :03 INCREMENTAL DRAW DOWN VOLUME
TEMP                    .degC                                               :04 TRANSDUCER TEMPERATURE
DD_PRESS_MOD_1000       .bar                                                :05 DRAW DOWN PRESSURE MOD 1000
DD_PRESS_MOD_100        .bar                                                :06 DRAW DOWN PRESSURE MOD 100
DD_PRESS_MOD_10         .bar                                                :07 DRAW DOWN PRESSURE MOD 10
DD_PRESS_MOD_1          .bar                                                :08 DRAW DOWN PRESSURE MOD 1
DD_PRESS_MOD_01         .bar                                                :09 DRAW DOWN PRESSURE MOD 01
DD_PRESS_MOD_001        .bar                                                :10 DRAW DOWN PRESSURE MOD 001
DD_PRESS_MOD_0001       .bar                                                :11 DRAW DOWN PRESSURE MOD 0001


~PARAMETER INFORMATION
#MNEM                   .UNIT        VALUE                                   DESCRIPTION
#________________________________________________________________________________________
TOOLFACE                .deg         na                                     :01 TOOLFACE
PUMP_CAPACITY           .bar         400                                    :02 NOMINAL DRAW DOWN PUMP CAPACITY
PUMP_LIMIT              .bar         240                                    :03 DOWNLINK PUMP LIMIT
TIME_LIMIT              .min         10                                     :04 DOWNLINK MAX TIME
TEST_TYPE               .            REPEAT                                 :05 DOWNLINK
TEST_TYPE               .            HIGH MOBILITY                          :06 DOWNLINK
DD_PIST_A               .cm2         3.1416                                 :07 DRAW DOWN PISTON AREA
V_SYS                   .cm3         131.0000                               :08 SYSTEM VOLUME
PROBE_ID                .cm          1.2700                                 :09 TTK PROBE ID
G0                      .            4.6700                                 :10 GEOMETRY FACTOR


~A                  TIME     DD_PRESS                              DD_VOLUME               TEMP                                   DD_PRESS_MOD_1000       DD_PRESS_MOD_100        DD_PRESS_MOD_10         DD_PRESS_MOD_1        DD_PRESS_MOD_01       DD_PRESS_MOD_001      DD_PRESS_MOD_0001
# ...
                  125.30    361.06784                               14.22735             96.016                                        3.61068e+002           6.10678e+001           1.06784e+000           6.78356e-002           6.78356e-002           7.83557e-003           8.35567e-004
                  125.40    361.08785                               14.22735             96.016                                        3.61088e+002           6.10878e+001           1.08785e+000           8.78486e-002           8.78486e-002           7.84858e-003           8.48581e-004
                  125.50    361.07972                               14.22735             96.016                                        3.61080e+002           6.10797e+001           1.07972e+000           7.97239e-002           7.97239e-002           9.72386e-003           7.23859e-004
                  125.60    361.07069                               14.22735             96.013                                        3.61071e+002           6.10707e+001           1.07069e+000           7.06913e-002           7.06913e-002           6.91333e-004           6.91333e-004
                  125.70    361.07918                               14.22735             96.012                                        3.61079e+002           6.10792e+001           1.07918e+000           7.91816e-002           7.91816e-002           9.18161e-003           1.81608e-004
                  125.80    361.08269                               14.22735             96.011                                        3.61083e+002           6.10827e+001           1.08269e+000           8.26883e-002           8.26883e-002           2.68834e-003           6.88336e-004
                  125.90    361.07409                               14.22735             96.012                                        3.61074e+002           6.10741e+001           1.07409e+000           7.40907e-002           7.40907e-002           4.09073e-003           9.07348e-005
                  126.00    361.07718                               14.22735             96.011                                        3.61077e+002           6.10772e+001           1.07718e+000           7.71834e-002           7.71834e-002           7.18345e-003           1.83447e-004
                  126.10    361.08310                               14.22735             96.012                                        3.61083e+002           6.10831e+001           1.08310e+000           8.30957e-002           8.30957e-002           3.09569e-003           9.56917e-005
                  126.20    361.08035                               14.22735             96.011                                        3.61080e+002           6.10803e+001           1.08035e+000           8.03473e-002           8.03473e-002           3.47254e-004           3.47254e-004
                  126.30    361.07854                               14.22735             96.012                                        3.61079e+002           6.10785e+001           1.07854e+000           7.85381e-002           7.85381e-002           8.53812e-003           5.38117e-004
                  126.40    361.07283                               14.22735             96.014                                        3.61073e+002           6.10728e+001           1.07283e+000           7.28262e-002           7.28262e-002           2.82621e-003           8.26206e-004
                  126.50    361.06937                               14.22735             96.016                                        3.61069e+002           6.10694e+001           1.06937e+000           6.93696e-002           6.93696e-002           9.36957e-003           3.69568e-004
                  126.60    361.07586                               14.22735             96.013                                        3.61076e+002           6.10759e+001           1.07586e+000           7.58606e-002           7.58606e-002           5.86063e-003           8.60626e-004
                  126.70    361.08244                               14.22735             96.010                                        3.61082e+002           6.10824e+001           1.08244e+000           8.24365e-002           8.24365e-002           2.43651e-003           4.36514e-004
                  126.80    361.07373                               14.22735             96.008                                        3.61074e+002           6.10737e+001           1.07373e+000           7.37346e-002           7.37346e-002           3.73460e-003           7.34602e-004
                  126.90    361.08132                               14.22735             96.008                                        3.61081e+002           6.10813e+001           1.08132e+000           8.13230e-002           8.13230e-002           1.32303e-003           3.23026e-004
                  127.00    361.09439                               14.22735             96.008                                        3.61094e+002           6.10944e+001           1.09439e+000           9.43864e-002           9.43864e-002           4.38636e-003           3.86362e-004
                  127.10    361.08292                               14.22735             96.008                                        3.61083e+002           6.10829e+001           1.08292e+000           8.29170e-002           8.29170e-002           2.91699e-003           9.16992e-004
                  127.20    361.06898                               14.22735             96.008                                        3.61069e+002           6.10690e+001           1.06898e+000           6.89766e-002           6.89766e-002           8.97661e-003           9.76612e-004
                  127.30    361.08451                               14.22735             96.010                                        3.61085e+002           6.10845e+001           1.08451e+000           8.45139e-002           8.45139e-002           4.51394e-003           5.13939e-004
                  127.40    361.09334                               14.22735             96.011                                        3.61093e+002           6.10933e+001           1.09334e+000           9.33356e-002           9.33356e-002           3.33562e-003           3.35619e-004
                  127.50    361.06916                               14.22735             96.010                                        3.61069e+002           6.10692e+001           1.06916e+000           6.91648e-002           6.91648e-002           9.16476e-003           1.64764e-004
                  127.60    361.06496                               14.22735             96.008                                        3.61065e+002           6.10650e+001           1.06496e+000           6.49565e-002           6.49565e-002           4.95647e-003           9.56472e-004
                  127.70    361.08670                               14.22735             96.008                                        3.61087e+002           6.10867e+001           1.08670e+000           8.66999e-002           8.66999e-002           6.69986e-003           6.99856e-004
                  127.80    361.08667                               14.22735             96.008                                        3.61087e+002           6.10867e+001           1.08667e+000           8.66652e-002           8.66652e-002           6.66521e-003           6.65210e-004
                  127.90    361.07001                               14.22735             96.010                                        3.61070e+002           6.10700e+001           1.07001e+000           7.00114e-002           7.00114e-002           1.13955e-005           1.13955e-005
                  128.00    361.08076                               14.22735             96.011                                        3.61081e+002           6.10808e+001           1.08076e+000           8.07587e-002           8.07587e-002           7.58719e-004           7.58719e-004
