~VERSION INFORMATION
VERS                    .            2.0                                    :CWLS LOG ASCII STANDARD
WRAP                    .            NO                                     :ONE LINE PER TIME STEP


~WELL INFORMATION
#MNEM                   .UNIT        DATA                                    DESCRIPTION
#________________________________________________________________________________________
STRTTIME                .HH/MM/SS    10:22:55                               :START TIME
STOPTIME                .HH/MM/SS    10:26:06                               :STOP TIME
STRT                    .s           2.10                                   :START DATA
STOP                    .s           189.80                                 :STOP DATA
STEP                    .s           0.10                                   :MEASUREMENT TIME INTERVAL
NULL                    .            -999.25                                :NULL VALUE
COMP                    .            Statoil ASA                            :COMPANY
FLD                     .            Volve                                  :FIELD
WELL                    .            15/9-F-11 A                            :WELL
RUN                     .            8                                      :RUN
LOC                     .            Maersk Inspirer                        :LOCATION
PROV                    .            na                                     :PROVINCE
SRVC                    .            Baker Hughes INTEQ                     :SERVICE COMPANY
DATE                    .YY/MM/DD    13/05/21                               :LOG DATE
UWI                     .                                                   :UNIQUE WELL ID
DEPTHMD                 .m           3651.0                                 :MEASURED DEPTH
DEPTHTVD                .m           3041.4                                 :TRUE VERTICAL DEPTH


~CURVE INFORMATION
#MNEM                   .UNIT        API CODES                               DESCRIPTION
#________________________________________________________________________________________
TIME                    .s                                                  :01 TIME
DD_PRESS                .bar                                                :02 DRAW DOWN PRESSURE
DD_VOLUME               .cm3                                                :03 INCREMENTAL DRAW DOWN VOLUME
TEMP                    .degC                                               :04 TRANSDUCER TEMPERATURE
DD_PRESS_MOD_1000       .bar                                                :05 DRAW DOWN PRESSURE MOD 1000
DD_PRESS_MOD_100        .bar                                                :06 DRAW DOWN PRESSURE MOD 100
DD_PRESS_MOD_10         .bar                                                :07 DRAW DOWN PRESSURE MOD 10
DD_PRESS_MOD_1          .bar                                                :08 DRAW DOWN PRESSURE MOD 1
DD_PRESS_MOD_01         .bar                                                :09 DRAW DOWN PRESSURE MOD 01
DD_PRESS_MOD_001        .bar                                                :10 DRAW DOWN PRESSURE MOD 001
DD_PRESS_MOD_0001       .bar                                                :11 DRAW DOWN PRESSURE MOD 0001


~PARAMETER INFORMATION
#MNEM                   .UNIT        VALUE                                   DESCRIPTION
#________________________________________________________________________________________
TOOLFACE                .deg         61.5                                   :01 TOOLFACE
PUMP_CAPACITY           .bar         400                                    :02 NOMINAL DRAW DOWN PUMP CAPACITY
PUMP_LIMIT              .bar         240                                    :03 DOWNLINK PUMP LIMIT
TIME_LIMIT              .min         10                                     :04 DOWNLINK MAX TIME
TEST_TYPE               .            REPEAT                                 :05 DOWNLINK
TEST_TYPE               .            HIGH MOBILITY                          :06 DOWNLINK
DD_PIST_A               .cm2         3.1416                                 :07 DRAW DOWN PISTON AREA
V_SYS                   .cm3         131.0000                               :08 SYSTEM VOLUME
PROBE_ID                .cm          1.2700                                 :09 TTK PROBE ID
G0                      .            4.6700                                 :10 GEOMETRY FACTOR


~A                  TIME     DD_PRESS                              DD_VOLUME               TEMP                                   DD_PRESS_MOD_1000       DD_PRESS_MOD_100        DD_PRESS_MOD_10         DD_PRESS_MOD_1        DD_PRESS_MOD_01       DD_PRESS_MOD_001      DD_PRESS_MOD_0001
# ...
                  114.10    343.78853                               19.78571             81.070                                        3.43789e+002           4.37885e+001           3.78853e+000           7.88534e-001           8.85340e-002           8.53395e-003           5.33951e-004
                  114.20    343.79252                               19.78571             81.070                                        3.43793e+002           4.37925e+001           3.79252e+000           7.92522e-001           9.25219e-002           2.52191e-003           5.21911e-004
                  114.30    343.79087                               19.78571             81.070                                        3.43791e+002           4.37909e+001           3.79087e+000           7.90867e-001           9.08672e-002           8.67171e-004           8.67171e-004
                  114.40    343.78763                               19.78571             81.070                                        3.43788e+002           4.37876e+001           3.78763e+000           7.87627e-001           8.76274e-002           7.62736e-003           6.27360e-004
                  114.50    343.78877                               19.78571             81.070                                        3.43789e+002           4.37888e+001           3.78877e+000           7.88766e-001           8.87660e-002           8.76595e-003           7.65951e-004
                  114.60    343.79183                               19.78571             81.070                                        3.43792e+002           4.37918e+001           3.79183e+000           7.91829e-001           9.18289e-002           1.82886e-003           8.28858e-004
                  114.70    343.79268                               19.78571             81.070                                        3.43793e+002           4.37927e+001           3.79268e+000           7.92675e-001           9.26755e-002           2.67549e-003           6.75494e-004
                  114.80    343.79011                               19.78571             81.070                                        3.43790e+002           4.37901e+001           3.79011e+000           7.90110e-001           9.01102e-002           1.10231e-004           1.10231e-004
                  114.90    343.78780                               19.78571             81.070                                        3.43788e+002           4.37878e+001           3.78780e+000           7.87798e-001           8.77982e-002           7.79816e-003           7.98158e-004
                  115.00    343.78802                               19.78571             81.070                                        3.43788e+002           4.37880e+001           3.78802e+000           7.88022e-001           8.80216e-002           8.02158e-003           2.15831e-005
                  115.10    343.78792                               19.78571             81.070                                        3.43788e+002           4.37879e+001           3.78792e+000           7.87917e-001           8.79166e-002           7.91665e-003           9.16650e-004
                  115.20    343.78747                               19.78571             81.070                                        3.43787e+002           4.37875e+001           3.78747e+000           7.87474e-001           8.74737e-002           7.47372e-003           4.73720e-004
                  115.30    343.78663                               19.78571             81.070                                        3.43787e+002           4.37866e+001           3.78663e+000           7.86626e-001           8.66256e-002           6.62559e-003           6.25589e-004
                  115.40    343.78545                               19.78571             81.070                                        3.43785e+002           4.37855e+001           3.78545e+000           7.85453e-001           8.54525e-002           5.45251e-003           4.52514e-004
                  115.50    343.78545                               19.78571             81.070                                        3.43785e+002           4.37855e+001           3.78545e+000           7.85453e-001           8.54525e-002           5.45251e-003           4.52514e-004
                  115.60    343.78606                               19.78571             81.070                                        3.43786e+002           4.37861e+001           3.78606e+000           7.86058e-001           8.60580e-002           6.05801e-003           5.80055e-005
                  115.70    343.78613                               19.78571             81.070                                        3.43786e+002           4.37861e+001           3.78613e+000           7.86126e-001           8.61260e-002           6.12596e-003           1.25962e-004
                  115.80    343.78572                               19.78571             81.070                                        3.43786e+002           4.37857e+001           3.78572e+000           7.85720e-001           8.57205e-002           5.72045e-003           7.20454e-004
                  115.90    343.78548                               19.78571             81.070                                        3.43785e+002           4.37855e+001           3.78548e+000           7.85477e-001           8.54765e-002           5.47654e-003           4.76543e-004
                  116.00    343.78543                               19.78571             81.070                                        3.43785e+002           4.37854e+001           3.78543e+000           7.85433e-001           8.54331e-002           5.43308e-003           4.33080e-004
                  116.10    343.78560                               19.78571             81.070                                        3.43786e+002           4.37856e+001           3.78560e+000           7.85595e-001           8.55954e-002           5.59538e-003           5.95376e-004
                  116.20    343.78715                               19.78571             81.070                                        3.43787e+002           4.37871e+001           3.78715e+000           7.87146e-001           8.71465e-002           7.14646e-003           1.46461e-004
                  116.30    343.78902                               19.78571             81.070                                        3.43789e+002           4.37890e+001           3.78902e+000           7.89021e-001           8.90207e-002           9.02066e-003           2.06600e-005
                  116.40    343.78835                               19.78571             81.070                                        3.43788e+002           4.37883e+001           3.78835e+000           7.88349e-001           8.83494e-002           8.34942e-003           3.49418e-004
                  116.50    343.78672                               19.78571             81.070                                        3.43787e+002           4.37867e+001           3.78672e+000           7.86723e-001           8.67231e-002           6.72311e-003           7.23110e-004
                  116.60    343.78867                               19.78571             81.070                                        3.43789e+002           4.37887e+001           3.78867e+000           7.88670e-001           8.86704e-002           8.67038e-003           6.70376e-004
                  116.70    343.78892                               19.78571             81.070                                        3.43789e+002           4.37889e+001           3.78892e+000           7.88920e-001           8.89202e-002           8.92017e-003           9.20170e-004
                  116.80    343.78637                               19.78571             81.070                                        3.43786e+002           4.37864e+001           3.78637e+000           7.86371e-001           8.63714e-002           6.37142e-003           3.71425e-004
