~VERSION INFORMATION
VERS                    .            2.0                                    :CWLS LOG ASCII STANDARD
WRAP                    .            NO                                     :ONE LINE PER TIME STEP


~WELL INFORMATION
#MNEM                   .UNIT        DATA                                    DESCRIPTION
#________________________________________________________________________________________
STRTTIME                .HH/MM/SS    19:52:58                               :START TIME
STOPTIME                .HH/MM/SS    19:58:21                               :STOP TIME
STRT                    .s           2.10                                   :START DATA
STOP                    .s           321.30                                 :STOP DATA
STEP                    .s           0.10                                   :MEASUREMENT TIME INTERVAL
NULL                    .            -999.25                                :NULL VALUE
COMP                    .            Statoil ASA                            :COMPANY
FLD                     .            Volve                                  :FIELD
WELL                    .            15/9-F-11 A                            :WELL
RUN                     .            8                                      :RUN
LOC                     .            Maersk Inspirer                        :LOCATION
PROV                    .            na                                     :PROVINCE
SRVC                    .            Baker Hughes INTEQ                     :SERVICE COMPANY
DATE                    .YY/MM/DD    13/05/23                               :LOG DATE
UWI                     .                                                   :UNIQUE WELL ID
DEPTHMD                 .m           3602.0                                 :MEASURED DEPTH
DEPTHTVD                .m           3003.9                                 :TRUE VERTICAL DEPTH


~CURVE INFORMATION
#MNEM                   .UNIT        API CODES                               DESCRIPTION
#________________________________________________________________________________________
TIME                    .s                                                  :01 TIME
DD_PRESS                .bar                                                :02 DRAW DOWN PRESSURE
DD_VOLUME               .cm3                                                :03 INCREMENTAL DRAW DOWN VOLUME
TEMP                    .degC                                               :04 TRANSDUCER TEMPERATURE
DD_PRESS_MOD_1000       .bar                                                :05 DRAW DOWN PRESSURE MOD 1000
DD_PRESS_MOD_100        .bar                                                :06 DRAW DOWN PRESSURE MOD 100
DD_PRESS_MOD_10         .bar                                                :07 DRAW DOWN PRESSURE MOD 10
DD_PRESS_MOD_1          .bar                                                :08 DRAW DOWN PRESSURE MOD 1
DD_PRESS_MOD_01         .bar                                                :09 DRAW DOWN PRESSURE MOD 01
DD_PRESS_MOD_001        .bar                                                :10 DRAW DOWN PRESSURE MOD 001
DD_PRESS_MOD_0001       .bar                                                :11 DRAW DOWN PRESSURE MOD 0001


~PARAMETER INFORMATION
#MNEM                   .UNIT        VALUE                                   DESCRIPTION
#________________________________________________________________________________________
TOOLFACE                .deg         -40.9                                  :01 TOOLFACE
PUMP_CAPACITY           .bar         400                                    :02 NOMINAL DRAW DOWN PUMP CAPACITY
PUMP_LIMIT              .bar         240                                    :03 DOWNLINK PUMP LIMIT
TIME_LIMIT              .min         10                                     :04 DOWNLINK MAX TIME
TEST_TYPE               .            REPEAT                                 :05 DOWNLINK
TEST_TYPE               .            HIGH MOBILITY                          :06 DOWNLINK
DD_PIST_A               .cm2         3.1416                                 :07 DRAW DOWN PISTON AREA
V_SYS                   .cm3         131.0000                               :08 SYSTEM VOLUME
PROBE_ID                .cm          1.2700                                 :09 TTK PROBE ID
G0                      .            4.6700                                 :10 GEOMETRY FACTOR


~A                  TIME     DD_PRESS                              DD_VOLUME               TEMP                                   DD_PRESS_MOD_1000       DD_PRESS_MOD_100        DD_PRESS_MOD_10         DD_PRESS_MOD_1        DD_PRESS_MOD_01       DD_PRESS_MOD_001      DD_PRESS_MOD_0001
# ...
                  212.10    341.61591                               12.03703             71.039                                        3.41616e+002           4.16159e+001           1.61591e+000           6.15913e-001           1.59128e-002           5.91281e-003           9.12812e-004
                  212.20    341.68718                               12.03703             71.039                                        3.41687e+002           4.16872e+001           1.68718e+000           6.87175e-001           8.71751e-002           7.17507e-003           1.75069e-004
                  212.30    341.73766                               12.03703             71.039                                        3.41738e+002           4.17377e+001           1.73766e+000           7.37658e-001           3.76583e-002           7.65827e-003           6.58273e-004
                  212.40    341.68194                               12.03703             71.039                                        3.41682e+002           4.16819e+001           1.68194e+000           6.81943e-001           8.19426e-002           1.94258e-003           9.42578e-004
                  212.50    341.60725                               12.03703             71.039                                        3.41607e+002           4.16072e+001           1.60725e+000           6.07249e-001           7.24942e-003           7.24942e-003           2.49423e-004
                  212.60    341.61678                               12.03703             71.039                                        3.41617e+002           4.16168e+001           1.61678e+000           6.16780e-001           1.67801e-002           6.78007e-003           7.80071e-004
                  212.70    341.67103                               12.03703             71.039                                        3.41671e+002           4.16710e+001           1.67103e+000           6.71027e-001           7.10271e-002           1.02710e-003           2.70993e-005
                  212.80    341.66179                               12.03703             71.039                                        3.41662e+002           4.16618e+001           1.66179e+000           6.61793e-001           6.17927e-002           1.79273e-003           7.92728e-004
                  212.90    341.58857                               12.03703             71.039                                        3.41589e+002           4.15886e+001           1.58857e+000           5.88567e-001           8.85671e-002           8.56710e-003           5.67104e-004
                  213.00    341.59090                               12.03703             71.039                                        3.41591e+002           4.15909e+001           1.59090e+000           5.90902e-001           9.09019e-002           9.01943e-004           9.01943e-004
                  213.10    341.67773                               12.03703             71.039                                        3.41678e+002           4.16777e+001           1.67773e+000           6.77730e-001           7.77295e-002           7.72951e-003           7.29506e-004
                  213.20    341.72036                               12.03703             71.039                                        3.41720e+002           4.17204e+001           1.72036e+000           7.20362e-001           2.03616e-002           3.61621e-004           3.61621e-004
                  213.30    341.68848                               12.03703             71.039                                        3.41688e+002           4.16885e+001           1.68848e+000           6.88477e-001           8.84770e-002           8.47703e-003           4.77030e-004
                  213.40    341.66286                               12.03703             71.039                                        3.41663e+002           4.16629e+001           1.66286e+000           6.62863e-001           6.28629e-002           2.86294e-003           8.62945e-004
                  213.50    341.70685                               12.03703             71.039                                        3.41707e+002           4.17069e+001           1.70685e+000           7.06851e-001           6.85063e-003           6.85063e-003           8.50628e-004
                  213.60    341.72873                               12.03703             71.041                                        3.41729e+002           4.17287e+001           1.72873e+000           7.28735e-001           2.87346e-002           8.73464e-003           7.34645e-004
                  213.70    341.66830                               12.03703             71.045                                        3.41668e+002           4.16683e+001           1.66830e+000           6.68301e-001           6.83014e-002           8.30143e-003           3.01426e-004
                  213.80    341.61009                               12.03703             71.047                                        3.41610e+002           4.16101e+001           1.61009e+000           6.10088e-001           1.00882e-002           8.82317e-005           8.82317e-005
                  213.90    341.63472                               12.03703             71.045                                        3.41635e+002           4.16347e+001           1.63472e+000           6.34720e-001           3.47200e-002           4.72004e-003           7.20045e-004
                  214.00    341.66861                               12.03703             71.041                                        3.41669e+002           4.16686e+001           1.66861e+000           6.68609e-001           6.86087e-002           8.60869e-003           6.08687e-004
                  214.10    341.62931                               12.03703             71.039                                        3.41629e+002           4.16293e+001           1.62931e+000           6.29306e-001           2.93059e-002           9.30586e-003           3.05855e-004
                  214.20    341.56119                               12.03703             71.041                                        3.41561e+002           4.15612e+001           1.56119e+000           5.61190e-001           6.11898e-002           1.18978e-003           1.89782e-004
                  214.30    341.58751                               12.03703             71.045                                        3.41588e+002           4.15875e+001           1.58751e+000           5.87508e-001           8.75081e-002           7.50815e-003           5.08148e-004
                  214.40    341.65805                               12.03703             71.047                                        3.41658e+002           4.16581e+001           1.65805e+000           6.58053e-001           5.80531e-002           8.05305e-003           5.30526e-005
                  214.50    341.65818                               12.03703             71.047                                        3.41658e+002           4.16582e+001           1.65818e+000           6.58176e-001           5.81760e-002           8.17601e-003           1.76007e-004
                  214.60    341.60857                               12.03703             71.047                                        3.41609e+002           4.16086e+001           1.60857e+000           6.08571e-001           8.57068e-003           8.57068e-003           5.70677e-004
                  214.70    341.60382                               12.03703             71.047                                        3.41604e+002           4.16038e+001           1.60382e+000           6.03815e-001           3.81530e-003           3.81530e-003           8.15295e-004
                  214.80    341.66344                               12.03703             71.047                                        3.41663e+002           4.16634e+001           1.66344e+000           6.63439e-001           6.34391e-002           3.43909e-003           4.39087e-004
