~VERSION INFORMATION
VERS                    .            2.0                                    :CWLS LOG ASCII STANDARD
WRAP                    .            NO                                     :ONE LINE PER TIME STEP


~WELL INFORMATION
#MNEM                   .UNIT        DATA                                    DESCRIPTION
#________________________________________________________________________________________
STRTTIME                .HH/MM/SS    16:37:30                               :START TIME
STOPTIME                .HH/MM/SS    16:40:36                               :STOP TIME
STRT                    .s           2.10                                   :START DATA
STOP                    .s           184.70                                 :STOP DATA
STEP                    .s           0.10                                   :MEASUREMENT TIME INTERVAL
NULL                    .            -999.25                                :NULL VALUE
COMP                    .            Statoil ASA                            :COMPANY
FLD                     .            Volve                                  :FIELD
WELL                    .            15/9-F-1 B                             :WELL
RUN                     .            7                                      :RUN
LOC                     .            Maersk Inspirer                        :LOCATION
PROV                    .            na                                     :PROVINCE
SRVC                    .            Baker Hughes INTEQ                     :SERVICE COMPANY
DATE                    .YY/MM/DD    13/09/06                               :LOG DATE
UWI                     .                                                   :UNIQUE WELL ID
DEPTHMD                 .m           3247.0                                 :MEASURED DEPTH
DEPTHTVD                .m           3043.3                                 :TRUE VERTICAL DEPTH


~CURVE INFORMATION
#MNEM                   .UNIT        API CODES                               DESCRIPTION
#________________________________________________________________________________________
TIME                    .s                                                  :01 TIME
DD_PRESS                .bar                                                :02 DRAW DOWN PRESSURE
DD_VOLUME               .cm3                                                :03 INCREMENTAL DRAW DOWN VOLUME
TEMP                    .degC                                               :04 TRANSDUCER TEMPERATURE
DD_PRESS_MOD_1000       .bar                                                :05 DRAW DOWN PRESSURE MOD 1000
DD_PRESS_MOD_100        .bar                                                :06 DRAW DOWN PRESSURE MOD 100
DD_PRESS_MOD_10         .bar                                                :07 DRAW DOWN PRESSURE MOD 10
DD_PRESS_MOD_1          .bar                                                :08 DRAW DOWN PRESSURE MOD 1
DD_PRESS_MOD_01         .bar                                                :09 DRAW DOWN PRESSURE MOD 01
DD_PRESS_MOD_001        .bar                                                :10 DRAW DOWN PRESSURE MOD 001
DD_PRESS_MOD_0001       .bar                                                :11 DRAW DOWN PRESSURE MOD 0001


~PARAMETER INFORMATION
#MNEM                   .UNIT        VALUE                                   DESCRIPTION
#________________________________________________________________________________________
TOOLFACE                .deg         na                                     :01 TOOLFACE
PUMP_CAPACITY           .bar         400                                    :02 NOMINAL DRAW DOWN PUMP CAPACITY
PUMP_LIMIT              .bar         400                                    :03 DOWNLINK PUMP LIMIT
TIME_LIMIT              .min         10                                     :04 DOWNLINK MAX TIME
TEST_TYPE               .            LOW MOBILITY                           :05 DOWNLINK
DD_PIST_A               .cm2         3.1416                                 :06 DRAW DOWN PISTON AREA
V_SYS                   .cm3         131.0000                               :07 SYSTEM VOLUME
PROBE_ID                .cm          1.2700                                 :08 TTK PROBE ID
G0                      .            4.6700                                 :09 GEOMETRY FACTOR


~A                  TIME     DD_PRESS                              DD_VOLUME               TEMP                                   DD_PRESS_MOD_1000       DD_PRESS_MOD_100        DD_PRESS_MOD_10         DD_PRESS_MOD_1        DD_PRESS_MOD_01       DD_PRESS_MOD_001      DD_PRESS_MOD_0001
# ...
                   27.30    430.21490                                1.35450             81.594                                        4.30215e+002           3.02149e+001           2.14898e-001           2.14898e-001           1.48975e-002           4.89752e-003           8.97523e-004
                   27.40    429.21755                                1.37202             81.594                                        4.29218e+002           2.92176e+001           9.21755e+000           2.17553e-001           1.75532e-002           7.55322e-003           5.53223e-004
                   27.50    428.17160                                1.39151             81.594                                        4.28172e+002           2.81716e+001           8.17160e+000           1.71602e-001           7.16020e-002           1.60197e-003           6.01967e-004
                   27.60    427.07819                                1.41284             81.594                                        4.27078e+002           2.70782e+001           7.07819e+000           7.81866e-002           7.81866e-002           8.18663e-003           1.86630e-004
                   27.70    425.99719                                1.43610             81.594                                        4.25997e+002           2.59972e+001           5.99719e+000           9.97193e-001           9.71933e-002           7.19326e-003           1.93260e-004
                   27.80    424.93433                                1.46140             81.594                                        4.24934e+002           2.49343e+001           4.93433e+000           9.34334e-001           3.43345e-002           4.33448e-003           3.34485e-004
                   27.90    423.74836                                1.48871             81.594                                        4.23748e+002           2.37484e+001           3.74836e+000           7.48362e-001           4.83624e-002           8.36237e-003           3.62373e-004
                   28.00    422.26531                                1.51783             81.594                                        4.22265e+002           2.22653e+001           2.26531e+000           2.65313e-001           6.53126e-002           5.31256e-003           3.12556e-004
                   28.10    420.34974                                1.54879             81.594                                        4.20350e+002           2.03497e+001           3.49738e-001           3.49738e-001           4.97381e-002           9.73813e-003           7.38134e-004
                   28.20    418.07594                                1.58167             81.594                                        4.18076e+002           1.80759e+001           8.07594e+000           7.59400e-002           7.59400e-002           5.93999e-003           9.39986e-004
                   28.30    415.57413                                1.61650             81.594                                        4.15574e+002           1.55741e+001           5.57413e+000           5.74131e-001           7.41309e-002           4.13086e-003           1.30859e-004
                   28.40    412.87386                                1.65310             81.594                                        4.12874e+002           1.28739e+001           2.87386e+000           8.73864e-001           7.38642e-002           3.86419e-003           8.64192e-004
                   28.50    409.98837                                1.69149             81.594                                        4.09988e+002           9.98837e+000           9.98837e+000           9.88367e-001           8.83670e-002           8.36698e-003           3.66982e-004
                   28.60    406.96506                                1.73170             81.594                                        4.06965e+002           6.96506e+000           6.96506e+000           9.65065e-001           6.50650e-002           5.06495e-003           6.49512e-005
                   28.70    403.78548                                1.77366             81.594                                        4.03785e+002           3.78548e+000           3.78548e+000           7.85477e-001           8.54773e-002           5.47733e-003           4.77328e-004
                   28.80    400.41585                                1.81749             81.594                                        4.00416e+002           4.15845e-001           4.15845e-001           4.15845e-001           1.58453e-002           5.84531e-003           8.45310e-004
                   28.90    396.84151                                1.86310             81.594                                        3.96842e+002           9.68415e+001           6.84151e+000           8.41510e-001           4.15101e-002           1.51011e-003           5.10114e-004
                   29.00    393.10349                                1.91046             81.591                                        3.93103e+002           9.31035e+001           3.10349e+000           1.03490e-001           3.49011e-003           3.49011e-003           4.90112e-004
                   29.10    389.20442                                1.95955             81.590                                        3.89204e+002           8.92044e+001           9.20442e+000           2.04425e-001           4.42455e-003           4.42455e-003           4.24550e-004
                   29.20    385.13030                                2.01032             81.589                                        3.85130e+002           8.51303e+001           5.13030e+000           1.30300e-001           3.03002e-002           3.00245e-004           3.00245e-004
                   29.30    380.89556                                2.06281             81.588                                        3.80896e+002           8.08956e+001           8.95556e-001           8.95556e-001           9.55560e-002           5.55603e-003           5.56035e-004
                   29.40    376.53831                                2.11696             81.586                                        3.76538e+002           7.65383e+001           6.53831e+000           5.38312e-001           3.83123e-002           8.31233e-003           3.12327e-004
                   29.50    372.03807                                2.17276             81.586                                        3.72038e+002           7.20381e+001           2.03807e+000           3.80668e-002           3.80668e-002           8.06678e-003           6.67837e-005
                   29.60    367.37134                                2.23022             81.586                                        3.67371e+002           6.73713e+001           7.37134e+000           3.71337e-001           7.13372e-002           1.33721e-003           3.37207e-004
                   29.70    362.55178                                2.28935             81.586                                        3.62552e+002           6.25518e+001           2.55178e+000           5.51780e-001           5.17802e-002           1.78022e-003           7.80216e-004
                   29.80    357.60527                                2.34990             81.586                                        3.57605e+002           5.76053e+001           7.60527e+000           6.05273e-001           5.27288e-003           5.27288e-003           2.72880e-004
                   29.90    352.53760                                2.41197             81.586                                        3.52538e+002           5.25376e+001           2.53760e+000           5.37597e-001           3.75975e-002           7.59748e-003           5.97484e-004
                   30.00    347.46825                                2.47563             81.586                                        3.47468e+002           4.74682e+001           7.46825e+000           4.68248e-001           6.82476e-002           8.24760e-003           2.47602e-004
