~VERSION INFORMATION
VERS                    .            2.0                                    :CWLS LOG ASCII STANDARD
WRAP                    .            NO                                     :ONE LINE PER TIME STEP


~WELL INFORMATION
#MNEM                   .UNIT        DATA                                    DESCRIPTION
#________________________________________________________________________________________
STRTTIME                .HH/MM/SS    01:04:55                               :START TIME
STOPTIME                .HH/MM/SS    01:07:44                               :STOP TIME
STRT                    .s           2.10                                   :START DATA
STOP                    .s           167.40                                 :STOP DATA
STEP                    .s           0.10                                   :MEASUREMENT TIME INTERVAL
NULL                    .            -999.25                                :NULL VALUE
COMP                    .            Statoil ASA                            :COMPANY
FLD                     .            Volve                                  :FIELD
WELL                    .            15/9-F-1 C                             :WELL
RUN                     .            4                                      :RUN
LOC                     .                                                   :LOCATION
PROV                    .            na                                     :PROVINCE
SRVC                    .            Baker Hughes INTEQ                     :SERVICE COMPANY
DATE                    .YY/MM/DD    14/03/15                               :LOG DATE
UWI                     .                                                   :UNIQUE WELL ID
DEPTHMD                 .m           3720.1                                 :MEASURED DEPTH
DEPTHTVD                .m           3050.6                                 :TRUE VERTICAL DEPTH


~CURVE INFORMATION
#MNEM                   .UNIT        API CODES                               DESCRIPTION
#________________________________________________________________________________________
TIME                    .s                                                  :01 TIME
DD_PRESS                .bar                                                :02 DRAW DOWN PRESSURE
DD_VOLUME               .cm3                                                :03 INCREMENTAL DRAW DOWN VOLUME
TEMP                    .degC                                               :04 TRANSDUCER TEMPERATURE
DD_PRESS_MOD_1000       .bar                                                :05 DRAW DOWN PRESSURE MOD 1000
DD_PRESS_MOD_100        .bar                                                :06 DRAW DOWN PRESSURE MOD 100
DD_PRESS_MOD_10         .bar                                                :07 DRAW DOWN PRESSURE MOD 10
DD_PRESS_MOD_1          .bar                                                :08 DRAW DOWN PRESSURE MOD 1
DD_PRESS_MOD_01         .bar                                                :09 DRAW DOWN PRESSURE MOD 01
DD_PRESS_MOD_001        .bar                                                :10 DRAW DOWN PRESSURE MOD 001
DD_PRESS_MOD_0001       .bar                                                :11 DRAW DOWN PRESSURE MOD 0001


~PARAMETER INFORMATION
#MNEM                   .UNIT        VALUE                                   DESCRIPTION
#________________________________________________________________________________________
TOOLFACE                .deg         134.6                                  :01 TOOLFACE
PUMP_CAPACITY           .bar         400                                    :02 NOMINAL DRAW DOWN PUMP CAPACITY
PUMP_LIMIT              .bar         240                                    :03 DOWNLINK PUMP LIMIT
TIME_LIMIT              .min         10                                     :04 DOWNLINK MAX TIME
TEST_TYPE               .            REPEAT                                 :05 DOWNLINK
TEST_TYPE               .            HIGH MOBILITY                          :06 DOWNLINK
DD_PIST_A               .cm2         3.1416                                 :07 DRAW DOWN PISTON AREA
V_SYS                   .cm3         131.0000                               :08 SYSTEM VOLUME
PROBE_ID                .cm          1.2700                                 :09 TTK PROBE ID
G0                      .            4.6700                                 :10 GEOMETRY FACTOR


~A                  TIME     DD_PRESS                              DD_VOLUME               TEMP                                   DD_PRESS_MOD_1000       DD_PRESS_MOD_100        DD_PRESS_MOD_10         DD_PRESS_MOD_1        DD_PRESS_MOD_01       DD_PRESS_MOD_001      DD_PRESS_MOD_0001
# ...
                   35.70    346.88176                                8.66030             87.289                                        3.46882e+002           4.68818e+001           6.88176e+000           8.81764e-001           8.17640e-002           1.76400e-003           7.64003e-004
                   35.80    346.91275                                8.74642             87.289                                        3.46913e+002           4.69128e+001           6.91275e+000           9.12755e-001           1.27549e-002           2.75494e-003           7.54944e-004
                   35.90    346.93220                                8.83162             87.289                                        3.46932e+002           4.69322e+001           6.93220e+000           9.32204e-001           3.22037e-002           2.20369e-003           2.03686e-004
                   36.00    346.95101                                8.91590             87.289                                        3.46951e+002           4.69510e+001           6.95101e+000           9.51012e-001           5.10122e-002           1.01222e-003           1.22205e-005
                   36.10    346.97251                                8.99908             87.289                                        3.46973e+002           4.69725e+001           6.97251e+000           9.72514e-001           7.25140e-002           2.51396e-003           5.13961e-004
                   36.20    346.99716                                9.08107             87.289                                        3.46997e+002           4.69972e+001           6.99716e+000           9.97165e-001           9.71647e-002           7.16474e-003           1.64743e-004
                   36.30    347.02789                                9.16191             87.289                                        3.47028e+002           4.70279e+001           7.02789e+000           2.78851e-002           2.78851e-002           7.88515e-003           8.85147e-004
                   36.40    347.05692                                9.24154             87.289                                        3.47057e+002           4.70569e+001           7.05692e+000           5.69191e-002           5.69191e-002           6.91906e-003           9.19064e-004
                   36.50    347.07498                                9.31994             87.289                                        3.47075e+002           4.70750e+001           7.07498e+000           7.49800e-002           7.49800e-002           4.98002e-003           9.80017e-004
                   36.60    347.09637                                9.39708             87.289                                        3.47096e+002           4.70964e+001           7.09637e+000           9.63681e-002           9.63681e-002           6.36814e-003           3.68138e-004
                   36.70    347.12830                                9.47295             87.289                                        3.47128e+002           4.71283e+001           7.12830e+000           1.28304e-001           2.83043e-002           8.30430e-003           3.04299e-004
                   36.80    347.15817                                9.54749             87.289                                        3.47158e+002           4.71582e+001           7.15817e+000           1.58165e-001           5.81652e-002           8.16516e-003           1.65163e-004
                   36.90    347.18405                                9.62073             87.289                                        3.47184e+002           4.71840e+001           7.18405e+000           1.84046e-001           8.40457e-002           4.04567e-003           4.56653e-005
                   37.00    347.21109                                9.69267             87.289                                        3.47211e+002           4.72111e+001           7.21109e+000           2.11095e-001           1.10949e-002           1.09489e-003           9.48945e-005
                   37.10    347.24104                                9.76323             87.289                                        3.47241e+002           4.72410e+001           7.24104e+000           2.41041e-001           4.10412e-002           1.04116e-003           4.11608e-005
                   37.20    347.27377                                9.83227             87.289                                        3.47274e+002           4.72738e+001           7.27377e+000           2.73767e-001           7.37673e-002           3.76726e-003           7.67261e-004
                   37.30    347.30672                                9.89984             87.287                                        3.47307e+002           4.73067e+001           7.30672e+000           3.06724e-001           6.72377e-003           6.72377e-003           7.23774e-004
                   37.40    347.33343                                9.96594             87.286                                        3.47333e+002           4.73334e+001           7.33343e+000           3.33434e-001           3.34342e-002           3.43415e-003           4.34153e-004
                   37.50    347.36109                               10.03057             87.285                                        3.47361e+002           4.73611e+001           7.36109e+000           3.61088e-001           6.10876e-002           1.08760e-003           8.75973e-005
                   37.60    347.39574                               10.09368             87.283                                        3.47396e+002           4.73957e+001           7.39574e+000           3.95743e-001           9.57427e-002           5.74270e-003           7.42698e-004
                   37.70    347.43070                               10.15522             87.281                                        3.47431e+002           4.74307e+001           7.43070e+000           4.30704e-001           3.07042e-002           7.04165e-004           7.04165e-004
                   37.80    347.45889                               10.21521             87.281                                        3.47459e+002           4.74589e+001           7.45889e+000           4.58893e-001           5.88927e-002           8.89266e-003           8.92660e-004
                   37.90    347.48480                               10.27361             87.281                                        3.47485e+002           4.74848e+001           7.48480e+000           4.84797e-001           8.47971e-002           4.79715e-003           7.97146e-004
                   38.00    347.51411                               10.33044             87.281                                        3.47514e+002           4.75141e+001           7.51411e+000           5.14109e-001           1.41094e-002           4.10936e-003           1.09363e-004
                   38.10    347.54992                               10.38551             87.281                                        3.47550e+002           4.75499e+001           7.54992e+000           5.49920e-001           4.99199e-002           9.91991e-003           9.19913e-004
                   38.20    347.58304                               10.43887             87.281                                        3.47583e+002           4.75830e+001           7.58304e+000           5.83043e-001           8.30433e-002           3.04328e-003           4.32842e-005
                   38.30    347.60846                               10.49065             87.281                                        3.47608e+002           4.76085e+001           7.60846e+000           6.08461e-001           8.46080e-003           8.46080e-003           4.60800e-004
                   38.40    347.63826                               10.54072             87.281                                        3.47638e+002           4.76383e+001           7.63826e+000           6.38259e-001           3.82589e-002           8.25888e-003           2.58879e-004
