~VERSION INFORMATION
VERS                    .            2.0                                    :CWLS LOG ASCII STANDARD
WRAP                    .            NO                                     :ONE LINE PER TIME STEP


~WELL INFORMATION
#MNEM                   .UNIT        DATA                                    DESCRIPTION
#________________________________________________________________________________________
STRTTIME                .HH/MM/SS    16:37:30                               :START TIME
STOPTIME                .HH/MM/SS    16:40:36                               :STOP TIME
STRT                    .s           2.10                                   :START DATA
STOP                    .s           184.70                                 :STOP DATA
STEP                    .s           0.10                                   :MEASUREMENT TIME INTERVAL
NULL                    .            -999.25                                :NULL VALUE
COMP                    .            Statoil ASA                            :COMPANY
FLD                     .            Volve                                  :FIELD
WELL                    .            15/9-F-1 B                             :WELL
RUN                     .            7                                      :RUN
LOC                     .            Maersk Inspirer                        :LOCATION
PROV                    .            na                                     :PROVINCE
SRVC                    .            Baker Hughes INTEQ                     :SERVICE COMPANY
DATE                    .YY/MM/DD    13/09/06                               :LOG DATE
UWI                     .                                                   :UNIQUE WELL ID
DEPTHMD                 .m           3247.0                                 :MEASURED DEPTH
DEPTHTVD                .m           3043.3                                 :TRUE VERTICAL DEPTH


~CURVE INFORMATION
#MNEM                   .UNIT        API CODES                               DESCRIPTION
#________________________________________________________________________________________
TIME                    .s                                                  :01 TIME
DD_PRESS                .bar                                                :02 DRAW DOWN PRESSURE
DD_VOLUME               .cm3                                                :03 INCREMENTAL DRAW DOWN VOLUME
TEMP                    .degC                                               :04 TRANSDUCER TEMPERATURE
DD_PRESS_MOD_1000       .bar                                                :05 DRAW DOWN PRESSURE MOD 1000
DD_PRESS_MOD_100        .bar                                                :06 DRAW DOWN PRESSURE MOD 100
DD_PRESS_MOD_10         .bar                                                :07 DRAW DOWN PRESSURE MOD 10
DD_PRESS_MOD_1          .bar                                                :08 DRAW DOWN PRESSURE MOD 1
DD_PRESS_MOD_01         .bar                                                :09 DRAW DOWN PRESSURE MOD 01
DD_PRESS_MOD_001        .bar                                                :10 DRAW DOWN PRESSURE MOD 001
DD_PRESS_MOD_0001       .bar                                                :11 DRAW DOWN PRESSURE MOD 0001


~PARAMETER INFORMATION
#MNEM                   .UNIT        VALUE                                   DESCRIPTION
#________________________________________________________________________________________
TOOLFACE                .deg         na                                     :01 TOOLFACE
PUMP_CAPACITY           .bar         400                                    :02 NOMINAL DRAW DOWN PUMP CAPACITY
PUMP_LIMIT              .bar         400                                    :03 DOWNLINK PUMP LIMIT
TIME_LIMIT              .min         10                                     :04 DOWNLINK MAX TIME
TEST_TYPE               .            LOW MOBILITY                           :05 DOWNLINK
DD_PIST_A               .cm2         3.1416                                 :06 DRAW DOWN PISTON AREA
V_SYS                   .cm3         131.0000                               :07 SYSTEM VOLUME
PROBE_ID                .cm          1.2700                                 :08 TTK PROBE ID
G0                      .            4.6700                                 :09 GEOMETRY FACTOR


~A                  TIME     DD_PRESS                              DD_VOLUME               TEMP                                   DD_PRESS_MOD_1000       DD_PRESS_MOD_100        DD_PRESS_MOD_10         DD_PRESS_MOD_1        DD_PRESS_MOD_01       DD_PRESS_MOD_001      DD_PRESS_MOD_0001
# ...
                  122.50    344.49862                               19.96010             81.518                                        3.44499e+002           4.44986e+001           4.49862e+000           4.98619e-001           9.86190e-002           8.61896e-003           6.18959e-004
                  122.60    344.47661                               19.96192             81.516                                        3.44477e+002           4.44766e+001           4.47661e+000           4.76605e-001           7.66053e-002           6.60534e-003           6.05343e-004
                  122.70    344.43428                               19.96425             81.516                                        3.44434e+002           4.44343e+001           4.43428e+000           4.34285e-001           3.42846e-002           4.28458e-003           2.84576e-004
                  122.80    344.38267                               19.96698             81.516                                        3.44383e+002           4.43827e+001           4.38267e+000           3.82665e-001           8.26653e-002           2.66532e-003           6.65315e-004
                  122.90    344.34038                               19.97060             81.516                                        3.44340e+002           4.43404e+001           4.34038e+000           3.40377e-001           4.03774e-002           3.77379e-004           3.77379e-004
                  123.00    344.28747                               19.97562             81.518                                        3.44287e+002           4.42875e+001           4.28747e+000           2.87465e-001           8.74653e-002           7.46526e-003           4.65258e-004
                  123.10    344.20875                               19.98183             81.521                                        3.44209e+002           4.42088e+001           4.20875e+000           2.08752e-001           8.75244e-003           8.75244e-003           7.52444e-004
                  123.20    344.12662                               19.98908             81.523                                        3.44127e+002           4.41266e+001           4.12662e+000           1.26622e-001           2.66217e-002           6.62172e-003           6.21721e-004
                  123.30    344.05519                               19.99782             81.523                                        3.44055e+002           4.40552e+001           4.05519e+000           5.51894e-002           5.51894e-002           5.18942e-003           1.89420e-004
                  123.40    343.96574                               20.00840             81.523                                        3.43966e+002           4.39657e+001           3.96574e+000           9.65736e-001           6.57358e-002           5.73583e-003           7.35831e-004
                  123.50    343.85579                               20.02079             81.523                                        3.43856e+002           4.38558e+001           3.85579e+000           8.55794e-001           5.57939e-002           5.79389e-003           7.93890e-004
                  123.60    343.74610                               20.03485             81.523                                        3.43746e+002           4.37461e+001           3.74610e+000           7.46097e-001           4.60967e-002           6.09672e-003           9.67243e-005
                  123.70    343.64801                               20.05088             81.523                                        3.43648e+002           4.36480e+001           3.64801e+000           6.48010e-001           4.80099e-002           8.00991e-003           9.90502e-006
                  123.80    343.53120                               20.06942             81.523                                        3.43531e+002           4.35312e+001           3.53120e+000           5.31196e-001           3.11957e-002           1.19573e-003           1.95726e-004
                  123.90    343.38478                               20.09021             81.523                                        3.43385e+002           4.33848e+001           3.38478e+000           3.84782e-001           8.47816e-002           4.78163e-003           7.81629e-004
                  124.00    343.23897                               20.11297             81.523                                        3.43239e+002           4.32390e+001           3.23897e+000           2.38966e-001           3.89661e-002           8.96608e-003           9.66078e-004
                  124.10    343.10729                               20.13849             81.521                                        3.43107e+002           4.31073e+001           3.10729e+000           1.07289e-001           7.28894e-003           7.28894e-003           2.88937e-004
                  124.20    342.96711                               20.16706             81.518                                        3.42967e+002           4.29671e+001           2.96711e+000           9.67112e-001           6.71121e-002           7.11211e-003           1.12110e-004
                  124.30    342.79434                               20.19832             81.516                                        3.42794e+002           4.27943e+001           2.79434e+000           7.94340e-001           9.43401e-002           4.34013e-003           3.40127e-004
                  124.40    342.58712                               20.23238             81.516                                        3.42587e+002           4.25871e+001           2.58712e+000           5.87116e-001           8.71158e-002           7.11575e-003           1.15751e-004
                  124.50    342.40564                               20.26977             81.516                                        3.42406e+002           4.24056e+001           2.40564e+000           4.05636e-001           5.63590e-003           5.63590e-003           6.35897e-004
                  124.60    342.24363                               20.31075             81.516                                        3.42244e+002           4.22436e+001           2.24363e+000           2.43632e-001           4.36322e-002           3.63225e-003           6.32249e-004
                  124.70    342.03346                               20.35519             81.516                                        3.42033e+002           4.20335e+001           2.03346e+000           3.34648e-002           3.34648e-002           3.46478e-003           4.64780e-004
                  124.80    341.81548                               20.40303             81.516                                        3.41815e+002           4.18155e+001           1.81548e+000           8.15481e-001           1.54811e-002           5.48110e-003           4.81103e-004
                  124.90    341.62311                               20.45465             81.516                                        3.41623e+002           4.16231e+001           1.62311e+000           6.23111e-001           2.31111e-002           3.11106e-003           1.11061e-004
                  125.00    341.40673                               20.51037             81.516                                        3.41407e+002           4.14067e+001           1.40673e+000           4.06731e-001           6.73138e-003           6.73138e-003           7.31382e-004
                  125.10    341.17249                               20.56998             81.516                                        3.41172e+002           4.11725e+001           1.17249e+000           1.72489e-001           7.24891e-002           2.48907e-003           4.89069e-004
                  125.20    340.94650                               20.63341             81.516                                        3.40946e+002           4.09465e+001           9.46499e-001           9.46499e-001           4.64992e-002           6.49925e-003           4.99249e-004
