~VERSION INFORMATION
VERS                    .            2.0                                    :CWLS LOG ASCII STANDARD
WRAP                    .            NO                                     :ONE LINE PER TIME STEP


~WELL INFORMATION
#MNEM                   .UNIT        DATA                                    DESCRIPTION
#________________________________________________________________________________________
STRTTIME                .HH/MM/SS    15:31:36                               :START TIME
STOPTIME                .HH/MM/SS    15:34:21                               :STOP TIME
STRT                    .s           2.10                                   :START DATA
STOP                    .s           163.50                                 :STOP DATA
STEP                    .s           0.10                                   :MEASUREMENT TIME INTERVAL
NULL                    .            -999.25                                :NULL VALUE
COMP                    .            Statoil ASA                            :COMPANY
FLD                     .            Volve                                  :FIELD
WELL                    .            15/9-F-11 A                            :WELL
RUN                     .            8                                      :RUN
LOC                     .            Maersk Inspirer                        :LOCATION
PROV                    .            na                                     :PROVINCE
SRVC                    .            Baker Hughes INTEQ                     :SERVICE COMPANY
DATE                    .YY/MM/DD    13/05/21                               :LOG DATE
UWI                     .                                                   :UNIQUE WELL ID
DEPTHMD                 .m           3617.2                                 :MEASURED DEPTH
DEPTHTVD                .m           3015.5                                 :TRUE VERTICAL DEPTH


~CURVE INFORMATION
#MNEM                   .UNIT        API CODES                               DESCRIPTION
#________________________________________________________________________________________
TIME                    .s                                                  :01 TIME
DD_PRESS                .bar                                                :02 DRAW DOWN PRESSURE
DD_VOLUME               .cm3                                                :03 INCREMENTAL DRAW DOWN VOLUME
TEMP                    .degC                                               :04 TRANSDUCER TEMPERATURE
DD_PRESS_MOD_1000       .bar                                                :05 DRAW DOWN PRESSURE MOD 1000
DD_PRESS_MOD_100        .bar                                                :06 DRAW DOWN PRESSURE MOD 100
DD_PRESS_MOD_10         .bar                                                :07 DRAW DOWN PRESSURE MOD 10
DD_PRESS_MOD_1          .bar                                                :08 DRAW DOWN PRESSURE MOD 1
DD_PRESS_MOD_01         .bar                                                :09 DRAW DOWN PRESSURE MOD 01
DD_PRESS_MOD_001        .bar                                                :10 DRAW DOWN PRESSURE MOD 001
DD_PRESS_MOD_0001       .bar                                                :11 DRAW DOWN PRESSURE MOD 0001


~PARAMETER INFORMATION
#MNEM                   .UNIT        VALUE                                   DESCRIPTION
#________________________________________________________________________________________
TOOLFACE                .deg         63.0                                   :01 TOOLFACE
PUMP_CAPACITY           .bar         400                                    :02 NOMINAL DRAW DOWN PUMP CAPACITY
PUMP_LIMIT              .bar         240                                    :03 DOWNLINK PUMP LIMIT
TIME_LIMIT              .min         10                                     :04 DOWNLINK MAX TIME
TEST_TYPE               .            HIGH MOBILITY                          :05 DOWNLINK
DD_PIST_A               .cm2         3.1416                                 :06 DRAW DOWN PISTON AREA
V_SYS                   .cm3         131.0000                               :07 SYSTEM VOLUME
PROBE_ID                .cm          1.2700                                 :08 TTK PROBE ID
G0                      .            4.6700                                 :09 GEOMETRY FACTOR


~A                  TIME     DD_PRESS                              DD_VOLUME               TEMP                                   DD_PRESS_MOD_1000       DD_PRESS_MOD_100        DD_PRESS_MOD_10         DD_PRESS_MOD_1        DD_PRESS_MOD_01       DD_PRESS_MOD_001      DD_PRESS_MOD_0001
# ...
                  119.70    341.68961                               29.44180             80.221                                        3.41690e+002           4.16896e+001           1.68961e+000           6.89610e-001           8.96099e-002           9.60987e-003           6.09873e-004
                  119.80    341.68732                               29.44180             80.225                                        3.41687e+002           4.16873e+001           1.68732e+000           6.87321e-001           8.73210e-002           7.32096e-003           3.20960e-004
                  119.90    341.68731                               29.44180             80.227                                        3.41687e+002           4.16873e+001           1.68731e+000           6.87314e-001           8.73143e-002           7.31432e-003           3.14324e-004
                  120.00    341.68991                               29.44180             80.227                                        3.41690e+002           4.16899e+001           1.68991e+000           6.89908e-001           8.99078e-002           9.90785e-003           9.07847e-004
                  120.10    341.69052                               29.44180             80.227                                        3.41691e+002           4.16905e+001           1.69052e+000           6.90522e-001           9.05225e-002           5.22465e-004           5.22465e-004
                  120.20    341.69161                               29.44180             80.227                                        3.41692e+002           4.16916e+001           1.69161e+000           6.91611e-001           9.16106e-002           1.61065e-003           6.10648e-004
                  120.30    341.69107                               29.44180             80.227                                        3.41691e+002           4.16911e+001           1.69107e+000           6.91074e-001           9.10745e-002           1.07448e-003           7.44803e-005
                  120.40    341.69134                               29.44180             80.227                                        3.41691e+002           4.16913e+001           1.69134e+000           6.91335e-001           9.13353e-002           1.33531e-003           3.35310e-004
                  120.50    341.69177                               29.44180             80.227                                        3.41692e+002           4.16918e+001           1.69177e+000           6.91770e-001           9.17701e-002           1.77013e-003           7.70130e-004
                  120.60    341.69097                               29.44180             80.227                                        3.41691e+002           4.16910e+001           1.69097e+000           6.90969e-001           9.09686e-002           9.68593e-004           9.68593e-004
                  120.70    341.68895                               29.44180             80.227                                        3.41689e+002           4.16889e+001           1.68895e+000           6.88945e-001           8.89450e-002           8.94503e-003           9.45025e-004
                  120.80    341.68864                               29.44180             80.227                                        3.41689e+002           4.16886e+001           1.68864e+000           6.88644e-001           8.86439e-002           8.64393e-003           6.43930e-004
                  120.90    341.68781                               29.44180             80.227                                        3.41688e+002           4.16878e+001           1.68781e+000           6.87808e-001           8.78077e-002           7.80771e-003           8.07710e-004
                  121.00    341.68829                               29.44180             80.227                                        3.41688e+002           4.16883e+001           1.68829e+000           6.88285e-001           8.82854e-002           8.28536e-003           2.85364e-004
                  121.10    341.69019                               29.44180             80.227                                        3.41690e+002           4.16902e+001           1.69019e+000           6.90187e-001           9.01869e-002           1.86886e-004           1.86886e-004
                  121.20    341.69075                               29.44180             80.227                                        3.41691e+002           4.16908e+001           1.69075e+000           6.90753e-001           9.07532e-002           7.53168e-004           7.53168e-004
                  121.30    341.68934                               29.44180             80.227                                        3.41689e+002           4.16893e+001           1.68934e+000           6.89342e-001           8.93420e-002           9.34197e-003           3.41969e-004
                  121.40    341.68701                               29.44180             80.227                                        3.41687e+002           4.16870e+001           1.68701e+000           6.87011e-001           8.70111e-002           7.01114e-003           1.11371e-005
                  121.50    341.68687                               29.44180             80.227                                        3.41687e+002           4.16869e+001           1.68687e+000           6.86871e-001           8.68708e-002           6.87082e-003           8.70818e-004
                  121.60    341.68610                               29.44180             80.227                                        3.41686e+002           4.16861e+001           1.68610e+000           6.86104e-001           8.61039e-002           6.10392e-003           1.03917e-004
                  121.70    341.68667                               29.44180             80.227                                        3.41687e+002           4.16867e+001           1.68667e+000           6.86671e-001           8.66709e-002           6.67093e-003           6.70935e-004
                  121.80    341.68850                               29.44180             80.227                                        3.41689e+002           4.16885e+001           1.68850e+000           6.88501e-001           8.85005e-002           8.50051e-003           5.00506e-004
                  121.90    341.69097                               29.44180             80.227                                        3.41691e+002           4.16910e+001           1.69097e+000           6.90967e-001           9.09674e-002           9.67447e-004           9.67447e-004
                  122.00    341.69133                               29.44180             80.227                                        3.41691e+002           4.16913e+001           1.69133e+000           6.91330e-001           9.13304e-002           1.33040e-003           3.30404e-004
                  122.10    341.68898                               29.44180             80.227                                        3.41689e+002           4.16890e+001           1.68898e+000           6.88980e-001           8.89803e-002           8.98029e-003           9.80285e-004
                  122.20    341.68686                               29.44180             80.227                                        3.41687e+002           4.16869e+001           1.68686e+000           6.86865e-001           8.68646e-002           6.86463e-003           8.64635e-004
                  122.30    341.68763                               29.44180             80.227                                        3.41688e+002           4.16876e+001           1.68763e+000           6.87634e-001           8.76337e-002           7.63365e-003           6.33654e-004
                  122.40    341.69026                               29.44180             80.227                                        3.41690e+002           4.16903e+001           1.69026e+000           6.90265e-001           9.02647e-002           2.64661e-004           2.64661e-004
