~VERSION INFORMATION
VERS                    .            2.0                                    :CWLS LOG ASCII STANDARD
WRAP                    .            NO                                     :ONE LINE PER TIME STEP


~WELL INFORMATION
#MNEM                   .UNIT        DATA                                    DESCRIPTION
#________________________________________________________________________________________
STRTTIME                .HH/MM/SS    14:50:05                               :START TIME
STOPTIME                .HH/MM/SS    14:53:18                               :STOP TIME
STRT                    .s           2.10                                   :START DATA
STOP                    .s           191.60                                 :STOP DATA
STEP                    .s           0.10                                   :MEASUREMENT TIME INTERVAL
NULL                    .            -999.25                                :NULL VALUE
COMP                    .            Statoil ASA                            :COMPANY
FLD                     .            Volve                                  :FIELD
WELL                    .            15/9-F-1 B                             :WELL
RUN                     .            7                                      :RUN
LOC                     .            Maersk Inspirer                        :LOCATION
PROV                    .            na                                     :PROVINCE
SRVC                    .            Baker Hughes INTEQ                     :SERVICE COMPANY
DATE                    .YY/MM/DD    13/09/06                               :LOG DATE
UWI                     .                                                   :UNIQUE WELL ID
DEPTHMD                 .m           3280.5                                 :MEASURED DEPTH
DEPTHTVD                .m           3076.1                                 :TRUE VERTICAL DEPTH


~CURVE INFORMATION
#MNEM                   .UNIT        API CODES                               DESCRIPTION
#________________________________________________________________________________________
TIME                    .s                                                  :01 TIME
DD_PRESS                .bar                                                :02 DRAW DOWN PRESSURE
DD_VOLUME               .cm3                                                :03 INCREMENTAL DRAW DOWN VOLUME
TEMP                    .degC                                               :04 TRANSDUCER TEMPERATURE
DD_PRESS_MOD_1000       .bar                                                :05 DRAW DOWN PRESSURE MOD 1000
DD_PRESS_MOD_100        .bar                                                :06 DRAW DOWN PRESSURE MOD 100
DD_PRESS_MOD_10         .bar                                                :07 DRAW DOWN PRESSURE MOD 10
DD_PRESS_MOD_1          .bar                                                :08 DRAW DOWN PRESSURE MOD 1
DD_PRESS_MOD_01         .bar                                                :09 DRAW DOWN PRESSURE MOD 01
DD_PRESS_MOD_001        .bar                                                :10 DRAW DOWN PRESSURE MOD 001
DD_PRESS_MOD_0001       .bar                                                :11 DRAW DOWN PRESSURE MOD 0001


~PARAMETER INFORMATION
#MNEM                   .UNIT        VALUE                                   DESCRIPTION
#________________________________________________________________________________________
TOOLFACE                .deg         na                                     :01 TOOLFACE
PUMP_CAPACITY           .bar         400                                    :02 NOMINAL DRAW DOWN PUMP CAPACITY
PUMP_LIMIT              .bar         400                                    :03 DOWNLINK PUMP LIMIT
TIME_LIMIT              .min         10                                     :04 DOWNLINK MAX TIME
TEST_TYPE               .            LOW MOBILITY                           :05 DOWNLINK
DD_PIST_A               .cm2         3.1416                                 :06 DRAW DOWN PISTON AREA
V_SYS                   .cm3         131.0000                               :07 SYSTEM VOLUME
PROBE_ID                .cm          1.2700                                 :08 TTK PROBE ID
G0                      .            4.6700                                 :09 GEOMETRY FACTOR


~A                  TIME     DD_PRESS                              DD_VOLUME               TEMP                                   DD_PRESS_MOD_1000       DD_PRESS_MOD_100        DD_PRESS_MOD_10         DD_PRESS_MOD_1        DD_PRESS_MOD_01       DD_PRESS_MOD_001      DD_PRESS_MOD_0001
                    2.10    438.11354                                0.00000             82.578                                        4.38114e+002           3.81135e+001           8.11354e+000           1.13537e-001           1.35375e-002           3.53747e-003           5.37471e-004
                    2.20    438.20986                                0.00000             82.578                                        4.38210e+002           3.82099e+001           8.20986e+000           2.09857e-001           9.85729e-003           9.85729e-003           8.57286e-004
                    2.30    438.28623                                0.00000             82.578                                        4.38286e+002           3.82862e+001           8.28623e+000           2.86231e-001           8.62308e-002           6.23079e-003           2.30793e-004
                    2.40    438.31024                                0.00000             82.578                                        4.38310e+002           3.83102e+001           8.31024e+000           3.10245e-001           1.02447e-002           2.44685e-004           2.44685e-004
                    2.50    438.32062                                0.00000             82.578                                        4.38321e+002           3.83206e+001           8.32062e+000           3.20620e-001           2.06195e-002           6.19535e-004           6.19535e-004
                    2.60    438.31895                                0.00000             82.578                                        4.38319e+002           3.83189e+001           8.31895e+000           3.18947e-001           1.89472e-002           8.94716e-003           9.47156e-004
                    2.70    438.28979                                0.00000             82.578                                        4.38290e+002           3.82898e+001           8.28979e+000           2.89790e-001           8.97896e-002           9.78958e-003           7.89579e-004
                    2.80    438.22683                                0.00000             82.576                                        4.38227e+002           3.82268e+001           8.22683e+000           2.26835e-001           2.68347e-002           6.83468e-003           8.34677e-004
                    2.90    438.16089                                0.00000             82.575                                        4.38161e+002           3.81609e+001           8.16089e+000           1.60892e-001           6.08916e-002           8.91646e-004           8.91646e-004
                    3.00    438.12323                                0.00000             82.576                                        4.38123e+002           3.81232e+001           8.12323e+000           1.23228e-001           2.32276e-002           3.22765e-003           2.27648e-004
                    3.10    438.11671                                0.00000             82.578                                        4.38117e+002           3.81167e+001           8.11671e+000           1.16712e-001           1.67122e-002           6.71219e-003           7.12186e-004
                    3.20    438.07415                                0.00000             82.578                                        4.38074e+002           3.80742e+001           8.07415e+000           7.41514e-002           7.41514e-002           4.15139e-003           1.51393e-004
                    3.30    438.07142                                0.00000             82.578                                        4.38071e+002           3.80714e+001           8.07142e+000           7.14185e-002           7.14185e-002           1.41846e-003           4.18457e-004
                    3.40    438.13567                                0.00000             82.578                                        4.38136e+002           3.81357e+001           8.13567e+000           1.35670e-001           3.56702e-002           5.67022e-003           6.70221e-004
                    3.50    438.18008                                0.00000             82.578                                        4.38180e+002           3.81801e+001           8.18008e+000           1.80077e-001           8.00770e-002           7.69738e-005           7.69738e-005
                    3.60    438.15332                                0.00000             82.578                                        4.38153e+002           3.81533e+001           8.15332e+000           1.53317e-001           5.33167e-002           3.31669e-003           3.16691e-004
                    3.70    438.17416                                0.00000             82.578                                        4.38174e+002           3.81742e+001           8.17416e+000           1.74164e-001           7.41637e-002           4.16370e-003           1.63696e-004
                    3.80    438.23219                                0.00000             82.576                                        4.38232e+002           3.82322e+001           8.23219e+000           2.32192e-001           3.21921e-002           2.19211e-003           1.92110e-004
                    3.90    438.25589                                0.00000             82.572                                        4.38256e+002           3.82559e+001           8.25589e+000           2.55888e-001           5.58877e-002           5.88771e-003           8.87711e-004
                    4.00    438.25827                                0.00000             82.570                                        4.38258e+002           3.82583e+001           8.25827e+000           2.58274e-001           5.82739e-002           8.27393e-003           2.73926e-004
                    4.10    438.28627                                0.00000             82.570                                        4.38286e+002           3.82863e+001           8.28627e+000           2.86267e-001           8.62666e-002           6.26664e-003           2.66642e-004
                    4.20    438.33264                                0.00000             82.570                                        4.38333e+002           3.83326e+001           8.33264e+000           3.32644e-001           3.26438e-002           2.64381e-003           6.43813e-004
                    4.30    438.36245                                0.00000             82.570                                        4.38362e+002           3.83624e+001           8.36245e+000           3.62447e-001           6.24474e-002           2.44737e-003           4.47367e-004
                    4.40    438.36109                                0.00000             82.570                                        4.38361e+002           3.83611e+001           8.36109e+000           3.61089e-001           6.10888e-002           1.08875e-003           8.87528e-005
                    4.50    438.39653                                0.00000             82.570                                        4.38397e+002           3.83965e+001           8.39653e+000           3.96533e-001           9.65328e-002           6.53275e-003           5.32754e-004
                    4.60    438.44169                                0.00000             82.570                                        4.38442e+002           3.84417e+001           8.44169e+000           4.41694e-001           4.16945e-002           1.69445e-003           6.94452e-004
                    4.70    438.45818                                0.00000             82.570                                        4.38458e+002           3.84582e+001           8.45818e+000           4.58175e-001           5.81752e-002           8.17516e-003           1.75161e-004
                    4.80    438.45619                                0.00000             82.570                                        4.38456e+002           3.84562e+001           8.45619e+000           4.56195e-001           5.61946e-002           6.19461e-003           1.94608e-004
