~VERSION INFORMATION
VERS                    .            2.0                                    :CWLS LOG ASCII STANDARD
WRAP                    .            NO                                     :ONE LINE PER TIME STEP


~WELL INFORMATION
#MNEM                   .UNIT        DATA                                    DESCRIPTION
#________________________________________________________________________________________
STRTTIME                .HH/MM/SS    13:32:32                               :START TIME
STOPTIME                .HH/MM/SS    13:36:23                               :STOP TIME
STRT                    .s           2.10                                   :START DATA
STOP                    .s           229.20                                 :STOP DATA
STEP                    .s           0.10                                   :MEASUREMENT TIME INTERVAL
NULL                    .            -999.25                                :NULL VALUE
COMP                    .            Statoil ASA                            :COMPANY
FLD                     .            Volve                                  :FIELD
WELL                    .            15/9-F-1 B                             :WELL
RUN                     .            7                                      :RUN
LOC                     .            Maersk Inspirer                        :LOCATION
PROV                    .            na                                     :PROVINCE
SRVC                    .            Baker Hughes INTEQ                     :SERVICE COMPANY
DATE                    .YY/MM/DD    13/09/06                               :LOG DATE
UWI                     .                                                   :UNIQUE WELL ID
DEPTHMD                 .m           3301.5                                 :MEASURED DEPTH
DEPTHTVD                .m           3096.9                                 :TRUE VERTICAL DEPTH


~CURVE INFORMATION
#MNEM                   .UNIT        API CODES                               DESCRIPTION
#________________________________________________________________________________________
TIME                    .s                                                  :01 TIME
DD_PRESS                .bar                                                :02 DRAW DOWN PRESSURE
DD_VOLUME               .cm3                                                :03 INCREMENTAL DRAW DOWN VOLUME
TEMP                    .degC                                               :04 TRANSDUCER TEMPERATURE
DD_PRESS_MOD_1000       .bar                                                :05 DRAW DOWN PRESSURE MOD 1000
DD_PRESS_MOD_100        .bar                                                :06 DRAW DOWN PRESSURE MOD 100
DD_PRESS_MOD_10         .bar                                                :07 DRAW DOWN PRESSURE MOD 10
DD_PRESS_MOD_1          .bar                                                :08 DRAW DOWN PRESSURE MOD 1
DD_PRESS_MOD_01         .bar                                                :09 DRAW DOWN PRESSURE MOD 01
DD_PRESS_MOD_001        .bar                                                :10 DRAW DOWN PRESSURE MOD 001
DD_PRESS_MOD_0001       .bar                                                :11 DRAW DOWN PRESSURE MOD 0001


~PARAMETER INFORMATION
#MNEM                   .UNIT        VALUE                                   DESCRIPTION
#________________________________________________________________________________________
TOOLFACE                .deg         na                                     :01 TOOLFACE
PUMP_CAPACITY           .bar         400                                    :02 NOMINAL DRAW DOWN PUMP CAPACITY
PUMP_LIMIT              .bar         400                                    :03 DOWNLINK PUMP LIMIT
TIME_LIMIT              .min         10                                     :04 DOWNLINK MAX TIME
TEST_TYPE               .            LOW MOBILITY                           :05 DOWNLINK
DD_PIST_A               .cm2         3.1416                                 :06 DRAW DOWN PISTON AREA
V_SYS                   .cm3         131.0000                               :07 SYSTEM VOLUME
PROBE_ID                .cm          1.2700                                 :08 TTK PROBE ID
G0                      .            4.6700                                 :09 GEOMETRY FACTOR


~A                  TIME     DD_PRESS                              DD_VOLUME               TEMP                                   DD_PRESS_MOD_1000       DD_PRESS_MOD_100        DD_PRESS_MOD_10         DD_PRESS_MOD_1        DD_PRESS_MOD_01       DD_PRESS_MOD_001      DD_PRESS_MOD_0001
# ...
                   46.90    349.34434                               10.98695             85.430                                        3.49344e+002           4.93443e+001           9.34434e+000           3.44342e-001           4.43416e-002           4.34159e-003           3.41590e-004
                   47.00    349.30850                               10.98695             85.430                                        3.49309e+002           4.93085e+001           9.30850e+000           3.08503e-001           8.50276e-003           8.50276e-003           5.02760e-004
                   47.10    349.30944                               10.98695             85.430                                        3.49309e+002           4.93094e+001           9.30944e+000           3.09438e-001           9.43752e-003           9.43752e-003           4.37517e-004
                   47.20    349.34304                               10.98695             85.430                                        3.49343e+002           4.93430e+001           9.34304e+000           3.43038e-001           4.30377e-002           3.03771e-003           3.77067e-005
                   47.30    349.35497                               10.98695             85.430                                        3.49355e+002           4.93550e+001           9.35497e+000           3.54968e-001           5.49684e-002           4.96840e-003           9.68398e-004
                   47.40    349.34579                               10.98695             85.430                                        3.49346e+002           4.93458e+001           9.34579e+000           3.45785e-001           4.57850e-002           5.78501e-003           7.85012e-004
                   47.50    349.33897                               10.98695             85.430                                        3.49339e+002           4.93390e+001           9.33897e+000           3.38973e-001           3.89730e-002           8.97305e-003           9.73048e-004
                   47.60    349.32522                               10.98695             85.430                                        3.49325e+002           4.93252e+001           9.32522e+000           3.25225e-001           2.52247e-002           5.22467e-003           2.24675e-004
                   47.70    349.32275                               10.98695             85.430                                        3.49323e+002           4.93228e+001           9.32275e+000           3.22751e-001           2.27515e-002           2.75150e-003           7.51500e-004
                   47.80    349.37649                               10.98695             85.430                                        3.49376e+002           4.93765e+001           9.37649e+000           3.76493e-001           7.64932e-002           6.49318e-003           4.93182e-004
                   47.90    349.42020                               10.98695             85.430                                        3.49420e+002           4.94202e+001           9.42020e+000           4.20202e-001           2.02018e-002           2.01835e-004           2.01835e-004
                   48.00    349.39645                               10.98695             85.430                                        3.49396e+002           4.93964e+001           9.39645e+000           3.96446e-001           9.64462e-002           6.44621e-003           4.46205e-004
                   48.10    349.39052                               10.98695             85.430                                        3.49391e+002           4.93905e+001           9.39052e+000           3.90523e-001           9.05227e-002           5.22672e-004           5.22672e-004
                   48.20    349.42008                               10.98695             85.430                                        3.49420e+002           4.94201e+001           9.42008e+000           4.20084e-001           2.00845e-002           8.44793e-005           8.44793e-005
                   48.30    349.40719                               10.98695             85.430                                        3.49407e+002           4.94072e+001           9.40719e+000           4.07190e-001           7.19050e-003           7.19050e-003           1.90495e-004
                   48.40    349.39744                               10.98695             85.430                                        3.49397e+002           4.93974e+001           9.39744e+000           3.97438e-001           9.74383e-002           7.43826e-003           4.38264e-004
                   48.50    349.43513                               10.98695             85.430                                        3.49435e+002           4.94351e+001           9.43513e+000           4.35127e-001           3.51275e-002           5.12747e-003           1.27467e-004
                   48.60    349.43641                               10.98695             85.430                                        3.49436e+002           4.94364e+001           9.43641e+000           4.36413e-001           3.64130e-002           6.41298e-003           4.12977e-004
                   48.70    349.37687                               10.98695             85.430                                        3.49377e+002           4.93769e+001           9.37687e+000           3.76865e-001           7.68654e-002           6.86539e-003           8.65387e-004
                   48.80    349.34310                               10.98695             85.430                                        3.49343e+002           4.93431e+001           9.34310e+000           3.43101e-001           4.31006e-002           3.10062e-003           1.00616e-004
                   48.90    349.36149                               10.98695             85.430                                        3.49361e+002           4.93615e+001           9.36149e+000           3.61486e-001           6.14859e-002           1.48586e-003           4.85863e-004
                   49.00    349.36791                               10.98695             85.430                                        3.49368e+002           4.93679e+001           9.36791e+000           3.67910e-001           6.79096e-002           7.90958e-003           9.09581e-004
                   49.10    349.34846                               10.98695             85.430                                        3.49348e+002           4.93485e+001           9.34846e+000           3.48465e-001           4.84649e-002           8.46491e-003           4.64914e-004
                   49.20    349.36213                               10.98695             85.430                                        3.49362e+002           4.93621e+001           9.36213e+000           3.62128e-001           6.21284e-002           2.12836e-003           1.28360e-004
                   49.30    349.38806                               10.98695             85.430                                        3.49388e+002           4.93881e+001           9.38806e+000           3.88061e-001           8.80606e-002           8.06060e-003           6.05983e-005
                   49.40    349.36836                               10.98695             85.430                                        3.49368e+002           4.93684e+001           9.36836e+000           3.68364e-001           6.83640e-002           8.36403e-003           3.64030e-004
                   49.50    349.32953                               10.98695             85.430                                        3.49330e+002           4.93295e+001           9.32953e+000           3.29534e-001           2.95340e-002           9.53395e-003           5.33952e-004
                   49.60    349.32404                               10.98695             85.430                                        3.49324e+002           4.93240e+001           9.32404e+000           3.24039e-001           2.40389e-002           4.03890e-003           3.88979e-005
