~VERSION INFORMATION
VERS                    .            2.0                                    :CWLS LOG ASCII STANDARD
WRAP                    .            NO                                     :ONE LINE PER TIME STEP


~WELL INFORMATION
#MNEM                   .UNIT        DATA                                    DESCRIPTION
#________________________________________________________________________________________
STRTTIME                .HH/MM/SS    08:31:17                               :START TIME
STOPTIME                .HH/MM/SS    08:34:03                               :STOP TIME
STRT                    .s           2.10                                   :START DATA
STOP                    .s           164.70                                 :STOP DATA
STEP                    .s           0.10                                   :MEASUREMENT TIME INTERVAL
NULL                    .            -999.25                                :NULL VALUE
COMP                    .            Statoil ASA                            :COMPANY
FLD                     .            Volve                                  :FIELD
WELL                    .            15/9-F-11 A                            :WELL
RUN                     .            8                                      :RUN
LOC                     .            Maersk Inspirer                        :LOCATION
PROV                    .            na                                     :PROVINCE
SRVC                    .            Baker Hughes INTEQ                     :SERVICE COMPANY
DATE                    .YY/MM/DD    13/05/21                               :LOG DATE
UWI                     .                                                   :UNIQUE WELL ID
DEPTHMD                 .m           3688.1                                 :MEASURED DEPTH
DEPTHTVD                .m           3069.8                                 :TRUE VERTICAL DEPTH


~CURVE INFORMATION
#MNEM                   .UNIT        API CODES                               DESCRIPTION
#________________________________________________________________________________________
TIME                    .s                                                  :01 TIME
DD_PRESS                .bar                                                :02 DRAW DOWN PRESSURE
DD_VOLUME               .cm3                                                :03 INCREMENTAL DRAW DOWN VOLUME
TEMP                    .degC                                               :04 TRANSDUCER TEMPERATURE
DD_PRESS_MOD_1000       .bar                                                :05 DRAW DOWN PRESSURE MOD 1000
DD_PRESS_MOD_100        .bar                                                :06 DRAW DOWN PRESSURE MOD 100
DD_PRESS_MOD_10         .bar                                                :07 DRAW DOWN PRESSURE MOD 10
DD_PRESS_MOD_1          .bar                                                :08 DRAW DOWN PRESSURE MOD 1
DD_PRESS_MOD_01         .bar                                                :09 DRAW DOWN PRESSURE MOD 01
DD_PRESS_MOD_001        .bar                                                :10 DRAW DOWN PRESSURE MOD 001
DD_PRESS_MOD_0001       .bar                                                :11 DRAW DOWN PRESSURE MOD 0001


~PARAMETER INFORMATION
#MNEM                   .UNIT        VALUE                                   DESCRIPTION
#________________________________________________________________________________________
TOOLFACE                .deg         -78.9                                  :01 TOOLFACE
PUMP_CAPACITY           .bar         400                                    :02 NOMINAL DRAW DOWN PUMP CAPACITY
PUMP_LIMIT              .bar         240                                    :03 DOWNLINK PUMP LIMIT
TIME_LIMIT              .min         10                                     :04 DOWNLINK MAX TIME
TEST_TYPE               .            REPEAT                                 :05 DOWNLINK
TEST_TYPE               .            HIGH MOBILITY                          :06 DOWNLINK
DD_PIST_A               .cm2         3.1416                                 :07 DRAW DOWN PISTON AREA
V_SYS                   .cm3         131.0000                               :08 SYSTEM VOLUME
PROBE_ID                .cm          1.2700                                 :09 TTK PROBE ID
G0                      .            4.6700                                 :10 GEOMETRY FACTOR


~A                  TIME     DD_PRESS                              DD_VOLUME               TEMP                                   DD_PRESS_MOD_1000       DD_PRESS_MOD_100        DD_PRESS_MOD_10         DD_PRESS_MOD_1        DD_PRESS_MOD_01       DD_PRESS_MOD_001      DD_PRESS_MOD_0001
                    2.10    424.60758                                0.00000             83.383                                        4.24608e+002           2.46076e+001           4.60758e+000           6.07575e-001           7.57511e-003           7.57511e-003           5.75113e-004
                    2.20    424.56504                                0.00000             83.383                                        4.24565e+002           2.45650e+001           4.56504e+000           5.65038e-001           6.50376e-002           5.03761e-003           3.76082e-005
                    2.30    424.50743                                0.00000             83.383                                        4.24507e+002           2.45074e+001           4.50743e+000           5.07426e-001           7.42590e-003           7.42590e-003           4.25901e-004
                    2.40    424.47780                                0.00000             83.383                                        4.24478e+002           2.44778e+001           4.47780e+000           4.77804e-001           7.78037e-002           7.80374e-003           8.03740e-004
                    2.50    424.48289                                0.00000             83.383                                        4.24483e+002           2.44829e+001           4.48289e+000           4.82895e-001           8.28946e-002           2.89463e-003           8.94634e-004
                    2.60    424.51636                                0.00000             83.383                                        4.24516e+002           2.45164e+001           4.51636e+000           5.16361e-001           1.63605e-002           6.36050e-003           3.60502e-004
                    2.70    424.58138                                0.00000             83.383                                        4.24581e+002           2.45814e+001           4.58138e+000           5.81381e-001           8.13809e-002           1.38092e-003           3.80917e-004
                    2.80    424.66456                                0.00000             83.383                                        4.24665e+002           2.46646e+001           4.66456e+000           6.64560e-001           6.45602e-002           4.56024e-003           5.60240e-004
                    2.90    424.72381                                0.00000             83.383                                        4.24724e+002           2.47238e+001           4.72381e+000           7.23811e-001           2.38113e-002           3.81130e-003           8.11297e-004
                    3.00    424.76035                                0.00000             83.383                                        4.24760e+002           2.47604e+001           4.76035e+000           7.60351e-001           6.03512e-002           3.51160e-004           3.51160e-004
                    3.10    424.78397                                0.00000             83.383                                        4.24784e+002           2.47840e+001           4.78397e+000           7.83968e-001           8.39677e-002           3.96767e-003           9.67669e-004
                    3.20    424.79841                                0.00000             83.383                                        4.24798e+002           2.47984e+001           4.79841e+000           7.98405e-001           9.84054e-002           8.40542e-003           4.05425e-004
                    3.30    424.79287                                0.00000             83.383                                        4.24793e+002           2.47929e+001           4.79287e+000           7.92872e-001           9.28721e-002           2.87209e-003           8.72087e-004
                    3.40    424.76034                                0.00000             83.383                                        4.24760e+002           2.47603e+001           4.76034e+000           7.60343e-001           6.03426e-002           3.42615e-004           3.42615e-004
                    3.50    424.70737                                0.00000             83.383                                        4.24707e+002           2.47074e+001           4.70737e+000           7.07372e-001           7.37161e-003           7.37161e-003           3.71608e-004
                    3.60    424.64588                                0.00000             83.383                                        4.24646e+002           2.46459e+001           4.64588e+000           6.45880e-001           4.58798e-002           5.87982e-003           8.79824e-004
                    3.70    424.59283                                0.00000             83.383                                        4.24593e+002           2.45928e+001           4.59283e+000           5.92830e-001           9.28296e-002           2.82964e-003           8.29635e-004
                    3.80    424.53511                                0.00000             83.383                                        4.24535e+002           2.45351e+001           4.53511e+000           5.35115e-001           3.51149e-002           5.11489e-003           1.14891e-004
                    3.90    424.48636                                0.00000             83.383                                        4.24486e+002           2.44864e+001           4.48636e+000           4.86358e-001           8.63575e-002           6.35753e-003           3.57531e-004
                    4.00    424.45068                                0.00000             83.383                                        4.24451e+002           2.44507e+001           4.45068e+000           4.50676e-001           5.06756e-002           6.75648e-004           6.75648e-004
                    4.10    424.44304                                0.00000             83.383                                        4.24443e+002           2.44430e+001           4.44304e+000           4.43041e-001           4.30409e-002           3.04090e-003           4.08962e-005
                    4.20    424.44922                                0.00000             83.383                                        4.24449e+002           2.44492e+001           4.44922e+000           4.49224e-001           4.92245e-002           9.22445e-003           2.24453e-004
                    4.30    424.46482                                0.00000             83.383                                        4.24465e+002           2.44648e+001           4.46482e+000           4.64817e-001           6.48172e-002           4.81722e-003           8.17219e-004
                    4.40    424.48084                                0.00000             83.383                                        4.24481e+002           2.44808e+001           4.48084e+000           4.80836e-001           8.08362e-002           8.36168e-004           8.36168e-004
                    4.50    424.50909                                0.00000             83.383                                        4.24509e+002           2.45091e+001           4.50909e+000           5.09087e-001           9.08739e-003           9.08739e-003           8.73866e-005
                    4.60    424.52436                                0.00000             83.383                                        4.24524e+002           2.45244e+001           4.52436e+000           5.24358e-001           2.43584e-002           4.35843e-003           3.58434e-004
                    4.70    424.52477                                0.00000             83.383                                        4.24525e+002           2.45248e+001           4.52477e+000           5.24767e-001           2.47671e-002           4.76711e-003           7.67107e-004
                    4.80    424.51825                                0.00000             83.383                                        4.24518e+002           2.45182e+001           4.51825e+000           5.18250e-001           1.82495e-002           8.24950e-003           2.49500e-004
