~VERSION INFORMATION
VERS                    .            2.0                                    :CWLS LOG ASCII STANDARD
WRAP                    .            NO                                     :ONE LINE PER TIME STEP


~WELL INFORMATION
#MNEM                   .UNIT        DATA                                    DESCRIPTION
#________________________________________________________________________________________
STRTTIME                .HH/MM/SS    02:14:19                               :START TIME
STOPTIME                .HH/MM/SS    02:17:23                               :STOP TIME
STRT                    .s           2.10                                   :START DATA
STOP                    .s           182.70                                 :STOP DATA
STEP                    .s           0.10                                   :MEASUREMENT TIME INTERVAL
NULL                    .            -999.25                                :NULL VALUE
COMP                    .            Statoil ASA                            :COMPANY
FLD                     .            Volve                                  :FIELD
WELL                    .            15/9-F-1 C                             :WELL
RUN                     .            4                                      :RUN
LOC                     .                                                   :LOCATION
PROV                    .            na                                     :PROVINCE
SRVC                    .            Baker Hughes INTEQ                     :SERVICE COMPANY
DATE                    .YY/MM/DD    14/03/15                               :LOG DATE
UWI                     .                                                   :UNIQUE WELL ID
DEPTHMD                 .m           3603.0                                 :MEASURED DEPTH
DEPTHTVD                .m           3006.7                                 :TRUE VERTICAL DEPTH


~CURVE INFORMATION
#MNEM                   .UNIT        API CODES                               DESCRIPTION
#________________________________________________________________________________________
TIME                    .s                                                  :01 TIME
DD_PRESS                .bar                                                :02 DRAW DOWN PRESSURE
DD_VOLUME               .cm3                                                :03 INCREMENTAL DRAW DOWN VOLUME
TEMP                    .degC                                               :04 TRANSDUCER TEMPERATURE
DD_PRESS_MOD_1000       .bar                                                :05 DRAW DOWN PRESSURE MOD 1000
DD_PRESS_MOD_100        .bar                                                :06 DRAW DOWN PRESSURE MOD 100
DD_PRESS_MOD_10         .bar                                                :07 DRAW DOWN PRESSURE MOD 10
DD_PRESS_MOD_1          .bar                                                :08 DRAW DOWN PRESSURE MOD 1
DD_PRESS_MOD_01         .bar                                                :09 DRAW DOWN PRESSURE MOD 01
DD_PRESS_MOD_001        .bar                                                :10 DRAW DOWN PRESSURE MOD 001
DD_PRESS_MOD_0001       .bar                                                :11 DRAW DOWN PRESSURE MOD 0001


~PARAMETER INFORMATION
#MNEM                   .UNIT        VALUE                                   DESCRIPTION
#________________________________________________________________________________________
TOOLFACE                .deg         109.6                                  :01 TOOLFACE
PUMP_CAPACITY           .bar         400                                    :02 NOMINAL DRAW DOWN PUMP CAPACITY
PUMP_LIMIT              .bar         240                                    :03 DOWNLINK PUMP LIMIT
TIME_LIMIT              .min         10                                     :04 DOWNLINK MAX TIME
TEST_TYPE               .            REPEAT                                 :05 DOWNLINK
TEST_TYPE               .            HIGH MOBILITY                          :06 DOWNLINK
DD_PIST_A               .cm2         3.1416                                 :07 DRAW DOWN PISTON AREA
V_SYS                   .cm3         131.0000                               :08 SYSTEM VOLUME
PROBE_ID                .cm          1.2700                                 :09 TTK PROBE ID
G0                      .            4.6700                                 :10 GEOMETRY FACTOR


~A                  TIME     DD_PRESS                              DD_VOLUME               TEMP                                   DD_PRESS_MOD_1000       DD_PRESS_MOD_100        DD_PRESS_MOD_10         DD_PRESS_MOD_1        DD_PRESS_MOD_01       DD_PRESS_MOD_001      DD_PRESS_MOD_0001
# ...
                   74.90    345.39130                               10.76461             86.109                                        3.45391e+002           4.53913e+001           5.39130e+000           3.91297e-001           9.12972e-002           1.29716e-003           2.97163e-004
                   75.00    345.38811                               10.76461             86.109                                        3.45388e+002           4.53881e+001           5.38811e+000           3.88110e-001           8.81101e-002           8.11008e-003           1.10076e-004
                   75.10    345.38819                               10.76461             86.109                                        3.45388e+002           4.53882e+001           5.38819e+000           3.88189e-001           8.81889e-002           8.18895e-003           1.88947e-004
                   75.20    345.38825                               10.76461             86.109                                        3.45388e+002           4.53883e+001           5.38825e+000           3.88251e-001           8.82510e-002           8.25100e-003           2.51003e-004
                   75.30    345.38830                               10.76461             86.109                                        3.45388e+002           4.53883e+001           5.38830e+000           3.88300e-001           8.83002e-002           8.30017e-003           3.00170e-004
                   75.40    345.38990                               10.76461             86.109                                        3.45390e+002           4.53899e+001           5.38990e+000           3.89902e-001           8.99023e-002           9.90235e-003           9.02347e-004
                   75.50    345.38931                               10.76461             86.109                                        3.45389e+002           4.53893e+001           5.38931e+000           3.89314e-001           8.93143e-002           9.31426e-003           3.14257e-004
                   75.60    345.38273                               10.76461             86.109                                        3.45383e+002           4.53827e+001           5.38273e+000           3.82729e-001           8.27290e-002           2.72901e-003           7.29011e-004
                   75.70    345.37949                               10.76461             86.109                                        3.45379e+002           4.53795e+001           5.37949e+000           3.79491e-001           7.94907e-002           9.49068e-003           4.90682e-004
                   75.80    345.38397                               10.76461             86.109                                        3.45384e+002           4.53840e+001           5.38397e+000           3.83966e-001           8.39658e-002           3.96585e-003           9.65846e-004
                   75.90    345.38875                               10.76461             86.109                                        3.45389e+002           4.53888e+001           5.38875e+000           3.88751e-001           8.87508e-002           8.75083e-003           7.50827e-004
                   76.00    345.39064                               10.76461             86.109                                        3.45391e+002           4.53906e+001           5.39064e+000           3.90635e-001           9.06354e-002           6.35377e-004           6.35377e-004
                   76.10    345.39050                               10.76461             86.109                                        3.45390e+002           4.53905e+001           5.39050e+000           3.90498e-001           9.04978e-002           4.97824e-004           4.97824e-004
                   76.20    345.38837                               10.76461             86.109                                        3.45388e+002           4.53884e+001           5.38837e+000           3.88368e-001           8.83683e-002           8.36828e-003           3.68282e-004
                   76.30    345.38813                               10.76461             86.109                                        3.45388e+002           4.53881e+001           5.38813e+000           3.88133e-001           8.81332e-002           8.13322e-003           1.33216e-004
                   76.40    345.38814                               10.76461             86.109                                        3.45388e+002           4.53881e+001           5.38814e+000           3.88139e-001           8.81388e-002           8.13875e-003           1.38753e-004
                   76.50    345.38447                               10.76461             86.109                                        3.45384e+002           4.53845e+001           5.38447e+000           3.84474e-001           8.44742e-002           4.47424e-003           4.74241e-004
                   76.60    345.38017                               10.76461             86.109                                        3.45380e+002           4.53802e+001           5.38017e+000           3.80166e-001           8.01659e-002           1.65882e-004           1.65882e-004
                   76.70    345.38209                               10.76461             86.109                                        3.45382e+002           4.53821e+001           5.38209e+000           3.82091e-001           8.20909e-002           2.09086e-003           9.08589e-005
                   76.80    345.38921                               10.76461             86.109                                        3.45389e+002           4.53892e+001           5.38921e+000           3.89211e-001           8.92110e-002           9.21099e-003           2.10993e-004
                   76.90    345.38905                               10.76461             86.109                                        3.45389e+002           4.53890e+001           5.38905e+000           3.89049e-001           8.90492e-002           9.04925e-003           4.92493e-005
                   77.00    345.38453                               10.76461             86.109                                        3.45385e+002           4.53845e+001           5.38453e+000           3.84527e-001           8.45274e-002           4.52741e-003           5.27406e-004
                   77.10    345.38040                               10.76461             86.109                                        3.45380e+002           4.53804e+001           5.38040e+000           3.80401e-001           8.04006e-002           4.00618e-004           4.00618e-004
                   77.20    345.38310                               10.76461             86.109                                        3.45383e+002           4.53831e+001           5.38310e+000           3.83096e-001           8.30965e-002           3.09650e-003           9.64991e-005
                   77.30    345.38769                               10.76461             86.109                                        3.45388e+002           4.53877e+001           5.38769e+000           3.87689e-001           8.76889e-002           7.68888e-003           6.88877e-004
                   77.40    345.38818                               10.76461             86.109                                        3.45388e+002           4.53882e+001           5.38818e+000           3.88179e-001           8.81792e-002           8.17920e-003           1.79202e-004
                   77.50    345.38013                               10.76479             86.109                                        3.45380e+002           4.53801e+001           5.38013e+000           3.80126e-001           8.01262e-002           1.26203e-004           1.26203e-004
                   77.60    345.38011                               10.76535             86.109                                        3.45380e+002           4.53801e+001           5.38011e+000           3.80113e-001           8.01132e-002           1.13168e-004           1.13168e-004
