~VERSION INFORMATION
VERS                    .            2.0                                    :CWLS LOG ASCII STANDARD
WRAP                    .            NO                                     :ONE LINE PER TIME STEP


~WELL INFORMATION
#MNEM                   .UNIT        DATA                                    DESCRIPTION
#________________________________________________________________________________________
STRTTIME                .HH/MM/SS    00:10:18                               :START TIME
STOPTIME                .HH/MM/SS    00:13:47                               :STOP TIME
STRT                    .s           2.10                                   :START DATA
STOP                    .s           207.40                                 :STOP DATA
STEP                    .s           0.10                                   :MEASUREMENT TIME INTERVAL
NULL                    .            -999.25                                :NULL VALUE
COMP                    .            Statoil ASA                            :COMPANY
FLD                     .            Volve                                  :FIELD
WELL                    .            15/9-F-1                               :WELL
RUN                     .            4                                      :RUN
LOC                     .            Maersk Inspirer                        :LOCATION
PROV                    .            na                                     :PROVINCE
SRVC                    .            Baker Hughes INTEQ                     :SERVICE COMPANY
DATE                    .YY/MM/DD    13/08/19                               :LOG DATE
UWI                     .                                                   :UNIQUE WELL ID
DEPTHMD                 .m           3332.4                                 :MEASURED DEPTH
DEPTHTVD                .m           3056.0                                 :TRUE VERTICAL DEPTH


~CURVE INFORMATION
#MNEM                   .UNIT        API CODES                               DESCRIPTION
#________________________________________________________________________________________
TIME                    .s                                                  :01 TIME
DD_PRESS                .bar                                                :02 DRAW DOWN PRESSURE
DD_VOLUME               .cm3                                                :03 INCREMENTAL DRAW DOWN VOLUME
TEMP                    .degC                                               :04 TRANSDUCER TEMPERATURE
DD_PRESS_MOD_1000       .bar                                                :05 DRAW DOWN PRESSURE MOD 1000
DD_PRESS_MOD_100        .bar                                                :06 DRAW DOWN PRESSURE MOD 100
DD_PRESS_MOD_10         .bar                                                :07 DRAW DOWN PRESSURE MOD 10
DD_PRESS_MOD_1          .bar                                                :08 DRAW DOWN PRESSURE MOD 1
DD_PRESS_MOD_01         .bar                                                :09 DRAW DOWN PRESSURE MOD 01
DD_PRESS_MOD_001        .bar                                                :10 DRAW DOWN PRESSURE MOD 001
DD_PRESS_MOD_0001       .bar                                                :11 DRAW DOWN PRESSURE MOD 0001


~PARAMETER INFORMATION
#MNEM                   .UNIT        VALUE                                   DESCRIPTION
#________________________________________________________________________________________
TOOLFACE                .deg         78.2                                   :01 TOOLFACE
PUMP_CAPACITY           .bar         400                                    :02 NOMINAL DRAW DOWN PUMP CAPACITY
PUMP_LIMIT              .bar         240                                    :03 DOWNLINK PUMP LIMIT
TIME_LIMIT              .min         10                                     :04 DOWNLINK MAX TIME
TEST_TYPE               .            LOW MOBILITY                           :05 DOWNLINK
DD_PIST_A               .cm2         3.1416                                 :06 DRAW DOWN PISTON AREA
V_SYS                   .cm3         131.0000                               :07 SYSTEM VOLUME
PROBE_ID                .cm          1.2700                                 :08 TTK PROBE ID
G0                      .            4.6700                                 :09 GEOMETRY FACTOR


~A                  TIME     DD_PRESS                              DD_VOLUME               TEMP                                   DD_PRESS_MOD_1000       DD_PRESS_MOD_100        DD_PRESS_MOD_10         DD_PRESS_MOD_1        DD_PRESS_MOD_01       DD_PRESS_MOD_001      DD_PRESS_MOD_0001
# ...
                  175.70    340.63919                               29.23324             74.727                                        3.40639e+002           4.06392e+001           6.39193e-001           6.39193e-001           3.91932e-002           9.19317e-003           1.93171e-004
                  175.80    340.63792                               29.23324             74.727                                        3.40638e+002           4.06379e+001           6.37920e-001           6.37920e-001           3.79201e-002           7.92012e-003           9.20124e-004
                  175.90    340.64023                               29.23324             74.727                                        3.40640e+002           4.06402e+001           6.40232e-001           6.40232e-001           4.02321e-002           2.32144e-004           2.32144e-004
                  176.00    340.64395                               29.23324             74.727                                        3.40644e+002           4.06439e+001           6.43948e-001           6.43948e-001           4.39475e-002           3.94753e-003           9.47528e-004
                  176.10    340.64354                               29.23324             74.727                                        3.40644e+002           4.06435e+001           6.43542e-001           6.43542e-001           4.35422e-002           3.54221e-003           5.42205e-004
                  176.20    340.64346                               29.23324             74.727                                        3.40643e+002           4.06435e+001           6.43464e-001           6.43464e-001           4.34638e-002           3.46375e-003           4.63751e-004
                  176.30    340.64332                               29.23324             74.727                                        3.40643e+002           4.06433e+001           6.43316e-001           6.43316e-001           4.33157e-002           3.31574e-003           3.15736e-004
                  176.40    340.64235                               29.23324             74.727                                        3.40642e+002           4.06424e+001           6.42352e-001           6.42352e-001           4.23516e-002           2.35164e-003           3.51635e-004
                  176.50    340.64258                               29.23324             74.727                                        3.40643e+002           4.06426e+001           6.42579e-001           6.42579e-001           4.25787e-002           2.57875e-003           5.78747e-004
                  176.60    340.64326                               29.23324             74.727                                        3.40643e+002           4.06433e+001           6.43264e-001           6.43264e-001           4.32642e-002           3.26420e-003           2.64203e-004
                  176.70    340.64233                               29.23324             74.727                                        3.40642e+002           4.06423e+001           6.42335e-001           6.42335e-001           4.23346e-002           2.33463e-003           3.34634e-004
                  176.80    340.64234                               29.23324             74.727                                        3.40642e+002           4.06423e+001           6.42343e-001           6.42343e-001           4.23430e-002           2.34301e-003           3.43014e-004
                  176.90    340.64334                               29.23324             74.727                                        3.40643e+002           4.06433e+001           6.43337e-001           6.43337e-001           4.33373e-002           3.33732e-003           3.37316e-004
                  177.00    340.64234                               29.23324             74.727                                        3.40642e+002           4.06423e+001           6.42336e-001           6.42336e-001           4.23358e-002           2.33581e-003           3.35810e-004
                  177.10    340.64116                               29.23324             74.727                                        3.40641e+002           4.06412e+001           6.41155e-001           6.41155e-001           4.11552e-002           1.15515e-003           1.55152e-004
                  177.20    340.64109                               29.23324             74.727                                        3.40641e+002           4.06411e+001           6.41093e-001           6.41093e-001           4.10930e-002           1.09300e-003           9.29963e-005
                  177.30    340.64167                               29.23324             74.727                                        3.40642e+002           4.06417e+001           6.41674e-001           6.41674e-001           4.16744e-002           1.67443e-003           6.74429e-004
                  177.40    340.64236                               29.23324             74.727                                        3.40642e+002           4.06424e+001           6.42362e-001           6.42362e-001           4.23625e-002           2.36249e-003           3.62488e-004
                  177.50    340.64104                               29.23324             74.727                                        3.40641e+002           4.06410e+001           6.41036e-001           6.41036e-001           4.10362e-002           1.03618e-003           3.61832e-005
                  177.60    340.64118                               29.23324             74.727                                        3.40641e+002           4.06412e+001           6.41180e-001           6.41180e-001           4.11797e-002           1.17969e-003           1.79689e-004
                  177.70    340.64124                               29.23324             74.727                                        3.40641e+002           4.06412e+001           6.41244e-001           6.41244e-001           4.12436e-002           1.24357e-003           2.43571e-004
                  177.80    340.64111                               29.23324             74.727                                        3.40641e+002           4.06411e+001           6.41106e-001           6.41106e-001           4.11057e-002           1.10574e-003           1.05738e-004
                  177.90    340.64071                               29.23324             74.727                                        3.40641e+002           4.06407e+001           6.40712e-001           6.40712e-001           4.07125e-002           7.12484e-004           7.12484e-004
                  178.00    340.64177                               29.23324             74.727                                        3.40642e+002           4.06418e+001           6.41769e-001           6.41769e-001           4.17689e-002           1.76886e-003           7.68862e-004
                  178.10    340.64207                               29.23324             74.727                                        3.40642e+002           4.06421e+001           6.42065e-001           6.42065e-001           4.20654e-002           2.06536e-003           6.53603e-005
                  178.20    340.64284                               29.23324             74.727                                        3.40643e+002           4.06428e+001           6.42838e-001           6.42838e-001           4.28375e-002           2.83755e-003           8.37549e-004
                  178.30    340.64081                               29.23324             74.727                                        3.40641e+002           4.06408e+001           6.40814e-001           6.40814e-001           4.08144e-002           8.14447e-004           8.14447e-004
                  178.40    340.64006                               29.23324             74.727                                        3.40640e+002           4.06401e+001           6.40060e-001           6.40060e-001           4.00596e-002           5.95961e-005           5.95961e-005
