~VERSION INFORMATION
VERS                    .            2.0                                    :CWLS LOG ASCII STANDARD
WRAP                    .            NO                                     :ONE LINE PER TIME STEP


~WELL INFORMATION
#MNEM                   .UNIT        DATA                                    DESCRIPTION
#________________________________________________________________________________________
STRTTIME                .HH/MM/SS    19:52:58                               :START TIME
STOPTIME                .HH/MM/SS    19:58:21                               :STOP TIME
STRT                    .s           2.10                                   :START DATA
STOP                    .s           321.30                                 :STOP DATA
STEP                    .s           0.10                                   :MEASUREMENT TIME INTERVAL
NULL                    .            -999.25                                :NULL VALUE
COMP                    .            Statoil ASA                            :COMPANY
FLD                     .            Volve                                  :FIELD
WELL                    .            15/9-F-11 A                            :WELL
RUN                     .            8                                      :RUN
LOC                     .            Maersk Inspirer                        :LOCATION
PROV                    .            na                                     :PROVINCE
SRVC                    .            Baker Hughes INTEQ                     :SERVICE COMPANY
DATE                    .YY/MM/DD    13/05/23                               :LOG DATE
UWI                     .                                                   :UNIQUE WELL ID
DEPTHMD                 .m           3602.0                                 :MEASURED DEPTH
DEPTHTVD                .m           3003.9                                 :TRUE VERTICAL DEPTH


~CURVE INFORMATION
#MNEM                   .UNIT        API CODES                               DESCRIPTION
#________________________________________________________________________________________
TIME                    .s                                                  :01 TIME
DD_PRESS                .bar                                                :02 DRAW DOWN PRESSURE
DD_VOLUME               .cm3                                                :03 INCREMENTAL DRAW DOWN VOLUME
TEMP                    .degC                                               :04 TRANSDUCER TEMPERATURE
DD_PRESS_MOD_1000       .bar                                                :05 DRAW DOWN PRESSURE MOD 1000
DD_PRESS_MOD_100        .bar                                                :06 DRAW DOWN PRESSURE MOD 100
DD_PRESS_MOD_10         .bar                                                :07 DRAW DOWN PRESSURE MOD 10
DD_PRESS_MOD_1          .bar                                                :08 DRAW DOWN PRESSURE MOD 1
DD_PRESS_MOD_01         .bar                                                :09 DRAW DOWN PRESSURE MOD 01
DD_PRESS_MOD_001        .bar                                                :10 DRAW DOWN PRESSURE MOD 001
DD_PRESS_MOD_0001       .bar                                                :11 DRAW DOWN PRESSURE MOD 0001


~PARAMETER INFORMATION
#MNEM                   .UNIT        VALUE                                   DESCRIPTION
#________________________________________________________________________________________
TOOLFACE                .deg         -40.9                                  :01 TOOLFACE
PUMP_CAPACITY           .bar         400                                    :02 NOMINAL DRAW DOWN PUMP CAPACITY
PUMP_LIMIT              .bar         240                                    :03 DOWNLINK PUMP LIMIT
TIME_LIMIT              .min         10                                     :04 DOWNLINK MAX TIME
TEST_TYPE               .            REPEAT                                 :05 DOWNLINK
TEST_TYPE               .            HIGH MOBILITY                          :06 DOWNLINK
DD_PIST_A               .cm2         3.1416                                 :07 DRAW DOWN PISTON AREA
V_SYS                   .cm3         131.0000                               :08 SYSTEM VOLUME
PROBE_ID                .cm          1.2700                                 :09 TTK PROBE ID
G0                      .            4.6700                                 :10 GEOMETRY FACTOR


~A                  TIME     DD_PRESS                              DD_VOLUME               TEMP                                   DD_PRESS_MOD_1000       DD_PRESS_MOD_100        DD_PRESS_MOD_10         DD_PRESS_MOD_1        DD_PRESS_MOD_01       DD_PRESS_MOD_001      DD_PRESS_MOD_0001
# ...
                  128.10    341.71349                               10.57399             70.992                                        3.41713e+002           4.17135e+001           1.71349e+000           7.13485e-001           1.34851e-002           3.48514e-003           4.85144e-004
                  128.20    341.75293                               10.57399             70.992                                        3.41753e+002           4.17529e+001           1.75293e+000           7.52934e-001           5.29335e-002           2.93352e-003           9.33522e-004
                  128.30    341.68759                               10.57399             70.992                                        3.41688e+002           4.16876e+001           1.68759e+000           6.87588e-001           8.75878e-002           7.58783e-003           5.87834e-004
                  128.40    341.60677                               10.57399             70.992                                        3.41607e+002           4.16068e+001           1.60677e+000           6.06768e-001           6.76791e-003           6.76791e-003           7.67912e-004
                  128.50    341.62287                               10.57399             70.992                                        3.41623e+002           4.16229e+001           1.62287e+000           6.22869e-001           2.28693e-002           2.86931e-003           8.69314e-004
                  128.60    341.66106                               10.57399             70.992                                        3.41661e+002           4.16611e+001           1.66106e+000           6.61064e-001           6.10643e-002           1.06429e-003           6.42871e-005
                  128.70    341.64992                               10.57399             70.992                                        3.41650e+002           4.16499e+001           1.64992e+000           6.49920e-001           4.99201e-002           9.92014e-003           9.20136e-004
                  128.80    341.60858                               10.57399             70.992                                        3.41609e+002           4.16086e+001           1.60858e+000           6.08578e-001           8.57843e-003           8.57843e-003           5.78426e-004
                  128.90    341.62177                               10.57399             70.992                                        3.41622e+002           4.16218e+001           1.62177e+000           6.21769e-001           2.17690e-002           1.76896e-003           7.68961e-004
                  129.00    341.64433                               10.57399             70.992                                        3.41644e+002           4.16443e+001           1.64433e+000           6.44331e-001           4.43305e-002           4.33052e-003           3.30522e-004
                  129.10    341.62415                               10.57399             70.992                                        3.41624e+002           4.16242e+001           1.62415e+000           6.24153e-001           2.41525e-002           4.15255e-003           1.52548e-004
                  129.20    341.61850                               10.57399             70.992                                        3.41619e+002           4.16185e+001           1.61850e+000           6.18502e-001           1.85019e-002           8.50186e-003           5.01857e-004
                  129.30    341.57337                               10.57399             70.992                                        3.41573e+002           4.15734e+001           1.57337e+000           5.73373e-001           7.33729e-002           3.37293e-003           3.72925e-004
                  129.40    341.56488                               10.57399             70.992                                        3.41565e+002           4.15649e+001           1.56488e+000           5.64876e-001           6.48763e-002           4.87627e-003           8.76266e-004
                  129.50    341.64730                               10.57399             70.992                                        3.41647e+002           4.16473e+001           1.64730e+000           6.47296e-001           4.72958e-002           7.29580e-003           2.95796e-004
                  129.60    341.67590                               10.57399             70.992                                        3.41676e+002           4.16759e+001           1.67590e+000           6.75897e-001           7.58968e-002           5.89683e-003           8.96827e-004
                  129.70    341.59099                               10.57399             70.992                                        3.41591e+002           4.15910e+001           1.59099e+000           5.90992e-001           9.09919e-002           9.91922e-004           9.91922e-004
                  129.80    341.62327                               10.57399             70.992                                        3.41623e+002           4.16233e+001           1.62327e+000           6.23266e-001           2.32659e-002           3.26588e-003           2.65879e-004
                  129.90    341.73012                               10.57399             70.992                                        3.41730e+002           4.17301e+001           1.73012e+000           7.30124e-001           3.01244e-002           1.24410e-004           1.24410e-004
                  130.00    341.69656                               10.57399             70.992                                        3.41697e+002           4.16966e+001           1.69656e+000           6.96563e-001           9.65626e-002           6.56261e-003           5.62614e-004
                  130.10    341.58991                               10.57399             70.992                                        3.41590e+002           4.15899e+001           1.58991e+000           5.89908e-001           8.99078e-002           9.90781e-003           9.07810e-004
                  130.20    341.59507                               10.57399             70.992                                        3.41595e+002           4.15951e+001           1.59507e+000           5.95072e-001           9.50723e-002           5.07232e-003           7.23154e-005
                  130.30    341.67719                               10.57399             70.992                                        3.41677e+002           4.16772e+001           1.67719e+000           6.77187e-001           7.71875e-002           7.18749e-003           1.87486e-004
                  130.40    341.68544                               10.57399             70.992                                        3.41685e+002           4.16854e+001           1.68544e+000           6.85444e-001           8.54444e-002           5.44439e-003           4.44387e-004
                  130.50    341.62364                               10.57399             70.992                                        3.41624e+002           4.16236e+001           1.62364e+000           6.23644e-001           2.36444e-002           3.64440e-003           6.44395e-004
                  130.60    341.63423                               10.57399             70.992                                        3.41634e+002           4.16342e+001           1.63423e+000           6.34231e-001           3.42312e-002           4.23123e-003           2.31226e-004
                  130.70    341.72361                               10.57399             70.992                                        3.41724e+002           4.17236e+001           1.72361e+000           7.23613e-001           2.36133e-002           3.61333e-003           6.13330e-004
                  130.80    341.71116                               10.57399             70.992                                        3.41711e+002           4.17112e+001           1.71116e+000           7.11160e-001           1.11599e-002           1.15989e-003           1.59893e-004
