~VERSION INFORMATION
VERS                    .            2.0                                    :CWLS LOG ASCII STANDARD
WRAP                    .            NO                                     :ONE LINE PER TIME STEP


~WELL INFORMATION
#MNEM                   .UNIT        DATA                                    DESCRIPTION
#________________________________________________________________________________________
STRTTIME                .HH/MM/SS    16:37:30                               :START TIME
STOPTIME                .HH/MM/SS    16:40:36                               :STOP TIME
STRT                    .s           2.10                                   :START DATA
STOP                    .s           184.70                                 :STOP DATA
STEP                    .s           0.10                                   :MEASUREMENT TIME INTERVAL
NULL                    .            -999.25                                :NULL VALUE
COMP                    .            Statoil ASA                            :COMPANY
FLD                     .            Volve                                  :FIELD
WELL                    .            15/9-F-1 B                             :WELL
RUN                     .            7                                      :RUN
LOC                     .            Maersk Inspirer                        :LOCATION
PROV                    .            na                                     :PROVINCE
SRVC                    .            Baker Hughes INTEQ                     :SERVICE COMPANY
DATE                    .YY/MM/DD    13/09/06                               :LOG DATE
UWI                     .                                                   :UNIQUE WELL ID
DEPTHMD                 .m           3247.0                                 :MEASURED DEPTH
DEPTHTVD                .m           3043.3                                 :TRUE VERTICAL DEPTH


~CURVE INFORMATION
#MNEM                   .UNIT        API CODES                               DESCRIPTION
#________________________________________________________________________________________
TIME                    .s                                                  :01 TIME
DD_PRESS                .bar                                                :02 DRAW DOWN PRESSURE
DD_VOLUME               .cm3                                                :03 INCREMENTAL DRAW DOWN VOLUME
TEMP                    .degC                                               :04 TRANSDUCER TEMPERATURE
DD_PRESS_MOD_1000       .bar                                                :05 DRAW DOWN PRESSURE MOD 1000
DD_PRESS_MOD_100        .bar                                                :06 DRAW DOWN PRESSURE MOD 100
DD_PRESS_MOD_10         .bar                                                :07 DRAW DOWN PRESSURE MOD 10
DD_PRESS_MOD_1          .bar                                                :08 DRAW DOWN PRESSURE MOD 1
DD_PRESS_MOD_01         .bar                                                :09 DRAW DOWN PRESSURE MOD 01
DD_PRESS_MOD_001        .bar                                                :10 DRAW DOWN PRESSURE MOD 001
DD_PRESS_MOD_0001       .bar                                                :11 DRAW DOWN PRESSURE MOD 0001


~PARAMETER INFORMATION
#MNEM                   .UNIT        VALUE                                   DESCRIPTION
#________________________________________________________________________________________
TOOLFACE                .deg         na                                     :01 TOOLFACE
PUMP_CAPACITY           .bar         400                                    :02 NOMINAL DRAW DOWN PUMP CAPACITY
PUMP_LIMIT              .bar         400                                    :03 DOWNLINK PUMP LIMIT
TIME_LIMIT              .min         10                                     :04 DOWNLINK MAX TIME
TEST_TYPE               .            LOW MOBILITY                           :05 DOWNLINK
DD_PIST_A               .cm2         3.1416                                 :06 DRAW DOWN PISTON AREA
V_SYS                   .cm3         131.0000                               :07 SYSTEM VOLUME
PROBE_ID                .cm          1.2700                                 :08 TTK PROBE ID
G0                      .            4.6700                                 :09 GEOMETRY FACTOR


~A                  TIME     DD_PRESS                              DD_VOLUME               TEMP                                   DD_PRESS_MOD_1000       DD_PRESS_MOD_100        DD_PRESS_MOD_10         DD_PRESS_MOD_1        DD_PRESS_MOD_01       DD_PRESS_MOD_001      DD_PRESS_MOD_0001
# ...
                  133.70    344.57403                               29.23081             81.516                                        3.44574e+002           4.45740e+001           4.57403e+000           5.74028e-001           7.40280e-002           4.02801e-003           2.80128e-005
                  133.80    344.57617                               29.23081             81.516                                        3.44576e+002           4.45762e+001           4.57617e+000           5.76165e-001           7.61654e-002           6.16536e-003           1.65361e-004
                  133.90    344.55389                               29.23081             81.516                                        3.44554e+002           4.45539e+001           4.55389e+000           5.53887e-001           5.38869e-002           3.88694e-003           8.86941e-004
                  134.00    344.54804                               29.23081             81.516                                        3.44548e+002           4.45480e+001           4.54804e+000           5.48035e-001           4.80350e-002           8.03502e-003           3.50174e-005
                  134.10    344.55644                               29.23081             81.516                                        3.44556e+002           4.45564e+001           4.55644e+000           5.56443e-001           5.64427e-002           6.44272e-003           4.42724e-004
                  134.20    344.55621                               29.23081             81.516                                        3.44556e+002           4.45562e+001           4.55621e+000           5.56212e-001           5.62117e-002           6.21175e-003           2.11746e-004
                  134.30    344.54528                               29.23081             81.516                                        3.44545e+002           4.45453e+001           4.54528e+000           5.45276e-001           4.52756e-002           5.27564e-003           2.75644e-004
                  134.40    344.54903                               29.23081             81.516                                        3.44549e+002           4.45490e+001           4.54903e+000           5.49028e-001           4.90279e-002           9.02789e-003           2.78884e-005
                  134.50    344.56741                               29.23081             81.516                                        3.44567e+002           4.45674e+001           4.56741e+000           5.67410e-001           6.74102e-002           7.41017e-003           4.10165e-004
                  134.60    344.56636                               29.23081             81.516                                        3.44566e+002           4.45664e+001           4.56636e+000           5.66359e-001           6.63590e-002           6.35904e-003           3.59043e-004
                  134.70    344.54913                               29.23081             81.516                                        3.44549e+002           4.45491e+001           4.54913e+000           5.49131e-001           4.91305e-002           9.13055e-003           1.30550e-004
                  134.80    344.55925                               29.23081             81.516                                        3.44559e+002           4.45593e+001           4.55925e+000           5.59253e-001           5.92534e-002           9.25339e-003           2.53392e-004
                  134.90    344.57037                               29.23081             81.516                                        3.44570e+002           4.45704e+001           4.57037e+000           5.70367e-001           7.03666e-002           3.66568e-004           3.66568e-004
                  135.00    344.55415                               29.23081             81.516                                        3.44554e+002           4.45541e+001           4.55415e+000           5.54147e-001           5.41474e-002           4.14738e-003           1.47383e-004
                  135.10    344.53781                               29.23081             81.516                                        3.44538e+002           4.45378e+001           4.53781e+000           5.37812e-001           3.78119e-002           7.81192e-003           8.11922e-004
                  135.20    344.55791                               29.23081             81.516                                        3.44558e+002           4.45579e+001           4.55791e+000           5.57913e-001           5.79129e-002           7.91291e-003           9.12914e-004
                  135.30    344.57677                               29.23081             81.516                                        3.44577e+002           4.45768e+001           4.57677e+000           5.76770e-001           7.67705e-002           6.77049e-003           7.70491e-004
                  135.40    344.56342                               29.23081             81.516                                        3.44563e+002           4.45634e+001           4.56342e+000           5.63422e-001           6.34222e-002           3.42223e-003           4.22226e-004
                  135.50    344.55028                               29.23081             81.516                                        3.44550e+002           4.45503e+001           4.55028e+000           5.50284e-001           5.02837e-002           2.83663e-004           2.83663e-004
                  135.60    344.56538                               29.23081             81.516                                        3.44565e+002           4.45654e+001           4.56538e+000           5.65380e-001           6.53805e-002           5.38045e-003           3.80450e-004
                  135.70    344.57824                               29.23081             81.516                                        3.44578e+002           4.45782e+001           4.57824e+000           5.78235e-001           7.82355e-002           8.23548e-003           2.35483e-004
                  135.80    344.55237                               29.23081             81.516                                        3.44552e+002           4.45524e+001           4.55237e+000           5.52371e-001           5.23714e-002           2.37136e-003           3.71358e-004
                  135.90    344.52859                               29.23081             81.516                                        3.44529e+002           4.45286e+001           4.52859e+000           5.28588e-001           2.85882e-002           8.58815e-003           5.88150e-004
                  136.00    344.55483                               29.23081             81.516                                        3.44555e+002           4.45548e+001           4.55483e+000           5.54834e-001           5.48340e-002           4.83400e-003           8.34004e-004
                  136.10    344.58568                               29.23081             81.516                                        3.44586e+002           4.45857e+001           4.58568e+000           5.85683e-001           8.56829e-002           5.68293e-003           6.82931e-004
                  136.20    344.57225                               29.23081             81.516                                        3.44572e+002           4.45723e+001           4.57225e+000           5.72251e-001           7.22511e-002           2.25113e-003           2.51126e-004
                  136.30    344.54421                               29.23081             81.516                                        3.44544e+002           4.45442e+001           4.54421e+000           5.44213e-001           4.42125e-002           4.21253e-003           2.12526e-004
                  136.40    344.55429                               29.23081             81.516                                        3.44554e+002           4.45543e+001           4.55429e+000           5.54291e-001           5.42913e-002           4.29129e-003           2.91292e-004
