~VERSION INFORMATION
VERS                    .            2.0                                    :CWLS LOG ASCII STANDARD
WRAP                    .            NO                                     :ONE LINE PER TIME STEP


~WELL INFORMATION
#MNEM                   .UNIT        DATA                                    DESCRIPTION
#________________________________________________________________________________________
STRTTIME                .HH/MM/SS    23:39:21                               :START TIME
STOPTIME                .HH/MM/SS    23:43:19                               :STOP TIME
STRT                    .s           2.10                                   :START DATA
STOP                    .s           236.60                                 :STOP DATA
STEP                    .s           0.10                                   :MEASUREMENT TIME INTERVAL
NULL                    .            -999.25                                :NULL VALUE
COMP                    .            Statoil                                :COMPANY
FLD                     .            Volve                                  :FIELD
WELL                    .            15/9-F-11 T2                           :WELL
RUN                     .            7                                      :RUN
LOC                     .            Maersk Inspirer                        :LOCATION
PROV                    .            na                                     :PROVINCE
SRVC                    .            Baker Hughes INTEQ                     :SERVICE COMPANY
DATE                    .YY/MM/DD    13/05/04                               :LOG DATE
UWI                     .                                                   :UNIQUE WELL ID
DEPTHMD                 .m           4417.0                                 :MEASURED DEPTH
DEPTHTVD                .m           3257.6                                 :TRUE VERTICAL DEPTH


~CURVE INFORMATION
#MNEM                   .UNIT        API CODES                               DESCRIPTION
#________________________________________________________________________________________
TIME                    .s                                                  :01 TIME
DD_PRESS                .bar                                                :02 DRAW DOWN PRESSURE
DD_VOLUME               .cm3                                                :03 INCREMENTAL DRAW DOWN VOLUME
TEMP                    .degC                                               :04 TRANSDUCER TEMPERATURE
DD_PRESS_MOD_1000       .bar                                                :05 DRAW DOWN PRESSURE MOD 1000
DD_PRESS_MOD_100        .bar                                                :06 DRAW DOWN PRESSURE MOD 100
DD_PRESS_MOD_10         .bar                                                :07 DRAW DOWN PRESSURE MOD 10
DD_PRESS_MOD_1          .bar                                                :08 DRAW DOWN PRESSURE MOD 1
DD_PRESS_MOD_01         .bar                                                :09 DRAW DOWN PRESSURE MOD 01
DD_PRESS_MOD_001        .bar                                                :10 DRAW DOWN PRESSURE MOD 001
DD_PRESS_MOD_0001       .bar                                                :11 DRAW DOWN PRESSURE MOD 0001


~PARAMETER INFORMATION
#MNEM                   .UNIT        VALUE                                   DESCRIPTION
#________________________________________________________________________________________
TOOLFACE                .deg         na                                     :01 TOOLFACE
PUMP_CAPACITY           .bar         400                                    :02 NOMINAL DRAW DOWN PUMP CAPACITY
PUMP_LIMIT              .bar         240                                    :03 DOWNLINK PUMP LIMIT
TIME_LIMIT              .min         10                                     :04 DOWNLINK MAX TIME
TEST_TYPE               .            REPEAT                                 :05 DOWNLINK
TEST_TYPE               .            HIGH MOBILITY                          :06 DOWNLINK
DD_PIST_A               .cm2         3.1416                                 :07 DRAW DOWN PISTON AREA
V_SYS                   .cm3         131.0000                               :08 SYSTEM VOLUME
PROBE_ID                .cm          1.2700                                 :09 TTK PROBE ID
G0                      .            4.6700                                 :10 GEOMETRY FACTOR


~A                  TIME     DD_PRESS                              DD_VOLUME               TEMP                                   DD_PRESS_MOD_1000       DD_PRESS_MOD_100        DD_PRESS_MOD_10         DD_PRESS_MOD_1        DD_PRESS_MOD_01       DD_PRESS_MOD_001      DD_PRESS_MOD_0001
# ...
                  142.10    361.06909                               14.22735             96.008                                        3.61069e+002           6.10691e+001           1.06909e+000           6.90920e-002           6.90920e-002           9.09204e-003           9.20426e-005
                  142.20    361.07904                               14.22735             96.008                                        3.61079e+002           6.10790e+001           1.07904e+000           7.90442e-002           7.90442e-002           9.04423e-003           4.42328e-005
                  142.30    361.09754                               14.22735             96.008                                        3.61098e+002           6.10975e+001           1.09754e+000           9.75409e-002           9.75409e-002           7.54092e-003           5.40917e-004
                  142.40    361.08567                               14.22735             96.008                                        3.61086e+002           6.10857e+001           1.08567e+000           8.56740e-002           8.56740e-002           5.67401e-003           6.74006e-004
                  142.50    361.07957                               14.22735             96.008                                        3.61080e+002           6.10796e+001           1.07957e+000           7.95659e-002           7.95659e-002           9.56586e-003           5.65858e-004
                  142.60    361.09736                               14.22735             96.008                                        3.61097e+002           6.10974e+001           1.09736e+000           9.73632e-002           9.73632e-002           7.36320e-003           3.63205e-004
                  142.70    361.09483                               14.22735             96.008                                        3.61095e+002           6.10948e+001           1.09483e+000           9.48338e-002           9.48338e-002           4.83377e-003           8.33773e-004
                  142.80    361.07573                               14.22735             96.008                                        3.61076e+002           6.10757e+001           1.07573e+000           7.57349e-002           7.57349e-002           5.73488e-003           7.34878e-004
                  142.90    361.08420                               14.22735             96.008                                        3.61084e+002           6.10842e+001           1.08420e+000           8.41957e-002           8.41957e-002           4.19572e-003           1.95722e-004
                  143.00    361.10246                               14.22735             96.008                                        3.61102e+002           6.11025e+001           1.10246e+000           1.02464e-001           2.46364e-003           2.46364e-003           4.63638e-004
                  143.10    361.08930                               14.22735             96.008                                        3.61089e+002           6.10893e+001           1.08930e+000           8.93032e-002           8.93032e-002           9.30315e-003           3.03150e-004
                  143.20    361.07213                               14.22735             96.008                                        3.61072e+002           6.10721e+001           1.07213e+000           7.21336e-002           7.21336e-002           2.13357e-003           1.33569e-004
                  143.30    361.08253                               14.22735             96.008                                        3.61083e+002           6.10825e+001           1.08253e+000           8.25312e-002           8.25312e-002           2.53121e-003           5.31213e-004
                  143.40    361.08985                               14.22735             96.008                                        3.61090e+002           6.10899e+001           1.08985e+000           8.98521e-002           8.98521e-002           9.85214e-003           8.52135e-004
                  143.50    361.07749                               14.22735             96.008                                        3.61077e+002           6.10775e+001           1.07749e+000           7.74904e-002           7.74904e-002           7.49041e-003           4.90408e-004
                  143.60    361.07867                               14.22735             96.008                                        3.61079e+002           6.10787e+001           1.07867e+000           7.86739e-002           7.86739e-002           8.67389e-003           6.73887e-004
                  143.70    361.09400                               14.22735             96.008                                        3.61094e+002           6.10940e+001           1.09400e+000           9.39961e-002           9.39961e-002           3.99612e-003           9.96117e-004
                  143.80    361.09396                               14.22735             96.008                                        3.61094e+002           6.10940e+001           1.09396e+000           9.39641e-002           9.39641e-002           3.96412e-003           9.64118e-004
                  143.90    361.08309                               14.22735             96.008                                        3.61083e+002           6.10831e+001           1.08309e+000           8.30884e-002           8.30884e-002           3.08844e-003           8.84401e-005
                  144.00    361.07799                               14.22735             96.008                                        3.61078e+002           6.10780e+001           1.07799e+000           7.79944e-002           7.79944e-002           7.99441e-003           9.94409e-004
                  144.10    361.07975                               14.22735             96.008                                        3.61080e+002           6.10798e+001           1.07975e+000           7.97548e-002           7.97548e-002           9.75479e-003           7.54794e-004
                  144.20    361.08766                               14.22735             96.008                                        3.61088e+002           6.10877e+001           1.08766e+000           8.76604e-002           8.76604e-002           7.66036e-003           6.60360e-004
                  144.30    361.09044                               14.22735             96.008                                        3.61090e+002           6.10904e+001           1.09044e+000           9.04365e-002           9.04365e-002           4.36474e-004           4.36474e-004
                  144.40    361.08400                               14.22735             96.008                                        3.61084e+002           6.10840e+001           1.08400e+000           8.39965e-002           8.39965e-002           3.99646e-003           9.96460e-004
                  144.50    361.08556                               14.22735             96.008                                        3.61086e+002           6.10856e+001           1.08556e+000           8.55556e-002           8.55556e-002           5.55560e-003           5.55595e-004
                  144.60    361.09648                               14.22735             96.008                                        3.61096e+002           6.10965e+001           1.09648e+000           9.64761e-002           9.64761e-002           6.47612e-003           4.76115e-004
                  144.70    361.09248                               14.22735             96.008                                        3.61092e+002           6.10925e+001           1.09248e+000           9.24837e-002           9.24837e-002           2.48374e-003           4.83740e-004
                  144.80    361.07659                               14.22735             96.008                                        3.61077e+002           6.10766e+001           1.07659e+000           7.65925e-002           7.65925e-002           6.59249e-003           5.92486e-004
