~VERSION INFORMATION
VERS                    .            2.0                                    :CWLS LOG ASCII STANDARD
WRAP                    .            NO                                     :ONE LINE PER TIME STEP


~WELL INFORMATION
#MNEM                   .UNIT        DATA                                    DESCRIPTION
#________________________________________________________________________________________
STRTTIME                .HH/MM/SS    09:43:23                               :START TIME
STOPTIME                .HH/MM/SS    09:46:50                               :STOP TIME
STRT                    .s           2.10                                   :START DATA
STOP                    .s           205.20                                 :STOP DATA
STEP                    .s           0.10                                   :MEASUREMENT TIME INTERVAL
NULL                    .            -999.25                                :NULL VALUE
COMP                    .            Statoil ASA                            :COMPANY
FLD                     .            Volve                                  :FIELD
WELL                    .            15/9-F-11 A                            :WELL
RUN                     .            8                                      :RUN
LOC                     .            Maersk Inspirer                        :LOCATION
PROV                    .            na                                     :PROVINCE
SRVC                    .            Baker Hughes INTEQ                     :SERVICE COMPANY
DATE                    .YY/MM/DD    13/05/21                               :LOG DATE
UWI                     .                                                   :UNIQUE WELL ID
DEPTHMD                 .m           3665.9                                 :MEASURED DEPTH
DEPTHTVD                .m           3052.8                                 :TRUE VERTICAL DEPTH


~CURVE INFORMATION
#MNEM                   .UNIT        API CODES                               DESCRIPTION
#________________________________________________________________________________________
TIME                    .s                                                  :01 TIME
DD_PRESS                .bar                                                :02 DRAW DOWN PRESSURE
DD_VOLUME               .cm3                                                :03 INCREMENTAL DRAW DOWN VOLUME
TEMP                    .degC                                               :04 TRANSDUCER TEMPERATURE
DD_PRESS_MOD_1000       .bar                                                :05 DRAW DOWN PRESSURE MOD 1000
DD_PRESS_MOD_100        .bar                                                :06 DRAW DOWN PRESSURE MOD 100
DD_PRESS_MOD_10         .bar                                                :07 DRAW DOWN PRESSURE MOD 10
DD_PRESS_MOD_1          .bar                                                :08 DRAW DOWN PRESSURE MOD 1
DD_PRESS_MOD_01         .bar                                                :09 DRAW DOWN PRESSURE MOD 01
DD_PRESS_MOD_001        .bar                                                :10 DRAW DOWN PRESSURE MOD 001
DD_PRESS_MOD_0001       .bar                                                :11 DRAW DOWN PRESSURE MOD 0001


~PARAMETER INFORMATION
#MNEM                   .UNIT        VALUE                                   DESCRIPTION
#________________________________________________________________________________________
TOOLFACE                .deg         60.0                                   :01 TOOLFACE
PUMP_CAPACITY           .bar         400                                    :02 NOMINAL DRAW DOWN PUMP CAPACITY
PUMP_LIMIT              .bar         240                                    :03 DOWNLINK PUMP LIMIT
TIME_LIMIT              .min         10                                     :04 DOWNLINK MAX TIME
TEST_TYPE               .            REPEAT                                 :05 DOWNLINK
TEST_TYPE               .            HIGH MOBILITY                          :06 DOWNLINK
DD_PIST_A               .cm2         3.1416                                 :07 DRAW DOWN PISTON AREA
V_SYS                   .cm3         131.0000                               :08 SYSTEM VOLUME
PROBE_ID                .cm          1.2700                                 :09 TTK PROBE ID
G0                      .            4.6700                                 :10 GEOMETRY FACTOR


~A                  TIME     DD_PRESS                              DD_VOLUME               TEMP                                   DD_PRESS_MOD_1000       DD_PRESS_MOD_100        DD_PRESS_MOD_10         DD_PRESS_MOD_1        DD_PRESS_MOD_01       DD_PRESS_MOD_001      DD_PRESS_MOD_0001
# ...
                  164.50    344.71538                               14.54546             83.133                                        3.44715e+002           4.47154e+001           4.71538e+000           7.15382e-001           1.53817e-002           5.38168e-003           3.81682e-004
                  164.60    344.71742                               14.54546             83.133                                        3.44717e+002           4.47174e+001           4.71742e+000           7.17423e-001           1.74230e-002           7.42302e-003           4.23022e-004
                  164.70    344.71752                               14.54546             83.133                                        3.44718e+002           4.47175e+001           4.71752e+000           7.17521e-001           1.75207e-002           7.52073e-003           5.20726e-004
                  164.80    344.71059                               14.54546             83.133                                        3.44711e+002           4.47106e+001           4.71059e+000           7.10592e-001           1.05921e-002           5.92054e-004           5.92054e-004
                  164.90    344.70372                               14.54546             83.133                                        3.44704e+002           4.47037e+001           4.70372e+000           7.03722e-001           3.72190e-003           3.72190e-003           7.21902e-004
                  165.00    344.70981                               14.54546             83.133                                        3.44710e+002           4.47098e+001           4.70981e+000           7.09807e-001           9.80693e-003           9.80693e-003           8.06933e-004
                  165.10    344.72310                               14.54546             83.133                                        3.44723e+002           4.47231e+001           4.72310e+000           7.23099e-001           2.30988e-002           3.09885e-003           9.88471e-005
                  165.20    344.72440                               14.54546             83.133                                        3.44724e+002           4.47244e+001           4.72440e+000           7.24396e-001           2.43964e-002           4.39642e-003           3.96421e-004
                  165.30    344.71470                               14.54546             83.133                                        3.44715e+002           4.47147e+001           4.71470e+000           7.14702e-001           1.47019e-002           4.70188e-003           7.01880e-004
                  165.40    344.71141                               14.54546             83.133                                        3.44711e+002           4.47114e+001           4.71141e+000           7.11412e-001           1.14121e-002           1.41212e-003           4.12118e-004
                  165.50    344.71020                               14.54546             83.133                                        3.44710e+002           4.47102e+001           4.71020e+000           7.10203e-001           1.02031e-002           2.03067e-004           2.03067e-004
                  165.60    344.71178                               14.54546             83.133                                        3.44712e+002           4.47118e+001           4.71178e+000           7.11779e-001           1.17791e-002           1.77911e-003           7.79108e-004
                  165.70    344.71399                               14.54546             83.133                                        3.44714e+002           4.47140e+001           4.71399e+000           7.13990e-001           1.39898e-002           3.98981e-003           9.89809e-004
                  165.80    344.70891                               14.54546             83.133                                        3.44709e+002           4.47089e+001           4.70891e+000           7.08912e-001           8.91205e-003           8.91205e-003           9.12053e-004
                  165.90    344.70121                               14.54546             83.133                                        3.44701e+002           4.47012e+001           4.70121e+000           7.01214e-001           1.21401e-003           1.21401e-003           2.14008e-004
                  166.00    344.69965                               14.54546             83.133                                        3.44700e+002           4.46996e+001           4.69965e+000           6.99646e-001           9.96457e-002           9.64565e-003           6.45652e-004
                  166.10    344.70002                               14.54546             83.133                                        3.44700e+002           4.47000e+001           4.70002e+000           7.00019e-001           1.92949e-005           1.92949e-005           1.92949e-005
                  166.20    344.70155                               14.54546             83.133                                        3.44702e+002           4.47015e+001           4.70155e+000           7.01549e-001           1.54882e-003           1.54882e-003           5.48823e-004
                  166.30    344.71399                               14.54546             83.133                                        3.44714e+002           4.47140e+001           4.71399e+000           7.13986e-001           1.39864e-002           3.98644e-003           9.86440e-004
                  166.40    344.72002                               14.54546             83.133                                        3.44720e+002           4.47200e+001           4.72002e+000           7.20023e-001           2.00230e-002           2.29850e-005           2.29850e-005
                  166.50    344.71833                               14.54546             83.133                                        3.44718e+002           4.47183e+001           4.71833e+000           7.18326e-001           1.83260e-002           8.32602e-003           3.26016e-004
                  166.60    344.71884                               14.54546             83.133                                        3.44719e+002           4.47188e+001           4.71884e+000           7.18843e-001           1.88434e-002           8.84337e-003           8.43371e-004
                  166.70    344.71503                               14.54546             83.133                                        3.44715e+002           4.47150e+001           4.71503e+000           7.15034e-001           1.50336e-002           5.03363e-003           3.36263e-005
                  166.80    344.70932                               14.54546             83.133                                        3.44709e+002           4.47093e+001           4.70932e+000           7.09315e-001           9.31542e-003           9.31542e-003           3.15417e-004
                  166.90    344.71247                               14.54546             83.133                                        3.44712e+002           4.47125e+001           4.71247e+000           7.12469e-001           1.24695e-002           2.46947e-003           4.69470e-004
                  167.00    344.71596                               14.54546             83.133                                        3.44716e+002           4.47160e+001           4.71596e+000           7.15958e-001           1.59583e-002           5.95834e-003           9.58337e-004
                  167.10    344.71004                               14.54546             83.133                                        3.44710e+002           4.47100e+001           4.71004e+000           7.10036e-001           1.00359e-002           3.58930e-005           3.58930e-005
                  167.20    344.70604                               14.54546             83.133                                        3.44706e+002           4.47060e+001           4.70604e+000           7.06040e-001           6.04013e-003           6.04013e-003           4.01284e-005
