~VERSION INFORMATION
VERS                    .            2.0                                    :CWLS LOG ASCII STANDARD
WRAP                    .            NO                                     :ONE LINE PER TIME STEP


~WELL INFORMATION
#MNEM                   .UNIT        DATA                                    DESCRIPTION
#________________________________________________________________________________________
STRTTIME                .HH/MM/SS    23:39:21                               :START TIME
STOPTIME                .HH/MM/SS    23:43:19                               :STOP TIME
STRT                    .s           2.10                                   :START DATA
STOP                    .s           236.60                                 :STOP DATA
STEP                    .s           0.10                                   :MEASUREMENT TIME INTERVAL
NULL                    .            -999.25                                :NULL VALUE
COMP                    .            Statoil                                :COMPANY
FLD                     .            Volve                                  :FIELD
WELL                    .            15/9-F-11 T2                           :WELL
RUN                     .            7                                      :RUN
LOC                     .            Maersk Inspirer                        :LOCATION
PROV                    .            na                                     :PROVINCE
SRVC                    .            Baker Hughes INTEQ                     :SERVICE COMPANY
DATE                    .YY/MM/DD    13/05/04                               :LOG DATE
UWI                     .                                                   :UNIQUE WELL ID
DEPTHMD                 .m           4417.0                                 :MEASURED DEPTH
DEPTHTVD                .m           3257.6                                 :TRUE VERTICAL DEPTH


~CURVE INFORMATION
#MNEM                   .UNIT        API CODES                               DESCRIPTION
#________________________________________________________________________________________
TIME                    .s                                                  :01 TIME
DD_PRESS                .bar                                                :02 DRAW DOWN PRESSURE
DD_VOLUME               .cm3                                                :03 INCREMENTAL DRAW DOWN VOLUME
TEMP                    .degC                                               :04 TRANSDUCER TEMPERATURE
DD_PRESS_MOD_1000       .bar                                                :05 DRAW DOWN PRESSURE MOD 1000
DD_PRESS_MOD_100        .bar                                                :06 DRAW DOWN PRESSURE MOD 100
DD_PRESS_MOD_10         .bar                                                :07 DRAW DOWN PRESSURE MOD 10
DD_PRESS_MOD_1          .bar                                                :08 DRAW DOWN PRESSURE MOD 1
DD_PRESS_MOD_01         .bar                                                :09 DRAW DOWN PRESSURE MOD 01
DD_PRESS_MOD_001        .bar                                                :10 DRAW DOWN PRESSURE MOD 001
DD_PRESS_MOD_0001       .bar                                                :11 DRAW DOWN PRESSURE MOD 0001


~PARAMETER INFORMATION
#MNEM                   .UNIT        VALUE                                   DESCRIPTION
#________________________________________________________________________________________
TOOLFACE                .deg         na                                     :01 TOOLFACE
PUMP_CAPACITY           .bar         400                                    :02 NOMINAL DRAW DOWN PUMP CAPACITY
PUMP_LIMIT              .bar         240                                    :03 DOWNLINK PUMP LIMIT
TIME_LIMIT              .min         10                                     :04 DOWNLINK MAX TIME
TEST_TYPE               .            REPEAT                                 :05 DOWNLINK
TEST_TYPE               .            HIGH MOBILITY                          :06 DOWNLINK
DD_PIST_A               .cm2         3.1416                                 :07 DRAW DOWN PISTON AREA
V_SYS                   .cm3         131.0000                               :08 SYSTEM VOLUME
PROBE_ID                .cm          1.2700                                 :09 TTK PROBE ID
G0                      .            4.6700                                 :10 GEOMETRY FACTOR


~A                  TIME     DD_PRESS                              DD_VOLUME               TEMP                                   DD_PRESS_MOD_1000       DD_PRESS_MOD_100        DD_PRESS_MOD_10         DD_PRESS_MOD_1        DD_PRESS_MOD_01       DD_PRESS_MOD_001      DD_PRESS_MOD_0001
# ...
                   18.90    457.12592                                0.00000             96.141                                        4.57126e+002           5.71259e+001           7.12592e+000           1.25919e-001           2.59192e-002           5.91923e-003           9.19228e-004
                   19.00    457.12718                                0.00000             96.141                                        4.57127e+002           5.71272e+001           7.12718e+000           1.27180e-001           2.71799e-002           7.17994e-003           1.79944e-004
                   19.10    457.15552                                0.00000             96.141                                        4.57156e+002           5.71555e+001           7.15552e+000           1.55519e-001           5.55194e-002           5.51943e-003           5.19425e-004
                   19.20    457.15637                                0.00000             96.141                                        4.57156e+002           5.71564e+001           7.15637e+000           1.56374e-001           5.63745e-002           6.37447e-003           3.74467e-004
                   19.30    457.14162                                0.00000             96.141                                        4.57142e+002           5.71416e+001           7.14162e+000           1.41622e-001           4.16216e-002           1.62158e-003           6.21579e-004
                   19.40    457.15405                                0.00000             96.141                                        4.57154e+002           5.71541e+001           7.15405e+000           1.54050e-001           5.40501e-002           4.05007e-003           5.00654e-005
                   19.50    457.17086                                0.00000             96.141                                        4.57171e+002           5.71709e+001           7.17086e+000           1.70859e-001           7.08594e-002           8.59358e-004           8.59358e-004
                   19.60    457.16130                                0.00000             96.141                                        4.57161e+002           5.71613e+001           7.16130e+000           1.61299e-001           6.12988e-002           1.29880e-003           2.98798e-004
                   19.70    457.16576                                0.00000             96.141                                        4.57166e+002           5.71658e+001           7.16576e+000           1.65757e-001           6.57571e-002           5.75712e-003           7.57119e-004
                   19.80    457.18958                                0.00000             96.141                                        4.57190e+002           5.71896e+001           7.18958e+000           1.89579e-001           8.95793e-002           9.57926e-003           5.79262e-004
                   19.90    457.18863                                0.00000             96.141                                        4.57189e+002           5.71886e+001           7.18863e+000           1.88632e-001           8.86316e-002           8.63162e-003           6.31615e-004
                   20.00    457.15377                                0.00000             96.141                                        4.57154e+002           5.71538e+001           7.15377e+000           1.53766e-001           5.37662e-002           3.76616e-003           7.66155e-004
                   20.10    457.14250                                0.00000             96.141                                        4.57143e+002           5.71425e+001           7.14250e+000           1.42501e-001           4.25008e-002           2.50081e-003           5.00814e-004
                   20.20    457.17276                                0.00000             96.141                                        4.57173e+002           5.71728e+001           7.17276e+000           1.72760e-001           7.27596e-002           2.75955e-003           7.59551e-004
                   20.30    457.19739                                0.00000             96.141                                        4.57197e+002           5.71974e+001           7.19739e+000           1.97393e-001           9.73935e-002           7.39348e-003           3.93477e-004
                   20.40    457.16959                                0.00000             96.141                                        4.57170e+002           5.71696e+001           7.16959e+000           1.69594e-001           6.95940e-002           9.59402e-003           5.94024e-004
                   20.50    457.15455                                0.00000             96.141                                        4.57155e+002           5.71546e+001           7.15455e+000           1.54550e-001           5.45505e-002           4.55048e-003           5.50479e-004
                   20.60    457.17185                                0.00000             96.141                                        4.57172e+002           5.71718e+001           7.17185e+000           1.71848e-001           7.18480e-002           1.84798e-003           8.47978e-004
                   20.70    457.17706                                0.00000             96.138                                        4.57177e+002           5.71771e+001           7.17706e+000           1.77062e-001           7.70622e-002           7.06216e-003           6.21638e-005
                   20.80    457.15120                                0.00000             96.135                                        4.57151e+002           5.71512e+001           7.15120e+000           1.51204e-001           5.12036e-002           1.20364e-003           2.03643e-004
                   20.90    457.14428                                0.00000             96.133                                        4.57144e+002           5.71443e+001           7.14428e+000           1.44278e-001           4.42784e-002           4.27836e-003           2.78360e-004
                   21.00    457.16684                                0.00000             96.135                                        4.57167e+002           5.71668e+001           7.16684e+000           1.66837e-001           6.68370e-002           6.83700e-003           8.37001e-004
                   21.10    457.16846                                0.00000             96.136                                        4.57168e+002           5.71685e+001           7.16846e+000           1.68460e-001           6.84600e-002           8.46005e-003           4.60047e-004
                   21.20    457.15326                                0.00000             96.137                                        4.57153e+002           5.71533e+001           7.15326e+000           1.53260e-001           5.32598e-002           3.25980e-003           2.59799e-004
                   21.30    457.15994                                0.00000             96.136                                        4.57160e+002           5.71599e+001           7.15994e+000           1.59937e-001           5.99368e-002           9.93675e-003           9.36751e-004
                   21.40    457.17967                                0.00000             96.135                                        4.57180e+002           5.71797e+001           7.17967e+000           1.79667e-001           7.96671e-002           9.66714e-003           6.67136e-004
                   21.50    457.17326                                0.00000             96.133                                        4.57173e+002           5.71733e+001           7.17326e+000           1.73263e-001           7.32631e-002           3.26306e-003           2.63059e-004
                   21.60    457.16251                                0.00000             96.133                                        4.57163e+002           5.71625e+001           7.16251e+000           1.62511e-001           6.25107e-002           2.51066e-003           5.10665e-004
