~VERSION INFORMATION
VERS                    .            2.0                                    :CWLS LOG ASCII STANDARD
WRAP                    .            NO                                     :ONE LINE PER TIME STEP


~WELL INFORMATION
#MNEM                   .UNIT        DATA                                    DESCRIPTION
#________________________________________________________________________________________
STRTTIME                .HH/MM/SS    11:44:47                               :START TIME
STOPTIME                .HH/MM/SS    11:47:33                               :STOP TIME
STRT                    .s           2.10                                   :START DATA
STOP                    .s           164.50                                 :STOP DATA
STEP                    .s           0.10                                   :MEASUREMENT TIME INTERVAL
NULL                    .            -999.25                                :NULL VALUE
COMP                    .            Statoil ASA                            :COMPANY
FLD                     .            Volve                                  :FIELD
WELL                    .            15/9-F-11 A                            :WELL
RUN                     .            8                                      :RUN
LOC                     .            Maersk Inspirer                        :LOCATION
PROV                    .            na                                     :PROVINCE
SRVC                    .            Baker Hughes INTEQ                     :SERVICE COMPANY
DATE                    .YY/MM/DD    13/05/21                               :LOG DATE
UWI                     .                                                   :UNIQUE WELL ID
DEPTHMD                 .m           3624.0                                 :MEASURED DEPTH
DEPTHTVD                .m           3020.7                                 :TRUE VERTICAL DEPTH


~CURVE INFORMATION
#MNEM                   .UNIT        API CODES                               DESCRIPTION
#________________________________________________________________________________________
TIME                    .s                                                  :01 TIME
DD_PRESS                .bar                                                :02 DRAW DOWN PRESSURE
DD_VOLUME               .cm3                                                :03 INCREMENTAL DRAW DOWN VOLUME
TEMP                    .degC                                               :04 TRANSDUCER TEMPERATURE
DD_PRESS_MOD_1000       .bar                                                :05 DRAW DOWN PRESSURE MOD 1000
DD_PRESS_MOD_100        .bar                                                :06 DRAW DOWN PRESSURE MOD 100
DD_PRESS_MOD_10         .bar                                                :07 DRAW DOWN PRESSURE MOD 10
DD_PRESS_MOD_1          .bar                                                :08 DRAW DOWN PRESSURE MOD 1
DD_PRESS_MOD_01         .bar                                                :09 DRAW DOWN PRESSURE MOD 01
DD_PRESS_MOD_001        .bar                                                :10 DRAW DOWN PRESSURE MOD 001
DD_PRESS_MOD_0001       .bar                                                :11 DRAW DOWN PRESSURE MOD 0001


~PARAMETER INFORMATION
#MNEM                   .UNIT        VALUE                                   DESCRIPTION
#________________________________________________________________________________________
TOOLFACE                .deg         61.7                                   :01 TOOLFACE
PUMP_CAPACITY           .bar         400                                    :02 NOMINAL DRAW DOWN PUMP CAPACITY
PUMP_LIMIT              .bar         240                                    :03 DOWNLINK PUMP LIMIT
TIME_LIMIT              .min         10                                     :04 DOWNLINK MAX TIME
TEST_TYPE               .            REPEAT                                 :05 DOWNLINK
TEST_TYPE               .            HIGH MOBILITY                          :06 DOWNLINK
DD_PIST_A               .cm2         3.1416                                 :07 DRAW DOWN PISTON AREA
V_SYS                   .cm3         131.0000                               :08 SYSTEM VOLUME
PROBE_ID                .cm          1.2700                                 :09 TTK PROBE ID
G0                      .            4.6700                                 :10 GEOMETRY FACTOR


~A                  TIME     DD_PRESS                              DD_VOLUME               TEMP                                   DD_PRESS_MOD_1000       DD_PRESS_MOD_100        DD_PRESS_MOD_10         DD_PRESS_MOD_1        DD_PRESS_MOD_01       DD_PRESS_MOD_001      DD_PRESS_MOD_0001
# ...
                   66.50    342.13913                               10.64927             81.453                                        3.42139e+002           4.21391e+001           2.13913e+000           1.39128e-001           3.91282e-002           9.12824e-003           1.28242e-004
                   66.60    342.13851                               10.64927             81.453                                        3.42139e+002           4.21385e+001           2.13851e+000           1.38514e-001           3.85137e-002           8.51375e-003           5.13746e-004
                   66.70    342.14212                               10.64927             81.453                                        3.42142e+002           4.21421e+001           2.14212e+000           1.42122e-001           4.21220e-002           2.12199e-003           1.21988e-004
                   66.80    342.14605                               10.64927             81.453                                        3.42146e+002           4.21461e+001           2.14605e+000           1.46054e-001           4.60545e-002           6.05448e-003           5.44766e-005
                   66.90    342.14541                               10.64927             81.453                                        3.42145e+002           4.21454e+001           2.14541e+000           1.45408e-001           4.54084e-002           5.40841e-003           4.08413e-004
                   67.00    342.14125                               10.64927             81.453                                        3.42141e+002           4.21413e+001           2.14125e+000           1.41252e-001           4.12519e-002           1.25194e-003           2.51944e-004
                   67.10    342.14032                               10.64927             81.453                                        3.42140e+002           4.21403e+001           2.14032e+000           1.40318e-001           4.03176e-002           3.17641e-004           3.17641e-004
                   67.20    342.14163                               10.64927             81.451                                        3.42142e+002           4.21416e+001           2.14163e+000           1.41628e-001           4.16277e-002           1.62768e-003           6.27679e-004
                   67.30    342.14283                               10.64927             81.447                                        3.42143e+002           4.21428e+001           2.14283e+000           1.42831e-001           4.28309e-002           2.83086e-003           8.30858e-004
                   67.40    342.14286                               10.64927             81.445                                        3.42143e+002           4.21429e+001           2.14286e+000           1.42859e-001           4.28587e-002           2.85866e-003           8.58661e-004
                   67.50    342.14383                               10.64927             81.445                                        3.42144e+002           4.21438e+001           2.14383e+000           1.43834e-001           4.38341e-002           3.83406e-003           8.34060e-004
                   67.60    342.14261                               10.64927             81.448                                        3.42143e+002           4.21426e+001           2.14261e+000           1.42607e-001           4.26069e-002           2.60695e-003           6.06948e-004
                   67.70    342.14029                               10.64927             81.451                                        3.42140e+002           4.21403e+001           2.14029e+000           1.40290e-001           4.02902e-002           2.90213e-004           2.90213e-004
                   67.80    342.14000                               10.64927             81.453                                        3.42140e+002           4.21400e+001           2.14000e+000           1.40002e-001           4.00021e-002           2.14385e-006           2.14385e-006
                   67.90    342.14430                               10.64927             81.453                                        3.42144e+002           4.21443e+001           2.14430e+000           1.44297e-001           4.42969e-002           4.29694e-003           2.96936e-004
                   68.00    342.14642                               10.64927             81.453                                        3.42146e+002           4.21464e+001           2.14642e+000           1.46425e-001           4.64249e-002           6.42495e-003           4.24948e-004
                   68.10    342.14362                               10.64927             81.453                                        3.42144e+002           4.21436e+001           2.14362e+000           1.43623e-001           4.36228e-002           3.62284e-003           6.22843e-004
                   68.20    342.14163                               10.64927             81.453                                        3.42142e+002           4.21416e+001           2.14163e+000           1.41633e-001           4.16327e-002           1.63268e-003           6.32683e-004
                   68.30    342.14125                               10.64927             81.453                                        3.42141e+002           4.21413e+001           2.14125e+000           1.41253e-001           4.12526e-002           1.25262e-003           2.52617e-004
                   68.40    342.13983                               10.64927             81.453                                        3.42140e+002           4.21398e+001           2.13983e+000           1.39829e-001           3.98291e-002           9.82906e-003           8.29061e-004
                   68.50    342.13944                               10.64927             81.453                                        3.42139e+002           4.21394e+001           2.13944e+000           1.39443e-001           3.94434e-002           9.44340e-003           4.43397e-004
                   68.60    342.14217                               10.64927             81.453                                        3.42142e+002           4.21422e+001           2.14217e+000           1.42166e-001           4.21661e-002           2.16611e-003           1.66110e-004
                   68.70    342.14276                               10.64927             81.453                                        3.42143e+002           4.21428e+001           2.14276e+000           1.42757e-001           4.27566e-002           2.75665e-003           7.56647e-004
                   68.80    342.14189                               10.64927             81.453                                        3.42142e+002           4.21419e+001           2.14189e+000           1.41888e-001           4.18880e-002           1.88799e-003           8.87993e-004
                   68.90    342.14215                               10.64927             81.453                                        3.42142e+002           4.21421e+001           2.14215e+000           1.42148e-001           4.21484e-002           2.14836e-003           1.48359e-004
                   69.00    342.14130                               10.64927             81.453                                        3.42141e+002           4.21413e+001           2.14130e+000           1.41301e-001           4.13009e-002           1.30092e-003           3.00923e-004
                   69.10    342.14174                               10.64927             81.453                                        3.42142e+002           4.21417e+001           2.14174e+000           1.41738e-001           4.17380e-002           1.73798e-003           7.37975e-004
                   69.20    342.14479                               10.64927             81.453                                        3.42145e+002           4.21448e+001           2.14479e+000           1.44792e-001           4.47916e-002           4.79161e-003           7.91609e-004
