~VERSION INFORMATION
VERS                    .            2.0                                    :CWLS LOG ASCII STANDARD
WRAP                    .            NO                                     :ONE LINE PER TIME STEP


~WELL INFORMATION
#MNEM                   .UNIT        DATA                                    DESCRIPTION
#________________________________________________________________________________________
STRTTIME                .HH/MM/SS    11:07:04                               :START TIME
STOPTIME                .HH/MM/SS    11:10:49                               :STOP TIME
STRT                    .s           2.10                                   :START DATA
STOP                    .s           223.10                                 :STOP DATA
STEP                    .s           0.10                                   :MEASUREMENT TIME INTERVAL
NULL                    .            -999.25                                :NULL VALUE
COMP                    .            Statoil ASA                            :COMPANY
FLD                     .            Volve                                  :FIELD
WELL                    .            15/9-F-11 A                            :WELL
RUN                     .            8                                      :RUN
LOC                     .            Maersk Inspirer                        :LOCATION
PROV                    .            na                                     :PROVINCE
SRVC                    .            Baker Hughes INTEQ                     :SERVICE COMPANY
DATE                    .YY/MM/DD    13/05/21                               :LOG DATE
UWI                     .                                                   :UNIQUE WELL ID
DEPTHMD                 .m           3632.0                                 :MEASURED DEPTH
DEPTHTVD                .m           3026.9                                 :TRUE VERTICAL DEPTH


~CURVE INFORMATION
#MNEM                   .UNIT        API CODES                               DESCRIPTION
#________________________________________________________________________________________
TIME                    .s                                                  :01 TIME
DD_PRESS                .bar                                                :02 DRAW DOWN PRESSURE
DD_VOLUME               .cm3                                                :03 INCREMENTAL DRAW DOWN VOLUME
TEMP                    .degC                                               :04 TRANSDUCER TEMPERATURE
DD_PRESS_MOD_1000       .bar                                                :05 DRAW DOWN PRESSURE MOD 1000
DD_PRESS_MOD_100        .bar                                                :06 DRAW DOWN PRESSURE MOD 100
DD_PRESS_MOD_10         .bar                                                :07 DRAW DOWN PRESSURE MOD 10
DD_PRESS_MOD_1          .bar                                                :08 DRAW DOWN PRESSURE MOD 1
DD_PRESS_MOD_01         .bar                                                :09 DRAW DOWN PRESSURE MOD 01
DD_PRESS_MOD_001        .bar                                                :10 DRAW DOWN PRESSURE MOD 001
DD_PRESS_MOD_0001       .bar                                                :11 DRAW DOWN PRESSURE MOD 0001


~PARAMETER INFORMATION
#MNEM                   .UNIT        VALUE                                   DESCRIPTION
#________________________________________________________________________________________
TOOLFACE                .deg         66.7                                   :01 TOOLFACE
PUMP_CAPACITY           .bar         400                                    :02 NOMINAL DRAW DOWN PUMP CAPACITY
PUMP_LIMIT              .bar         240                                    :03 DOWNLINK PUMP LIMIT
TIME_LIMIT              .min         10                                     :04 DOWNLINK MAX TIME
TEST_TYPE               .            REPEAT                                 :05 DOWNLINK
TEST_TYPE               .            HIGH MOBILITY                          :06 DOWNLINK
DD_PIST_A               .cm2         3.1416                                 :07 DRAW DOWN PISTON AREA
V_SYS                   .cm3         131.0000                               :08 SYSTEM VOLUME
PROBE_ID                .cm          1.2700                                 :09 TTK PROBE ID
G0                      .            4.6700                                 :10 GEOMETRY FACTOR


~A                  TIME     DD_PRESS                              DD_VOLUME               TEMP                                   DD_PRESS_MOD_1000       DD_PRESS_MOD_100        DD_PRESS_MOD_10         DD_PRESS_MOD_1        DD_PRESS_MOD_01       DD_PRESS_MOD_001      DD_PRESS_MOD_0001
# ...
                  206.50    342.70650                               14.97769             80.609                                        3.42706e+002           4.27065e+001           2.70650e+000           7.06500e-001           6.49970e-003           6.49970e-003           4.99698e-004
                  206.60    342.71444                               14.97769             80.609                                        3.42714e+002           4.27144e+001           2.71444e+000           7.14442e-001           1.44421e-002           4.44206e-003           4.42065e-004
                  206.70    342.71137                               14.97769             80.609                                        3.42711e+002           4.27114e+001           2.71137e+000           7.11366e-001           1.13658e-002           1.36579e-003           3.65790e-004
                  206.80    342.71062                               14.97769             80.609                                        3.42711e+002           4.27106e+001           2.71062e+000           7.10617e-001           1.06169e-002           6.16915e-004           6.16915e-004
                  206.90    342.71893                               14.97769             80.609                                        3.42719e+002           4.27189e+001           2.71893e+000           7.18931e-001           1.89314e-002           8.93135e-003           9.31352e-004
                  207.00    342.71947                               14.97769             80.609                                        3.42719e+002           4.27195e+001           2.71947e+000           7.19473e-001           1.94725e-002           9.47253e-003           4.72528e-004
                  207.10    342.71205                               14.97769             80.609                                        3.42712e+002           4.27120e+001           2.71205e+000           7.12048e-001           1.20479e-002           2.04786e-003           4.78571e-005
                  207.20    342.71333                               14.97769             80.609                                        3.42713e+002           4.27133e+001           2.71333e+000           7.13329e-001           1.33291e-002           3.32910e-003           3.29095e-004
                  207.30    342.71955                               14.97769             80.609                                        3.42720e+002           4.27196e+001           2.71955e+000           7.19554e-001           1.95540e-002           9.55401e-003           5.54007e-004
                  207.40    342.67866                                0.00000             80.609                                        3.42679e+002           4.26787e+001           2.67866e+000           6.78663e-001           7.86628e-002           8.66284e-003           6.62845e-004
                  207.50    343.15704                                0.00000             80.609                                        3.43157e+002           4.31570e+001           3.15704e+000           1.57043e-001           5.70426e-002           7.04256e-003           4.25614e-005
                  207.60    345.99320                                0.00000             80.609                                        3.45993e+002           4.59932e+001           5.99320e+000           9.93199e-001           9.31987e-002           3.19870e-003           1.98696e-004
                  207.70    350.91942                                0.00000             80.609                                        3.50919e+002           5.09194e+001           9.19418e-001           9.19418e-001           1.94178e-002           9.41776e-003           4.17761e-004
                  207.80    355.84698                                0.00000             80.609                                        3.55847e+002           5.58470e+001           5.84698e+000           8.46983e-001           4.69831e-002           6.98312e-003           9.83117e-004
                  207.90    360.13630                                0.00000             80.609                                        3.60136e+002           6.01363e+001           1.36297e-001           1.36297e-001           3.62970e-002           6.29701e-003           2.97013e-004
                  208.00    363.83545                                0.00000             80.609                                        3.63835e+002           6.38354e+001           3.83545e+000           8.35450e-001           3.54499e-002           5.44989e-003           4.49891e-004
                  208.10    367.01125                                0.00000             80.609                                        3.67011e+002           6.70113e+001           7.01125e+000           1.12523e-002           1.12523e-002           1.25230e-003           2.52305e-004
                  208.20    369.74661                                0.00000             80.609                                        3.69747e+002           6.97466e+001           9.74661e+000           7.46614e-001           4.66145e-002           6.61445e-003           6.14451e-004
                  208.30    372.13923                                0.00000             80.609                                        3.72139e+002           7.21392e+001           2.13923e+000           1.39234e-001           3.92340e-002           9.23403e-003           2.34026e-004
                  208.40    374.56831                                0.00000             80.609                                        3.74568e+002           7.45683e+001           4.56831e+000           5.68310e-001           6.83101e-002           8.31013e-003           3.10132e-004
                  208.50    387.80380                                0.00000             80.609                                        3.87804e+002           8.78038e+001           7.80380e+000           8.03797e-001           3.79747e-003           3.79747e-003           7.97465e-004
                  208.60    405.84004                                0.00000             80.609                                        4.05840e+002           5.84004e+000           5.84004e+000           8.40045e-001           4.00447e-002           4.47142e-005           4.47142e-005
                  208.70    415.48108                                0.00000             80.609                                        4.15481e+002           1.54811e+001           5.48108e+000           4.81082e-001           8.10820e-002           1.08198e-003           8.19815e-005
                  208.80    415.46371                                0.00000             80.609                                        4.15464e+002           1.54637e+001           5.46371e+000           4.63715e-001           6.37149e-002           3.71491e-003           7.14914e-004
                  208.90    415.47112                                0.00000             80.609                                        4.15471e+002           1.54711e+001           5.47112e+000           4.71124e-001           7.11236e-002           1.12364e-003           1.23644e-004
                  209.00    415.49614                                0.00000             80.609                                        4.15496e+002           1.54961e+001           5.49614e+000           4.96137e-001           9.61370e-002           6.13696e-003           1.36960e-004
                  209.10    415.50130                                0.00000             80.609                                        4.15501e+002           1.55013e+001           5.50130e+000           5.01296e-001           1.29551e-003           1.29551e-003           2.95505e-004
                  209.20    415.50599                                0.00000             80.609                                        4.15506e+002           1.55060e+001           5.50599e+000           5.05987e-001           5.98712e-003           5.98712e-003           9.87119e-004
