~VERSION INFORMATION
VERS                    .            2.0                                    :CWLS LOG ASCII STANDARD
WRAP                    .            NO                                     :ONE LINE PER TIME STEP


~WELL INFORMATION
#MNEM                   .UNIT        DATA                                    DESCRIPTION
#________________________________________________________________________________________
STRTTIME                .HH/MM/SS    16:02:11                               :START TIME
STOPTIME                .HH/MM/SS    16:05:47                               :STOP TIME
STRT                    .s           2.10                                   :START DATA
STOP                    .s           214.40                                 :STOP DATA
STEP                    .s           0.10                                   :MEASUREMENT TIME INTERVAL
NULL                    .            -999.25                                :NULL VALUE
COMP                    .            Statoil ASA                            :COMPANY
FLD                     .            Volve                                  :FIELD
WELL                    .            15/9-F-1 B                             :WELL
RUN                     .            7                                      :RUN
LOC                     .            Maersk Inspirer                        :LOCATION
PROV                    .            na                                     :PROVINCE
SRVC                    .            Baker Hughes INTEQ                     :SERVICE COMPANY
DATE                    .YY/MM/DD    13/09/06                               :LOG DATE
UWI                     .                                                   :UNIQUE WELL ID
DEPTHMD                 .m           3261.0                                 :MEASURED DEPTH
DEPTHTVD                .m           3057.0                                 :TRUE VERTICAL DEPTH


~CURVE INFORMATION
#MNEM                   .UNIT        API CODES                               DESCRIPTION
#________________________________________________________________________________________
TIME                    .s                                                  :01 TIME
DD_PRESS                .bar                                                :02 DRAW DOWN PRESSURE
DD_VOLUME               .cm3                                                :03 INCREMENTAL DRAW DOWN VOLUME
TEMP                    .degC                                               :04 TRANSDUCER TEMPERATURE
DD_PRESS_MOD_1000       .bar                                                :05 DRAW DOWN PRESSURE MOD 1000
DD_PRESS_MOD_100        .bar                                                :06 DRAW DOWN PRESSURE MOD 100
DD_PRESS_MOD_10         .bar                                                :07 DRAW DOWN PRESSURE MOD 10
DD_PRESS_MOD_1          .bar                                                :08 DRAW DOWN PRESSURE MOD 1
DD_PRESS_MOD_01         .bar                                                :09 DRAW DOWN PRESSURE MOD 01
DD_PRESS_MOD_001        .bar                                                :10 DRAW DOWN PRESSURE MOD 001
DD_PRESS_MOD_0001       .bar                                                :11 DRAW DOWN PRESSURE MOD 0001


~PARAMETER INFORMATION
#MNEM                   .UNIT        VALUE                                   DESCRIPTION
#________________________________________________________________________________________
TOOLFACE                .deg         na                                     :01 TOOLFACE
PUMP_CAPACITY           .bar         400                                    :02 NOMINAL DRAW DOWN PUMP CAPACITY
PUMP_LIMIT              .bar         400                                    :03 DOWNLINK PUMP LIMIT
TIME_LIMIT              .min         10                                     :04 DOWNLINK MAX TIME
TEST_TYPE               .            LOW MOBILITY                           :05 DOWNLINK
DD_PIST_A               .cm2         3.1416                                 :06 DRAW DOWN PISTON AREA
V_SYS                   .cm3         131.0000                               :07 SYSTEM VOLUME
PROBE_ID                .cm          1.2700                                 :08 TTK PROBE ID
G0                      .            4.6700                                 :09 GEOMETRY FACTOR


~A                  TIME     DD_PRESS                              DD_VOLUME               TEMP                                   DD_PRESS_MOD_1000       DD_PRESS_MOD_100        DD_PRESS_MOD_10         DD_PRESS_MOD_1        DD_PRESS_MOD_01       DD_PRESS_MOD_001      DD_PRESS_MOD_0001
# ...
                  170.10    345.60856                               29.22690             82.031                                        3.45609e+002           4.56086e+001           5.60856e+000           6.08561e-001           8.56073e-003           8.56073e-003           5.60732e-004
                  170.20    345.59598                               29.22690             82.031                                        3.45596e+002           4.55960e+001           5.59598e+000           5.95979e-001           9.59789e-002           5.97886e-003           9.78859e-004
                  170.30    345.60185                               29.22690             82.031                                        3.45602e+002           4.56018e+001           5.60185e+000           6.01849e-001           1.84858e-003           1.84858e-003           8.48583e-004
                  170.40    345.61222                               29.22690             82.031                                        3.45612e+002           4.56122e+001           5.61222e+000           6.12216e-001           1.22159e-002           2.21590e-003           2.15896e-004
                  170.50    345.60476                               29.22690             82.031                                        3.45605e+002           4.56048e+001           5.60476e+000           6.04762e-001           4.76220e-003           4.76220e-003           7.62196e-004
                  170.60    345.59451                               29.22690             82.031                                        3.45595e+002           4.55945e+001           5.59451e+000           5.94510e-001           9.45098e-002           4.50983e-003           5.09832e-004
                  170.70    345.59377                               29.22690             82.031                                        3.45594e+002           4.55938e+001           5.59377e+000           5.93770e-001           9.37703e-002           3.77031e-003           7.70305e-004
                  170.80    345.60040                               29.22690             82.031                                        3.45600e+002           4.56004e+001           5.60040e+000           6.00397e-001           3.96765e-004           3.96765e-004           3.96765e-004
                  170.90    345.60143                               29.22690             82.031                                        3.45601e+002           4.56014e+001           5.60143e+000           6.01433e-001           1.43344e-003           1.43344e-003           4.33443e-004
                  171.00    345.59553                               29.22690             82.031                                        3.45596e+002           4.55955e+001           5.59553e+000           5.95531e-001           9.55307e-002           5.53072e-003           5.30723e-004
                  171.10    345.60301                               29.22690             82.031                                        3.45603e+002           4.56030e+001           5.60301e+000           6.03006e-001           3.00577e-003           3.00577e-003           5.76772e-006
                  171.20    345.61733                               29.22690             82.031                                        3.45617e+002           4.56173e+001           5.61733e+000           6.17327e-001           1.73272e-002           7.32718e-003           3.27179e-004
                  171.30    345.61002                               29.22690             82.031                                        3.45610e+002           4.56100e+001           5.61002e+000           6.10022e-001           1.00219e-002           2.19075e-005           2.19075e-005
                  171.40    345.59067                               29.22690             82.031                                        3.45591e+002           4.55907e+001           5.59067e+000           5.90671e-001           9.06710e-002           6.70973e-004           6.70973e-004
                  171.50    345.59505                               29.22690             82.031                                        3.45595e+002           4.55951e+001           5.59505e+000           5.95053e-001           9.50531e-002           5.05306e-003           5.30626e-005
                  171.60    345.61109                               29.22690             82.031                                        3.45611e+002           4.56111e+001           5.61109e+000           6.11093e-001           1.10927e-002           1.09274e-003           9.27390e-005
                  171.70    345.60762                               29.22690             82.031                                        3.45608e+002           4.56076e+001           5.60762e+000           6.07622e-001           7.62197e-003           7.62197e-003           6.21970e-004
                  171.80    345.59183                               29.22690             82.031                                        3.45592e+002           4.55918e+001           5.59183e+000           5.91827e-001           9.18265e-002           1.82650e-003           8.26504e-004
                  171.90    345.59763                               29.22690             82.031                                        3.45598e+002           4.55976e+001           5.59763e+000           5.97629e-001           9.76291e-002           7.62911e-003           6.29108e-004
                  172.00    345.61238                               29.22690             82.031                                        3.45612e+002           4.56124e+001           5.61238e+000           6.12376e-001           1.23760e-002           2.37604e-003           3.76036e-004
                  172.10    345.60874                               29.22690             82.031                                        3.45609e+002           4.56087e+001           5.60874e+000           6.08743e-001           8.74297e-003           8.74297e-003           7.42973e-004
                  172.20    345.59659                               29.22690             82.031                                        3.45597e+002           4.55966e+001           5.59659e+000           5.96592e-001           9.65921e-002           6.59212e-003           5.92117e-004
                  172.30    345.59898                               29.22690             82.031                                        3.45599e+002           4.55990e+001           5.59898e+000           5.98979e-001           9.89789e-002           8.97888e-003           9.78879e-004
                  172.40    345.60336                               29.22690             82.031                                        3.45603e+002           4.56034e+001           5.60336e+000           6.03365e-001           3.36450e-003           3.36450e-003           3.64501e-004
                  172.50    345.60003                               29.22690             82.031                                        3.45600e+002           4.56000e+001           5.60003e+000           6.00027e-001           2.74464e-005           2.74464e-005           2.74464e-005
                  172.60    345.59459                               29.22690             82.031                                        3.45595e+002           4.55946e+001           5.59459e+000           5.94587e-001           9.45868e-002           4.58678e-003           5.86784e-004
                  172.70    345.60455                               29.22690             82.031                                        3.45605e+002           4.56045e+001           5.60455e+000           6.04547e-001           4.54692e-003           4.54692e-003           5.46919e-004
                  172.80    345.61381                               29.22690             82.031                                        3.45614e+002           4.56138e+001           5.61381e+000           6.13814e-001           1.38141e-002           3.81412e-003           8.14118e-004
