~VERSION INFORMATION
VERS                    .            2.0                                    :CWLS LOG ASCII STANDARD
WRAP                    .            NO                                     :ONE LINE PER TIME STEP


~WELL INFORMATION
#MNEM                   .UNIT        DATA                                    DESCRIPTION
#________________________________________________________________________________________
STRTTIME                .HH/MM/SS    19:52:58                               :START TIME
STOPTIME                .HH/MM/SS    19:58:21                               :STOP TIME
STRT                    .s           2.10                                   :START DATA
STOP                    .s           321.30                                 :STOP DATA
STEP                    .s           0.10                                   :MEASUREMENT TIME INTERVAL
NULL                    .            -999.25                                :NULL VALUE
COMP                    .            Statoil ASA                            :COMPANY
FLD                     .            Volve                                  :FIELD
WELL                    .            15/9-F-11 A                            :WELL
RUN                     .            8                                      :RUN
LOC                     .            Maersk Inspirer                        :LOCATION
PROV                    .            na                                     :PROVINCE
SRVC                    .            Baker Hughes INTEQ                     :SERVICE COMPANY
DATE                    .YY/MM/DD    13/05/23                               :LOG DATE
UWI                     .                                                   :UNIQUE WELL ID
DEPTHMD                 .m           3602.0                                 :MEASURED DEPTH
DEPTHTVD                .m           3003.9                                 :TRUE VERTICAL DEPTH


~CURVE INFORMATION
#MNEM                   .UNIT        API CODES                               DESCRIPTION
#________________________________________________________________________________________
TIME                    .s                                                  :01 TIME
DD_PRESS                .bar                                                :02 DRAW DOWN PRESSURE
DD_VOLUME               .cm3                                                :03 INCREMENTAL DRAW DOWN VOLUME
TEMP                    .degC                                               :04 TRANSDUCER TEMPERATURE
DD_PRESS_MOD_1000       .bar                                                :05 DRAW DOWN PRESSURE MOD 1000
DD_PRESS_MOD_100        .bar                                                :06 DRAW DOWN PRESSURE MOD 100
DD_PRESS_MOD_10         .bar                                                :07 DRAW DOWN PRESSURE MOD 10
DD_PRESS_MOD_1          .bar                                                :08 DRAW DOWN PRESSURE MOD 1
DD_PRESS_MOD_01         .bar                                                :09 DRAW DOWN PRESSURE MOD 01
DD_PRESS_MOD_001        .bar                                                :10 DRAW DOWN PRESSURE MOD 001
DD_PRESS_MOD_0001       .bar                                                :11 DRAW DOWN PRESSURE MOD 0001


~PARAMETER INFORMATION
#MNEM                   .UNIT        VALUE                                   DESCRIPTION
#________________________________________________________________________________________
TOOLFACE                .deg         -40.9                                  :01 TOOLFACE
PUMP_CAPACITY           .bar         400                                    :02 NOMINAL DRAW DOWN PUMP CAPACITY
PUMP_LIMIT              .bar         240                                    :03 DOWNLINK PUMP LIMIT
TIME_LIMIT              .min         10                                     :04 DOWNLINK MAX TIME
TEST_TYPE               .            REPEAT                                 :05 DOWNLINK
TEST_TYPE               .            HIGH MOBILITY                          :06 DOWNLINK
DD_PIST_A               .cm2         3.1416                                 :07 DRAW DOWN PISTON AREA
V_SYS                   .cm3         131.0000                               :08 SYSTEM VOLUME
PROBE_ID                .cm          1.2700                                 :09 TTK PROBE ID
G0                      .            4.6700                                 :10 GEOMETRY FACTOR


~A                  TIME     DD_PRESS                              DD_VOLUME               TEMP                                   DD_PRESS_MOD_1000       DD_PRESS_MOD_100        DD_PRESS_MOD_10         DD_PRESS_MOD_1        DD_PRESS_MOD_01       DD_PRESS_MOD_001      DD_PRESS_MOD_0001
# ...
                  296.10    341.63448                               13.04235             71.117                                        3.41634e+002           4.16345e+001           1.63448e+000           6.34476e-001           3.44759e-002           4.47587e-003           4.75866e-004
                  296.20    341.69837                               13.04235             71.117                                        3.41698e+002           4.16984e+001           1.69837e+000           6.98375e-001           9.83747e-002           8.37474e-003           3.74741e-004
                  296.30    341.75538                               13.04235             71.117                                        3.41755e+002           4.17554e+001           1.75538e+000           7.55380e-001           5.53805e-002           5.38047e-003           3.80468e-004
                  296.40    341.69422                               13.04235             71.117                                        3.41694e+002           4.16942e+001           1.69422e+000           6.94218e-001           9.42178e-002           4.21777e-003           2.17765e-004
                  296.50    341.65432                               13.04235             71.117                                        3.41654e+002           4.16543e+001           1.65432e+000           6.54325e-001           5.43248e-002           4.32477e-003           3.24765e-004
                  296.60    341.64609                               13.04235             71.117                                        3.41646e+002           4.16461e+001           1.64609e+000           6.46094e-001           4.60937e-002           6.09371e-003           9.37053e-005
                  296.70    341.60325                               13.04235             71.117                                        3.41603e+002           4.16032e+001           1.60325e+000           6.03248e-001           3.24843e-003           3.24843e-003           2.48428e-004
                  296.80    341.63829                               13.04235             71.117                                        3.41638e+002           4.16383e+001           1.63829e+000           6.38293e-001           3.82933e-002           8.29334e-003           2.93338e-004
                  296.90    341.70596                               13.04235             71.117                                        3.41706e+002           4.17060e+001           1.70596e+000           7.05963e-001           5.96341e-003           5.96341e-003           9.63412e-004
                  297.00    341.68860                               13.04235             71.117                                        3.41689e+002           4.16886e+001           1.68860e+000           6.88600e-001           8.86000e-002           8.60004e-003           6.00045e-004
                  297.10    341.63842                               13.04235             71.117                                        3.41638e+002           4.16384e+001           1.63842e+000           6.38416e-001           3.84156e-002           8.41556e-003           4.15564e-004
                  297.20    341.66805                               13.04235             71.117                                        3.41668e+002           4.16681e+001           1.66805e+000           6.68051e-001           6.80514e-002           8.05140e-003           5.14034e-005
                  297.30    341.72732                               13.04235             71.117                                        3.41727e+002           4.17273e+001           1.72732e+000           7.27325e-001           2.73248e-002           7.32480e-003           3.24797e-004
                  297.40    341.70638                               13.04235             71.117                                        3.41706e+002           4.17064e+001           1.70638e+000           7.06384e-001           6.38443e-003           6.38443e-003           3.84426e-004
                  297.50    341.63482                               13.04235             71.117                                        3.41635e+002           4.16348e+001           1.63482e+000           6.34824e-001           3.48242e-002           4.82421e-003           8.24211e-004
                  297.60    341.60959                               13.04235             71.117                                        3.41610e+002           4.16096e+001           1.60959e+000           6.09591e-001           9.59076e-003           9.59076e-003           5.90763e-004
                  297.70    341.68779                               13.04235             71.117                                        3.41688e+002           4.16878e+001           1.68779e+000           6.87788e-001           8.77875e-002           7.78755e-003           7.87547e-004
                  297.80    341.75804                               13.04235             71.117                                        3.41758e+002           4.17580e+001           1.75804e+000           7.58038e-001           5.80379e-002           8.03792e-003           3.79165e-005
                  297.90    341.70543                               13.04235             71.117                                        3.41705e+002           4.17054e+001           1.70543e+000           7.05426e-001           5.42603e-003           5.42603e-003           4.26029e-004
                  298.00    341.62575                               13.04235             71.117                                        3.41626e+002           4.16258e+001           1.62575e+000           6.25755e-001           2.57546e-002           5.75463e-003           7.54630e-004
                  298.10    341.64082                               13.04235             71.117                                        3.41641e+002           4.16408e+001           1.64082e+000           6.40823e-001           4.08231e-002           8.23131e-004           8.23131e-004
                  298.20    341.66309                               13.04235             71.117                                        3.41663e+002           4.16631e+001           1.66309e+000           6.63089e-001           6.30890e-002           3.08900e-003           8.90039e-005
                  298.30    341.63189                               13.04235             71.117                                        3.41632e+002           4.16319e+001           1.63189e+000           6.31892e-001           3.18920e-002           1.89197e-003           8.91969e-004
                  298.40    341.60185                               13.04235             71.117                                        3.41602e+002           4.16019e+001           1.60185e+000           6.01851e-001           1.85142e-003           1.85142e-003           8.51417e-004
                  298.50    341.63758                               13.04235             71.117                                        3.41638e+002           4.16376e+001           1.63758e+000           6.37579e-001           3.75793e-002           7.57927e-003           5.79270e-004
                  298.60    341.70182                               13.04235             71.117                                        3.41702e+002           4.17018e+001           1.70182e+000           7.01815e-001           1.81506e-003           1.81506e-003           8.15058e-004
                  298.70    341.70427                               13.04235             71.117                                        3.41704e+002           4.17043e+001           1.70427e+000           7.04268e-001           4.26831e-003           4.26831e-003           2.68312e-004
                  298.80    341.65633                               13.04235             71.117                                        3.41656e+002           4.16563e+001           1.65633e+000           6.56332e-001           5.63318e-002           6.33182e-003           3.31817e-004
