~VERSION INFORMATION
VERS                    .            2.0                                    :CWLS LOG ASCII STANDARD
WRAP                    .            NO                                     :ONE LINE PER TIME STEP


~WELL INFORMATION
#MNEM                   .UNIT        DATA                                    DESCRIPTION
#________________________________________________________________________________________
STRTTIME                .HH/MM/SS    19:20:48                               :START TIME
STOPTIME                .HH/MM/SS    19:23:33                               :STOP TIME
STRT                    .s           2.10                                   :START DATA
STOP                    .s           164.00                                 :STOP DATA
STEP                    .s           0.10                                   :MEASUREMENT TIME INTERVAL
NULL                    .            -999.25                                :NULL VALUE
COMP                    .            Statoil ASA                            :COMPANY
FLD                     .            Volve                                  :FIELD
WELL                    .            15/9-F-11 A                            :WELL
RUN                     .            8                                      :RUN
LOC                     .            Maersk Inspirer                        :LOCATION
PROV                    .            na                                     :PROVINCE
SRVC                    .            Baker Hughes INTEQ                     :SERVICE COMPANY
DATE                    .YY/MM/DD    13/05/23                               :LOG DATE
UWI                     .                                                   :UNIQUE WELL ID
DEPTHMD                 .m           3617.0                                 :MEASURED DEPTH
DEPTHTVD                .m           3015.4                                 :TRUE VERTICAL DEPTH


~CURVE INFORMATION
#MNEM                   .UNIT        API CODES                               DESCRIPTION
#________________________________________________________________________________________
TIME                    .s                                                  :01 TIME
DD_PRESS                .bar                                                :02 DRAW DOWN PRESSURE
DD_VOLUME               .cm3                                                :03 INCREMENTAL DRAW DOWN VOLUME
TEMP                    .degC                                               :04 TRANSDUCER TEMPERATURE
DD_PRESS_MOD_1000       .bar                                                :05 DRAW DOWN PRESSURE MOD 1000
DD_PRESS_MOD_100        .bar                                                :06 DRAW DOWN PRESSURE MOD 100
DD_PRESS_MOD_10         .bar                                                :07 DRAW DOWN PRESSURE MOD 10
DD_PRESS_MOD_1          .bar                                                :08 DRAW DOWN PRESSURE MOD 1
DD_PRESS_MOD_01         .bar                                                :09 DRAW DOWN PRESSURE MOD 01
DD_PRESS_MOD_001        .bar                                                :10 DRAW DOWN PRESSURE MOD 001
DD_PRESS_MOD_0001       .bar                                                :11 DRAW DOWN PRESSURE MOD 0001


~PARAMETER INFORMATION
#MNEM                   .UNIT        VALUE                                   DESCRIPTION
#________________________________________________________________________________________
TOOLFACE                .deg         -39.9                                  :01 TOOLFACE
PUMP_CAPACITY           .bar         400                                    :02 NOMINAL DRAW DOWN PUMP CAPACITY
PUMP_LIMIT              .bar         240                                    :03 DOWNLINK PUMP LIMIT
TIME_LIMIT              .min         10                                     :04 DOWNLINK MAX TIME
TEST_TYPE               .            REPEAT                                 :05 DOWNLINK
TEST_TYPE               .            HIGH MOBILITY                          :06 DOWNLINK
DD_PIST_A               .cm2         3.1416                                 :07 DRAW DOWN PISTON AREA
V_SYS                   .cm3         131.0000                               :08 SYSTEM VOLUME
PROBE_ID                .cm          1.2700                                 :09 TTK PROBE ID
G0                      .            4.6700                                 :10 GEOMETRY FACTOR


~A                  TIME     DD_PRESS                              DD_VOLUME               TEMP                                   DD_PRESS_MOD_1000       DD_PRESS_MOD_100        DD_PRESS_MOD_10         DD_PRESS_MOD_1        DD_PRESS_MOD_01       DD_PRESS_MOD_001      DD_PRESS_MOD_0001
# ...
                  150.50    419.32278                                0.00000             72.078                                        4.19323e+002           1.93228e+001           9.32278e+000           3.22782e-001           2.27823e-002           2.78234e-003           7.82337e-004
                  150.60    419.33164                                0.00000             72.078                                        4.19332e+002           1.93316e+001           9.33164e+000           3.31641e-001           3.16412e-002           1.64120e-003           6.41196e-004
                  150.70    419.36319                                0.00000             72.078                                        4.19363e+002           1.93632e+001           9.36319e+000           3.63189e-001           6.31892e-002           3.18920e-003           1.89201e-004
                  150.80    419.36139                                0.00000             72.078                                        4.19361e+002           1.93614e+001           9.36139e+000           3.61392e-001           6.13923e-002           1.39230e-003           3.92301e-004
                  150.90    419.33028                                0.00000             72.080                                        4.19330e+002           1.93303e+001           9.33028e+000           3.30276e-001           3.02759e-002           2.75935e-004           2.75935e-004
                  151.00    419.33538                                0.00000             72.082                                        4.19335e+002           1.93354e+001           9.33538e+000           3.35380e-001           3.53803e-002           5.38028e-003           3.80278e-004
                  151.10    419.35331                                0.00000             72.082                                        4.19353e+002           1.93533e+001           9.35331e+000           3.53311e-001           5.33109e-002           3.31093e-003           3.10935e-004
                  151.20    419.34114                                0.00000             72.084                                        4.19341e+002           1.93411e+001           9.34114e+000           3.41144e-001           4.11443e-002           1.14428e-003           1.44278e-004
                  151.30    419.31893                                0.00000             72.086                                        4.19319e+002           1.93189e+001           9.31893e+000           3.18928e-001           1.89279e-002           8.92785e-003           9.27853e-004
                  151.40    419.33786                                0.00000             72.086                                        4.19338e+002           1.93379e+001           9.33786e+000           3.37861e-001           3.78605e-002           7.86053e-003           8.60526e-004
                  151.50    419.35826                                0.00000             72.086                                        4.19358e+002           1.93583e+001           9.35826e+000           3.58258e-001           5.82579e-002           8.25787e-003           2.57868e-004
                  151.60    419.35126                                0.00000             72.086                                        4.19351e+002           1.93513e+001           9.35126e+000           3.51265e-001           5.12646e-002           1.26465e-003           2.64647e-004
                  151.70    419.33489                                0.00000             72.086                                        4.19335e+002           1.93349e+001           9.33489e+000           3.34890e-001           3.48903e-002           4.89033e-003           8.90327e-004
                  151.80    419.33098                                0.00000             72.086                                        4.19331e+002           1.93310e+001           9.33098e+000           3.30982e-001           3.09822e-002           9.82237e-004           9.82237e-004
                  151.90    419.33627                                0.00000             72.086                                        4.19336e+002           1.93363e+001           9.33627e+000           3.36270e-001           3.62697e-002           6.26969e-003           2.69688e-004
                  152.00    419.32705                                0.00000             72.086                                        4.19327e+002           1.93271e+001           9.32705e+000           3.27051e-001           2.70513e-002           7.05128e-003           5.12777e-005
                  152.10    419.32406                                0.00000             72.086                                        4.19324e+002           1.93241e+001           9.32406e+000           3.24059e-001           2.40592e-002           4.05923e-003           5.92308e-005
                  152.20    419.32461                                0.00000             72.086                                        4.19325e+002           1.93246e+001           9.32461e+000           3.24606e-001           2.46057e-002           4.60567e-003           6.05672e-004
                  152.30    419.32659                                0.00000             72.086                                        4.19327e+002           1.93266e+001           9.32659e+000           3.26586e-001           2.65861e-002           6.58608e-003           5.86078e-004
                  152.40    419.32776                                0.00000             72.086                                        4.19328e+002           1.93278e+001           9.32776e+000           3.27764e-001           2.77640e-002           7.76404e-003           7.64038e-004
                  152.50    419.34418                                0.00000             72.084                                        4.19344e+002           1.93442e+001           9.34418e+000           3.44181e-001           4.41810e-002           4.18100e-003           1.80999e-004
                  152.60    419.32789                                0.00000             72.082                                        4.19328e+002           1.93279e+001           9.32789e+000           3.27886e-001           2.78861e-002           7.88613e-003           8.86128e-004
                  152.70    419.31982                                0.00000             72.082                                        4.19320e+002           1.93198e+001           9.31982e+000           3.19818e-001           1.98182e-002           9.81820e-003           8.18204e-004
                  152.80    419.33304                                0.00000             72.080                                        4.19333e+002           1.93330e+001           9.33304e+000           3.33041e-001           3.30414e-002           3.04141e-003           4.14106e-005
                  152.90    419.34723                                0.00000             72.078                                        4.19347e+002           1.93472e+001           9.34723e+000           3.47234e-001           4.72344e-002           7.23444e-003           2.34439e-004
                  153.00    419.32703                                0.00000             72.078                                        4.19327e+002           1.93270e+001           9.32703e+000           3.27028e-001           2.70278e-002           7.02783e-003           2.78285e-005
                  153.10    419.31614                                0.00000             72.080                                        4.19316e+002           1.93161e+001           9.31614e+000           3.16141e-001           1.61409e-002           6.14086e-003           1.40864e-004
                  153.20    419.32846                                0.00000             72.082                                        4.19328e+002           1.93285e+001           9.32846e+000           3.28460e-001           2.84603e-002           8.46030e-003           4.60305e-004
