~VERSION INFORMATION
VERS                    .            2.0                                    :CWLS LOG ASCII STANDARD
WRAP                    .            NO                                     :ONE LINE PER TIME STEP


~WELL INFORMATION
#MNEM                   .UNIT        DATA                                    DESCRIPTION
#________________________________________________________________________________________
STRTTIME                .HH/MM/SS    15:31:36                               :START TIME
STOPTIME                .HH/MM/SS    15:34:21                               :STOP TIME
STRT                    .s           2.10                                   :START DATA
STOP                    .s           163.50                                 :STOP DATA
STEP                    .s           0.10                                   :MEASUREMENT TIME INTERVAL
NULL                    .            -999.25                                :NULL VALUE
COMP                    .            Statoil ASA                            :COMPANY
FLD                     .            Volve                                  :FIELD
WELL                    .            15/9-F-11 A                            :WELL
RUN                     .            8                                      :RUN
LOC                     .            Maersk Inspirer                        :LOCATION
PROV                    .            na                                     :PROVINCE
SRVC                    .            Baker Hughes INTEQ                     :SERVICE COMPANY
DATE                    .YY/MM/DD    13/05/21                               :LOG DATE
UWI                     .                                                   :UNIQUE WELL ID
DEPTHMD                 .m           3617.2                                 :MEASURED DEPTH
DEPTHTVD                .m           3015.5                                 :TRUE VERTICAL DEPTH


~CURVE INFORMATION
#MNEM                   .UNIT        API CODES                               DESCRIPTION
#________________________________________________________________________________________
TIME                    .s                                                  :01 TIME
DD_PRESS                .bar                                                :02 DRAW DOWN PRESSURE
DD_VOLUME               .cm3                                                :03 INCREMENTAL DRAW DOWN VOLUME
TEMP                    .degC                                               :04 TRANSDUCER TEMPERATURE
DD_PRESS_MOD_1000       .bar                                                :05 DRAW DOWN PRESSURE MOD 1000
DD_PRESS_MOD_100        .bar                                                :06 DRAW DOWN PRESSURE MOD 100
DD_PRESS_MOD_10         .bar                                                :07 DRAW DOWN PRESSURE MOD 10
DD_PRESS_MOD_1          .bar                                                :08 DRAW DOWN PRESSURE MOD 1
DD_PRESS_MOD_01         .bar                                                :09 DRAW DOWN PRESSURE MOD 01
DD_PRESS_MOD_001        .bar                                                :10 DRAW DOWN PRESSURE MOD 001
DD_PRESS_MOD_0001       .bar                                                :11 DRAW DOWN PRESSURE MOD 0001


~PARAMETER INFORMATION
#MNEM                   .UNIT        VALUE                                   DESCRIPTION
#________________________________________________________________________________________
TOOLFACE                .deg         63.0                                   :01 TOOLFACE
PUMP_CAPACITY           .bar         400                                    :02 NOMINAL DRAW DOWN PUMP CAPACITY
PUMP_LIMIT              .bar         240                                    :03 DOWNLINK PUMP LIMIT
TIME_LIMIT              .min         10                                     :04 DOWNLINK MAX TIME
TEST_TYPE               .            HIGH MOBILITY                          :05 DOWNLINK
DD_PIST_A               .cm2         3.1416                                 :06 DRAW DOWN PISTON AREA
V_SYS                   .cm3         131.0000                               :07 SYSTEM VOLUME
PROBE_ID                .cm          1.2700                                 :08 TTK PROBE ID
G0                      .            4.6700                                 :09 GEOMETRY FACTOR


~A                  TIME     DD_PRESS                              DD_VOLUME               TEMP                                   DD_PRESS_MOD_1000       DD_PRESS_MOD_100        DD_PRESS_MOD_10         DD_PRESS_MOD_1        DD_PRESS_MOD_01       DD_PRESS_MOD_001      DD_PRESS_MOD_0001
# ...
                   24.50    414.64058                                1.22711             80.063                                        4.14641e+002           1.46406e+001           4.64058e+000           6.40582e-001           4.05823e-002           5.82278e-004           5.82278e-004
                   24.60    414.48429                                1.22998             80.063                                        4.14484e+002           1.44843e+001           4.48429e+000           4.84292e-001           8.42924e-002           4.29243e-003           2.92429e-004
                   24.70    414.21011                                1.23480             80.063                                        4.14210e+002           1.42101e+001           4.21011e+000           2.10114e-001           1.01137e-002           1.13748e-004           1.13748e-004
                   24.80    413.81732                                1.24149             80.063                                        4.13817e+002           1.38173e+001           3.81732e+000           8.17324e-001           1.73241e-002           7.32406e-003           3.24058e-004
                   24.90    413.30867                                1.25009             80.063                                        4.13309e+002           1.33087e+001           3.30867e+000           3.08667e-001           8.66738e-003           8.66738e-003           6.67381e-004
                   25.00    412.68661                                1.26084             80.063                                        4.12687e+002           1.26866e+001           2.68661e+000           6.86606e-001           8.66057e-002           6.60572e-003           6.05721e-004
                   25.10    411.93970                                1.27360             80.063                                        4.11940e+002           1.19397e+001           1.93970e+000           9.39702e-001           3.97020e-002           9.70200e-003           7.02002e-004
                   25.20    411.06597                                1.28834             80.063                                        4.11066e+002           1.10660e+001           1.06597e+000           6.59722e-002           6.59722e-002           5.97219e-003           9.72191e-004
                   25.30    410.06203                                1.30498             80.063                                        4.10062e+002           1.00620e+001           6.20293e-002           6.20293e-002           6.20293e-002           2.02932e-003           2.93163e-005
                   25.40    408.90952                                1.32360             80.063                                        4.08910e+002           8.90952e+000           8.90952e+000           9.09516e-001           9.51585e-003           9.51585e-003           5.15854e-004
                   25.50    407.59140                                1.34415             80.063                                        4.07591e+002           7.59140e+000           7.59140e+000           5.91396e-001           9.13962e-002           1.39618e-003           3.96183e-004
                   25.60    406.11508                                1.36659             80.063                                        4.06115e+002           6.11508e+000           6.11508e+000           1.15082e-001           1.50818e-002           5.08178e-003           8.17807e-005
                   25.70    404.50444                                1.39102             80.063                                        4.04504e+002           4.50444e+000           4.50444e+000           5.04437e-001           4.43702e-003           4.43702e-003           4.37022e-004
                   25.80    402.77083                                1.41751             80.063                                        4.02771e+002           2.77083e+000           2.77083e+000           7.70827e-001           7.08275e-002           8.27453e-004           8.27453e-004
                   25.90    400.89095                                1.44584             80.063                                        4.00891e+002           8.90945e-001           8.90945e-001           8.90945e-001           9.09451e-002           9.45053e-004           9.45053e-004
                   26.00    398.84633                                1.47602             80.063                                        3.98846e+002           9.88463e+001           8.84633e+000           8.46332e-001           4.63322e-002           6.33223e-003           3.32226e-004
                   26.10    396.65135                                1.50802             80.063                                        3.96651e+002           9.66513e+001           6.65135e+000           6.51349e-001           5.13493e-002           1.34928e-003           3.49278e-004
                   26.20    394.32412                                1.54187             80.063                                        3.94324e+002           9.43241e+001           4.32412e+000           3.24123e-001           2.41227e-002           4.12270e-003           1.22699e-004
                   26.30    391.87259                                1.57762             80.063                                        3.91873e+002           9.18726e+001           1.87259e+000           8.72594e-001           7.25937e-002           2.59366e-003           5.93661e-004
                   26.40    389.25281                                1.61527             80.063                                        3.89253e+002           8.92528e+001           9.25281e+000           2.52807e-001           5.28066e-002           2.80661e-003           8.06610e-004
                   26.50    386.47436                                1.65478             80.063                                        3.86474e+002           8.64744e+001           6.47436e+000           4.74362e-001           7.43619e-002           4.36188e-003           3.61879e-004
                   26.60    383.55098                                1.69609             80.063                                        3.83551e+002           8.35510e+001           3.55098e+000           5.50977e-001           5.09773e-002           9.77294e-004           9.77294e-004
                   26.70    380.49427                                1.73917             80.063                                        3.80494e+002           8.04943e+001           4.94270e-001           4.94270e-001           9.42697e-002           4.26969e-003           2.69685e-004
                   26.80    377.27229                                1.78398             80.063                                        3.77272e+002           7.72723e+001           7.27229e+000           2.72295e-001           7.22949e-002           2.29494e-003           2.94938e-004
                   26.90    373.87659                                1.83052             80.063                                        3.73877e+002           7.38766e+001           3.87659e+000           8.76594e-001           7.65937e-002           6.59370e-003           5.93703e-004
                   27.00    370.34263                                1.87884             80.063                                        3.70343e+002           7.03426e+001           3.42633e-001           3.42633e-001           4.26330e-002           2.63297e-003           6.32966e-004
                   27.10    366.69448                                1.92895             80.063                                        3.66694e+002           6.66945e+001           6.69448e+000           6.94478e-001           9.44782e-002           4.47824e-003           4.78239e-004
                   27.20    362.91099                                1.98076             80.063                                        3.62911e+002           6.29110e+001           2.91099e+000           9.10990e-001           1.09897e-002           9.89656e-004           9.89656e-004
