~VERSION INFORMATION
VERS                    .            2.0                                    :CWLS LOG ASCII STANDARD
WRAP                    .            NO                                     :ONE LINE PER TIME STEP


~WELL INFORMATION
#MNEM                   .UNIT        DATA                                    DESCRIPTION
#________________________________________________________________________________________
STRTTIME                .HH/MM/SS    19:20:48                               :START TIME
STOPTIME                .HH/MM/SS    19:23:33                               :STOP TIME
STRT                    .s           2.10                                   :START DATA
STOP                    .s           164.00                                 :STOP DATA
STEP                    .s           0.10                                   :MEASUREMENT TIME INTERVAL
NULL                    .            -999.25                                :NULL VALUE
COMP                    .            Statoil ASA                            :COMPANY
FLD                     .            Volve                                  :FIELD
WELL                    .            15/9-F-11 A                            :WELL
RUN                     .            8                                      :RUN
LOC                     .            Maersk Inspirer                        :LOCATION
PROV                    .            na                                     :PROVINCE
SRVC                    .            Baker Hughes INTEQ                     :SERVICE COMPANY
DATE                    .YY/MM/DD    13/05/23                               :LOG DATE
UWI                     .                                                   :UNIQUE WELL ID
DEPTHMD                 .m           3617.0                                 :MEASURED DEPTH
DEPTHTVD                .m           3015.4                                 :TRUE VERTICAL DEPTH


~CURVE INFORMATION
#MNEM                   .UNIT        API CODES                               DESCRIPTION
#________________________________________________________________________________________
TIME                    .s                                                  :01 TIME
DD_PRESS                .bar                                                :02 DRAW DOWN PRESSURE
DD_VOLUME               .cm3                                                :03 INCREMENTAL DRAW DOWN VOLUME
TEMP                    .degC                                               :04 TRANSDUCER TEMPERATURE
DD_PRESS_MOD_1000       .bar                                                :05 DRAW DOWN PRESSURE MOD 1000
DD_PRESS_MOD_100        .bar                                                :06 DRAW DOWN PRESSURE MOD 100
DD_PRESS_MOD_10         .bar                                                :07 DRAW DOWN PRESSURE MOD 10
DD_PRESS_MOD_1          .bar                                                :08 DRAW DOWN PRESSURE MOD 1
DD_PRESS_MOD_01         .bar                                                :09 DRAW DOWN PRESSURE MOD 01
DD_PRESS_MOD_001        .bar                                                :10 DRAW DOWN PRESSURE MOD 001
DD_PRESS_MOD_0001       .bar                                                :11 DRAW DOWN PRESSURE MOD 0001


~PARAMETER INFORMATION
#MNEM                   .UNIT        VALUE                                   DESCRIPTION
#________________________________________________________________________________________
TOOLFACE                .deg         -39.9                                  :01 TOOLFACE
PUMP_CAPACITY           .bar         400                                    :02 NOMINAL DRAW DOWN PUMP CAPACITY
PUMP_LIMIT              .bar         240                                    :03 DOWNLINK PUMP LIMIT
TIME_LIMIT              .min         10                                     :04 DOWNLINK MAX TIME
TEST_TYPE               .            REPEAT                                 :05 DOWNLINK
TEST_TYPE               .            HIGH MOBILITY                          :06 DOWNLINK
DD_PIST_A               .cm2         3.1416                                 :07 DRAW DOWN PISTON AREA
V_SYS                   .cm3         131.0000                               :08 SYSTEM VOLUME
PROBE_ID                .cm          1.2700                                 :09 TTK PROBE ID
G0                      .            4.6700                                 :10 GEOMETRY FACTOR


~A                  TIME     DD_PRESS                              DD_VOLUME               TEMP                                   DD_PRESS_MOD_1000       DD_PRESS_MOD_100        DD_PRESS_MOD_10         DD_PRESS_MOD_1        DD_PRESS_MOD_01       DD_PRESS_MOD_001      DD_PRESS_MOD_0001
# ...
                   24.50    419.01507                                0.00000             72.180                                        4.19015e+002           1.90151e+001           9.01507e+000           1.50726e-002           1.50726e-002           5.07263e-003           7.26337e-005
                   24.60    419.03696                                0.00000             72.180                                        4.19037e+002           1.90370e+001           9.03696e+000           3.69637e-002           3.69637e-002           6.96366e-003           9.63664e-004
                   24.70    419.08006                                0.00000             72.180                                        4.19080e+002           1.90801e+001           9.08006e+000           8.00577e-002           8.00577e-002           5.77056e-005           5.77056e-005
                   24.80    419.09915                                0.00000             72.180                                        4.19099e+002           1.90991e+001           9.09915e+000           9.91471e-002           9.91471e-002           9.14707e-003           1.47074e-004
                   24.90    419.09951                                0.00000             72.180                                        4.19100e+002           1.90995e+001           9.09951e+000           9.95101e-002           9.95101e-002           9.51014e-003           5.10139e-004
                   25.00    419.10007                                0.00000             72.180                                        4.19100e+002           1.91001e+001           9.10007e+000           1.00072e-001           7.18299e-005           7.18299e-005           7.18299e-005
                   25.10    419.13530                                0.00000             72.180                                        4.19135e+002           1.91353e+001           9.13530e+000           1.35300e-001           3.53000e-002           5.29997e-003           2.99970e-004
                   25.20    419.16784                                0.00000             72.180                                        4.19168e+002           1.91678e+001           9.16784e+000           1.67835e-001           6.78354e-002           7.83543e-003           8.35430e-004
                   25.30    419.17030                                1.02101             72.180                                        4.19170e+002           1.91703e+001           9.17030e+000           1.70299e-001           7.02993e-002           2.99282e-004           2.99282e-004
                   25.40    419.17057                                1.02190             72.180                                        4.19171e+002           1.91706e+001           9.17057e+000           1.70567e-001           7.05672e-002           5.67249e-004           5.67249e-004
                   25.50    419.16774                                1.02311             72.180                                        4.19168e+002           1.91677e+001           9.16774e+000           1.67739e-001           6.77391e-002           7.73913e-003           7.39129e-004
                   25.60    419.07078                                1.02567             72.180                                        4.19071e+002           1.90708e+001           9.07078e+000           7.07821e-002           7.07821e-002           7.82073e-004           7.82073e-004
                   25.70    418.85548                                1.03007             72.180                                        4.18855e+002           1.88555e+001           8.85548e+000           8.55478e-001           5.54780e-002           5.47798e-003           4.77984e-004
                   25.80    418.51241                                1.03649             72.180                                        4.18512e+002           1.85124e+001           8.51241e+000           5.12409e-001           1.24094e-002           2.40942e-003           4.09424e-004
                   25.90    418.05121                                1.04497             72.180                                        4.18051e+002           1.80512e+001           8.05121e+000           5.12113e-002           5.12113e-002           1.21131e-003           2.11310e-004
                   26.00    417.48573                                1.05542             72.180                                        4.17486e+002           1.74857e+001           7.48573e+000           4.85728e-001           8.57279e-002           5.72787e-003           7.27869e-004
                   26.10    416.81603                                1.06777             72.180                                        4.16816e+002           1.68160e+001           6.81603e+000           8.16026e-001           1.60260e-002           6.02597e-003           2.59713e-005
                   26.20    416.05995                                1.08199             72.180                                        4.16060e+002           1.60600e+001           6.05995e+000           5.99538e-002           5.99538e-002           9.95376e-003           9.53759e-004
                   26.30    415.13380                                1.09824             72.180                                        4.15134e+002           1.51338e+001           5.13380e+000           1.33802e-001           3.38017e-002           3.80171e-003           8.01715e-004
                   26.40    413.96382                                1.11649             72.180                                        4.13964e+002           1.39638e+001           3.96382e+000           9.63820e-001           6.38204e-002           3.82043e-003           8.20435e-004
                   26.50    412.68963                                1.13673             72.180                                        4.12690e+002           1.26896e+001           2.68963e+000           6.89625e-001           8.96251e-002           9.62508e-003           6.25085e-004
                   26.60    411.34046                                1.15892             72.180                                        4.11340e+002           1.13405e+001           1.34046e+000           3.40459e-001           4.04594e-002           4.59351e-004           4.59351e-004
                   26.70    409.81277                                1.18298             72.180                                        4.09813e+002           9.81277e+000           9.81277e+000           8.12773e-001           1.27727e-002           2.77275e-003           7.72746e-004
                   26.80    408.03900                                1.20896             72.180                                        4.08039e+002           8.03900e+000           8.03900e+000           3.89955e-002           3.89955e-002           8.99553e-003           9.95526e-004
                   26.90    406.13065                                1.23687             72.180                                        4.06131e+002           6.13065e+000           6.13065e+000           1.30648e-001           3.06479e-002           6.47850e-004           6.47850e-004
                   27.00    404.10694                                1.26668             72.180                                        4.04107e+002           4.10694e+000           4.10694e+000           1.06945e-001           6.94484e-003           6.94484e-003           9.44844e-004
                   27.10    401.88833                                1.29836             72.180                                        4.01888e+002           1.88833e+000           1.88833e+000           8.88334e-001           8.83339e-002           8.33394e-003           3.33939e-004
                   27.20    399.46499                                1.33194             72.180                                        3.99465e+002           9.94650e+001           9.46499e+000           4.64991e-001           6.49907e-002           4.99074e-003           9.90738e-004
