~VERSION INFORMATION
VERS                    .            2.0                                    :CWLS LOG ASCII STANDARD
WRAP                    .            NO                                     :ONE LINE PER TIME STEP


~WELL INFORMATION
#MNEM                   .UNIT        DATA                                    DESCRIPTION
#________________________________________________________________________________________
STRTTIME                .HH/MM/SS    16:02:11                               :START TIME
STOPTIME                .HH/MM/SS    16:05:47                               :STOP TIME
STRT                    .s           2.10                                   :START DATA
STOP                    .s           214.40                                 :STOP DATA
STEP                    .s           0.10                                   :MEASUREMENT TIME INTERVAL
NULL                    .            -999.25                                :NULL VALUE
COMP                    .            Statoil ASA                            :COMPANY
FLD                     .            Volve                                  :FIELD
WELL                    .            15/9-F-1 B                             :WELL
RUN                     .            7                                      :RUN
LOC                     .            Maersk Inspirer                        :LOCATION
PROV                    .            na                                     :PROVINCE
SRVC                    .            Baker Hughes INTEQ                     :SERVICE COMPANY
DATE                    .YY/MM/DD    13/09/06                               :LOG DATE
UWI                     .                                                   :UNIQUE WELL ID
DEPTHMD                 .m           3261.0                                 :MEASURED DEPTH
DEPTHTVD                .m           3057.0                                 :TRUE VERTICAL DEPTH


~CURVE INFORMATION
#MNEM                   .UNIT        API CODES                               DESCRIPTION
#________________________________________________________________________________________
TIME                    .s                                                  :01 TIME
DD_PRESS                .bar                                                :02 DRAW DOWN PRESSURE
DD_VOLUME               .cm3                                                :03 INCREMENTAL DRAW DOWN VOLUME
TEMP                    .degC                                               :04 TRANSDUCER TEMPERATURE
DD_PRESS_MOD_1000       .bar                                                :05 DRAW DOWN PRESSURE MOD 1000
DD_PRESS_MOD_100        .bar                                                :06 DRAW DOWN PRESSURE MOD 100
DD_PRESS_MOD_10         .bar                                                :07 DRAW DOWN PRESSURE MOD 10
DD_PRESS_MOD_1          .bar                                                :08 DRAW DOWN PRESSURE MOD 1
DD_PRESS_MOD_01         .bar                                                :09 DRAW DOWN PRESSURE MOD 01
DD_PRESS_MOD_001        .bar                                                :10 DRAW DOWN PRESSURE MOD 001
DD_PRESS_MOD_0001       .bar                                                :11 DRAW DOWN PRESSURE MOD 0001


~PARAMETER INFORMATION
#MNEM                   .UNIT        VALUE                                   DESCRIPTION
#________________________________________________________________________________________
TOOLFACE                .deg         na                                     :01 TOOLFACE
PUMP_CAPACITY           .bar         400                                    :02 NOMINAL DRAW DOWN PUMP CAPACITY
PUMP_LIMIT              .bar         400                                    :03 DOWNLINK PUMP LIMIT
TIME_LIMIT              .min         10                                     :04 DOWNLINK MAX TIME
TEST_TYPE               .            LOW MOBILITY                           :05 DOWNLINK
DD_PIST_A               .cm2         3.1416                                 :06 DRAW DOWN PISTON AREA
V_SYS                   .cm3         131.0000                               :07 SYSTEM VOLUME
PROBE_ID                .cm          1.2700                                 :08 TTK PROBE ID
G0                      .            4.6700                                 :09 GEOMETRY FACTOR


~A                  TIME     DD_PRESS                              DD_VOLUME               TEMP                                   DD_PRESS_MOD_1000       DD_PRESS_MOD_100        DD_PRESS_MOD_10         DD_PRESS_MOD_1        DD_PRESS_MOD_01       DD_PRESS_MOD_001      DD_PRESS_MOD_0001
# ...
                   86.10    345.61668                               10.91395             82.092                                        3.45617e+002           4.56167e+001           5.61668e+000           6.16683e-001           1.66828e-002           6.68276e-003           6.82764e-004
                   86.20    345.62291                               10.91395             82.091                                        3.45623e+002           4.56229e+001           5.62291e+000           6.22914e-001           2.29140e-002           2.91399e-003           9.13994e-004
                   86.30    345.61396                               10.91395             82.088                                        3.45614e+002           4.56140e+001           5.61396e+000           6.13957e-001           1.39571e-002           3.95712e-003           9.57123e-004
                   86.40    345.60885                               10.91395             82.086                                        3.45609e+002           4.56088e+001           5.60885e+000           6.08848e-001           8.84789e-003           8.84789e-003           8.47885e-004
                   86.50    345.61153                               10.91395             82.086                                        3.45612e+002           4.56115e+001           5.61153e+000           6.11525e-001           1.15253e-002           1.52531e-003           5.25307e-004
                   86.60    345.61660                               10.91395             82.086                                        3.45617e+002           4.56166e+001           5.61660e+000           6.16597e-001           1.65975e-002           6.59748e-003           5.97485e-004
                   86.70    345.60858                               10.91395             82.086                                        3.45609e+002           4.56086e+001           5.60858e+000           6.08584e-001           8.58385e-003           8.58385e-003           5.83849e-004
                   86.80    345.59356                               10.91395             82.086                                        3.45594e+002           4.55936e+001           5.59356e+000           5.93556e-001           9.35559e-002           3.55591e-003           5.55912e-004
                   86.90    345.60113                               10.91395             82.086                                        3.45601e+002           4.56011e+001           5.60113e+000           6.01127e-001           1.12749e-003           1.12749e-003           1.27486e-004
                   87.00    345.61929                               10.91395             82.086                                        3.45619e+002           4.56193e+001           5.61929e+000           6.19287e-001           1.92867e-002           9.28666e-003           2.86665e-004
                   87.10    345.60909                               10.91395             82.086                                        3.45609e+002           4.56091e+001           5.60909e+000           6.09093e-001           9.09269e-003           9.09269e-003           9.26874e-005
                   87.20    345.59467                               10.91395             82.086                                        3.45595e+002           4.55947e+001           5.59467e+000           5.94672e-001           9.46715e-002           4.67152e-003           6.71519e-004
                   87.30    345.60531                               10.91395             82.086                                        3.45605e+002           4.56053e+001           5.60531e+000           6.05315e-001           5.31475e-003           5.31475e-003           3.14753e-004
                   87.40    345.61639                               10.91395             82.086                                        3.45616e+002           4.56164e+001           5.61639e+000           6.16386e-001           1.63859e-002           6.38592e-003           3.85918e-004
                   87.50    345.60741                               10.91395             82.086                                        3.45607e+002           4.56074e+001           5.60741e+000           6.07407e-001           7.40726e-003           7.40726e-003           4.07264e-004
                   87.60    345.59711                               10.91395             82.086                                        3.45597e+002           4.55971e+001           5.59711e+000           5.97111e-001           9.71110e-002           7.11099e-003           1.10989e-004
                   87.70    345.60581                               10.91395             82.086                                        3.45606e+002           4.56058e+001           5.60581e+000           6.05808e-001           5.80801e-003           5.80801e-003           8.08014e-004
                   87.80    345.61803                               10.91395             82.086                                        3.45618e+002           4.56180e+001           5.61803e+000           6.18033e-001           1.80333e-002           8.03330e-003           3.33013e-005
                   87.90    345.60933                               10.91395             82.086                                        3.45609e+002           4.56093e+001           5.60933e+000           6.09332e-001           9.33228e-003           9.33228e-003           3.32278e-004
                   88.00    345.60112                               10.91395             82.086                                        3.45601e+002           4.56011e+001           5.60112e+000           6.01118e-001           1.11831e-003           1.11831e-003           1.18306e-004
                   88.10    345.61344                               10.91395             82.086                                        3.45613e+002           4.56134e+001           5.61344e+000           6.13441e-001           1.34411e-002           3.44113e-003           4.41131e-004
                   88.20    345.61898                               10.91395             82.086                                        3.45619e+002           4.56190e+001           5.61898e+000           6.18975e-001           1.89753e-002           8.97527e-003           9.75270e-004
                   88.30    345.60523                               10.91395             82.086                                        3.45605e+002           4.56052e+001           5.60523e+000           6.05233e-001           5.23295e-003           5.23295e-003           2.32954e-004
                   88.40    345.59782                               10.91395             82.086                                        3.45598e+002           4.55978e+001           5.59782e+000           5.97816e-001           9.78162e-002           7.81624e-003           8.16236e-004
                   88.50    345.61127                               10.91395             82.086                                        3.45611e+002           4.56113e+001           5.61127e+000           6.11269e-001           1.12690e-002           1.26899e-003           2.68992e-004
                   88.60    345.61756                               10.91395             82.086                                        3.45618e+002           4.56176e+001           5.61756e+000           6.17555e-001           1.75551e-002           7.55510e-003           5.55098e-004
                   88.70    345.60742                               10.91395             82.086                                        3.45607e+002           4.56074e+001           5.60742e+000           6.07424e-001           7.42425e-003           7.42425e-003           4.24248e-004
                   88.80    345.60348                               10.91395             82.086                                        3.45603e+002           4.56035e+001           5.60348e+000           6.03483e-001           3.48285e-003           3.48285e-003           4.82852e-004
