~VERSION INFORMATION
VERS                    .            2.0                                    :CWLS LOG ASCII STANDARD
WRAP                    .            NO                                     :ONE LINE PER TIME STEP


~WELL INFORMATION
#MNEM                   .UNIT        DATA                                    DESCRIPTION
#________________________________________________________________________________________
STRTTIME                .HH/MM/SS    19:20:48                               :START TIME
STOPTIME                .HH/MM/SS    19:23:33                               :STOP TIME
STRT                    .s           2.10                                   :START DATA
STOP                    .s           164.00                                 :STOP DATA
STEP                    .s           0.10                                   :MEASUREMENT TIME INTERVAL
NULL                    .            -999.25                                :NULL VALUE
COMP                    .            Statoil ASA                            :COMPANY
FLD                     .            Volve                                  :FIELD
WELL                    .            15/9-F-11 A                            :WELL
RUN                     .            8                                      :RUN
LOC                     .            Maersk Inspirer                        :LOCATION
PROV                    .            na                                     :PROVINCE
SRVC                    .            Baker Hughes INTEQ                     :SERVICE COMPANY
DATE                    .YY/MM/DD    13/05/23                               :LOG DATE
UWI                     .                                                   :UNIQUE WELL ID
DEPTHMD                 .m           3617.0                                 :MEASURED DEPTH
DEPTHTVD                .m           3015.4                                 :TRUE VERTICAL DEPTH


~CURVE INFORMATION
#MNEM                   .UNIT        API CODES                               DESCRIPTION
#________________________________________________________________________________________
TIME                    .s                                                  :01 TIME
DD_PRESS                .bar                                                :02 DRAW DOWN PRESSURE
DD_VOLUME               .cm3                                                :03 INCREMENTAL DRAW DOWN VOLUME
TEMP                    .degC                                               :04 TRANSDUCER TEMPERATURE
DD_PRESS_MOD_1000       .bar                                                :05 DRAW DOWN PRESSURE MOD 1000
DD_PRESS_MOD_100        .bar                                                :06 DRAW DOWN PRESSURE MOD 100
DD_PRESS_MOD_10         .bar                                                :07 DRAW DOWN PRESSURE MOD 10
DD_PRESS_MOD_1          .bar                                                :08 DRAW DOWN PRESSURE MOD 1
DD_PRESS_MOD_01         .bar                                                :09 DRAW DOWN PRESSURE MOD 01
DD_PRESS_MOD_001        .bar                                                :10 DRAW DOWN PRESSURE MOD 001
DD_PRESS_MOD_0001       .bar                                                :11 DRAW DOWN PRESSURE MOD 0001


~PARAMETER INFORMATION
#MNEM                   .UNIT        VALUE                                   DESCRIPTION
#________________________________________________________________________________________
TOOLFACE                .deg         -39.9                                  :01 TOOLFACE
PUMP_CAPACITY           .bar         400                                    :02 NOMINAL DRAW DOWN PUMP CAPACITY
PUMP_LIMIT              .bar         240                                    :03 DOWNLINK PUMP LIMIT
TIME_LIMIT              .min         10                                     :04 DOWNLINK MAX TIME
TEST_TYPE               .            REPEAT                                 :05 DOWNLINK
TEST_TYPE               .            HIGH MOBILITY                          :06 DOWNLINK
DD_PIST_A               .cm2         3.1416                                 :07 DRAW DOWN PISTON AREA
V_SYS                   .cm3         131.0000                               :08 SYSTEM VOLUME
PROBE_ID                .cm          1.2700                                 :09 TTK PROBE ID
G0                      .            4.6700                                 :10 GEOMETRY FACTOR


~A                  TIME     DD_PRESS                              DD_VOLUME               TEMP                                   DD_PRESS_MOD_1000       DD_PRESS_MOD_100        DD_PRESS_MOD_10         DD_PRESS_MOD_1        DD_PRESS_MOD_01       DD_PRESS_MOD_001      DD_PRESS_MOD_0001
# ...
                   44.10    340.84279                               10.72576             72.133                                        3.40843e+002           4.08428e+001           8.42792e-001           8.42792e-001           4.27917e-002           2.79175e-003           7.91747e-004
                   44.20    340.84369                               10.72576             72.133                                        3.40844e+002           4.08437e+001           8.43693e-001           8.43693e-001           4.36930e-002           3.69299e-003           6.92990e-004
                   44.30    340.83644                               10.72576             72.133                                        3.40836e+002           4.08364e+001           8.36444e-001           8.36444e-001           3.64437e-002           6.44374e-003           4.43737e-004
                   44.40    340.83716                               10.72576             72.130                                        3.40837e+002           4.08372e+001           8.37156e-001           8.37156e-001           3.71560e-002           7.15601e-003           1.56015e-004
                   44.50    340.84036                               10.72576             72.127                                        3.40840e+002           4.08404e+001           8.40355e-001           8.40355e-001           4.03553e-002           3.55302e-004           3.55302e-004
                   44.60    340.83967                               10.72576             72.125                                        3.40840e+002           4.08397e+001           8.39669e-001           8.39669e-001           3.96685e-002           9.66851e-003           6.68512e-004
                   44.70    340.83471                               10.72576             72.125                                        3.40835e+002           4.08347e+001           8.34707e-001           8.34707e-001           3.47069e-002           4.70691e-003           7.06912e-004
                   44.80    340.83629                               10.72576             72.125                                        3.40836e+002           4.08363e+001           8.36292e-001           8.36292e-001           3.62915e-002           6.29153e-003           2.91525e-004
                   44.90    340.84057                               10.72576             72.125                                        3.40841e+002           4.08406e+001           8.40571e-001           8.40571e-001           4.05712e-002           5.71243e-004           5.71243e-004
                   45.00    340.84308                               10.72576             72.127                                        3.40843e+002           4.08431e+001           8.43077e-001           8.43077e-001           4.30768e-002           3.07676e-003           7.67580e-005
                   45.10    340.84095                               10.72576             72.131                                        3.40841e+002           4.08410e+001           8.40952e-001           8.40952e-001           4.09525e-002           9.52451e-004           9.52451e-004
                   45.20    340.84120                               10.72576             72.130                                        3.40841e+002           4.08412e+001           8.41196e-001           8.41196e-001           4.11963e-002           1.19628e-003           1.96282e-004
                   45.30    340.84189                               10.72576             72.127                                        3.40842e+002           4.08419e+001           8.41886e-001           8.41886e-001           4.18859e-002           1.88588e-003           8.85881e-004
                   45.40    340.84053                               10.72576             72.125                                        3.40841e+002           4.08405e+001           8.40525e-001           8.40525e-001           4.05251e-002           5.25092e-004           5.25092e-004
                   45.50    340.83728                               10.72576             72.127                                        3.40837e+002           4.08373e+001           8.37280e-001           8.37280e-001           3.72805e-002           7.28045e-003           2.80455e-004
                   45.60    340.83470                               10.72576             72.131                                        3.40835e+002           4.08347e+001           8.34698e-001           8.34698e-001           3.46981e-002           4.69815e-003           6.98148e-004
                   45.70    340.83836                               10.72576             72.133                                        3.40838e+002           4.08384e+001           8.38363e-001           8.38363e-001           3.83626e-002           8.36263e-003           3.62631e-004
                   45.80    340.84299                               10.72576             72.130                                        3.40843e+002           4.08430e+001           8.42995e-001           8.42995e-001           4.29950e-002           2.99498e-003           9.94985e-004
                   45.90    340.84246                               10.72576             72.129                                        3.40842e+002           4.08425e+001           8.42456e-001           8.42456e-001           4.24557e-002           2.45569e-003           4.55688e-004
                   46.00    340.83902                               10.72576             72.129                                        3.40839e+002           4.08390e+001           8.39023e-001           8.39023e-001           3.90229e-002           9.02290e-003           2.29017e-005
                   46.10    340.84132                               10.72576             72.127                                        3.40841e+002           4.08413e+001           8.41315e-001           8.41315e-001           4.13152e-002           1.31520e-003           3.15204e-004
                   46.20    340.84391                               10.72576             72.125                                        3.40844e+002           4.08439e+001           8.43909e-001           8.43909e-001           4.39087e-002           3.90871e-003           9.08711e-004
                   46.30    340.84282                               10.72576             72.125                                        3.40843e+002           4.08428e+001           8.42822e-001           8.42822e-001           4.28219e-002           2.82186e-003           8.21863e-004
                   46.40    340.83737                               10.72576             72.125                                        3.40837e+002           4.08374e+001           8.37374e-001           8.37374e-001           3.73739e-002           7.37394e-003           3.73936e-004
                   46.50    340.83761                               10.72576             72.125                                        3.40838e+002           4.08376e+001           8.37614e-001           8.37614e-001           3.76143e-002           7.61427e-003           6.14271e-004
                   46.60    340.84204                               10.72576             72.125                                        3.40842e+002           4.08420e+001           8.42043e-001           8.42043e-001           4.20433e-002           2.04326e-003           4.32616e-005
                   46.70    340.84436                               10.72576             72.125                                        3.40844e+002           4.08444e+001           8.44355e-001           8.44355e-001           4.43552e-002           4.35518e-003           3.55179e-004
                   46.80    340.84156                               10.72576             72.125                                        3.40842e+002           4.08416e+001           8.41559e-001           8.41559e-001           4.15590e-002           1.55903e-003           5.59031e-004
