~VERSION INFORMATION
VERS                    .            2.0                                    :CWLS LOG ASCII STANDARD
WRAP                    .            NO                                     :ONE LINE PER TIME STEP


~WELL INFORMATION
#MNEM                   .UNIT        DATA                                    DESCRIPTION
#________________________________________________________________________________________
STRTTIME                .HH/MM/SS    22:39:37                               :START TIME
STOPTIME                .HH/MM/SS    22:43:03                               :STOP TIME
STRT                    .s           2.10                                   :START DATA
STOP                    .s           204.10                                 :STOP DATA
STEP                    .s           0.10                                   :MEASUREMENT TIME INTERVAL
NULL                    .            -999.25                                :NULL VALUE
COMP                    .            Statoil ASA                            :COMPANY
FLD                     .            Volve                                  :FIELD
WELL                    .            15/9-F-1 C                             :WELL
RUN                     .            4                                      :RUN
LOC                     .                                                   :LOCATION
PROV                    .            na                                     :PROVINCE
SRVC                    .            Baker Hughes INTEQ                     :SERVICE COMPANY
DATE                    .YY/MM/DD    14/03/14                               :LOG DATE
UWI                     .                                                   :UNIQUE WELL ID
DEPTHMD                 .m           3925.1                                 :MEASURED DEPTH
DEPTHTVD                .m           3120.2                                 :TRUE VERTICAL DEPTH


~CURVE INFORMATION
#MNEM                   .UNIT        API CODES                               DESCRIPTION
#________________________________________________________________________________________
TIME                    .s                                                  :01 TIME
DD_PRESS                .bar                                                :02 DRAW DOWN PRESSURE
DD_VOLUME               .cm3                                                :03 INCREMENTAL DRAW DOWN VOLUME
TEMP                    .degC                                               :04 TRANSDUCER TEMPERATURE
DD_PRESS_MOD_1000       .bar                                                :05 DRAW DOWN PRESSURE MOD 1000
DD_PRESS_MOD_100        .bar                                                :06 DRAW DOWN PRESSURE MOD 100
DD_PRESS_MOD_10         .bar                                                :07 DRAW DOWN PRESSURE MOD 10
DD_PRESS_MOD_1          .bar                                                :08 DRAW DOWN PRESSURE MOD 1
DD_PRESS_MOD_01         .bar                                                :09 DRAW DOWN PRESSURE MOD 01
DD_PRESS_MOD_001        .bar                                                :10 DRAW DOWN PRESSURE MOD 001
DD_PRESS_MOD_0001       .bar                                                :11 DRAW DOWN PRESSURE MOD 0001


~PARAMETER INFORMATION
#MNEM                   .UNIT        VALUE                                   DESCRIPTION
#________________________________________________________________________________________
TOOLFACE                .deg         -7.4                                   :01 TOOLFACE
PUMP_CAPACITY           .bar         400                                    :02 NOMINAL DRAW DOWN PUMP CAPACITY
PUMP_LIMIT              .bar         240                                    :03 DOWNLINK PUMP LIMIT
TIME_LIMIT              .min         10                                     :04 DOWNLINK MAX TIME
TEST_TYPE               .            HIGH MOBILITY                          :05 DOWNLINK
DD_PIST_A               .cm2         3.1416                                 :06 DRAW DOWN PISTON AREA
V_SYS                   .cm3         131.0000                               :07 SYSTEM VOLUME
PROBE_ID                .cm          1.2700                                 :08 TTK PROBE ID
G0                      .            4.6700                                 :09 GEOMETRY FACTOR


~A                  TIME     DD_PRESS                              DD_VOLUME               TEMP                                   DD_PRESS_MOD_1000       DD_PRESS_MOD_100        DD_PRESS_MOD_10         DD_PRESS_MOD_1        DD_PRESS_MOD_01       DD_PRESS_MOD_001      DD_PRESS_MOD_0001
# ...
                   69.30    353.16633                               10.80103             91.367                                        3.53166e+002           5.31663e+001           3.16633e+000           1.66330e-001           6.63297e-002           6.32967e-003           3.29671e-004
                   69.40    353.16833                               10.80103             91.367                                        3.53168e+002           5.31683e+001           3.16833e+000           1.68326e-001           6.83260e-002           8.32605e-003           3.26047e-004
                   69.50    353.17050                               10.80103             91.367                                        3.53171e+002           5.31705e+001           3.17050e+000           1.70503e-001           7.05032e-002           5.03197e-004           5.03197e-004
                   69.60    353.17059                               10.80103             91.367                                        3.53171e+002           5.31706e+001           3.17059e+000           1.70594e-001           7.05945e-002           5.94462e-004           5.94462e-004
                   69.70    353.16787                               10.80103             91.367                                        3.53168e+002           5.31679e+001           3.16787e+000           1.67868e-001           6.78676e-002           7.86760e-003           8.67599e-004
                   69.80    353.16700                               10.80103             91.367                                        3.53167e+002           5.31670e+001           3.16700e+000           1.66996e-001           6.69964e-002           6.99640e-003           9.96400e-004
                   69.90    353.17000                               10.80103             91.367                                        3.53170e+002           5.31700e+001           3.17000e+000           1.70004e-001           7.00039e-002           3.88576e-006           3.88576e-006
                   70.00    353.17091                               10.80103             91.367                                        3.53171e+002           5.31709e+001           3.17091e+000           1.70907e-001           7.09075e-002           9.07475e-004           9.07475e-004
                   70.10    353.17254                               10.80103             91.367                                        3.53173e+002           5.31725e+001           3.17254e+000           1.72535e-001           7.25351e-002           2.53506e-003           5.35058e-004
                   70.20    353.17219                               10.80103             91.367                                        3.53172e+002           5.31722e+001           3.17219e+000           1.72185e-001           7.21854e-002           2.18536e-003           1.85357e-004
                   70.30    353.16958                               10.80103             91.367                                        3.53170e+002           5.31696e+001           3.16958e+000           1.69585e-001           6.95849e-002           9.58489e-003           5.84890e-004
                   70.40    353.17061                               10.80103             91.367                                        3.53171e+002           5.31706e+001           3.17061e+000           1.70607e-001           7.06069e-002           6.06851e-004           6.06851e-004
                   70.50    353.17466                               10.80103             91.367                                        3.53175e+002           5.31747e+001           3.17466e+000           1.74658e-001           7.46583e-002           4.65825e-003           6.58250e-004
                   70.60    353.17524                               10.80103             91.367                                        3.53175e+002           5.31752e+001           3.17524e+000           1.75245e-001           7.52449e-002           5.24487e-003           2.44868e-004
                   70.70    353.17128                               10.80103             91.367                                        3.53171e+002           5.31713e+001           3.17128e+000           1.71278e-001           7.12783e-002           1.27825e-003           2.78253e-004
                   70.80    353.16589                               10.80103             91.367                                        3.53166e+002           5.31659e+001           3.16589e+000           1.65891e-001           6.58912e-002           5.89122e-003           8.91221e-004
                   70.90    353.16544                               10.80103             91.367                                        3.53165e+002           5.31654e+001           3.16544e+000           1.65441e-001           6.54414e-002           5.44136e-003           4.41361e-004
                   71.00    353.16769                               10.80103             91.367                                        3.53168e+002           5.31677e+001           3.16769e+000           1.67693e-001           6.76929e-002           7.69294e-003           6.92938e-004
                   71.10    353.16847                               10.80103             91.367                                        3.53168e+002           5.31685e+001           3.16847e+000           1.68470e-001           6.84702e-002           8.47016e-003           4.70164e-004
                   71.20    353.16885                               10.80103             91.367                                        3.53169e+002           5.31689e+001           3.16885e+000           1.68852e-001           6.88519e-002           8.85187e-003           8.51870e-004
                   71.30    353.17096                               10.80103             91.367                                        3.53171e+002           5.31710e+001           3.17096e+000           1.70964e-001           7.09637e-002           9.63710e-004           9.63710e-004
                   71.40    353.17971                               10.80103             91.365                                        3.53180e+002           5.31797e+001           3.17971e+000           1.79709e-001           7.97094e-002           9.70942e-003           7.09421e-004
                   71.50    353.18564                               10.80103             91.361                                        3.53186e+002           5.31856e+001           3.18564e+000           1.85642e-001           8.56415e-002           5.64150e-003           6.41502e-004
                   71.60    353.18212                               10.80103             91.362                                        3.53182e+002           5.31821e+001           3.18212e+000           1.82119e-001           8.21189e-002           2.11886e-003           1.18862e-004
                   71.70    353.17527                               10.80103             91.365                                        3.53175e+002           5.31753e+001           3.17527e+000           1.75274e-001           7.52739e-002           5.27389e-003           2.73895e-004
                   71.80    353.16907                               10.80103             91.367                                        3.53169e+002           5.31691e+001           3.16907e+000           1.69071e-001           6.90713e-002           9.07125e-003           7.12538e-005
                   71.90    353.17158                               10.80103             91.367                                        3.53172e+002           5.31716e+001           3.17158e+000           1.71578e-001           7.15779e-002           1.57795e-003           5.77948e-004
                   72.00    353.17383                               10.80103             91.367                                        3.53174e+002           5.31738e+001           3.17383e+000           1.73828e-001           7.38283e-002           3.82828e-003           8.28282e-004
