~VERSION INFORMATION
VERS                    .            2.0                                    :CWLS LOG ASCII STANDARD
WRAP                    .            NO                                     :ONE LINE PER TIME STEP


~WELL INFORMATION
#MNEM                   .UNIT        DATA                                    DESCRIPTION
#________________________________________________________________________________________
STRTTIME                .HH/MM/SS    10:02:47                               :START TIME
STOPTIME                .HH/MM/SS    10:07:04                               :STOP TIME
STRT                    .s           2.10                                   :START DATA
STOP                    .s           255.20                                 :STOP DATA
STEP                    .s           0.10                                   :MEASUREMENT TIME INTERVAL
NULL                    .            -999.25                                :NULL VALUE
COMP                    .            Statoil ASA                            :COMPANY
FLD                     .            Volve                                  :FIELD
WELL                    .            15/9-F-11 A                            :WELL
RUN                     .            8                                      :RUN
LOC                     .            Maersk Inspirer                        :LOCATION
PROV                    .            na                                     :PROVINCE
SRVC                    .            Baker Hughes INTEQ                     :SERVICE COMPANY
DATE                    .YY/MM/DD    13/05/21                               :LOG DATE
UWI                     .                                                   :UNIQUE WELL ID
DEPTHMD                 .m           3657.3                                 :MEASURED DEPTH
DEPTHTVD                .m           3046.2                                 :TRUE VERTICAL DEPTH


~CURVE INFORMATION
#MNEM                   .UNIT        API CODES                               DESCRIPTION
#________________________________________________________________________________________
TIME                    .s                                                  :01 TIME
DD_PRESS                .bar                                                :02 DRAW DOWN PRESSURE
DD_VOLUME               .cm3                                                :03 INCREMENTAL DRAW DOWN VOLUME
TEMP                    .degC                                               :04 TRANSDUCER TEMPERATURE
DD_PRESS_MOD_1000       .bar                                                :05 DRAW DOWN PRESSURE MOD 1000
DD_PRESS_MOD_100        .bar                                                :06 DRAW DOWN PRESSURE MOD 100
DD_PRESS_MOD_10         .bar                                                :07 DRAW DOWN PRESSURE MOD 10
DD_PRESS_MOD_1          .bar                                                :08 DRAW DOWN PRESSURE MOD 1
DD_PRESS_MOD_01         .bar                                                :09 DRAW DOWN PRESSURE MOD 01
DD_PRESS_MOD_001        .bar                                                :10 DRAW DOWN PRESSURE MOD 001
DD_PRESS_MOD_0001       .bar                                                :11 DRAW DOWN PRESSURE MOD 0001


~PARAMETER INFORMATION
#MNEM                   .UNIT        VALUE                                   DESCRIPTION
#________________________________________________________________________________________
TOOLFACE                .deg         60.1                                   :01 TOOLFACE
PUMP_CAPACITY           .bar         400                                    :02 NOMINAL DRAW DOWN PUMP CAPACITY
PUMP_LIMIT              .bar         240                                    :03 DOWNLINK PUMP LIMIT
TIME_LIMIT              .min         10                                     :04 DOWNLINK MAX TIME
TEST_TYPE               .            REPEAT                                 :05 DOWNLINK
TEST_TYPE               .            HIGH MOBILITY                          :06 DOWNLINK
DD_PIST_A               .cm2         3.1416                                 :07 DRAW DOWN PISTON AREA
V_SYS                   .cm3         131.0000                               :08 SYSTEM VOLUME
PROBE_ID                .cm          1.2700                                 :09 TTK PROBE ID
G0                      .            4.6700                                 :10 GEOMETRY FACTOR


~A                  TIME     DD_PRESS                              DD_VOLUME               TEMP                                   DD_PRESS_MOD_1000       DD_PRESS_MOD_100        DD_PRESS_MOD_10         DD_PRESS_MOD_1        DD_PRESS_MOD_01       DD_PRESS_MOD_001      DD_PRESS_MOD_0001
# ...
                   69.30    344.39131                               10.48171             82.156                                        3.44391e+002           4.43913e+001           4.39131e+000           3.91310e-001           9.13104e-002           1.31037e-003           3.10371e-004
                   69.40    344.39441                               10.48171             82.156                                        3.44394e+002           4.43944e+001           4.39441e+000           3.94413e-001           9.44127e-002           4.41268e-003           4.12683e-004
                   69.50    344.39591                               10.48171             82.156                                        3.44396e+002           4.43959e+001           4.39591e+000           3.95915e-001           9.59147e-002           5.91470e-003           9.14697e-004
                   69.60    344.38353                               10.48171             82.154                                        3.44384e+002           4.43835e+001           4.38353e+000           3.83532e-001           8.35318e-002           3.53181e-003           5.31805e-004
                   69.70    344.37936                               10.48171             82.150                                        3.44379e+002           4.43794e+001           4.37936e+000           3.79364e-001           7.93638e-002           9.36380e-003           3.63797e-004
                   69.80    344.38868                               10.48171             82.148                                        3.44389e+002           4.43887e+001           4.38868e+000           3.88681e-001           8.86813e-002           8.68132e-003           6.81322e-004
                   69.90    344.39220                               10.48171             82.151                                        3.44392e+002           4.43922e+001           4.39220e+000           3.92196e-001           9.21961e-002           2.19609e-003           1.96090e-004
                   70.00    344.38284                               10.48171             82.152                                        3.44383e+002           4.43828e+001           4.38284e+000           3.82840e-001           8.28396e-002           2.83964e-003           8.39637e-004
                   70.10    344.37696                               10.48171             82.150                                        3.44377e+002           4.43770e+001           4.37696e+000           3.76959e-001           7.69585e-002           6.95852e-003           9.58523e-004
                   70.20    344.38163                               10.48171             82.148                                        3.44382e+002           4.43816e+001           4.38163e+000           3.81629e-001           8.16290e-002           1.62897e-003           6.28966e-004
                   70.30    344.38896                               10.48171             82.148                                        3.44389e+002           4.43890e+001           4.38896e+000           3.88957e-001           8.89572e-002           8.95718e-003           9.57176e-004
                   70.40    344.39017                               10.48171             82.148                                        3.44390e+002           4.43902e+001           4.39017e+000           3.90166e-001           9.01663e-002           1.66321e-004           1.66321e-004
                   70.50    344.38974                               10.48171             82.148                                        3.44390e+002           4.43897e+001           4.38974e+000           3.89742e-001           8.97416e-002           9.74160e-003           7.41605e-004
                   70.60    344.39202                               10.48171             82.148                                        3.44392e+002           4.43920e+001           4.39202e+000           3.92022e-001           9.20223e-002           2.02233e-003           2.23324e-005
                   70.70    344.39106                               10.48171             82.148                                        3.44391e+002           4.43911e+001           4.39106e+000           3.91059e-001           9.10593e-002           1.05934e-003           5.93414e-005
                   70.80    344.38931                               10.48171             82.148                                        3.44389e+002           4.43893e+001           4.38931e+000           3.89310e-001           8.93098e-002           9.30977e-003           3.09773e-004
                   70.90    344.38953                               10.48171             82.148                                        3.44390e+002           4.43895e+001           4.38953e+000           3.89525e-001           8.95254e-002           9.52543e-003           5.25432e-004
                   71.00    344.39169                               10.48171             82.148                                        3.44392e+002           4.43917e+001           4.39169e+000           3.91691e-001           9.16909e-002           1.69091e-003           6.90907e-004
                   71.10    344.39103                               10.48171             82.148                                        3.44391e+002           4.43910e+001           4.39103e+000           3.91028e-001           9.10278e-002           1.02779e-003           2.77891e-005
                   71.20    344.38604                               10.48171             82.148                                        3.44386e+002           4.43860e+001           4.38604e+000           3.86036e-001           8.60355e-002           6.03550e-003           3.55031e-005
                   71.30    344.38434                               10.48171             82.148                                        3.44384e+002           4.43843e+001           4.38434e+000           3.84341e-001           8.43413e-002           4.34130e-003           3.41302e-004
                   71.40    344.39035                               10.48171             82.148                                        3.44390e+002           4.43903e+001           4.39035e+000           3.90347e-001           9.03475e-002           3.47481e-004           3.47481e-004
                   71.50    344.38940                               10.48171             82.148                                        3.44389e+002           4.43894e+001           4.38940e+000           3.89405e-001           8.94048e-002           9.40478e-003           4.04781e-004
                   71.60    344.38612                               10.48171             82.148                                        3.44386e+002           4.43861e+001           4.38612e+000           3.86118e-001           8.61175e-002           6.11755e-003           1.17545e-004
                   71.70    344.39013                               10.48171             82.148                                        3.44390e+002           4.43901e+001           4.39013e+000           3.90132e-001           9.01322e-002           1.32201e-004           1.32201e-004
                   71.80    344.39894                               10.48171             82.148                                        3.44399e+002           4.43989e+001           4.39894e+000           3.98942e-001           9.89424e-002           8.94236e-003           9.42359e-004
                   71.90    344.39482                               10.48171             82.148                                        3.44395e+002           4.43948e+001           4.39482e+000           3.94821e-001           9.48205e-002           4.82052e-003           8.20521e-004
                   72.00    344.38552                               10.48171             82.148                                        3.44386e+002           4.43855e+001           4.38552e+000           3.85517e-001           8.55174e-002           5.51737e-003           5.17366e-004
