~VERSION INFORMATION
VERS                    .            2.0                                    :CWLS LOG ASCII STANDARD
WRAP                    .            NO                                     :ONE LINE PER TIME STEP


~WELL INFORMATION
#MNEM                   .UNIT        DATA                                    DESCRIPTION
#________________________________________________________________________________________
STRTTIME                .HH/MM/SS    14:04:48                               :START TIME
STOPTIME                .HH/MM/SS    14:07:57                               :STOP TIME
STRT                    .s           2.10                                   :START DATA
STOP                    .s           187.50                                 :STOP DATA
STEP                    .s           0.10                                   :MEASUREMENT TIME INTERVAL
NULL                    .            -999.25                                :NULL VALUE
COMP                    .            Statoil ASA                            :COMPANY
FLD                     .            Volve                                  :FIELD
WELL                    .            15/9-F-1 B                             :WELL
RUN                     .            7                                      :RUN
LOC                     .            Maersk Inspirer                        :LOCATION
PROV                    .            na                                     :PROVINCE
SRVC                    .            Baker Hughes INTEQ                     :SERVICE COMPANY
DATE                    .YY/MM/DD    13/09/06                               :LOG DATE
UWI                     .                                                   :UNIQUE WELL ID
DEPTHMD                 .m           3296.0                                 :MEASURED DEPTH
DEPTHTVD                .m           3091.5                                 :TRUE VERTICAL DEPTH


~CURVE INFORMATION
#MNEM                   .UNIT        API CODES                               DESCRIPTION
#________________________________________________________________________________________
TIME                    .s                                                  :01 TIME
DD_PRESS                .bar                                                :02 DRAW DOWN PRESSURE
DD_VOLUME               .cm3                                                :03 INCREMENTAL DRAW DOWN VOLUME
TEMP                    .degC                                               :04 TRANSDUCER TEMPERATURE
DD_PRESS_MOD_1000       .bar                                                :05 DRAW DOWN PRESSURE MOD 1000
DD_PRESS_MOD_100        .bar                                                :06 DRAW DOWN PRESSURE MOD 100
DD_PRESS_MOD_10         .bar                                                :07 DRAW DOWN PRESSURE MOD 10
DD_PRESS_MOD_1          .bar                                                :08 DRAW DOWN PRESSURE MOD 1
DD_PRESS_MOD_01         .bar                                                :09 DRAW DOWN PRESSURE MOD 01
DD_PRESS_MOD_001        .bar                                                :10 DRAW DOWN PRESSURE MOD 001
DD_PRESS_MOD_0001       .bar                                                :11 DRAW DOWN PRESSURE MOD 0001


~PARAMETER INFORMATION
#MNEM                   .UNIT        VALUE                                   DESCRIPTION
#________________________________________________________________________________________
TOOLFACE                .deg         na                                     :01 TOOLFACE
PUMP_CAPACITY           .bar         400                                    :02 NOMINAL DRAW DOWN PUMP CAPACITY
PUMP_LIMIT              .bar         400                                    :03 DOWNLINK PUMP LIMIT
TIME_LIMIT              .min         10                                     :04 DOWNLINK MAX TIME
TEST_TYPE               .            LOW MOBILITY                           :05 DOWNLINK
DD_PIST_A               .cm2         3.1416                                 :06 DRAW DOWN PISTON AREA
V_SYS                   .cm3         131.0000                               :07 SYSTEM VOLUME
PROBE_ID                .cm          1.2700                                 :08 TTK PROBE ID
G0                      .            4.6700                                 :09 GEOMETRY FACTOR


~A                  TIME     DD_PRESS                              DD_VOLUME               TEMP                                   DD_PRESS_MOD_1000       DD_PRESS_MOD_100        DD_PRESS_MOD_10         DD_PRESS_MOD_1        DD_PRESS_MOD_01       DD_PRESS_MOD_001      DD_PRESS_MOD_0001
# ...
                  147.70    348.63255                               29.21840             83.242                                        3.48633e+002           4.86326e+001           8.63255e+000           6.32553e-001           3.25527e-002           2.55267e-003           5.52667e-004
                  147.80    348.64399                               29.21840             83.242                                        3.48644e+002           4.86440e+001           8.64399e+000           6.43991e-001           4.39914e-002           3.99136e-003           9.91362e-004
                  147.90    348.66126                               29.21840             83.242                                        3.48661e+002           4.86613e+001           8.66126e+000           6.61256e-001           6.12560e-002           1.25597e-003           2.55972e-004
                  148.00    348.65320                               29.21840             83.242                                        3.48653e+002           4.86532e+001           8.65320e+000           6.53198e-001           5.31979e-002           3.19790e-003           1.97899e-004
                  148.10    348.62281                               29.21840             83.242                                        3.48623e+002           4.86228e+001           8.62281e+000           6.22812e-001           2.28118e-002           2.81185e-003           8.11845e-004
                  148.20    348.61228                               29.21840             83.242                                        3.48612e+002           4.86123e+001           8.61228e+000           6.12284e-001           1.22844e-002           2.28441e-003           2.84409e-004
                  148.30    348.64216                               29.21840             83.242                                        3.48642e+002           4.86422e+001           8.64216e+000           6.42164e-001           4.21640e-002           2.16396e-003           1.63957e-004
                  148.40    348.66527                               29.21840             83.242                                        3.48665e+002           4.86653e+001           8.66527e+000           6.65274e-001           6.52744e-002           5.27437e-003           2.74369e-004
                  148.50    348.64131                               29.21840             83.242                                        3.48641e+002           4.86413e+001           8.64131e+000           6.41308e-001           4.13083e-002           1.30834e-003           3.08339e-004
                  148.60    348.62025                               29.21840             83.242                                        3.48620e+002           4.86203e+001           8.62025e+000           6.20251e-001           2.02515e-002           2.51455e-004           2.51455e-004
                  148.70    348.62760                               29.21840             83.242                                        3.48628e+002           4.86276e+001           8.62760e+000           6.27603e-001           2.76028e-002           7.60284e-003           6.02843e-004
                  148.80    348.63425                               29.21840             83.242                                        3.48634e+002           4.86342e+001           8.63425e+000           6.34246e-001           3.42465e-002           4.24649e-003           2.46491e-004
                  148.90    348.62970                               29.21840             83.242                                        3.48630e+002           4.86297e+001           8.62970e+000           6.29698e-001           2.96976e-002           9.69756e-003           6.97565e-004
                  149.00    348.62418                               29.21840             83.242                                        3.48624e+002           4.86242e+001           8.62418e+000           6.24176e-001           2.41758e-002           4.17577e-003           1.75774e-004
                  149.10    348.63878                               29.21840             83.242                                        3.48639e+002           4.86388e+001           8.63878e+000           6.38782e-001           3.87823e-002           8.78234e-003           7.82337e-004
                  149.20    348.65844                               29.21840             83.242                                        3.48658e+002           4.86584e+001           8.65844e+000           6.58440e-001           5.84405e-002           8.44048e-003           4.40479e-004
                  149.30    348.64469                               29.21840             83.242                                        3.48645e+002           4.86447e+001           8.64469e+000           6.44686e-001           4.46865e-002           4.68647e-003           6.86466e-004
                  149.40    348.62454                               29.21840             83.242                                        3.48625e+002           4.86245e+001           8.62454e+000           6.24543e-001           2.45425e-002           4.54254e-003           5.42543e-004
                  149.50    348.63386                               29.21840             83.242                                        3.48634e+002           4.86339e+001           8.63386e+000           6.33856e-001           3.38565e-002           3.85649e-003           8.56492e-004
                  149.60    348.64214                               29.21840             83.242                                        3.48642e+002           4.86421e+001           8.64214e+000           6.42135e-001           4.21351e-002           2.13505e-003           1.35052e-004
                  149.70    348.62009                               29.21840             83.242                                        3.48620e+002           4.86201e+001           8.62009e+000           6.20090e-001           2.00900e-002           8.99882e-005           8.99882e-005
                  149.80    348.61686                               29.21840             83.242                                        3.48617e+002           4.86169e+001           8.61686e+000           6.16857e-001           1.68569e-002           6.85687e-003           8.56869e-004
                  149.90    348.63328                               29.21840             83.242                                        3.48633e+002           4.86333e+001           8.63328e+000           6.33281e-001           3.32813e-002           3.28132e-003           2.81320e-004
                  150.00    348.63808                               29.21840             83.242                                        3.48638e+002           4.86381e+001           8.63808e+000           6.38084e-001           3.80840e-002           8.08403e-003           8.40323e-005
                  150.10    348.63392                               29.21840             83.242                                        3.48634e+002           4.86339e+001           8.63392e+000           6.33924e-001           3.39243e-002           3.92435e-003           9.24349e-004
                  150.20    348.63066                               29.21840             83.242                                        3.48631e+002           4.86307e+001           8.63066e+000           6.30657e-001           3.06573e-002           6.57282e-004           6.57282e-004
                  150.30    348.63292                               29.21840             83.242                                        3.48633e+002           4.86329e+001           8.63292e+000           6.32924e-001           3.29244e-002           2.92443e-003           9.24429e-004
                  150.40    348.65067                               29.21840             83.242                                        3.48651e+002           4.86507e+001           8.65067e+000           6.50667e-001           5.06673e-002           6.67288e-004           6.67288e-004
