~VERSION INFORMATION
VERS                    .            2.0                                    :CWLS LOG ASCII STANDARD
WRAP                    .            NO                                     :ONE LINE PER TIME STEP


~WELL INFORMATION
#MNEM                   .UNIT        DATA                                    DESCRIPTION
#________________________________________________________________________________________
STRTTIME                .HH/MM/SS    08:08:34                               :START TIME
STOPTIME                .HH/MM/SS    08:11:25                               :STOP TIME
STRT                    .s           2.10                                   :START DATA
STOP                    .s           169.10                                 :STOP DATA
STEP                    .s           0.10                                   :MEASUREMENT TIME INTERVAL
NULL                    .            -999.25                                :NULL VALUE
COMP                    .            Statoil ASA                            :COMPANY
FLD                     .            Volve                                  :FIELD
WELL                    .            15/9-F-11 A                            :WELL
RUN                     .            8                                      :RUN
LOC                     .            Maersk Inspirer                        :LOCATION
PROV                    .            na                                     :PROVINCE
SRVC                    .            Baker Hughes INTEQ                     :SERVICE COMPANY
DATE                    .YY/MM/DD    13/05/21                               :LOG DATE
UWI                     .                                                   :UNIQUE WELL ID
DEPTHMD                 .m           3694.5                                 :MEASURED DEPTH
DEPTHTVD                .m           3074.7                                 :TRUE VERTICAL DEPTH


~CURVE INFORMATION
#MNEM                   .UNIT        API CODES                               DESCRIPTION
#________________________________________________________________________________________
TIME                    .s                                                  :01 TIME
DD_PRESS                .bar                                                :02 DRAW DOWN PRESSURE
DD_VOLUME               .cm3                                                :03 INCREMENTAL DRAW DOWN VOLUME
TEMP                    .degC                                               :04 TRANSDUCER TEMPERATURE
DD_PRESS_MOD_1000       .bar                                                :05 DRAW DOWN PRESSURE MOD 1000
DD_PRESS_MOD_100        .bar                                                :06 DRAW DOWN PRESSURE MOD 100
DD_PRESS_MOD_10         .bar                                                :07 DRAW DOWN PRESSURE MOD 10
DD_PRESS_MOD_1          .bar                                                :08 DRAW DOWN PRESSURE MOD 1
DD_PRESS_MOD_01         .bar                                                :09 DRAW DOWN PRESSURE MOD 01
DD_PRESS_MOD_001        .bar                                                :10 DRAW DOWN PRESSURE MOD 001
DD_PRESS_MOD_0001       .bar                                                :11 DRAW DOWN PRESSURE MOD 0001


~PARAMETER INFORMATION
#MNEM                   .UNIT        VALUE                                   DESCRIPTION
#________________________________________________________________________________________
TOOLFACE                .deg         -107.9                                 :01 TOOLFACE
PUMP_CAPACITY           .bar         400                                    :02 NOMINAL DRAW DOWN PUMP CAPACITY
PUMP_LIMIT              .bar         240                                    :03 DOWNLINK PUMP LIMIT
TIME_LIMIT              .min         10                                     :04 DOWNLINK MAX TIME
TEST_TYPE               .            HIGH MOBILITY                          :05 DOWNLINK
DD_PIST_A               .cm2         3.1416                                 :06 DRAW DOWN PISTON AREA
V_SYS                   .cm3         131.0000                               :07 SYSTEM VOLUME
PROBE_ID                .cm          1.2700                                 :08 TTK PROBE ID
G0                      .            4.6700                                 :09 GEOMETRY FACTOR


~A                  TIME     DD_PRESS                              DD_VOLUME               TEMP                                   DD_PRESS_MOD_1000       DD_PRESS_MOD_100        DD_PRESS_MOD_10         DD_PRESS_MOD_1        DD_PRESS_MOD_01       DD_PRESS_MOD_001      DD_PRESS_MOD_0001
# ...
                  111.30    330.44003                               25.09704             84.859                                        3.30440e+002           3.04400e+001           4.40027e-001           4.40027e-001           4.00274e-002           2.73797e-005           2.73797e-005
                  111.40    330.42941                               25.39201             84.859                                        3.30429e+002           3.04294e+001           4.29408e-001           4.29408e-001           2.94081e-002           9.40809e-003           4.08089e-004
                  111.50    330.44001                               25.68698             84.859                                        3.30440e+002           3.04400e+001           4.40013e-001           4.40013e-001           4.00133e-002           1.33399e-005           1.33399e-005
                  111.60    330.45528                               25.98188             84.859                                        3.30455e+002           3.04553e+001           4.55280e-001           4.55280e-001           5.52798e-002           5.27978e-003           2.79783e-004
                  111.70    330.45739                               26.27681             84.859                                        3.30457e+002           3.04574e+001           4.57389e-001           4.57389e-001           5.73885e-002           7.38855e-003           3.88546e-004
                  111.80    330.45151                               26.57174             84.859                                        3.30452e+002           3.04515e+001           4.51514e-001           4.51514e-001           5.15142e-002           1.51424e-003           5.14238e-004
                  111.90    330.45128                               26.86673             84.859                                        3.30451e+002           3.04513e+001           4.51284e-001           4.51284e-001           5.12841e-002           1.28407e-003           2.84067e-004
                  112.00    330.44385                               27.16168             84.859                                        3.30444e+002           3.04439e+001           4.43853e-001           4.43853e-001           4.38527e-002           3.85266e-003           8.52656e-004
                  112.10    330.42311                               27.45659             84.859                                        3.30423e+002           3.04231e+001           4.23111e-001           4.23111e-001           2.31107e-002           3.11073e-003           1.10734e-004
                  112.20    330.41110                               27.75151             84.859                                        3.30411e+002           3.04111e+001           4.11102e-001           4.11102e-001           1.11017e-002           1.10175e-003           1.01749e-004
                  112.30    330.41365                               28.04648             84.859                                        3.30414e+002           3.04137e+001           4.13652e-001           4.13652e-001           1.36524e-002           3.65241e-003           6.52405e-004
                  112.40    330.41618                               28.34141             84.859                                        3.30416e+002           3.04162e+001           4.16177e-001           4.16177e-001           1.61775e-002           6.17746e-003           1.77462e-004
                  112.50    330.41348                               28.63631             84.859                                        3.30413e+002           3.04135e+001           4.13481e-001           4.13481e-001           1.34811e-002           3.48106e-003           4.81059e-004
                  112.60    330.41572                               28.93123             84.859                                        3.30416e+002           3.04157e+001           4.15724e-001           4.15724e-001           1.57240e-002           5.72402e-003           7.24019e-004
                  112.70    331.49850                               29.20672             84.859                                        3.31498e+002           3.14985e+001           1.49850e+000           4.98499e-001           9.84993e-002           8.49934e-003           4.99344e-004
                  112.80    336.19452                               29.37916             84.857                                        3.36195e+002           3.61945e+001           6.19452e+000           1.94521e-001           9.45210e-002           4.52104e-003           5.21039e-004
                  112.90    342.10464                               29.42930             84.854                                        3.42105e+002           4.21046e+001           2.10464e+000           1.04645e-001           4.64487e-003           4.64487e-003           6.44869e-004
                  113.00    345.15688                               29.43041             84.852                                        3.45157e+002           4.51569e+001           5.15688e+000           1.56879e-001           5.68794e-002           6.87940e-003           8.79405e-004
                  113.10    345.98045                               29.43083             84.852                                        3.45980e+002           4.59805e+001           5.98045e+000           9.80451e-001           8.04508e-002           4.50834e-004           4.50834e-004
                  113.20    346.21356                               29.43087             84.854                                        3.46214e+002           4.62136e+001           6.21356e+000           2.13560e-001           1.35595e-002           3.55950e-003           5.59503e-004
                  113.30    346.28266                               29.43087             84.857                                        3.46283e+002           4.62827e+001           6.28266e+000           2.82661e-001           8.26613e-002           2.66129e-003           6.61293e-004
                  113.40    346.31146                               29.43087             84.859                                        3.46311e+002           4.63115e+001           6.31146e+000           3.11462e-001           1.14621e-002           1.46206e-003           4.62064e-004
                  113.50    346.32880                               29.43087             84.857                                        3.46329e+002           4.63288e+001           6.32880e+000           3.28796e-001           2.87961e-002           8.79612e-003           7.96117e-004
                  113.60    346.33398                               29.43087             84.854                                        3.46334e+002           4.63340e+001           6.33398e+000           3.33979e-001           3.39792e-002           3.97923e-003           9.79234e-004
                  113.70    346.33344                               29.43087             84.852                                        3.46333e+002           4.63334e+001           6.33344e+000           3.33445e-001           3.34447e-002           3.44467e-003           4.44673e-004
                  113.80    346.34201                               29.43087             84.852                                        3.46342e+002           4.63420e+001           6.34201e+000           3.42014e-001           4.20139e-002           2.01393e-003           1.39334e-005
                  113.90    346.35422                               29.43087             84.852                                        3.46354e+002           4.63542e+001           6.35422e+000           3.54222e-001           5.42220e-002           4.22196e-003           2.21964e-004
                  114.00    346.35865                               29.43087             84.852                                        3.46359e+002           4.63587e+001           6.35865e+000           3.58653e-001           5.86528e-002           8.65281e-003           6.52810e-004
