~VERSION INFORMATION
VERS                    .            2.0                                    :CWLS LOG ASCII STANDARD
WRAP                    .            NO                                     :ONE LINE PER TIME STEP


~WELL INFORMATION
#MNEM                   .UNIT        DATA                                    DESCRIPTION
#________________________________________________________________________________________
STRTTIME                .HH/MM/SS    08:48:41                               :START TIME
STOPTIME                .HH/MM/SS    08:51:35                               :STOP TIME
STRT                    .s           2.10                                   :START DATA
STOP                    .s           172.50                                 :STOP DATA
STEP                    .s           0.10                                   :MEASUREMENT TIME INTERVAL
NULL                    .            -999.25                                :NULL VALUE
COMP                    .            Statoil ASA                            :COMPANY
FLD                     .            Volve                                  :FIELD
WELL                    .            15/9-F-11 A                            :WELL
RUN                     .            8                                      :RUN
LOC                     .            Maersk Inspirer                        :LOCATION
PROV                    .            na                                     :PROVINCE
SRVC                    .            Baker Hughes INTEQ                     :SERVICE COMPANY
DATE                    .YY/MM/DD    13/05/21                               :LOG DATE
UWI                     .                                                   :UNIQUE WELL ID
DEPTHMD                 .m           3681.0                                 :MEASURED DEPTH
DEPTHTVD                .m           3064.4                                 :TRUE VERTICAL DEPTH


~CURVE INFORMATION
#MNEM                   .UNIT        API CODES                               DESCRIPTION
#________________________________________________________________________________________
TIME                    .s                                                  :01 TIME
DD_PRESS                .bar                                                :02 DRAW DOWN PRESSURE
DD_VOLUME               .cm3                                                :03 INCREMENTAL DRAW DOWN VOLUME
TEMP                    .degC                                               :04 TRANSDUCER TEMPERATURE
DD_PRESS_MOD_1000       .bar                                                :05 DRAW DOWN PRESSURE MOD 1000
DD_PRESS_MOD_100        .bar                                                :06 DRAW DOWN PRESSURE MOD 100
DD_PRESS_MOD_10         .bar                                                :07 DRAW DOWN PRESSURE MOD 10
DD_PRESS_MOD_1          .bar                                                :08 DRAW DOWN PRESSURE MOD 1
DD_PRESS_MOD_01         .bar                                                :09 DRAW DOWN PRESSURE MOD 01
DD_PRESS_MOD_001        .bar                                                :10 DRAW DOWN PRESSURE MOD 001
DD_PRESS_MOD_0001       .bar                                                :11 DRAW DOWN PRESSURE MOD 0001


~PARAMETER INFORMATION
#MNEM                   .UNIT        VALUE                                   DESCRIPTION
#________________________________________________________________________________________
TOOLFACE                .deg         -59.5                                  :01 TOOLFACE
PUMP_CAPACITY           .bar         400                                    :02 NOMINAL DRAW DOWN PUMP CAPACITY
PUMP_LIMIT              .bar         240                                    :03 DOWNLINK PUMP LIMIT
TIME_LIMIT              .min         10                                     :04 DOWNLINK MAX TIME
TEST_TYPE               .            REPEAT                                 :05 DOWNLINK
TEST_TYPE               .            HIGH MOBILITY                          :06 DOWNLINK
DD_PIST_A               .cm2         3.1416                                 :07 DRAW DOWN PISTON AREA
V_SYS                   .cm3         131.0000                               :08 SYSTEM VOLUME
PROBE_ID                .cm          1.2700                                 :09 TTK PROBE ID
G0                      .            4.6700                                 :10 GEOMETRY FACTOR


~A                  TIME     DD_PRESS                              DD_VOLUME               TEMP                                   DD_PRESS_MOD_1000       DD_PRESS_MOD_100        DD_PRESS_MOD_10         DD_PRESS_MOD_1        DD_PRESS_MOD_01       DD_PRESS_MOD_001      DD_PRESS_MOD_0001
# ...
                  147.70    349.48479                                0.00000             82.578                                        3.49485e+002           4.94848e+001           9.48479e+000           4.84786e-001           8.47861e-002           4.78613e-003           7.86129e-004
                  147.80    349.57791                                0.00000             82.578                                        3.49578e+002           4.95779e+001           9.57791e+000           5.77907e-001           7.79068e-002           7.90676e-003           9.06761e-004
                  147.90    349.70500                                0.00000             82.580                                        3.49705e+002           4.97050e+001           9.70500e+000           7.04997e-001           4.99675e-003           4.99675e-003           9.96750e-004
                  148.00    349.83999                                0.00000             82.584                                        3.49840e+002           4.98400e+001           9.83999e+000           8.39988e-001           3.99884e-002           9.98836e-003           9.88356e-004
                  148.10    349.95662                                0.00000             82.586                                        3.49957e+002           4.99566e+001           9.95662e+000           9.56624e-001           5.66244e-002           6.62443e-003           6.24434e-004
                  148.20    350.02878                                0.00000             82.586                                        3.50029e+002           5.00288e+001           2.87819e-002           2.87819e-002           2.87819e-002           8.78192e-003           7.81923e-004
                  148.30    350.06846                                0.00000             82.586                                        3.50068e+002           5.00685e+001           6.84618e-002           6.84618e-002           6.84618e-002           8.46182e-003           4.61820e-004
                  148.40    350.18913                                0.00000             82.586                                        3.50189e+002           5.01891e+001           1.89128e-001           1.89128e-001           8.91284e-002           9.12836e-003           1.28359e-004
                  148.50    350.38324                                0.00000             82.586                                        3.50383e+002           5.03832e+001           3.83244e-001           3.83244e-001           8.32444e-002           3.24444e-003           2.44444e-004
                  148.60    350.51913                                0.00000             82.586                                        3.50519e+002           5.05191e+001           5.19135e-001           5.19135e-001           1.91349e-002           9.13489e-003           1.34886e-004
                  148.70    350.55184                                0.00000             82.586                                        3.50552e+002           5.05518e+001           5.51840e-001           5.51840e-001           5.18403e-002           1.84028e-003           8.40283e-004
                  148.80    350.62894                                0.00000             82.586                                        3.50629e+002           5.06289e+001           6.28936e-001           6.28936e-001           2.89363e-002           8.93628e-003           9.36282e-004
                  148.90    350.76246                                0.00000             82.586                                        3.50762e+002           5.07625e+001           7.62464e-001           7.62464e-001           6.24636e-002           2.46362e-003           4.63616e-004
                  149.00    350.90971                                0.00000             82.586                                        3.50910e+002           5.09097e+001           9.09709e-001           9.09709e-001           9.70899e-003           9.70899e-003           7.08986e-004
                  149.10    351.08949                                0.00000             82.586                                        3.51089e+002           5.10895e+001           1.08949e+000           8.94854e-002           8.94854e-002           9.48540e-003           4.85404e-004
                  149.20    351.28557                                0.00000             82.586                                        3.51286e+002           5.12856e+001           1.28557e+000           2.85574e-001           8.55744e-002           5.57443e-003           5.74431e-004
                  149.30    351.37200                                0.00000             82.586                                        3.51372e+002           5.13720e+001           1.37200e+000           3.72000e-001           7.20000e-002           1.99997e-003           9.99971e-004
                  149.40    351.56640                                0.00000             82.586                                        3.51566e+002           5.15664e+001           1.56640e+000           5.66400e-001           6.64002e-002           6.40018e-003           4.00180e-004
                  149.50    351.85300                                0.00000             82.586                                        3.51853e+002           5.18530e+001           1.85300e+000           8.53002e-001           5.30015e-002           3.00154e-003           1.53810e-006
                  149.60    352.02828                                0.00000             82.586                                        3.52028e+002           5.20283e+001           2.02828e+000           2.82823e-002           2.82823e-002           8.28230e-003           2.82296e-004
                  149.70    352.08896                                0.00000             82.586                                        3.52089e+002           5.20890e+001           2.08896e+000           8.89616e-002           8.89616e-002           8.96163e-003           9.61626e-004
                  149.80    352.22645                                0.00000             82.586                                        3.52226e+002           5.22264e+001           2.22645e+000           2.26447e-001           2.64466e-002           6.44664e-003           4.46640e-004
                  149.90    352.48220                                0.00000             82.586                                        3.52482e+002           5.24822e+001           2.48220e+000           4.82202e-001           8.22018e-002           2.20178e-003           2.01779e-004
                  150.00    352.65681                                0.00000             82.586                                        3.52657e+002           5.26568e+001           2.65681e+000           6.56812e-001           5.68118e-002           6.81176e-003           8.11757e-004
                  150.10    354.87258                                0.00000             82.586                                        3.54873e+002           5.48726e+001           4.87258e+000           8.72583e-001           7.25832e-002           2.58322e-003           5.83217e-004
                  150.20    376.94570                                0.00000             82.586                                        3.76946e+002           7.69457e+001           6.94570e+000           9.45703e-001           4.57035e-002           5.70349e-003           7.03489e-004
                  150.30    407.97131                                0.00000             82.586                                        4.07971e+002           7.97131e+000           7.97131e+000           9.71309e-001           7.13090e-002           1.30898e-003           3.08983e-004
                  150.40    424.15038                                0.00000             82.586                                        4.24150e+002           2.41504e+001           4.15038e+000           1.50382e-001           5.03821e-002           3.82123e-004           3.82123e-004
