~VERSION INFORMATION
VERS                    .            2.0                                    :CWLS LOG ASCII STANDARD
WRAP                    .            NO                                     :ONE LINE PER TIME STEP


~WELL INFORMATION
#MNEM                   .UNIT        DATA                                    DESCRIPTION
#________________________________________________________________________________________
STRTTIME                .HH/MM/SS    19:37:02                               :START TIME
STOPTIME                .HH/MM/SS    19:40:38                               :STOP TIME
STRT                    .s           2.10                                   :START DATA
STOP                    .s           214.10                                 :STOP DATA
STEP                    .s           0.10                                   :MEASUREMENT TIME INTERVAL
NULL                    .            -999.25                                :NULL VALUE
COMP                    .            Statoil ASA                            :COMPANY
FLD                     .            Volve                                  :FIELD
WELL                    .            15/9-F-11 A                            :WELL
RUN                     .            8                                      :RUN
LOC                     .            Maersk Inspirer                        :LOCATION
PROV                    .            na                                     :PROVINCE
SRVC                    .            Baker Hughes INTEQ                     :SERVICE COMPANY
DATE                    .YY/MM/DD    13/05/23                               :LOG DATE
UWI                     .                                                   :UNIQUE WELL ID
DEPTHMD                 .m           3607.9                                 :MEASURED DEPTH
DEPTHTVD                .m           3008.4                                 :TRUE VERTICAL DEPTH


~CURVE INFORMATION
#MNEM                   .UNIT        API CODES                               DESCRIPTION
#________________________________________________________________________________________
TIME                    .s                                                  :01 TIME
DD_PRESS                .bar                                                :02 DRAW DOWN PRESSURE
DD_VOLUME               .cm3                                                :03 INCREMENTAL DRAW DOWN VOLUME
TEMP                    .degC                                               :04 TRANSDUCER TEMPERATURE
DD_PRESS_MOD_1000       .bar                                                :05 DRAW DOWN PRESSURE MOD 1000
DD_PRESS_MOD_100        .bar                                                :06 DRAW DOWN PRESSURE MOD 100
DD_PRESS_MOD_10         .bar                                                :07 DRAW DOWN PRESSURE MOD 10
DD_PRESS_MOD_1          .bar                                                :08 DRAW DOWN PRESSURE MOD 1
DD_PRESS_MOD_01         .bar                                                :09 DRAW DOWN PRESSURE MOD 01
DD_PRESS_MOD_001        .bar                                                :10 DRAW DOWN PRESSURE MOD 001
DD_PRESS_MOD_0001       .bar                                                :11 DRAW DOWN PRESSURE MOD 0001


~PARAMETER INFORMATION
#MNEM                   .UNIT        VALUE                                   DESCRIPTION
#________________________________________________________________________________________
TOOLFACE                .deg         -38.9                                  :01 TOOLFACE
PUMP_CAPACITY           .bar         400                                    :02 NOMINAL DRAW DOWN PUMP CAPACITY
PUMP_LIMIT              .bar         240                                    :03 DOWNLINK PUMP LIMIT
TIME_LIMIT              .min         10                                     :04 DOWNLINK MAX TIME
TEST_TYPE               .            REPEAT                                 :05 DOWNLINK
TEST_TYPE               .            HIGH MOBILITY                          :06 DOWNLINK
DD_PIST_A               .cm2         3.1416                                 :07 DRAW DOWN PISTON AREA
V_SYS                   .cm3         131.0000                               :08 SYSTEM VOLUME
PROBE_ID                .cm          1.2700                                 :09 TTK PROBE ID
G0                      .            4.6700                                 :10 GEOMETRY FACTOR


~A                  TIME     DD_PRESS                              DD_VOLUME               TEMP                                   DD_PRESS_MOD_1000       DD_PRESS_MOD_100        DD_PRESS_MOD_10         DD_PRESS_MOD_1        DD_PRESS_MOD_01       DD_PRESS_MOD_001      DD_PRESS_MOD_0001
# ...
                  170.10    340.31222                               28.01154             71.180                                        3.40312e+002           4.03122e+001           3.12222e-001           3.12222e-001           1.22218e-002           2.22176e-003           2.21763e-004
                  170.20    340.32084                               28.01154             71.180                                        3.40321e+002           4.03208e+001           3.20836e-001           3.20836e-001           2.08356e-002           8.35595e-004           8.35595e-004
                  170.30    340.33524                               28.01154             71.180                                        3.40335e+002           4.03352e+001           3.35238e-001           3.35238e-001           3.52383e-002           5.23835e-003           2.38348e-004
                  170.40    340.33186                               28.01154             71.180                                        3.40332e+002           4.03319e+001           3.31860e-001           3.31860e-001           3.18600e-002           1.86002e-003           8.60024e-004
                  170.50    340.32612                               28.01154             71.180                                        3.40326e+002           4.03261e+001           3.26118e-001           3.26118e-001           2.61178e-002           6.11775e-003           1.17752e-004
                  170.60    340.33174                               28.01154             71.180                                        3.40332e+002           4.03317e+001           3.31742e-001           3.31742e-001           3.17417e-002           1.74170e-003           7.41698e-004
                  170.70    340.33377                               28.01154             71.180                                        3.40334e+002           4.03338e+001           3.33765e-001           3.33765e-001           3.37654e-002           3.76538e-003           7.65380e-004
                  170.80    340.32679                               28.01154             71.180                                        3.40327e+002           4.03268e+001           3.26792e-001           3.26792e-001           2.67925e-002           6.79246e-003           7.92461e-004
                  170.90    340.32243                               28.01154             71.180                                        3.40322e+002           4.03224e+001           3.22425e-001           3.22425e-001           2.24253e-002           2.42527e-003           4.25271e-004
                  171.00    340.33142                               28.01154             71.180                                        3.40331e+002           4.03314e+001           3.31424e-001           3.31424e-001           3.14242e-002           1.42422e-003           4.24219e-004
                  171.10    340.33718                               28.01154             71.180                                        3.40337e+002           4.03372e+001           3.37183e-001           3.37183e-001           3.71830e-002           7.18300e-003           1.82996e-004
                  171.20    340.32589                               28.01154             71.180                                        3.40326e+002           4.03259e+001           3.25887e-001           3.25887e-001           2.58873e-002           5.88732e-003           8.87323e-004
                  171.30    340.31943                               28.01154             71.180                                        3.40319e+002           4.03194e+001           3.19432e-001           3.19432e-001           1.94323e-002           9.43229e-003           4.32293e-004
                  171.40    340.33055                               28.01154             71.180                                        3.40331e+002           4.03306e+001           3.30555e-001           3.30555e-001           3.05546e-002           5.54631e-004           5.54631e-004
                  171.50    340.33614                               28.01154             71.180                                        3.40336e+002           4.03361e+001           3.36142e-001           3.36142e-001           3.61424e-002           6.14235e-003           1.42350e-004
                  171.60    340.32400                               28.01154             71.180                                        3.40324e+002           4.03240e+001           3.24004e-001           3.24004e-001           2.40040e-002           4.00402e-003           4.02224e-006
                  171.70    340.32566                               28.01154             71.180                                        3.40326e+002           4.03257e+001           3.25656e-001           3.25656e-001           2.56560e-002           5.65598e-003           6.55975e-004
                  171.80    340.33598                               28.01154             71.180                                        3.40336e+002           4.03360e+001           3.35977e-001           3.35977e-001           3.59773e-002           5.97730e-003           9.77303e-004
                  171.90    340.33380                               28.01154             71.180                                        3.40334e+002           4.03338e+001           3.33801e-001           3.33801e-001           3.38008e-002           3.80084e-003           8.00839e-004
                  172.00    340.33020                               28.01154             71.180                                        3.40330e+002           4.03302e+001           3.30197e-001           3.30197e-001           3.01965e-002           1.96509e-004           1.96509e-004
                  172.10    340.33325                               28.01154             71.180                                        3.40333e+002           4.03333e+001           3.33254e-001           3.33254e-001           3.32535e-002           3.25353e-003           2.53535e-004
                  172.20    340.33357                               28.01154             71.180                                        3.40334e+002           4.03336e+001           3.33566e-001           3.33566e-001           3.35657e-002           3.56571e-003           5.65705e-004
                  172.30    340.32877                               28.01154             71.180                                        3.40329e+002           4.03288e+001           3.28773e-001           3.28773e-001           2.87727e-002           8.77273e-003           7.72730e-004
                  172.40    340.32402                               28.01154             71.180                                        3.40324e+002           4.03240e+001           3.24020e-001           3.24020e-001           2.40201e-002           4.02015e-003           2.01465e-005
                  172.50    340.32663                               28.01154             71.180                                        3.40327e+002           4.03266e+001           3.26635e-001           3.26635e-001           2.66347e-002           6.63474e-003           6.34741e-004
                  172.60    340.33208                               28.01154             71.180                                        3.40332e+002           4.03321e+001           3.32077e-001           3.32077e-001           3.20772e-002           2.07722e-003           7.72158e-005
                  172.70    340.32800                               28.01154             71.180                                        3.40328e+002           4.03280e+001           3.27997e-001           3.27997e-001           2.79969e-002           7.99691e-003           9.96909e-004
                  172.80    340.32183                               28.01154             71.180                                        3.40322e+002           4.03218e+001           3.21833e-001           3.21833e-001           2.18332e-002           1.83316e-003           8.33161e-004
