~VERSION INFORMATION
VERS                    .            2.0                                    :CWLS LOG ASCII STANDARD
WRAP                    .            NO                                     :ONE LINE PER TIME STEP


~WELL INFORMATION
#MNEM                   .UNIT        DATA                                    DESCRIPTION
#________________________________________________________________________________________
STRTTIME                .HH/MM/SS    16:20:20                               :START TIME
STOPTIME                .HH/MM/SS    16:23:23                               :STOP TIME
STRT                    .s           2.10                                   :START DATA
STOP                    .s           182.00                                 :STOP DATA
STEP                    .s           0.10                                   :MEASUREMENT TIME INTERVAL
NULL                    .            -999.25                                :NULL VALUE
COMP                    .            Statoil ASA                            :COMPANY
FLD                     .            Volve                                  :FIELD
WELL                    .            15/9-F-1 B                             :WELL
RUN                     .            7                                      :RUN
LOC                     .            Maersk Inspirer                        :LOCATION
PROV                    .            na                                     :PROVINCE
SRVC                    .            Baker Hughes INTEQ                     :SERVICE COMPANY
DATE                    .YY/MM/DD    13/09/06                               :LOG DATE
UWI                     .                                                   :UNIQUE WELL ID
DEPTHMD                 .m           3255.0                                 :MEASURED DEPTH
DEPTHTVD                .m           3051.1                                 :TRUE VERTICAL DEPTH


~CURVE INFORMATION
#MNEM                   .UNIT        API CODES                               DESCRIPTION
#________________________________________________________________________________________
TIME                    .s                                                  :01 TIME
DD_PRESS                .bar                                                :02 DRAW DOWN PRESSURE
DD_VOLUME               .cm3                                                :03 INCREMENTAL DRAW DOWN VOLUME
TEMP                    .degC                                               :04 TRANSDUCER TEMPERATURE
DD_PRESS_MOD_1000       .bar                                                :05 DRAW DOWN PRESSURE MOD 1000
DD_PRESS_MOD_100        .bar                                                :06 DRAW DOWN PRESSURE MOD 100
DD_PRESS_MOD_10         .bar                                                :07 DRAW DOWN PRESSURE MOD 10
DD_PRESS_MOD_1          .bar                                                :08 DRAW DOWN PRESSURE MOD 1
DD_PRESS_MOD_01         .bar                                                :09 DRAW DOWN PRESSURE MOD 01
DD_PRESS_MOD_001        .bar                                                :10 DRAW DOWN PRESSURE MOD 001
DD_PRESS_MOD_0001       .bar                                                :11 DRAW DOWN PRESSURE MOD 0001


~PARAMETER INFORMATION
#MNEM                   .UNIT        VALUE                                   DESCRIPTION
#________________________________________________________________________________________
TOOLFACE                .deg         na                                     :01 TOOLFACE
PUMP_CAPACITY           .bar         400                                    :02 NOMINAL DRAW DOWN PUMP CAPACITY
PUMP_LIMIT              .bar         400                                    :03 DOWNLINK PUMP LIMIT
TIME_LIMIT              .min         10                                     :04 DOWNLINK MAX TIME
TEST_TYPE               .            LOW MOBILITY                           :05 DOWNLINK
DD_PIST_A               .cm2         3.1416                                 :06 DRAW DOWN PISTON AREA
V_SYS                   .cm3         131.0000                               :07 SYSTEM VOLUME
PROBE_ID                .cm          1.2700                                 :08 TTK PROBE ID
G0                      .            4.6700                                 :09 GEOMETRY FACTOR


~A                  TIME     DD_PRESS                              DD_VOLUME               TEMP                                   DD_PRESS_MOD_1000       DD_PRESS_MOD_100        DD_PRESS_MOD_10         DD_PRESS_MOD_1        DD_PRESS_MOD_01       DD_PRESS_MOD_001      DD_PRESS_MOD_0001
# ...
                  156.10    345.12116                               29.23054             81.734                                        3.45121e+002           4.51212e+001           5.12116e+000           1.21158e-001           2.11582e-002           1.15824e-003           1.58243e-004
                  156.20    345.12628                               29.23054             81.734                                        3.45126e+002           4.51263e+001           5.12628e+000           1.26282e-001           2.62816e-002           6.28157e-003           2.81566e-004
                  156.30    345.12877                               29.23054             81.734                                        3.45129e+002           4.51288e+001           5.12877e+000           1.28770e-001           2.87703e-002           8.77030e-003           7.70305e-004
                  156.40    345.12866                               29.23054             81.734                                        3.45129e+002           4.51287e+001           5.12866e+000           1.28664e-001           2.86635e-002           8.66351e-003           6.63507e-004
                  156.50    345.12399                               29.23054             81.734                                        3.45124e+002           4.51240e+001           5.12399e+000           1.23987e-001           2.39869e-002           3.98693e-003           9.86935e-004
                  156.60    345.11837                               29.23054             81.734                                        3.45118e+002           4.51184e+001           5.11837e+000           1.18370e-001           1.83703e-002           8.37032e-003           3.70323e-004
                  156.70    345.09324                                0.00000             81.734                                        3.45093e+002           4.50932e+001           5.09324e+000           9.32352e-002           9.32352e-002           3.23520e-003           2.35199e-004
                  156.80    345.71850                                0.00000             81.734                                        3.45719e+002           4.57185e+001           5.71850e+000           7.18504e-001           1.85035e-002           8.50351e-003           5.03505e-004
                  156.90    347.78589                                0.00000             81.734                                        3.47786e+002           4.77859e+001           7.78589e+000           7.85894e-001           8.58937e-002           5.89368e-003           8.93678e-004
                  157.00    350.20378                                0.00000             81.734                                        3.50204e+002           5.02038e+001           2.03776e-001           2.03776e-001           3.77578e-003           3.77578e-003           7.75777e-004
                  157.10    351.45127                                0.00000             81.734                                        3.51451e+002           5.14513e+001           1.45127e+000           4.51267e-001           5.12667e-002           1.26673e-003           2.66733e-004
                  157.20    352.06703                                0.00000             81.734                                        3.52067e+002           5.20670e+001           2.06703e+000           6.70298e-002           6.70298e-002           7.02980e-003           2.98032e-005
                  157.30    352.57062                                0.00000             81.734                                        3.52571e+002           5.25706e+001           2.57062e+000           5.70622e-001           7.06217e-002           6.21654e-004           6.21654e-004
                  157.40    353.17756                                0.00000             81.734                                        3.53178e+002           5.31776e+001           3.17756e+000           1.77560e-001           7.75597e-002           7.55967e-003           5.59672e-004
                  157.50    353.81254                                0.00000             81.734                                        3.53813e+002           5.38125e+001           3.81254e+000           8.12542e-001           1.25417e-002           2.54171e-003           5.41709e-004
                  157.60    354.31492                                0.00000             81.734                                        3.54315e+002           5.43149e+001           4.31492e+000           3.14919e-001           1.49194e-002           4.91944e-003           9.19442e-004
                  157.70    354.77000                                0.00000             81.734                                        3.54770e+002           5.47700e+001           4.77000e+000           7.70002e-001           7.00019e-002           1.87034e-006           1.87034e-006
                  157.80    355.30764                                0.00000             81.734                                        3.55308e+002           5.53076e+001           5.30764e+000           3.07638e-001           7.63799e-003           7.63799e-003           6.37986e-004
                  157.90    355.90938                                0.00000             81.734                                        3.55909e+002           5.59094e+001           5.90938e+000           9.09381e-001           9.38133e-003           9.38133e-003           3.81335e-004
                  158.00    356.52440                                0.00000             81.734                                        3.56524e+002           5.65244e+001           6.52440e+000           5.24397e-001           2.43972e-002           4.39716e-003           3.97162e-004
                  158.10    357.20067                                0.00000             81.734                                        3.57201e+002           5.72007e+001           7.20067e+000           2.00672e-001           6.71843e-004           6.71843e-004           6.71843e-004
                  158.20    358.00493                                0.00000             81.734                                        3.58005e+002           5.80049e+001           8.00493e+000           4.92924e-003           4.92924e-003           4.92924e-003           9.29236e-004
                  158.30    358.88025                                0.00000             81.734                                        3.58880e+002           5.88803e+001           8.88025e+000           8.80251e-001           8.02510e-002           2.51009e-004           2.51009e-004
                  158.40    359.74651                                0.00000             81.734                                        3.59747e+002           5.97465e+001           9.74651e+000           7.46506e-001           4.65057e-002           6.50568e-003           5.05679e-004
                  158.50    360.69243                                0.00000             81.734                                        3.60692e+002           6.06924e+001           6.92427e-001           6.92427e-001           9.24271e-002           2.42705e-003           4.27053e-004
                  158.60    361.74768                                0.00000             81.734                                        3.61748e+002           6.17477e+001           1.74768e+000           7.47682e-001           4.76820e-002           7.68201e-003           6.82009e-004
                  158.70    362.86295                                0.00000             81.734                                        3.62863e+002           6.28630e+001           2.86295e+000           8.62952e-001           6.29523e-002           2.95229e-003           9.52289e-004
                  158.80    363.95393                                0.00000             81.734                                        3.63954e+002           6.39539e+001           3.95393e+000           9.53930e-001           5.39296e-002           3.92965e-003           9.29646e-004
