~VERSION INFORMATION
VERS                    .            2.0                                    :CWLS LOG ASCII STANDARD
WRAP                    .            NO                                     :ONE LINE PER TIME STEP


~WELL INFORMATION
#MNEM                   .UNIT        DATA                                    DESCRIPTION
#________________________________________________________________________________________
STRTTIME                .HH/MM/SS    00:10:18                               :START TIME
STOPTIME                .HH/MM/SS    00:13:47                               :STOP TIME
STRT                    .s           2.10                                   :START DATA
STOP                    .s           207.40                                 :STOP DATA
STEP                    .s           0.10                                   :MEASUREMENT TIME INTERVAL
NULL                    .            -999.25                                :NULL VALUE
COMP                    .            Statoil ASA                            :COMPANY
FLD                     .            Volve                                  :FIELD
WELL                    .            15/9-F-1                               :WELL
RUN                     .            4                                      :RUN
LOC                     .            Maersk Inspirer                        :LOCATION
PROV                    .            na                                     :PROVINCE
SRVC                    .            Baker Hughes INTEQ                     :SERVICE COMPANY
DATE                    .YY/MM/DD    13/08/19                               :LOG DATE
UWI                     .                                                   :UNIQUE WELL ID
DEPTHMD                 .m           3332.4                                 :MEASURED DEPTH
DEPTHTVD                .m           3056.0                                 :TRUE VERTICAL DEPTH


~CURVE INFORMATION
#MNEM                   .UNIT        API CODES                               DESCRIPTION
#________________________________________________________________________________________
TIME                    .s                                                  :01 TIME
DD_PRESS                .bar                                                :02 DRAW DOWN PRESSURE
DD_VOLUME               .cm3                                                :03 INCREMENTAL DRAW DOWN VOLUME
TEMP                    .degC                                               :04 TRANSDUCER TEMPERATURE
DD_PRESS_MOD_1000       .bar                                                :05 DRAW DOWN PRESSURE MOD 1000
DD_PRESS_MOD_100        .bar                                                :06 DRAW DOWN PRESSURE MOD 100
DD_PRESS_MOD_10         .bar                                                :07 DRAW DOWN PRESSURE MOD 10
DD_PRESS_MOD_1          .bar                                                :08 DRAW DOWN PRESSURE MOD 1
DD_PRESS_MOD_01         .bar                                                :09 DRAW DOWN PRESSURE MOD 01
DD_PRESS_MOD_001        .bar                                                :10 DRAW DOWN PRESSURE MOD 001
DD_PRESS_MOD_0001       .bar                                                :11 DRAW DOWN PRESSURE MOD 0001


~PARAMETER INFORMATION
#MNEM                   .UNIT        VALUE                                   DESCRIPTION
#________________________________________________________________________________________
TOOLFACE                .deg         78.2                                   :01 TOOLFACE
PUMP_CAPACITY           .bar         400                                    :02 NOMINAL DRAW DOWN PUMP CAPACITY
PUMP_LIMIT              .bar         240                                    :03 DOWNLINK PUMP LIMIT
TIME_LIMIT              .min         10                                     :04 DOWNLINK MAX TIME
TEST_TYPE               .            LOW MOBILITY                           :05 DOWNLINK
DD_PIST_A               .cm2         3.1416                                 :06 DRAW DOWN PISTON AREA
V_SYS                   .cm3         131.0000                               :07 SYSTEM VOLUME
PROBE_ID                .cm          1.2700                                 :08 TTK PROBE ID
G0                      .            4.6700                                 :09 GEOMETRY FACTOR


~A                  TIME     DD_PRESS                              DD_VOLUME               TEMP                                   DD_PRESS_MOD_1000       DD_PRESS_MOD_100        DD_PRESS_MOD_10         DD_PRESS_MOD_1        DD_PRESS_MOD_01       DD_PRESS_MOD_001      DD_PRESS_MOD_0001
# ...
                  203.70    410.05781                                0.00000             74.758                                        4.10058e+002           1.00578e+001           5.78064e-002           5.78064e-002           5.78064e-002           7.80644e-003           8.06440e-004
                  203.80    410.07032                                0.00000             74.758                                        4.10070e+002           1.00703e+001           7.03160e-002           7.03160e-002           7.03160e-002           3.15953e-004           3.15953e-004
                  203.90    410.08222                                0.00000             74.758                                        4.10082e+002           1.00822e+001           8.22226e-002           8.22226e-002           8.22226e-002           2.22265e-003           2.22646e-004
                  204.00    410.07309                                0.00000             74.758                                        4.10073e+002           1.00731e+001           7.30888e-002           7.30888e-002           7.30888e-002           3.08884e-003           8.88422e-005
                  204.10    410.07990                                0.00000             74.758                                        4.10080e+002           1.00799e+001           7.99020e-002           7.99020e-002           7.99020e-002           9.90197e-003           9.01973e-004
                  204.20    410.07413                                0.00000             74.758                                        4.10074e+002           1.00741e+001           7.41309e-002           7.41309e-002           7.41309e-002           4.13086e-003           1.30856e-004
                  204.30    410.06195                                0.00000             74.758                                        4.10062e+002           1.00620e+001           6.19538e-002           6.19538e-002           6.19538e-002           1.95377e-003           9.53773e-004
                  204.40    410.05752                                0.00000             74.758                                        4.10058e+002           1.00575e+001           5.75223e-002           5.75223e-002           5.75223e-002           7.52235e-003           5.22346e-004
                  204.50    410.05164                                0.00000             74.758                                        4.10052e+002           1.00516e+001           5.16398e-002           5.16398e-002           5.16398e-002           1.63975e-003           6.39754e-004
                  204.60    410.04552                                0.00000             74.758                                        4.10046e+002           1.00455e+001           4.55184e-002           4.55184e-002           4.55184e-002           5.51843e-003           5.18426e-004
                  204.70    410.05861                                0.00000             74.758                                        4.10059e+002           1.00586e+001           5.86132e-002           5.86132e-002           5.86132e-002           8.61324e-003           6.13239e-004
                  204.80    410.06652                                0.00000             74.758                                        4.10067e+002           1.00665e+001           6.65184e-002           6.65184e-002           6.65184e-002           6.51837e-003           5.18372e-004
                  204.90    410.06370                                0.00000             74.758                                        4.10064e+002           1.00637e+001           6.36966e-002           6.36966e-002           6.36966e-002           3.69660e-003           6.96602e-004
                  205.00    410.06753                                0.00000             74.758                                        4.10068e+002           1.00675e+001           6.75302e-002           6.75302e-002           6.75302e-002           7.53024e-003           5.30235e-004
                  205.10    410.08550                                0.00000             74.758                                        4.10086e+002           1.00855e+001           8.55031e-002           8.55031e-002           8.55031e-002           5.50306e-003           5.03062e-004
                  205.20    410.06912                                0.00000             74.758                                        4.10069e+002           1.00691e+001           6.91217e-002           6.91217e-002           6.91217e-002           9.12169e-003           1.21691e-004
                  205.30    410.05925                                0.00000             74.758                                        4.10059e+002           1.00593e+001           5.92530e-002           5.92530e-002           5.92530e-002           9.25296e-003           2.52957e-004
                  205.40    410.06731                                0.00000             74.758                                        4.10067e+002           1.00673e+001           6.73050e-002           6.73050e-002           6.73050e-002           7.30500e-003           3.05002e-004
                  205.50    410.07614                                0.00000             74.758                                        4.10076e+002           1.00761e+001           7.61380e-002           7.61380e-002           7.61380e-002           6.13798e-003           1.37976e-004
                  205.60    410.06763                                0.00000             74.758                                        4.10068e+002           1.00676e+001           6.76280e-002           6.76280e-002           6.76280e-002           7.62798e-003           6.27984e-004
                  205.70    410.05818                                0.00000             74.758                                        4.10058e+002           1.00582e+001           5.81797e-002           5.81797e-002           5.81797e-002           8.17973e-003           1.79728e-004
                  205.80    410.05905                                0.00000             74.758                                        4.10059e+002           1.00591e+001           5.90521e-002           5.90521e-002           5.90521e-002           9.05212e-003           5.21246e-005
                  205.90    410.07867                                0.00000             74.758                                        4.10079e+002           1.00787e+001           7.86739e-002           7.86739e-002           7.86739e-002           8.67386e-003           6.73858e-004
                  206.00    410.07442                                0.00000             74.758                                        4.10074e+002           1.00744e+001           7.44209e-002           7.44209e-002           7.44209e-002           4.42088e-003           4.20882e-004
                  206.10    410.06610                                0.00000             74.758                                        4.10066e+002           1.00661e+001           6.60983e-002           6.60983e-002           6.60983e-002           6.09826e-003           9.82603e-005
                  206.20    410.06123                                0.00000             74.758                                        4.10061e+002           1.00612e+001           6.12299e-002           6.12299e-002           6.12299e-002           1.22988e-003           2.29881e-004
                  206.30    410.07314                                0.00000             74.758                                        4.10073e+002           1.00731e+001           7.31414e-002           7.31414e-002           7.31414e-002           3.14136e-003           1.41363e-004
                  206.40    410.07389                                0.00000             74.758                                        4.10074e+002           1.00739e+001           7.38903e-002           7.38903e-002           7.38903e-002           3.89032e-003           8.90320e-004
