~VERSION INFORMATION
VERS                    .            2.0                                    :CWLS LOG ASCII STANDARD
WRAP                    .            NO                                     :ONE LINE PER TIME STEP


~WELL INFORMATION
#MNEM                   .UNIT        DATA                                    DESCRIPTION
#________________________________________________________________________________________
STRTTIME                .HH/MM/SS    16:20:20                               :START TIME
STOPTIME                .HH/MM/SS    16:23:23                               :STOP TIME
STRT                    .s           2.10                                   :START DATA
STOP                    .s           182.00                                 :STOP DATA
STEP                    .s           0.10                                   :MEASUREMENT TIME INTERVAL
NULL                    .            -999.25                                :NULL VALUE
COMP                    .            Statoil ASA                            :COMPANY
FLD                     .            Volve                                  :FIELD
WELL                    .            15/9-F-1 B                             :WELL
RUN                     .            7                                      :RUN
LOC                     .            Maersk Inspirer                        :LOCATION
PROV                    .            na                                     :PROVINCE
SRVC                    .            Baker Hughes INTEQ                     :SERVICE COMPANY
DATE                    .YY/MM/DD    13/09/06                               :LOG DATE
UWI                     .                                                   :UNIQUE WELL ID
DEPTHMD                 .m           3255.0                                 :MEASURED DEPTH
DEPTHTVD                .m           3051.1                                 :TRUE VERTICAL DEPTH


~CURVE INFORMATION
#MNEM                   .UNIT        API CODES                               DESCRIPTION
#________________________________________________________________________________________
TIME                    .s                                                  :01 TIME
DD_PRESS                .bar                                                :02 DRAW DOWN PRESSURE
DD_VOLUME               .cm3                                                :03 INCREMENTAL DRAW DOWN VOLUME
TEMP                    .degC                                               :04 TRANSDUCER TEMPERATURE
DD_PRESS_MOD_1000       .bar                                                :05 DRAW DOWN PRESSURE MOD 1000
DD_PRESS_MOD_100        .bar                                                :06 DRAW DOWN PRESSURE MOD 100
DD_PRESS_MOD_10         .bar                                                :07 DRAW DOWN PRESSURE MOD 10
DD_PRESS_MOD_1          .bar                                                :08 DRAW DOWN PRESSURE MOD 1
DD_PRESS_MOD_01         .bar                                                :09 DRAW DOWN PRESSURE MOD 01
DD_PRESS_MOD_001        .bar                                                :10 DRAW DOWN PRESSURE MOD 001
DD_PRESS_MOD_0001       .bar                                                :11 DRAW DOWN PRESSURE MOD 0001


~PARAMETER INFORMATION
#MNEM                   .UNIT        VALUE                                   DESCRIPTION
#________________________________________________________________________________________
TOOLFACE                .deg         na                                     :01 TOOLFACE
PUMP_CAPACITY           .bar         400                                    :02 NOMINAL DRAW DOWN PUMP CAPACITY
PUMP_LIMIT              .bar         400                                    :03 DOWNLINK PUMP LIMIT
TIME_LIMIT              .min         10                                     :04 DOWNLINK MAX TIME
TEST_TYPE               .            LOW MOBILITY                           :05 DOWNLINK
DD_PIST_A               .cm2         3.1416                                 :06 DRAW DOWN PISTON AREA
V_SYS                   .cm3         131.0000                               :07 SYSTEM VOLUME
PROBE_ID                .cm          1.2700                                 :08 TTK PROBE ID
G0                      .            4.6700                                 :09 GEOMETRY FACTOR


~A                  TIME     DD_PRESS                              DD_VOLUME               TEMP                                   DD_PRESS_MOD_1000       DD_PRESS_MOD_100        DD_PRESS_MOD_10         DD_PRESS_MOD_1        DD_PRESS_MOD_01       DD_PRESS_MOD_001      DD_PRESS_MOD_0001
                    2.10    434.27998                                0.00000             81.852                                        4.34280e+002           3.42800e+001           4.27998e+000           2.79983e-001           7.99825e-002           9.98252e-003           9.82515e-004
                    2.20    434.29709                                0.00000             81.852                                        4.34297e+002           3.42971e+001           4.29709e+000           2.97087e-001           9.70869e-002           7.08689e-003           8.68898e-005
                    2.30    434.30916                                0.00000             81.852                                        4.34309e+002           3.43092e+001           4.30916e+000           3.09164e-001           9.16372e-003           9.16372e-003           1.63723e-004
                    2.40    434.35535                                0.00000             81.852                                        4.34355e+002           3.43553e+001           4.35535e+000           3.55345e-001           5.53454e-002           5.34537e-003           3.45374e-004
                    2.50    434.42641                                0.00000             81.849                                        4.34426e+002           3.44264e+001           4.42641e+000           4.26405e-001           2.64051e-002           6.40507e-003           4.05069e-004
                    2.60    434.46016                                0.00000             81.846                                        4.34460e+002           3.44602e+001           4.46016e+000           4.60163e-001           6.01633e-002           1.63307e-004           1.63307e-004
                    2.70    434.50883                                0.00000             81.846                                        4.34509e+002           3.45088e+001           4.50883e+000           5.08830e-001           8.82952e-003           8.82952e-003           8.29522e-004
                    2.80    434.60936                                0.00000             81.850                                        4.34609e+002           3.46094e+001           4.60936e+000           6.09357e-001           9.35706e-003           9.35706e-003           3.57058e-004
                    2.90    434.71210                                0.00000             81.852                                        4.34712e+002           3.47121e+001           4.71210e+000           7.12102e-001           1.21020e-002           2.10204e-003           1.02040e-004
                    3.00    434.73403                                0.00000             81.852                                        4.34734e+002           3.47340e+001           4.73403e+000           7.34028e-001           3.40285e-002           4.02846e-003           2.84635e-005
                    3.10    434.71581                                0.00000             81.852                                        4.34716e+002           3.47158e+001           4.71581e+000           7.15810e-001           1.58101e-002           5.81008e-003           8.10083e-004
                    3.20    434.71169                                0.00000             81.852                                        4.34712e+002           3.47117e+001           4.71169e+000           7.11694e-001           1.16940e-002           1.69399e-003           6.93988e-004
                    3.30    434.70967                                0.00000             81.852                                        4.34710e+002           3.47097e+001           4.70967e+000           7.09670e-001           9.66960e-003           9.66960e-003           6.69601e-004
                    3.40    434.65728                                0.00000             81.852                                        4.34657e+002           3.46573e+001           4.65728e+000           6.57275e-001           5.72751e-002           7.27509e-003           2.75088e-004
                    3.50    434.60755                                0.00000             81.852                                        4.34608e+002           3.46076e+001           4.60755e+000           6.07554e-001           7.55404e-003           7.55404e-003           5.54040e-004
                    3.60    434.61458                                0.00000             81.852                                        4.34615e+002           3.46146e+001           4.61458e+000           6.14577e-001           1.45766e-002           4.57661e-003           5.76605e-004
                    3.70    434.63129                                0.00000             81.852                                        4.34631e+002           3.46313e+001           4.63129e+000           6.31294e-001           3.12945e-002           1.29449e-003           2.94485e-004
                    3.80    434.59021                                0.00000             81.849                                        4.34590e+002           3.45902e+001           4.59021e+000           5.90213e-001           9.02130e-002           2.12981e-004           2.12981e-004
                    3.90    434.59899                                0.00000             81.846                                        4.34599e+002           3.45990e+001           4.59899e+000           5.98988e-001           9.89884e-002           8.98838e-003           9.88383e-004
                    4.00    434.67917                                0.00000             81.844                                        4.34679e+002           3.46792e+001           4.67917e+000           6.79166e-001           7.91663e-002           9.16632e-003           1.66322e-004
                    4.10    434.71319                                0.00000             81.844                                        4.34713e+002           3.47132e+001           4.71319e+000           7.13192e-001           1.31923e-002           3.19229e-003           1.92287e-004
                    4.20    434.67910                                0.00000             81.844                                        4.34679e+002           3.46791e+001           4.67910e+000           6.79103e-001           7.91028e-002           9.10285e-003           1.02848e-004
                    4.30    434.69428                                0.00000             81.844                                        4.34694e+002           3.46943e+001           4.69428e+000           6.94280e-001           9.42804e-002           4.28036e-003           2.80364e-004
                    4.40    434.75355                                0.00000             81.844                                        4.34754e+002           3.47536e+001           4.75355e+000           7.53552e-001           5.35518e-002           3.55176e-003           5.51760e-004
                    4.50    434.78158                                0.00000             81.844                                        4.34782e+002           3.47816e+001           4.78158e+000           7.81578e-001           8.15778e-002           1.57775e-003           5.77754e-004
                    4.60    434.77647                                0.00000             81.846                                        4.34776e+002           3.47765e+001           4.77647e+000           7.76470e-001           7.64701e-002           6.47008e-003           4.70075e-004
                    4.70    434.80054                                0.00000             81.850                                        4.34801e+002           3.48005e+001           4.80054e+000           8.00540e-001           5.40234e-004           5.40234e-004           5.40234e-004
                    4.80    434.84912                                0.00000             81.849                                        4.34849e+002           3.48491e+001           4.84912e+000           8.49125e-001           4.91249e-002           9.12487e-003           1.24873e-004
