~VERSION INFORMATION
VERS                    .            2.0                                    :CWLS LOG ASCII STANDARD
WRAP                    .            NO                                     :ONE LINE PER TIME STEP


~WELL INFORMATION
#MNEM                   .UNIT        DATA                                    DESCRIPTION
#________________________________________________________________________________________
STRTTIME                .HH/MM/SS    19:20:48                               :START TIME
STOPTIME                .HH/MM/SS    19:23:33                               :STOP TIME
STRT                    .s           2.10                                   :START DATA
STOP                    .s           164.00                                 :STOP DATA
STEP                    .s           0.10                                   :MEASUREMENT TIME INTERVAL
NULL                    .            -999.25                                :NULL VALUE
COMP                    .            Statoil ASA                            :COMPANY
FLD                     .            Volve                                  :FIELD
WELL                    .            15/9-F-11 A                            :WELL
RUN                     .            8                                      :RUN
LOC                     .            Maersk Inspirer                        :LOCATION
PROV                    .            na                                     :PROVINCE
SRVC                    .            Baker Hughes INTEQ                     :SERVICE COMPANY
DATE                    .YY/MM/DD    13/05/23                               :LOG DATE
UWI                     .                                                   :UNIQUE WELL ID
DEPTHMD                 .m           3617.0                                 :MEASURED DEPTH
DEPTHTVD                .m           3015.4                                 :TRUE VERTICAL DEPTH


~CURVE INFORMATION
#MNEM                   .UNIT        API CODES                               DESCRIPTION
#________________________________________________________________________________________
TIME                    .s                                                  :01 TIME
DD_PRESS                .bar                                                :02 DRAW DOWN PRESSURE
DD_VOLUME               .cm3                                                :03 INCREMENTAL DRAW DOWN VOLUME
TEMP                    .degC                                               :04 TRANSDUCER TEMPERATURE
DD_PRESS_MOD_1000       .bar                                                :05 DRAW DOWN PRESSURE MOD 1000
DD_PRESS_MOD_100        .bar                                                :06 DRAW DOWN PRESSURE MOD 100
DD_PRESS_MOD_10         .bar                                                :07 DRAW DOWN PRESSURE MOD 10
DD_PRESS_MOD_1          .bar                                                :08 DRAW DOWN PRESSURE MOD 1
DD_PRESS_MOD_01         .bar                                                :09 DRAW DOWN PRESSURE MOD 01
DD_PRESS_MOD_001        .bar                                                :10 DRAW DOWN PRESSURE MOD 001
DD_PRESS_MOD_0001       .bar                                                :11 DRAW DOWN PRESSURE MOD 0001


~PARAMETER INFORMATION
#MNEM                   .UNIT        VALUE                                   DESCRIPTION
#________________________________________________________________________________________
TOOLFACE                .deg         -39.9                                  :01 TOOLFACE
PUMP_CAPACITY           .bar         400                                    :02 NOMINAL DRAW DOWN PUMP CAPACITY
PUMP_LIMIT              .bar         240                                    :03 DOWNLINK PUMP LIMIT
TIME_LIMIT              .min         10                                     :04 DOWNLINK MAX TIME
TEST_TYPE               .            REPEAT                                 :05 DOWNLINK
TEST_TYPE               .            HIGH MOBILITY                          :06 DOWNLINK
DD_PIST_A               .cm2         3.1416                                 :07 DRAW DOWN PISTON AREA
V_SYS                   .cm3         131.0000                               :08 SYSTEM VOLUME
PROBE_ID                .cm          1.2700                                 :09 TTK PROBE ID
G0                      .            4.6700                                 :10 GEOMETRY FACTOR


~A                  TIME     DD_PRESS                              DD_VOLUME               TEMP                                   DD_PRESS_MOD_1000       DD_PRESS_MOD_100        DD_PRESS_MOD_10         DD_PRESS_MOD_1        DD_PRESS_MOD_01       DD_PRESS_MOD_001      DD_PRESS_MOD_0001
# ...
                  139.30    341.41990                                0.00000             72.060                                        3.41420e+002           4.14199e+001           1.41990e+000           4.19898e-001           1.98981e-002           9.89812e-003           8.98115e-004
                  139.40    341.41680                                0.00000             72.057                                        3.41417e+002           4.14168e+001           1.41680e+000           4.16803e-001           1.68029e-002           6.80287e-003           8.02869e-004
                  139.50    341.42002                                0.00000             72.055                                        3.41420e+002           4.14200e+001           1.42002e+000           4.20018e-001           2.00178e-002           1.77534e-005           1.77534e-005
                  139.60    341.45403                                0.00000             72.055                                        3.41454e+002           4.14540e+001           1.45403e+000           4.54029e-001           5.40294e-002           4.02939e-003           2.93908e-005
                  139.70    341.47229                                0.00000             72.057                                        3.41472e+002           4.14723e+001           1.47229e+000           4.72286e-001           7.22862e-002           2.28617e-003           2.86168e-004
                  139.80    341.46619                                0.00000             72.058                                        3.41466e+002           4.14662e+001           1.46619e+000           4.66190e-001           6.61895e-002           6.18951e-003           1.89511e-004
                  139.90    341.49174                                0.00000             72.059                                        3.41492e+002           4.14917e+001           1.49174e+000           4.91741e-001           9.17414e-002           1.74140e-003           7.41398e-004
                  140.00    341.52657                                0.00000             72.058                                        3.41527e+002           4.15266e+001           1.52657e+000           5.26570e-001           2.65698e-002           6.56981e-003           5.69815e-004
                  140.10    341.53118                                0.00000             72.057                                        3.41531e+002           4.15312e+001           1.53118e+000           5.31179e-001           3.11791e-002           1.17908e-003           1.79083e-004
                  140.20    341.52978                                0.00000             72.055                                        3.41530e+002           4.15298e+001           1.52978e+000           5.29785e-001           2.97846e-002           9.78458e-003           7.84576e-004
                  140.30    341.55068                                0.00000             72.055                                        3.41551e+002           4.15507e+001           1.55068e+000           5.50678e-001           5.06783e-002           6.78252e-004           6.78252e-004
                  140.40    341.57389                                0.00000             72.055                                        3.41574e+002           4.15739e+001           1.57389e+000           5.73887e-001           7.38869e-002           3.88693e-003           8.86930e-004
                  140.50    341.59188                                0.00000             72.055                                        3.41592e+002           4.15919e+001           1.59188e+000           5.91882e-001           9.18816e-002           1.88161e-003           8.81607e-004
                  140.60    341.61361                                0.00000             72.055                                        3.41614e+002           4.16136e+001           1.61361e+000           6.13606e-001           1.36060e-002           3.60598e-003           6.05981e-004
                  140.70    341.65185                                0.00000             72.055                                        3.41652e+002           4.16519e+001           1.65185e+000           6.51854e-001           5.18539e-002           1.85394e-003           8.53943e-004
                  140.80    341.66722                                0.00000             72.055                                        3.41667e+002           4.16672e+001           1.66722e+000           6.67219e-001           6.72192e-002           7.21921e-003           2.19214e-004
                  140.90    341.68668                                0.00000             72.055                                        3.41687e+002           4.16867e+001           1.68668e+000           6.86677e-001           8.66765e-002           6.67653e-003           6.76528e-004
                  141.00    341.68139                                0.00000             72.055                                        3.41681e+002           4.16814e+001           1.68139e+000           6.81388e-001           8.13884e-002           1.38844e-003           3.88442e-004
                  141.10    341.66894                                0.00000             72.055                                        3.41669e+002           4.16689e+001           1.66894e+000           6.68936e-001           6.89357e-002           8.93572e-003           9.35725e-004
                  141.20    341.69946                                0.00000             72.055                                        3.41699e+002           4.16995e+001           1.69946e+000           6.99462e-001           9.94616e-002           9.46157e-003           4.61572e-004
                  141.30    341.71617                                0.00000             72.055                                        3.41716e+002           4.17162e+001           1.71617e+000           7.16169e-001           1.61694e-002           6.16942e-003           1.69418e-004
                  141.40    341.67665                                0.00000             72.055                                        3.41677e+002           4.16767e+001           1.67665e+000           6.76653e-001           7.66533e-002           6.65335e-003           6.53349e-004
                  141.50    348.26590                                0.00000             72.055                                        3.48266e+002           4.82659e+001           8.26590e+000           2.65899e-001           6.58986e-002           5.89864e-003           8.98635e-004
                  141.60    378.78160                                0.00000             72.055                                        3.78782e+002           7.87816e+001           8.78160e+000           7.81596e-001           8.15955e-002           1.59553e-003           5.95532e-004
                  141.70    410.55157                                0.00000             72.055                                        4.10552e+002           1.05516e+001           5.51566e-001           5.51566e-001           5.15660e-002           1.56598e-003           5.65977e-004
                  141.80    419.15021                                0.00000             72.055                                        4.19150e+002           1.91502e+001           9.15021e+000           1.50210e-001           5.02096e-002           2.09636e-004           2.09636e-004
                  141.90    419.11887                                0.00000             72.055                                        4.19119e+002           1.91189e+001           9.11887e+000           1.18866e-001           1.88659e-002           8.86591e-003           8.65908e-004
                  142.00    419.13302                                0.00000             72.055                                        4.19133e+002           1.91330e+001           9.13302e+000           1.33023e-001           3.30228e-002           3.02276e-003           2.27575e-005
