~VERSION INFORMATION
VERS                    .            2.0                                    :CWLS LOG ASCII STANDARD
WRAP                    .            NO                                     :ONE LINE PER TIME STEP


~WELL INFORMATION
#MNEM                   .UNIT        DATA                                    DESCRIPTION
#________________________________________________________________________________________
STRTTIME                .HH/MM/SS    03:28:02                               :START TIME
STOPTIME                .HH/MM/SS    03:30:44                               :STOP TIME
STRT                    .s           2.10                                   :START DATA
STOP                    .s           160.80                                 :STOP DATA
STEP                    .s           0.10                                   :MEASUREMENT TIME INTERVAL
NULL                    .            -999.25                                :NULL VALUE
COMP                    .            Statoil ASA                            :COMPANY
FLD                     .            Volve                                  :FIELD
WELL                    .            15/9-F-1 C                             :WELL
RUN                     .            4                                      :RUN
LOC                     .                                                   :LOCATION
PROV                    .            na                                     :PROVINCE
SRVC                    .            Baker Hughes INTEQ                     :SERVICE COMPANY
DATE                    .YY/MM/DD    14/03/15                               :LOG DATE
UWI                     .                                                   :UNIQUE WELL ID
DEPTHMD                 .m           3493.0                                 :MEASURED DEPTH
DEPTHTVD                .m           2980.2                                 :TRUE VERTICAL DEPTH


~CURVE INFORMATION
#MNEM                   .UNIT        API CODES                               DESCRIPTION
#________________________________________________________________________________________
TIME                    .s                                                  :01 TIME
DD_PRESS                .bar                                                :02 DRAW DOWN PRESSURE
DD_VOLUME               .cm3                                                :03 INCREMENTAL DRAW DOWN VOLUME
TEMP                    .degC                                               :04 TRANSDUCER TEMPERATURE
DD_PRESS_MOD_1000       .bar                                                :05 DRAW DOWN PRESSURE MOD 1000
DD_PRESS_MOD_100        .bar                                                :06 DRAW DOWN PRESSURE MOD 100
DD_PRESS_MOD_10         .bar                                                :07 DRAW DOWN PRESSURE MOD 10
DD_PRESS_MOD_1          .bar                                                :08 DRAW DOWN PRESSURE MOD 1
DD_PRESS_MOD_01         .bar                                                :09 DRAW DOWN PRESSURE MOD 01
DD_PRESS_MOD_001        .bar                                                :10 DRAW DOWN PRESSURE MOD 001
DD_PRESS_MOD_0001       .bar                                                :11 DRAW DOWN PRESSURE MOD 0001


~PARAMETER INFORMATION
#MNEM                   .UNIT        VALUE                                   DESCRIPTION
#________________________________________________________________________________________
TOOLFACE                .deg         89.6                                   :01 TOOLFACE
PUMP_CAPACITY           .bar         400                                    :02 NOMINAL DRAW DOWN PUMP CAPACITY
PUMP_LIMIT              .bar         240                                    :03 DOWNLINK PUMP LIMIT
TIME_LIMIT              .min         10                                     :04 DOWNLINK MAX TIME
TEST_TYPE               .            REPEAT                                 :05 DOWNLINK
TEST_TYPE               .            HIGH MOBILITY                          :06 DOWNLINK
DD_PIST_A               .cm2         3.1416                                 :07 DRAW DOWN PISTON AREA
V_SYS                   .cm3         131.0000                               :08 SYSTEM VOLUME
PROBE_ID                .cm          1.2700                                 :09 TTK PROBE ID
G0                      .            4.6700                                 :10 GEOMETRY FACTOR


~A                  TIME     DD_PRESS                              DD_VOLUME               TEMP                                   DD_PRESS_MOD_1000       DD_PRESS_MOD_100        DD_PRESS_MOD_10         DD_PRESS_MOD_1        DD_PRESS_MOD_01       DD_PRESS_MOD_001      DD_PRESS_MOD_0001
# ...
                  105.70    339.72912                               19.90058             83.695                                        3.39729e+002           3.97291e+001           9.72912e+000           7.29118e-001           2.91181e-002           9.11809e-003           1.18091e-004
                  105.80    338.81547                               20.07759             83.695                                        3.38815e+002           3.88155e+001           8.81547e+000           8.15472e-001           1.54718e-002           5.47179e-003           4.71786e-004
                  105.90    338.33173                               20.35085             83.695                                        3.38332e+002           3.83317e+001           8.33173e+000           3.31725e-001           3.17252e-002           1.72523e-003           7.25227e-004
                  106.00    338.28621                               20.64515             83.695                                        3.38286e+002           3.82862e+001           8.28621e+000           2.86211e-001           8.62110e-002           6.21097e-003           2.10969e-004
                  106.10    338.27429                               20.93983             83.695                                        3.38274e+002           3.82743e+001           8.27429e+000           2.74287e-001           7.42871e-002           4.28707e-003           2.87074e-004
                  106.20    338.26628                               21.23468             83.695                                        3.38266e+002           3.82663e+001           8.26628e+000           2.66285e-001           6.62847e-002           6.28473e-003           2.84725e-004
                  106.30    338.26089                               21.52966             83.695                                        3.38261e+002           3.82609e+001           8.26089e+000           2.60894e-001           6.08937e-002           8.93669e-004           8.93669e-004
                  106.40    338.25525                               21.82469             83.695                                        3.38255e+002           3.82552e+001           8.25525e+000           2.55247e-001           5.52467e-002           5.24667e-003           2.46672e-004
                  106.50    338.25387                               22.11972             83.695                                        3.38254e+002           3.82539e+001           8.25387e+000           2.53865e-001           5.38653e-002           3.86530e-003           8.65297e-004
                  106.60    338.25571                               22.41464             83.695                                        3.38256e+002           3.82557e+001           8.25571e+000           2.55712e-001           5.57122e-002           5.71216e-003           7.12160e-004
                  106.70    338.25717                               22.70949             83.695                                        3.38257e+002           3.82572e+001           8.25717e+000           2.57173e-001           5.71729e-002           7.17292e-003           1.72917e-004
                  106.80    338.25373                               23.00443             83.695                                        3.38254e+002           3.82537e+001           8.25373e+000           2.53726e-001           5.37264e-002           3.72638e-003           7.26376e-004
                  106.90    338.25009                               23.29944             83.695                                        3.38250e+002           3.82501e+001           8.25009e+000           2.50086e-001           5.00856e-002           8.55688e-005           8.55688e-005
                  107.00    338.24839                               23.59434             83.695                                        3.38248e+002           3.82484e+001           8.24839e+000           2.48391e-001           4.83912e-002           8.39117e-003           3.91166e-004
                  107.10    338.24676                               23.88923             83.695                                        3.38247e+002           3.82468e+001           8.24676e+000           2.46761e-001           4.67615e-002           6.76146e-003           7.61457e-004
                  107.20    338.24355                               24.18412             83.695                                        3.38244e+002           3.82435e+001           8.24355e+000           2.43546e-001           4.35455e-002           3.54554e-003           5.45541e-004
                  107.30    338.23965                               24.47903             83.695                                        3.38240e+002           3.82396e+001           8.23965e+000           2.39650e-001           3.96495e-002           9.64953e-003           6.49533e-004
                  107.40    338.23862                               24.77394             83.695                                        3.38239e+002           3.82386e+001           8.23862e+000           2.38624e-001           3.86236e-002           8.62362e-003           6.23624e-004
                  107.50    338.23909                               25.06891             83.695                                        3.38239e+002           3.82391e+001           8.23909e+000           2.39087e-001           3.90874e-002           9.08741e-003           8.74071e-005
                  107.60    338.24014                               25.36391             83.695                                        3.38240e+002           3.82401e+001           8.24014e+000           2.40141e-001           4.01412e-002           1.41221e-004           1.41221e-004
                  107.70    338.23605                               25.65887             83.695                                        3.38236e+002           3.82361e+001           8.23605e+000           2.36051e-001           3.60511e-002           6.05107e-003           5.10714e-005
                  107.80    338.23402                               25.95388             83.695                                        3.38234e+002           3.82340e+001           8.23402e+000           2.34025e-001           3.40246e-002           4.02456e-003           2.45553e-005
                  107.90    338.23594                               26.24888             83.695                                        3.38236e+002           3.82359e+001           8.23594e+000           2.35941e-001           3.59408e-002           5.94079e-003           9.40788e-004
                  108.00    338.23509                               26.54380             83.695                                        3.38235e+002           3.82351e+001           8.23509e+000           2.35095e-001           3.50949e-002           5.09486e-003           9.48619e-005
                  108.10    338.23111                               26.83876             83.695                                        3.38231e+002           3.82311e+001           8.23111e+000           2.31110e-001           3.11102e-002           1.11024e-003           1.10243e-004
                  108.20    338.23170                               27.13378             83.695                                        3.38232e+002           3.82317e+001           8.23170e+000           2.31696e-001           3.16963e-002           1.69629e-003           6.96291e-004
                  108.30    338.23352                               27.42873             83.695                                        3.38234e+002           3.82335e+001           8.23352e+000           2.33523e-001           3.35232e-002           3.52320e-003           5.23205e-004
                  108.40    338.23306                               27.72364             83.695                                        3.38233e+002           3.82331e+001           8.23306e+000           2.33063e-001           3.30627e-002           3.06272e-003           6.27215e-005
