~VERSION INFORMATION
VERS                    .            2.0                                    :CWLS LOG ASCII STANDARD
WRAP                    .            NO                                     :ONE LINE PER TIME STEP


~WELL INFORMATION
#MNEM                   .UNIT        DATA                                    DESCRIPTION
#________________________________________________________________________________________
STRTTIME                .HH/MM/SS    16:02:11                               :START TIME
STOPTIME                .HH/MM/SS    16:05:47                               :STOP TIME
STRT                    .s           2.10                                   :START DATA
STOP                    .s           214.40                                 :STOP DATA
STEP                    .s           0.10                                   :MEASUREMENT TIME INTERVAL
NULL                    .            -999.25                                :NULL VALUE
COMP                    .            Statoil ASA                            :COMPANY
FLD                     .            Volve                                  :FIELD
WELL                    .            15/9-F-1 B                             :WELL
RUN                     .            7                                      :RUN
LOC                     .            Maersk Inspirer                        :LOCATION
PROV                    .            na                                     :PROVINCE
SRVC                    .            Baker Hughes INTEQ                     :SERVICE COMPANY
DATE                    .YY/MM/DD    13/09/06                               :LOG DATE
UWI                     .                                                   :UNIQUE WELL ID
DEPTHMD                 .m           3261.0                                 :MEASURED DEPTH
DEPTHTVD                .m           3057.0                                 :TRUE VERTICAL DEPTH


~CURVE INFORMATION
#MNEM                   .UNIT        API CODES                               DESCRIPTION
#________________________________________________________________________________________
TIME                    .s                                                  :01 TIME
DD_PRESS                .bar                                                :02 DRAW DOWN PRESSURE
DD_VOLUME               .cm3                                                :03 INCREMENTAL DRAW DOWN VOLUME
TEMP                    .degC                                               :04 TRANSDUCER TEMPERATURE
DD_PRESS_MOD_1000       .bar                                                :05 DRAW DOWN PRESSURE MOD 1000
DD_PRESS_MOD_100        .bar                                                :06 DRAW DOWN PRESSURE MOD 100
DD_PRESS_MOD_10         .bar                                                :07 DRAW DOWN PRESSURE MOD 10
DD_PRESS_MOD_1          .bar                                                :08 DRAW DOWN PRESSURE MOD 1
DD_PRESS_MOD_01         .bar                                                :09 DRAW DOWN PRESSURE MOD 01
DD_PRESS_MOD_001        .bar                                                :10 DRAW DOWN PRESSURE MOD 001
DD_PRESS_MOD_0001       .bar                                                :11 DRAW DOWN PRESSURE MOD 0001


~PARAMETER INFORMATION
#MNEM                   .UNIT        VALUE                                   DESCRIPTION
#________________________________________________________________________________________
TOOLFACE                .deg         na                                     :01 TOOLFACE
PUMP_CAPACITY           .bar         400                                    :02 NOMINAL DRAW DOWN PUMP CAPACITY
PUMP_LIMIT              .bar         400                                    :03 DOWNLINK PUMP LIMIT
TIME_LIMIT              .min         10                                     :04 DOWNLINK MAX TIME
TEST_TYPE               .            LOW MOBILITY                           :05 DOWNLINK
DD_PIST_A               .cm2         3.1416                                 :06 DRAW DOWN PISTON AREA
V_SYS                   .cm3         131.0000                               :07 SYSTEM VOLUME
PROBE_ID                .cm          1.2700                                 :08 TTK PROBE ID
G0                      .            4.6700                                 :09 GEOMETRY FACTOR


~A                  TIME     DD_PRESS                              DD_VOLUME               TEMP                                   DD_PRESS_MOD_1000       DD_PRESS_MOD_100        DD_PRESS_MOD_10         DD_PRESS_MOD_1        DD_PRESS_MOD_01       DD_PRESS_MOD_001      DD_PRESS_MOD_0001
# ...
                   16.10    436.49838                                0.00000             82.172                                        4.36498e+002           3.64984e+001           6.49838e+000           4.98375e-001           9.83751e-002           8.37507e-003           3.75069e-004
                   16.20    436.50535                                0.00000             82.172                                        4.36505e+002           3.65053e+001           6.50535e+000           5.05347e-001           5.34701e-003           5.34701e-003           3.47013e-004
                   16.30    436.55898                                0.00000             82.172                                        4.36559e+002           3.65590e+001           6.55898e+000           5.58983e-001           5.89835e-002           8.98349e-003           9.83494e-004
                   16.40    436.56532                                0.00000             82.172                                        4.36565e+002           3.65653e+001           6.56532e+000           5.65323e-001           6.53228e-002           5.32281e-003           3.22812e-004
                   16.50    436.51744                                0.00000             82.172                                        4.36517e+002           3.65174e+001           6.51744e+000           5.17443e-001           1.74432e-002           7.44321e-003           4.43212e-004
                   16.60    436.52113                                0.00000             82.172                                        4.36521e+002           3.65211e+001           6.52113e+000           5.21130e-001           2.11299e-002           1.12986e-003           1.29857e-004
                   16.70    436.56086                                0.00000             82.172                                        4.36561e+002           3.65609e+001           6.56086e+000           5.60859e-001           6.08594e-002           8.59393e-004           8.59393e-004
                   16.80    436.55969                                0.00000             82.172                                        4.36560e+002           3.65597e+001           6.55969e+000           5.59691e-001           5.96912e-002           9.69118e-003           6.91177e-004
                   16.90    436.51435                                0.00000             82.172                                        4.36514e+002           3.65144e+001           6.51435e+000           5.14354e-001           1.43538e-002           4.35377e-003           3.53765e-004
                   17.00    436.53160                                0.00000             82.172                                        4.36532e+002           3.65316e+001           6.53160e+000           5.31600e-001           3.16001e-002           1.60010e-003           6.00098e-004
                   17.10    436.57595                                0.00000             82.172                                        4.36576e+002           3.65759e+001           6.57595e+000           5.75947e-001           7.59471e-002           5.94711e-003           9.47105e-004
                   17.20    436.56084                                0.00000             82.172                                        4.36561e+002           3.65608e+001           6.56084e+000           5.60844e-001           6.08444e-002           8.44415e-004           8.44415e-004
                   17.30    436.50985                                0.00000             82.172                                        4.36510e+002           3.65099e+001           6.50985e+000           5.09855e-001           9.85493e-003           9.85493e-003           8.54926e-004
                   17.40    436.54121                                0.00000             82.172                                        4.36541e+002           3.65412e+001           6.54121e+000           5.41206e-001           4.12061e-002           1.20614e-003           2.06142e-004
                   17.50    436.61053                                0.00000             82.172                                        4.36611e+002           3.66105e+001           6.61053e+000           6.10530e-001           1.05300e-002           5.29952e-004           5.29952e-004
                   17.60    436.60577                                0.00000             82.172                                        4.36606e+002           3.66058e+001           6.60577e+000           6.05766e-001           5.76605e-003           5.76605e-003           7.66046e-004
                   17.70    436.54195                                0.00000             82.172                                        4.36542e+002           3.65419e+001           6.54195e+000           5.41945e-001           4.19453e-002           1.94532e-003           9.45317e-004
                   17.80    436.55324                                0.00000             82.172                                        4.36553e+002           3.65532e+001           6.55324e+000           5.53243e-001           5.32432e-002           3.24318e-003           2.43178e-004
                   17.90    436.62230                                0.00000             82.172                                        4.36622e+002           3.66223e+001           6.62230e+000           6.22300e-001           2.23004e-002           2.30038e-003           3.00383e-004
                   18.00    436.63172                                0.00000             82.172                                        4.36632e+002           3.66317e+001           6.63172e+000           6.31715e-001           3.17154e-002           1.71539e-003           7.15393e-004
                   18.10    436.58113                                0.00000             82.172                                        4.36581e+002           3.65811e+001           6.58113e+000           5.81126e-001           8.11261e-002           1.12610e-003           1.26103e-004
                   18.20    436.59391                                0.00000             82.172                                        4.36594e+002           3.65939e+001           6.59391e+000           5.93909e-001           9.39092e-002           3.90923e-003           9.09232e-004
                   18.30    436.64763                                0.00000             82.172                                        4.36648e+002           3.66476e+001           6.64763e+000           6.47633e-001           4.76330e-002           7.63296e-003           6.32956e-004
                   18.40    436.64527                                0.00000             82.172                                        4.36645e+002           3.66453e+001           6.64527e+000           6.45266e-001           4.52664e-002           5.26638e-003           2.66383e-004
                   18.50    436.58969                                0.00000             82.172                                        4.36590e+002           3.65897e+001           6.58969e+000           5.89692e-001           8.96921e-002           9.69210e-003           6.92098e-004
                   18.60    436.60879                                0.00000             82.172                                        4.36609e+002           3.66088e+001           6.60879e+000           6.08789e-001           8.78889e-003           8.78889e-003           7.88894e-004
                   18.70    436.66854                                0.00000             82.172                                        4.36669e+002           3.66685e+001           6.66854e+000           6.68544e-001           6.85437e-002           8.54374e-003           5.43741e-004
                   18.80    436.66826                                0.00000             82.172                                        4.36668e+002           3.66683e+001           6.66826e+000           6.68260e-001           6.82605e-002           8.26047e-003           2.60472e-004
