~VERSION INFORMATION
VERS                    .            2.0                                    :CWLS LOG ASCII STANDARD
WRAP                    .            NO                                     :ONE LINE PER TIME STEP


~WELL INFORMATION
#MNEM                   .UNIT        DATA                                    DESCRIPTION
#________________________________________________________________________________________
STRTTIME                .HH/MM/SS    01:44:52                               :START TIME
STOPTIME                .HH/MM/SS    01:47:47                               :STOP TIME
STRT                    .s           2.10                                   :START DATA
STOP                    .s           173.40                                 :STOP DATA
STEP                    .s           0.10                                   :MEASUREMENT TIME INTERVAL
NULL                    .            -999.25                                :NULL VALUE
COMP                    .            Statoil ASA                            :COMPANY
FLD                     .            Volve                                  :FIELD
WELL                    .            15/9-F-1 C                             :WELL
RUN                     .            4                                      :RUN
LOC                     .                                                   :LOCATION
PROV                    .            na                                     :PROVINCE
SRVC                    .            Baker Hughes INTEQ                     :SERVICE COMPANY
DATE                    .YY/MM/DD    14/03/15                               :LOG DATE
UWI                     .                                                   :UNIQUE WELL ID
DEPTHMD                 .m           3620.2                                 :MEASURED DEPTH
DEPTHTVD                .m           3012.3                                 :TRUE VERTICAL DEPTH


~CURVE INFORMATION
#MNEM                   .UNIT        API CODES                               DESCRIPTION
#________________________________________________________________________________________
TIME                    .s                                                  :01 TIME
DD_PRESS                .bar                                                :02 DRAW DOWN PRESSURE
DD_VOLUME               .cm3                                                :03 INCREMENTAL DRAW DOWN VOLUME
TEMP                    .degC                                               :04 TRANSDUCER TEMPERATURE
DD_PRESS_MOD_1000       .bar                                                :05 DRAW DOWN PRESSURE MOD 1000
DD_PRESS_MOD_100        .bar                                                :06 DRAW DOWN PRESSURE MOD 100
DD_PRESS_MOD_10         .bar                                                :07 DRAW DOWN PRESSURE MOD 10
DD_PRESS_MOD_1          .bar                                                :08 DRAW DOWN PRESSURE MOD 1
DD_PRESS_MOD_01         .bar                                                :09 DRAW DOWN PRESSURE MOD 01
DD_PRESS_MOD_001        .bar                                                :10 DRAW DOWN PRESSURE MOD 001
DD_PRESS_MOD_0001       .bar                                                :11 DRAW DOWN PRESSURE MOD 0001


~PARAMETER INFORMATION
#MNEM                   .UNIT        VALUE                                   DESCRIPTION
#________________________________________________________________________________________
TOOLFACE                .deg         108.7                                  :01 TOOLFACE
PUMP_CAPACITY           .bar         400                                    :02 NOMINAL DRAW DOWN PUMP CAPACITY
PUMP_LIMIT              .bar         240                                    :03 DOWNLINK PUMP LIMIT
TIME_LIMIT              .min         10                                     :04 DOWNLINK MAX TIME
TEST_TYPE               .            REPEAT                                 :05 DOWNLINK
TEST_TYPE               .            HIGH MOBILITY                          :06 DOWNLINK
DD_PIST_A               .cm2         3.1416                                 :07 DRAW DOWN PISTON AREA
V_SYS                   .cm3         131.0000                               :08 SYSTEM VOLUME
PROBE_ID                .cm          1.2700                                 :09 TTK PROBE ID
G0                      .            4.6700                                 :10 GEOMETRY FACTOR


~A                  TIME     DD_PRESS                              DD_VOLUME               TEMP                                   DD_PRESS_MOD_1000       DD_PRESS_MOD_100        DD_PRESS_MOD_10         DD_PRESS_MOD_1        DD_PRESS_MOD_01       DD_PRESS_MOD_001      DD_PRESS_MOD_0001
# ...
                  102.90    344.35134                               19.80771             87.117                                        3.44351e+002           4.43513e+001           4.35134e+000           3.51337e-001           5.13371e-002           1.33713e-003           3.37126e-004
                  103.00    344.35568                               19.80771             87.117                                        3.44356e+002           4.43557e+001           4.35568e+000           3.55684e-001           5.56836e-002           5.68363e-003           6.83632e-004
                  103.10    344.35678                               19.80771             87.117                                        3.44357e+002           4.43568e+001           4.35678e+000           3.56783e-001           5.67831e-002           6.78308e-003           7.83079e-004
                  103.20    344.35561                               19.80771             87.117                                        3.44356e+002           4.43556e+001           4.35561e+000           3.55612e-001           5.56122e-002           5.61219e-003           6.12186e-004
                  103.30    344.35446                               19.80771             87.117                                        3.44354e+002           4.43545e+001           4.35446e+000           3.54459e-001           5.44594e-002           4.45938e-003           4.59376e-004
                  103.40    344.35407                               19.80771             87.117                                        3.44354e+002           4.43541e+001           4.35407e+000           3.54068e-001           5.40677e-002           4.06766e-003           6.76641e-005
                  103.50    344.35111                               19.80771             87.117                                        3.44351e+002           4.43511e+001           4.35111e+000           3.51113e-001           5.11130e-002           1.11295e-003           1.12955e-004
                  103.60    344.35007                               19.80771             87.117                                        3.44350e+002           4.43501e+001           4.35007e+000           3.50067e-001           5.00668e-002           6.68042e-005           6.68042e-005
                  103.70    344.35206                               19.80771             87.117                                        3.44352e+002           4.43521e+001           4.35206e+000           3.52060e-001           5.20598e-002           2.05976e-003           5.97643e-005
                  103.80    344.35123                               19.80771             87.117                                        3.44351e+002           4.43512e+001           4.35123e+000           3.51229e-001           5.12292e-002           1.22917e-003           2.29171e-004
                  103.90    344.34984                               19.80771             87.117                                        3.44350e+002           4.43498e+001           4.34984e+000           3.49839e-001           4.98395e-002           9.83950e-003           8.39498e-004
                  104.00    344.35238                               19.80771             87.117                                        3.44352e+002           4.43524e+001           4.35238e+000           3.52380e-001           5.23799e-002           2.37992e-003           3.79918e-004
                  104.10    344.35347                               19.80771             87.117                                        3.44353e+002           4.43535e+001           4.35347e+000           3.53466e-001           5.34661e-002           3.46605e-003           4.66054e-004
                  104.20    344.35339                               19.80771             87.117                                        3.44353e+002           4.43534e+001           4.35339e+000           3.53392e-001           5.33922e-002           3.39220e-003           3.92200e-004
                  104.30    344.35493                               19.80771             87.117                                        3.44355e+002           4.43549e+001           4.35493e+000           3.54929e-001           5.49286e-002           4.92862e-003           9.28623e-004
                  104.40    344.35500                               19.80771             87.117                                        3.44355e+002           4.43550e+001           4.35500e+000           3.55005e-001           5.50047e-002           5.00470e-003           4.69866e-006
                  104.50    344.35329                               19.80771             87.117                                        3.44353e+002           4.43533e+001           4.35329e+000           3.53294e-001           5.32937e-002           3.29366e-003           2.93655e-004
                  104.60    344.35139                               19.80771             87.117                                        3.44351e+002           4.43514e+001           4.35139e+000           3.51385e-001           5.13852e-002           1.38525e-003           3.85246e-004
                  104.70    344.35170                               19.80771             87.117                                        3.44352e+002           4.43517e+001           4.35170e+000           3.51701e-001           5.17007e-002           1.70072e-003           7.00724e-004
                  104.80    344.35203                               19.80771             87.117                                        3.44352e+002           4.43520e+001           4.35203e+000           3.52028e-001           5.20281e-002           2.02805e-003           2.80501e-005
                  104.90    344.35401                               19.80771             87.117                                        3.44354e+002           4.43540e+001           4.35401e+000           3.54009e-001           5.40092e-002           4.00916e-003           9.16364e-006
                  105.00    344.35492                               19.80771             87.117                                        3.44355e+002           4.43549e+001           4.35492e+000           3.54916e-001           5.49160e-002           4.91604e-003           9.16037e-004
                  105.10    344.35482                               19.80771             87.115                                        3.44355e+002           4.43548e+001           4.35482e+000           3.54815e-001           5.48151e-002           4.81510e-003           8.15101e-004
                  105.20    344.35321                               19.80771             87.111                                        3.44353e+002           4.43532e+001           4.35321e+000           3.53205e-001           5.32054e-002           3.20543e-003           2.05427e-004
                  105.30    344.35126                               19.80771             87.109                                        3.44351e+002           4.43513e+001           4.35126e+000           3.51260e-001           5.12600e-002           1.26000e-003           2.59996e-004
                  105.40    344.35159                               19.80771             87.112                                        3.44352e+002           4.43516e+001           4.35159e+000           3.51593e-001           5.15929e-002           1.59287e-003           5.92872e-004
                  105.50    344.35179                               19.80771             87.115                                        3.44352e+002           4.43518e+001           4.35179e+000           3.51790e-001           5.17901e-002           1.79007e-003           7.90068e-004
                  105.60    344.35090                               19.80771             87.117                                        3.44351e+002           4.43509e+001           4.35090e+000           3.50896e-001           5.08962e-002           8.96202e-004           8.96202e-004
