~VERSION INFORMATION
VERS                    .            2.0                                    :CWLS LOG ASCII STANDARD
WRAP                    .            NO                                     :ONE LINE PER TIME STEP


~WELL INFORMATION
#MNEM                   .UNIT        DATA                                    DESCRIPTION
#________________________________________________________________________________________
STRTTIME                .HH/MM/SS    19:52:58                               :START TIME
STOPTIME                .HH/MM/SS    19:58:21                               :STOP TIME
STRT                    .s           2.10                                   :START DATA
STOP                    .s           321.30                                 :STOP DATA
STEP                    .s           0.10                                   :MEASUREMENT TIME INTERVAL
NULL                    .            -999.25                                :NULL VALUE
COMP                    .            Statoil ASA                            :COMPANY
FLD                     .            Volve                                  :FIELD
WELL                    .            15/9-F-11 A                            :WELL
RUN                     .            8                                      :RUN
LOC                     .            Maersk Inspirer                        :LOCATION
PROV                    .            na                                     :PROVINCE
SRVC                    .            Baker Hughes INTEQ                     :SERVICE COMPANY
DATE                    .YY/MM/DD    13/05/23                               :LOG DATE
UWI                     .                                                   :UNIQUE WELL ID
DEPTHMD                 .m           3602.0                                 :MEASURED DEPTH
DEPTHTVD                .m           3003.9                                 :TRUE VERTICAL DEPTH


~CURVE INFORMATION
#MNEM                   .UNIT        API CODES                               DESCRIPTION
#________________________________________________________________________________________
TIME                    .s                                                  :01 TIME
DD_PRESS                .bar                                                :02 DRAW DOWN PRESSURE
DD_VOLUME               .cm3                                                :03 INCREMENTAL DRAW DOWN VOLUME
TEMP                    .degC                                               :04 TRANSDUCER TEMPERATURE
DD_PRESS_MOD_1000       .bar                                                :05 DRAW DOWN PRESSURE MOD 1000
DD_PRESS_MOD_100        .bar                                                :06 DRAW DOWN PRESSURE MOD 100
DD_PRESS_MOD_10         .bar                                                :07 DRAW DOWN PRESSURE MOD 10
DD_PRESS_MOD_1          .bar                                                :08 DRAW DOWN PRESSURE MOD 1
DD_PRESS_MOD_01         .bar                                                :09 DRAW DOWN PRESSURE MOD 01
DD_PRESS_MOD_001        .bar                                                :10 DRAW DOWN PRESSURE MOD 001
DD_PRESS_MOD_0001       .bar                                                :11 DRAW DOWN PRESSURE MOD 0001


~PARAMETER INFORMATION
#MNEM                   .UNIT        VALUE                                   DESCRIPTION
#________________________________________________________________________________________
TOOLFACE                .deg         -40.9                                  :01 TOOLFACE
PUMP_CAPACITY           .bar         400                                    :02 NOMINAL DRAW DOWN PUMP CAPACITY
PUMP_LIMIT              .bar         240                                    :03 DOWNLINK PUMP LIMIT
TIME_LIMIT              .min         10                                     :04 DOWNLINK MAX TIME
TEST_TYPE               .            REPEAT                                 :05 DOWNLINK
TEST_TYPE               .            HIGH MOBILITY                          :06 DOWNLINK
DD_PIST_A               .cm2         3.1416                                 :07 DRAW DOWN PISTON AREA
V_SYS                   .cm3         131.0000                               :08 SYSTEM VOLUME
PROBE_ID                .cm          1.2700                                 :09 TTK PROBE ID
G0                      .            4.6700                                 :10 GEOMETRY FACTOR


~A                  TIME     DD_PRESS                              DD_VOLUME               TEMP                                   DD_PRESS_MOD_1000       DD_PRESS_MOD_100        DD_PRESS_MOD_10         DD_PRESS_MOD_1        DD_PRESS_MOD_01       DD_PRESS_MOD_001      DD_PRESS_MOD_0001
# ...
                  276.50    341.77639                               13.04235             71.094                                        3.41776e+002           4.17764e+001           1.77639e+000           7.76388e-001           7.63885e-002           6.38849e-003           3.88487e-004
                  276.60    341.75802                               13.04235             71.094                                        3.41758e+002           4.17580e+001           1.75802e+000           7.58019e-001           5.80187e-002           8.01865e-003           1.86502e-005
                  276.70    341.67311                               13.04235             71.094                                        3.41673e+002           4.16731e+001           1.67311e+000           6.73108e-001           7.31078e-002           3.10777e-003           1.07768e-004
                  276.80    341.64107                               13.04235             71.096                                        3.41641e+002           4.16411e+001           1.64107e+000           6.41070e-001           4.10704e-002           1.07044e-003           7.04388e-005
                  276.90    341.68350                               13.04235             71.100                                        3.41683e+002           4.16835e+001           1.68350e+000           6.83497e-001           8.34967e-002           3.49670e-003           4.96703e-004
                  277.00    341.68926                               13.04235             71.102                                        3.41689e+002           4.16893e+001           1.68926e+000           6.89264e-001           8.92639e-002           9.26387e-003           2.63869e-004
                  277.10    341.64841                               13.04235             71.102                                        3.41648e+002           4.16484e+001           1.64841e+000           6.48412e-001           4.84121e-002           8.41210e-003           4.12097e-004
                  277.20    341.67763                               13.04235             71.102                                        3.41678e+002           4.16776e+001           1.67763e+000           6.77631e-001           7.76308e-002           7.63076e-003           6.30760e-004
                  277.30    341.71738                               13.04235             71.102                                        3.41717e+002           4.17174e+001           1.71738e+000           7.17376e-001           1.73757e-002           7.37566e-003           3.75662e-004
                  277.40    341.65984                               13.04235             71.102                                        3.41660e+002           4.16598e+001           1.65984e+000           6.59841e-001           5.98414e-002           9.84138e-003           8.41382e-004
                  277.50    341.60847                               13.04235             71.102                                        3.41608e+002           4.16085e+001           1.60847e+000           6.08474e-001           8.47413e-003           8.47413e-003           4.74131e-004
                  277.60    341.66382                               13.04235             71.102                                        3.41664e+002           4.16638e+001           1.66382e+000           6.63823e-001           6.38231e-002           3.82312e-003           8.23118e-004
                  277.70    341.69340                               13.04235             71.102                                        3.41693e+002           4.16934e+001           1.69340e+000           6.93400e-001           9.33996e-002           3.39960e-003           3.99599e-004
                  277.80    341.64539                               13.04235             71.102                                        3.41645e+002           4.16454e+001           1.64539e+000           6.45386e-001           4.53864e-002           5.38644e-003           3.86437e-004
                  277.90    341.61905                               13.04235             71.102                                        3.41619e+002           4.16190e+001           1.61905e+000           6.19047e-001           1.90465e-002           9.04650e-003           4.65043e-005
                  278.00    341.64960                               13.04235             71.102                                        3.41650e+002           4.16496e+001           1.64960e+000           6.49599e-001           4.95986e-002           9.59863e-003           5.98631e-004
                  278.10    341.64416                               13.04235             71.102                                        3.41644e+002           4.16442e+001           1.64416e+000           6.44157e-001           4.41570e-002           4.15704e-003           1.57038e-004
                  278.20    341.61809                               13.04235             71.102                                        3.41618e+002           4.16181e+001           1.61809e+000           6.18091e-001           1.80910e-002           8.09104e-003           9.10430e-005
                  278.30    341.64575                               13.04235             71.102                                        3.41646e+002           4.16458e+001           1.64575e+000           6.45751e-001           4.57508e-002           5.75080e-003           7.50797e-004
                  278.40    341.70949                               13.04235             71.102                                        3.41709e+002           4.17095e+001           1.70949e+000           7.09490e-001           9.48963e-003           9.48963e-003           4.89628e-004
                  278.50    341.71819                               13.04235             71.102                                        3.41718e+002           4.17182e+001           1.71819e+000           7.18191e-001           1.81906e-002           8.19061e-003           1.90608e-004
                  278.60    341.67444                               13.04235             71.102                                        3.41674e+002           4.16744e+001           1.67444e+000           6.74442e-001           7.44418e-002           4.44180e-003           4.41803e-004
                  278.70    341.65235                               13.04235             71.102                                        3.41652e+002           4.16523e+001           1.65235e+000           6.52349e-001           5.23494e-002           2.34937e-003           3.49375e-004
                  278.80    341.70007                               13.04235             71.102                                        3.41700e+002           4.17001e+001           1.70007e+000           7.00073e-001           7.26579e-005           7.26579e-005           7.26579e-005
                  278.90    341.74283                               13.04235             71.102                                        3.41743e+002           4.17428e+001           1.74283e+000           7.42828e-001           4.28276e-002           2.82764e-003           8.27638e-004
                  279.00    341.69406                               13.04235             71.102                                        3.41694e+002           4.16941e+001           1.69406e+000           6.94055e-001           9.40552e-002           4.05522e-003           5.52222e-005
                  279.10    341.63416                               13.04235             71.102                                        3.41634e+002           4.16342e+001           1.63416e+000           6.34162e-001           3.41624e-002           4.16237e-003           1.62371e-004
                  279.20    341.67500                               13.04235             71.102                                        3.41675e+002           4.16750e+001           1.67500e+000           6.74998e-001           7.49983e-002           4.99830e-003           9.98299e-004
