~VERSION INFORMATION
VERS                    .            2.0                                    :CWLS LOG ASCII STANDARD
WRAP                    .            NO                                     :ONE LINE PER TIME STEP


~WELL INFORMATION
#MNEM                   .UNIT        DATA                                    DESCRIPTION
#________________________________________________________________________________________
STRTTIME                .HH/MM/SS    23:39:21                               :START TIME
STOPTIME                .HH/MM/SS    23:43:19                               :STOP TIME
STRT                    .s           2.10                                   :START DATA
STOP                    .s           236.60                                 :STOP DATA
STEP                    .s           0.10                                   :MEASUREMENT TIME INTERVAL
NULL                    .            -999.25                                :NULL VALUE
COMP                    .            Statoil                                :COMPANY
FLD                     .            Volve                                  :FIELD
WELL                    .            15/9-F-11 T2                           :WELL
RUN                     .            7                                      :RUN
LOC                     .            Maersk Inspirer                        :LOCATION
PROV                    .            na                                     :PROVINCE
SRVC                    .            Baker Hughes INTEQ                     :SERVICE COMPANY
DATE                    .YY/MM/DD    13/05/04                               :LOG DATE
UWI                     .                                                   :UNIQUE WELL ID
DEPTHMD                 .m           4417.0                                 :MEASURED DEPTH
DEPTHTVD                .m           3257.6                                 :TRUE VERTICAL DEPTH


~CURVE INFORMATION
#MNEM                   .UNIT        API CODES                               DESCRIPTION
#________________________________________________________________________________________
TIME                    .s                                                  :01 TIME
DD_PRESS                .bar                                                :02 DRAW DOWN PRESSURE
DD_VOLUME               .cm3                                                :03 INCREMENTAL DRAW DOWN VOLUME
TEMP                    .degC                                               :04 TRANSDUCER TEMPERATURE
DD_PRESS_MOD_1000       .bar                                                :05 DRAW DOWN PRESSURE MOD 1000
DD_PRESS_MOD_100        .bar                                                :06 DRAW DOWN PRESSURE MOD 100
DD_PRESS_MOD_10         .bar                                                :07 DRAW DOWN PRESSURE MOD 10
DD_PRESS_MOD_1          .bar                                                :08 DRAW DOWN PRESSURE MOD 1
DD_PRESS_MOD_01         .bar                                                :09 DRAW DOWN PRESSURE MOD 01
DD_PRESS_MOD_001        .bar                                                :10 DRAW DOWN PRESSURE MOD 001
DD_PRESS_MOD_0001       .bar                                                :11 DRAW DOWN PRESSURE MOD 0001


~PARAMETER INFORMATION
#MNEM                   .UNIT        VALUE                                   DESCRIPTION
#________________________________________________________________________________________
TOOLFACE                .deg         na                                     :01 TOOLFACE
PUMP_CAPACITY           .bar         400                                    :02 NOMINAL DRAW DOWN PUMP CAPACITY
PUMP_LIMIT              .bar         240                                    :03 DOWNLINK PUMP LIMIT
TIME_LIMIT              .min         10                                     :04 DOWNLINK MAX TIME
TEST_TYPE               .            REPEAT                                 :05 DOWNLINK
TEST_TYPE               .            HIGH MOBILITY                          :06 DOWNLINK
DD_PIST_A               .cm2         3.1416                                 :07 DRAW DOWN PISTON AREA
V_SYS                   .cm3         131.0000                               :08 SYSTEM VOLUME
PROBE_ID                .cm          1.2700                                 :09 TTK PROBE ID
G0                      .            4.6700                                 :10 GEOMETRY FACTOR


~A                  TIME     DD_PRESS                              DD_VOLUME               TEMP                                   DD_PRESS_MOD_1000       DD_PRESS_MOD_100        DD_PRESS_MOD_10         DD_PRESS_MOD_1        DD_PRESS_MOD_01       DD_PRESS_MOD_001      DD_PRESS_MOD_0001
# ...
                   94.50    361.09339                               10.82289             96.023                                        3.61093e+002           6.10934e+001           1.09339e+000           9.33935e-002           9.33935e-002           3.39345e-003           3.93450e-004
                   94.60    361.10132                               10.82289             96.023                                        3.61101e+002           6.11013e+001           1.10132e+000           1.01323e-001           1.32287e-003           1.32287e-003           3.22865e-004
                   94.70    361.08590                               10.82289             96.023                                        3.61086e+002           6.10859e+001           1.08590e+000           8.58955e-002           8.58955e-002           5.89548e-003           8.95477e-004
                   94.80    361.07362                               10.82289             96.023                                        3.61074e+002           6.10736e+001           1.07362e+000           7.36239e-002           7.36239e-002           3.62394e-003           6.23943e-004
                   94.90    361.08634                               10.82289             96.023                                        3.61086e+002           6.10863e+001           1.08634e+000           8.63379e-002           8.63379e-002           6.33790e-003           3.37903e-004
                   95.00    361.09407                               10.82289             96.023                                        3.61094e+002           6.10941e+001           1.09407e+000           9.40654e-002           9.40654e-002           4.06539e-003           6.53948e-005
                   95.10    361.08996                               10.82289             96.023                                        3.61090e+002           6.10900e+001           1.08996e+000           8.99607e-002           8.99607e-002           9.96068e-003           9.60677e-004
                   95.20    361.09454                               10.82289             96.023                                        3.61095e+002           6.10945e+001           1.09454e+000           9.45372e-002           9.45372e-002           4.53720e-003           5.37200e-004
                   95.30    361.09145                               10.82289             96.023                                        3.61091e+002           6.10914e+001           1.09145e+000           9.14498e-002           9.14498e-002           1.44982e-003           4.49822e-004
                   95.40    361.08403                               10.82289             96.023                                        3.61084e+002           6.10840e+001           1.08403e+000           8.40282e-002           8.40282e-002           4.02823e-003           2.82281e-005
                   95.50    361.09277                               10.82289             96.023                                        3.61093e+002           6.10928e+001           1.09277e+000           9.27737e-002           9.27737e-002           2.77372e-003           7.73720e-004
                   95.60    361.09469                               10.82289             96.023                                        3.61095e+002           6.10947e+001           1.09469e+000           9.46937e-002           9.46937e-002           4.69368e-003           6.93683e-004
                   95.70    361.08240                               10.82289             96.023                                        3.61082e+002           6.10824e+001           1.08240e+000           8.24013e-002           8.24013e-002           2.40131e-003           4.01313e-004
                   95.80    361.08897                               10.82289             96.023                                        3.61089e+002           6.10890e+001           1.08897e+000           8.89722e-002           8.89722e-002           8.97218e-003           9.72177e-004
                   95.90    361.09942                               10.82289             96.023                                        3.61099e+002           6.10994e+001           1.09942e+000           9.94245e-002           9.94245e-002           9.42449e-003           4.24492e-004
                   96.00    361.08815                               10.82289             96.023                                        3.61088e+002           6.10881e+001           1.08815e+000           8.81491e-002           8.81491e-002           8.14911e-003           1.49113e-004
                   96.10    361.07935                               10.82289             96.023                                        3.61079e+002           6.10794e+001           1.07935e+000           7.93548e-002           7.93548e-002           9.35482e-003           3.54819e-004
                   96.20    361.09035                               10.82289             96.023                                        3.61090e+002           6.10903e+001           1.09035e+000           9.03497e-002           9.03497e-002           3.49726e-004           3.49726e-004
                   96.30    361.09140                               10.82289             96.023                                        3.61091e+002           6.10914e+001           1.09140e+000           9.13987e-002           9.13987e-002           1.39869e-003           3.98691e-004
                   96.40    361.08756                               10.82289             96.023                                        3.61088e+002           6.10876e+001           1.08756e+000           8.75591e-002           8.75591e-002           7.55914e-003           5.59135e-004
                   96.50    361.09349                               10.82289             96.023                                        3.61093e+002           6.10935e+001           1.09349e+000           9.34950e-002           9.34950e-002           3.49499e-003           4.94993e-004
                   96.60    361.09911                               10.82289             96.023                                        3.61099e+002           6.10991e+001           1.09911e+000           9.91121e-002           9.91121e-002           9.11206e-003           1.12056e-004
                   96.70    361.08382                               10.82289             96.023                                        3.61084e+002           6.10838e+001           1.08382e+000           8.38246e-002           8.38246e-002           3.82461e-003           8.24615e-004
                   96.80    361.08277                               10.82289             96.023                                        3.61083e+002           6.10828e+001           1.08277e+000           8.27705e-002           8.27705e-002           2.77055e-003           7.70549e-004
                   96.90    361.09936                               10.82289             96.023                                        3.61099e+002           6.10994e+001           1.09936e+000           9.93584e-002           9.93584e-002           9.35844e-003           3.58441e-004
                   97.00    361.09914                               10.82289             96.023                                        3.61099e+002           6.10991e+001           1.09914e+000           9.91439e-002           9.91439e-002           9.14393e-003           1.43932e-004
                   97.10    361.08441                               10.82289             96.023                                        3.61084e+002           6.10844e+001           1.08441e+000           8.44077e-002           8.44077e-002           4.40773e-003           4.07730e-004
                   97.20    361.08835                               10.82289             96.023                                        3.61088e+002           6.10883e+001           1.08835e+000           8.83495e-002           8.83495e-002           8.34947e-003           3.49470e-004
