~VERSION INFORMATION
VERS                    .            2.0                                    :CWLS LOG ASCII STANDARD
WRAP                    .            NO                                     :ONE LINE PER TIME STEP


~WELL INFORMATION
#MNEM                   .UNIT        DATA                                    DESCRIPTION
#________________________________________________________________________________________
STRTTIME                .HH/MM/SS    08:31:17                               :START TIME
STOPTIME                .HH/MM/SS    08:34:03                               :STOP TIME
STRT                    .s           2.10                                   :START DATA
STOP                    .s           164.70                                 :STOP DATA
STEP                    .s           0.10                                   :MEASUREMENT TIME INTERVAL
NULL                    .            -999.25                                :NULL VALUE
COMP                    .            Statoil ASA                            :COMPANY
FLD                     .            Volve                                  :FIELD
WELL                    .            15/9-F-11 A                            :WELL
RUN                     .            8                                      :RUN
LOC                     .            Maersk Inspirer                        :LOCATION
PROV                    .            na                                     :PROVINCE
SRVC                    .            Baker Hughes INTEQ                     :SERVICE COMPANY
DATE                    .YY/MM/DD    13/05/21                               :LOG DATE
UWI                     .                                                   :UNIQUE WELL ID
DEPTHMD                 .m           3688.1                                 :MEASURED DEPTH
DEPTHTVD                .m           3069.8                                 :TRUE VERTICAL DEPTH


~CURVE INFORMATION
#MNEM                   .UNIT        API CODES                               DESCRIPTION
#________________________________________________________________________________________
TIME                    .s                                                  :01 TIME
DD_PRESS                .bar                                                :02 DRAW DOWN PRESSURE
DD_VOLUME               .cm3                                                :03 INCREMENTAL DRAW DOWN VOLUME
TEMP                    .degC                                               :04 TRANSDUCER TEMPERATURE
DD_PRESS_MOD_1000       .bar                                                :05 DRAW DOWN PRESSURE MOD 1000
DD_PRESS_MOD_100        .bar                                                :06 DRAW DOWN PRESSURE MOD 100
DD_PRESS_MOD_10         .bar                                                :07 DRAW DOWN PRESSURE MOD 10
DD_PRESS_MOD_1          .bar                                                :08 DRAW DOWN PRESSURE MOD 1
DD_PRESS_MOD_01         .bar                                                :09 DRAW DOWN PRESSURE MOD 01
DD_PRESS_MOD_001        .bar                                                :10 DRAW DOWN PRESSURE MOD 001
DD_PRESS_MOD_0001       .bar                                                :11 DRAW DOWN PRESSURE MOD 0001


~PARAMETER INFORMATION
#MNEM                   .UNIT        VALUE                                   DESCRIPTION
#________________________________________________________________________________________
TOOLFACE                .deg         -78.9                                  :01 TOOLFACE
PUMP_CAPACITY           .bar         400                                    :02 NOMINAL DRAW DOWN PUMP CAPACITY
PUMP_LIMIT              .bar         240                                    :03 DOWNLINK PUMP LIMIT
TIME_LIMIT              .min         10                                     :04 DOWNLINK MAX TIME
TEST_TYPE               .            REPEAT                                 :05 DOWNLINK
TEST_TYPE               .            HIGH MOBILITY                          :06 DOWNLINK
DD_PIST_A               .cm2         3.1416                                 :07 DRAW DOWN PISTON AREA
V_SYS                   .cm3         131.0000                               :08 SYSTEM VOLUME
PROBE_ID                .cm          1.2700                                 :09 TTK PROBE ID
G0                      .            4.6700                                 :10 GEOMETRY FACTOR


~A                  TIME     DD_PRESS                              DD_VOLUME               TEMP                                   DD_PRESS_MOD_1000       DD_PRESS_MOD_100        DD_PRESS_MOD_10         DD_PRESS_MOD_1        DD_PRESS_MOD_01       DD_PRESS_MOD_001      DD_PRESS_MOD_0001
# ...
                   66.50    346.06916                               10.53756             83.281                                        3.46069e+002           4.60692e+001           6.06916e+000           6.91637e-002           6.91637e-002           9.16371e-003           1.63714e-004
                   66.60    346.07264                               10.53756             83.281                                        3.46073e+002           4.60726e+001           6.07264e+000           7.26437e-002           7.26437e-002           2.64372e-003           6.43723e-004
                   66.70    346.07355                               10.53756             83.281                                        3.46074e+002           4.60735e+001           6.07355e+000           7.35485e-002           7.35485e-002           3.54854e-003           5.48540e-004
                   66.80    346.07118                               10.53756             83.281                                        3.46071e+002           4.60712e+001           6.07118e+000           7.11836e-002           7.11836e-002           1.18359e-003           1.83592e-004
                   66.90    346.06256                               10.53756             83.281                                        3.46063e+002           4.60626e+001           6.06256e+000           6.25571e-002           6.25571e-002           2.55712e-003           5.57116e-004
                   67.00    346.06281                               10.53756             83.281                                        3.46063e+002           4.60628e+001           6.06281e+000           6.28054e-002           6.28054e-002           2.80542e-003           8.05424e-004
                   67.10    346.07651                               10.53756             83.281                                        3.46077e+002           4.60765e+001           6.07651e+000           7.65101e-002           7.65101e-002           6.51012e-003           5.10118e-004
                   67.20    346.07486                               10.53756             83.281                                        3.46075e+002           4.60749e+001           6.07486e+000           7.48624e-002           7.48624e-002           4.86236e-003           8.62363e-004
                   67.30    346.06265                               10.53756             83.281                                        3.46063e+002           4.60626e+001           6.06265e+000           6.26495e-002           6.26495e-002           2.64954e-003           6.49542e-004
                   67.40    346.06890                               10.53756             83.281                                        3.46069e+002           4.60689e+001           6.06890e+000           6.89024e-002           6.89024e-002           8.90239e-003           9.02391e-004
                   67.50    346.07559                               10.53756             83.281                                        3.46076e+002           4.60756e+001           6.07559e+000           7.55947e-002           7.55947e-002           5.59466e-003           5.94665e-004
                   67.60    346.06121                               10.53756             83.281                                        3.46061e+002           4.60612e+001           6.06121e+000           6.12149e-002           6.12149e-002           1.21492e-003           2.14917e-004
                   67.70    346.05554                               10.53756             83.281                                        3.46056e+002           4.60555e+001           6.05554e+000           5.55449e-002           5.55449e-002           5.54486e-003           5.44862e-004
                   67.80    346.07226                               10.53756             83.281                                        3.46072e+002           4.60723e+001           6.07226e+000           7.22634e-002           7.22634e-002           2.26345e-003           2.63447e-004
                   67.90    346.07784                               10.53756             83.281                                        3.46078e+002           4.60778e+001           6.07784e+000           7.78391e-002           7.78391e-002           7.83915e-003           8.39147e-004
                   68.00    346.06483                               10.53756             83.281                                        3.46065e+002           4.60648e+001           6.06483e+000           6.48340e-002           6.48340e-002           4.83402e-003           8.34017e-004
                   68.10    346.06175                               10.53756             83.281                                        3.46062e+002           4.60617e+001           6.06175e+000           6.17497e-002           6.17497e-002           1.74968e-003           7.49675e-004
                   68.20    346.07715                               10.53756             83.281                                        3.46077e+002           4.60771e+001           6.07715e+000           7.71484e-002           7.71484e-002           7.14838e-003           1.48380e-004
                   68.30    346.07889                               10.53756             83.281                                        3.46079e+002           4.60789e+001           6.07889e+000           7.88884e-002           7.88884e-002           8.88840e-003           8.88403e-004
                   68.40    346.06025                               10.53756             83.281                                        3.46060e+002           4.60603e+001           6.06025e+000           6.02520e-002           6.02520e-002           2.51958e-004           2.51958e-004
                   68.50    346.05056                               10.53756             83.281                                        3.46051e+002           4.60506e+001           6.05056e+000           5.05602e-002           5.05602e-002           5.60228e-004           5.60228e-004
                   68.60    346.06631                               10.53756             83.281                                        3.46066e+002           4.60663e+001           6.06631e+000           6.63132e-002           6.63132e-002           6.31319e-003           3.13193e-004
                   68.70    346.07780                               10.53756             83.281                                        3.46078e+002           4.60778e+001           6.07780e+000           7.77951e-002           7.77951e-002           7.79509e-003           7.95094e-004
                   68.80    346.06599                               10.53756             83.281                                        3.46066e+002           4.60660e+001           6.06599e+000           6.59854e-002           6.59854e-002           5.98540e-003           9.85402e-004
                   68.90    346.05575                               10.53756             83.281                                        3.46056e+002           4.60558e+001           6.05575e+000           5.57512e-002           5.57512e-002           5.75123e-003           7.51225e-004
                   69.00    346.06059                               10.53756             83.281                                        3.46061e+002           4.60606e+001           6.06059e+000           6.05890e-002           6.05890e-002           5.88963e-004           5.88963e-004
                   69.10    346.07339                               10.53756             83.281                                        3.46073e+002           4.60734e+001           6.07339e+000           7.33853e-002           7.33853e-002           3.38527e-003           3.85265e-004
                   69.20    346.08022                               10.53756             83.281                                        3.46080e+002           4.60802e+001           6.08022e+000           8.02205e-002           8.02205e-002           2.20488e-004           2.20488e-004
