~VERSION INFORMATION
VERS                    .            2.0                                    :CWLS LOG ASCII STANDARD
WRAP                    .            NO                                     :ONE LINE PER TIME STEP


~WELL INFORMATION
#MNEM                   .UNIT        DATA                                    DESCRIPTION
#________________________________________________________________________________________
STRTTIME                .HH/MM/SS    10:48:38                               :START TIME
STOPTIME                .HH/MM/SS    10:51:35                               :STOP TIME
STRT                    .s           2.10                                   :START DATA
STOP                    .s           175.10                                 :STOP DATA
STEP                    .s           0.10                                   :MEASUREMENT TIME INTERVAL
NULL                    .            -999.25                                :NULL VALUE
COMP                    .            Statoil ASA                            :COMPANY
FLD                     .            Volve                                  :FIELD
WELL                    .            15/9-F-11 A                            :WELL
RUN                     .            8                                      :RUN
LOC                     .            Maersk Inspirer                        :LOCATION
PROV                    .            na                                     :PROVINCE
SRVC                    .            Baker Hughes INTEQ                     :SERVICE COMPANY
DATE                    .YY/MM/DD    13/05/21                               :LOG DATE
UWI                     .                                                   :UNIQUE WELL ID
DEPTHMD                 .m           3635.2                                 :MEASURED DEPTH
DEPTHTVD                .m           3029.3                                 :TRUE VERTICAL DEPTH


~CURVE INFORMATION
#MNEM                   .UNIT        API CODES                               DESCRIPTION
#________________________________________________________________________________________
TIME                    .s                                                  :01 TIME
DD_PRESS                .bar                                                :02 DRAW DOWN PRESSURE
DD_VOLUME               .cm3                                                :03 INCREMENTAL DRAW DOWN VOLUME
TEMP                    .degC                                               :04 TRANSDUCER TEMPERATURE
DD_PRESS_MOD_1000       .bar                                                :05 DRAW DOWN PRESSURE MOD 1000
DD_PRESS_MOD_100        .bar                                                :06 DRAW DOWN PRESSURE MOD 100
DD_PRESS_MOD_10         .bar                                                :07 DRAW DOWN PRESSURE MOD 10
DD_PRESS_MOD_1          .bar                                                :08 DRAW DOWN PRESSURE MOD 1
DD_PRESS_MOD_01         .bar                                                :09 DRAW DOWN PRESSURE MOD 01
DD_PRESS_MOD_001        .bar                                                :10 DRAW DOWN PRESSURE MOD 001
DD_PRESS_MOD_0001       .bar                                                :11 DRAW DOWN PRESSURE MOD 0001


~PARAMETER INFORMATION
#MNEM                   .UNIT        VALUE                                   DESCRIPTION
#________________________________________________________________________________________
TOOLFACE                .deg         69.1                                   :01 TOOLFACE
PUMP_CAPACITY           .bar         400                                    :02 NOMINAL DRAW DOWN PUMP CAPACITY
PUMP_LIMIT              .bar         240                                    :03 DOWNLINK PUMP LIMIT
TIME_LIMIT              .min         10                                     :04 DOWNLINK MAX TIME
TEST_TYPE               .            REPEAT                                 :05 DOWNLINK
TEST_TYPE               .            HIGH MOBILITY                          :06 DOWNLINK
DD_PIST_A               .cm2         3.1416                                 :07 DRAW DOWN PISTON AREA
V_SYS                   .cm3         131.0000                               :08 SYSTEM VOLUME
PROBE_ID                .cm          1.2700                                 :09 TTK PROBE ID
G0                      .            4.6700                                 :10 GEOMETRY FACTOR


~A                  TIME     DD_PRESS                              DD_VOLUME               TEMP                                   DD_PRESS_MOD_1000       DD_PRESS_MOD_100        DD_PRESS_MOD_10         DD_PRESS_MOD_1        DD_PRESS_MOD_01       DD_PRESS_MOD_001      DD_PRESS_MOD_0001
# ...
                   94.50    342.87888                               16.22340             80.641                                        3.42879e+002           4.28789e+001           2.87888e+000           8.78880e-001           7.88798e-002           8.87984e-003           8.79839e-004
                   94.60    342.85274                               16.22340             80.641                                        3.42853e+002           4.28527e+001           2.85274e+000           8.52741e-001           5.27408e-002           2.74084e-003           7.40839e-004
                   94.70    342.83574                               16.22340             80.641                                        3.42836e+002           4.28357e+001           2.83574e+000           8.35740e-001           3.57404e-002           5.74038e-003           7.40383e-004
                   94.80    342.85229                               16.22340             80.641                                        3.42852e+002           4.28523e+001           2.85229e+000           8.52294e-001           5.22939e-002           2.29393e-003           2.93930e-004
                   94.90    342.87240                               16.22340             80.641                                        3.42872e+002           4.28724e+001           2.87240e+000           8.72401e-001           7.24013e-002           2.40129e-003           4.01291e-004
                   95.00    342.87783                               16.22340             80.641                                        3.42878e+002           4.28778e+001           2.87783e+000           8.77834e-001           7.78344e-002           7.83442e-003           8.34416e-004
                   95.10    342.87901                               16.22340             80.641                                        3.42879e+002           4.28790e+001           2.87901e+000           8.79008e-001           7.90083e-002           9.00833e-003           8.32810e-006
                   95.20    342.87988                               16.22340             80.641                                        3.42880e+002           4.28799e+001           2.87988e+000           8.79882e-001           7.98816e-002           9.88160e-003           8.81603e-004
                   95.30    342.87153                               16.22340             80.641                                        3.42872e+002           4.28715e+001           2.87153e+000           8.71533e-001           7.15327e-002           1.53275e-003           5.32748e-004
                   95.40    342.87095                               16.22340             80.641                                        3.42871e+002           4.28710e+001           2.87095e+000           8.70954e-001           7.09540e-002           9.53962e-004           9.53962e-004
                   95.50    342.88233                               16.22340             80.641                                        3.42882e+002           4.28823e+001           2.88233e+000           8.82335e-001           8.23348e-002           2.33479e-003           3.34792e-004
                   95.60    342.87761                               16.22340             80.641                                        3.42878e+002           4.28776e+001           2.87761e+000           8.77611e-001           7.76111e-002           7.61111e-003           6.11113e-004
                   95.70    342.85814                               16.22340             80.641                                        3.42858e+002           4.28581e+001           2.85814e+000           8.58137e-001           5.81372e-002           8.13718e-003           1.37178e-004
                   95.80    342.85604                               16.22340             80.641                                        3.42856e+002           4.28560e+001           2.85604e+000           8.56041e-001           5.60411e-002           6.04109e-003           4.10922e-005
                   95.90    342.88323                               16.22340             80.641                                        3.42883e+002           4.28832e+001           2.88323e+000           8.83228e-001           8.32285e-002           3.22846e-003           2.28464e-004
                   96.00    342.89164                               16.22340             80.641                                        3.42892e+002           4.28916e+001           2.89164e+000           8.91643e-001           9.16427e-002           1.64266e-003           6.42662e-004
                   96.10    342.86846                               16.22340             80.641                                        3.42868e+002           4.28685e+001           2.86846e+000           8.68460e-001           6.84597e-002           8.45973e-003           4.59728e-004
                   96.20    342.85797                               16.22340             80.641                                        3.42858e+002           4.28580e+001           2.85797e+000           8.57972e-001           5.79719e-002           7.97188e-003           9.71880e-004
                   96.30    342.87872                               16.22340             80.641                                        3.42879e+002           4.28787e+001           2.87872e+000           8.78716e-001           7.87159e-002           8.71593e-003           7.15931e-004
                   96.40    342.88739                               16.22340             80.641                                        3.42887e+002           4.28874e+001           2.88739e+000           8.87390e-001           8.73898e-002           7.38976e-003           3.89756e-004
                   96.50    342.86424                               16.22340             80.641                                        3.42864e+002           4.28642e+001           2.86424e+000           8.64243e-001           6.42428e-002           4.24276e-003           2.42761e-004
                   96.60    342.84840                               16.22340             80.641                                        3.42848e+002           4.28484e+001           2.84840e+000           8.48400e-001           4.84005e-002           8.40046e-003           4.00461e-004
                   96.70    342.85418                               16.22340             80.641                                        3.42854e+002           4.28542e+001           2.85418e+000           8.54176e-001           5.41762e-002           4.17624e-003           1.76236e-004
                   96.80    342.86966                               16.22340             80.641                                        3.42870e+002           4.28697e+001           2.86966e+000           8.69658e-001           6.96581e-002           9.65808e-003           6.58081e-004
                   96.90    342.88737                               16.22340             80.641                                        3.42887e+002           4.28874e+001           2.88737e+000           8.87370e-001           8.73699e-002           7.36995e-003           3.69948e-004
                   97.00    342.90197                               16.22340             80.641                                        3.42902e+002           4.29020e+001           2.90197e+000           9.01970e-001           1.97004e-003           1.97004e-003           9.70037e-004
                   97.10    342.89435                               16.22340             80.641                                        3.42894e+002           4.28944e+001           2.89435e+000           8.94354e-001           9.43539e-002           4.35390e-003           3.53901e-004
                   97.20    342.87826                               16.22340             80.641                                        3.42878e+002           4.28783e+001           2.87826e+000           8.78264e-001           7.82643e-002           8.26431e-003           2.64307e-004
