~VERSION INFORMATION
VERS                    .            2.0                                    :CWLS LOG ASCII STANDARD
WRAP                    .            NO                                     :ONE LINE PER TIME STEP


~WELL INFORMATION
#MNEM                   .UNIT        DATA                                    DESCRIPTION
#________________________________________________________________________________________
STRTTIME                .HH/MM/SS    11:07:04                               :START TIME
STOPTIME                .HH/MM/SS    11:10:49                               :STOP TIME
STRT                    .s           2.10                                   :START DATA
STOP                    .s           223.10                                 :STOP DATA
STEP                    .s           0.10                                   :MEASUREMENT TIME INTERVAL
NULL                    .            -999.25                                :NULL VALUE
COMP                    .            Statoil ASA                            :COMPANY
FLD                     .            Volve                                  :FIELD
WELL                    .            15/9-F-11 A                            :WELL
RUN                     .            8                                      :RUN
LOC                     .            Maersk Inspirer                        :LOCATION
PROV                    .            na                                     :PROVINCE
SRVC                    .            Baker Hughes INTEQ                     :SERVICE COMPANY
DATE                    .YY/MM/DD    13/05/21                               :LOG DATE
UWI                     .                                                   :UNIQUE WELL ID
DEPTHMD                 .m           3632.0                                 :MEASURED DEPTH
DEPTHTVD                .m           3026.9                                 :TRUE VERTICAL DEPTH


~CURVE INFORMATION
#MNEM                   .UNIT        API CODES                               DESCRIPTION
#________________________________________________________________________________________
TIME                    .s                                                  :01 TIME
DD_PRESS                .bar                                                :02 DRAW DOWN PRESSURE
DD_VOLUME               .cm3                                                :03 INCREMENTAL DRAW DOWN VOLUME
TEMP                    .degC                                               :04 TRANSDUCER TEMPERATURE
DD_PRESS_MOD_1000       .bar                                                :05 DRAW DOWN PRESSURE MOD 1000
DD_PRESS_MOD_100        .bar                                                :06 DRAW DOWN PRESSURE MOD 100
DD_PRESS_MOD_10         .bar                                                :07 DRAW DOWN PRESSURE MOD 10
DD_PRESS_MOD_1          .bar                                                :08 DRAW DOWN PRESSURE MOD 1
DD_PRESS_MOD_01         .bar                                                :09 DRAW DOWN PRESSURE MOD 01
DD_PRESS_MOD_001        .bar                                                :10 DRAW DOWN PRESSURE MOD 001
DD_PRESS_MOD_0001       .bar                                                :11 DRAW DOWN PRESSURE MOD 0001


~PARAMETER INFORMATION
#MNEM                   .UNIT        VALUE                                   DESCRIPTION
#________________________________________________________________________________________
TOOLFACE                .deg         66.7                                   :01 TOOLFACE
PUMP_CAPACITY           .bar         400                                    :02 NOMINAL DRAW DOWN PUMP CAPACITY
PUMP_LIMIT              .bar         240                                    :03 DOWNLINK PUMP LIMIT
TIME_LIMIT              .min         10                                     :04 DOWNLINK MAX TIME
TEST_TYPE               .            REPEAT                                 :05 DOWNLINK
TEST_TYPE               .            HIGH MOBILITY                          :06 DOWNLINK
DD_PIST_A               .cm2         3.1416                                 :07 DRAW DOWN PISTON AREA
V_SYS                   .cm3         131.0000                               :08 SYSTEM VOLUME
PROBE_ID                .cm          1.2700                                 :09 TTK PROBE ID
G0                      .            4.6700                                 :10 GEOMETRY FACTOR


~A                  TIME     DD_PRESS                              DD_VOLUME               TEMP                                   DD_PRESS_MOD_1000       DD_PRESS_MOD_100        DD_PRESS_MOD_10         DD_PRESS_MOD_1        DD_PRESS_MOD_01       DD_PRESS_MOD_001      DD_PRESS_MOD_0001
# ...
                  133.70    342.70787                               13.23782             80.594                                        3.42708e+002           4.27079e+001           2.70787e+000           7.07870e-001           7.87001e-003           7.87001e-003           8.70006e-004
                  133.80    342.71152                               13.23782             80.594                                        3.42712e+002           4.27115e+001           2.71152e+000           7.11524e-001           1.15236e-002           1.52361e-003           5.23612e-004
                  133.90    342.72096                               13.23782             80.594                                        3.42721e+002           4.27210e+001           2.72096e+000           7.20964e-001           2.09641e-002           9.64146e-004           9.64146e-004
                  134.00    342.71780                               13.23782             80.594                                        3.42718e+002           4.27178e+001           2.71780e+000           7.17800e-001           1.78003e-002           7.80034e-003           8.00336e-004
                  134.10    342.71524                               13.23782             80.594                                        3.42715e+002           4.27152e+001           2.71524e+000           7.15237e-001           1.52370e-002           5.23697e-003           2.36970e-004
                  134.20    342.72231                               13.23782             80.594                                        3.42722e+002           4.27223e+001           2.72231e+000           7.22314e-001           2.23139e-002           2.31391e-003           3.13911e-004
                  134.30    342.72379                               13.23782             80.594                                        3.42724e+002           4.27238e+001           2.72379e+000           7.23794e-001           2.37944e-002           3.79443e-003           7.94425e-004
                  134.40    342.71205                               13.23782             80.594                                        3.42712e+002           4.27121e+001           2.71205e+000           7.12055e-001           1.20547e-002           2.05472e-003           5.47247e-005
                  134.50    342.70707                               13.23782             80.594                                        3.42707e+002           4.27071e+001           2.70707e+000           7.07068e-001           7.06784e-003           7.06784e-003           6.78448e-005
                  134.60    342.72067                               13.23782             80.594                                        3.42721e+002           4.27207e+001           2.72067e+000           7.20671e-001           2.06714e-002           6.71371e-004           6.71371e-004
                  134.70    342.72914                               13.23782             80.594                                        3.42729e+002           4.27291e+001           2.72914e+000           7.29143e-001           2.91429e-002           9.14290e-003           1.42903e-004
                  134.80    342.72277                               13.23782             80.594                                        3.42723e+002           4.27228e+001           2.72277e+000           7.22767e-001           2.27668e-002           2.76681e-003           7.66813e-004
                  134.90    342.71418                               13.23782             80.594                                        3.42714e+002           4.27142e+001           2.71418e+000           7.14183e-001           1.41834e-002           4.18336e-003           1.83357e-004
                  135.00    342.71536                               13.23782             80.594                                        3.42715e+002           4.27154e+001           2.71536e+000           7.15361e-001           1.53610e-002           5.36105e-003           3.61049e-004
                  135.10    342.71881                               13.23782             80.594                                        3.42719e+002           4.27188e+001           2.71881e+000           7.18809e-001           1.88094e-002           8.80937e-003           8.09372e-004
                  135.20    342.71694                               13.23782             80.594                                        3.42717e+002           4.27169e+001           2.71694e+000           7.16940e-001           1.69399e-002           6.93993e-003           9.39931e-004
                  135.30    342.71470                               13.23782             80.594                                        3.42715e+002           4.27147e+001           2.71470e+000           7.14699e-001           1.46989e-002           4.69886e-003           6.98858e-004
                  135.40    342.71789                               13.23782             80.594                                        3.42718e+002           4.27179e+001           2.71789e+000           7.17895e-001           1.78948e-002           7.89475e-003           8.94753e-004
                  135.50    342.71638                               13.23782             80.594                                        3.42716e+002           4.27164e+001           2.71638e+000           7.16378e-001           1.63780e-002           6.37803e-003           3.78033e-004
                  135.60    342.71078                               13.23782             80.594                                        3.42711e+002           4.27108e+001           2.71078e+000           7.10779e-001           1.07786e-002           7.78640e-004           7.78640e-004
                  135.70    342.71387                               13.23782             80.594                                        3.42714e+002           4.27139e+001           2.71387e+000           7.13869e-001           1.38690e-002           3.86897e-003           8.68968e-004
                  135.80    342.72060                               13.23782             80.594                                        3.42721e+002           4.27206e+001           2.72060e+000           7.20599e-001           2.05989e-002           5.98879e-004           5.98879e-004
                  135.90    342.71825                               13.23782             80.594                                        3.42718e+002           4.27182e+001           2.71825e+000           7.18248e-001           1.82481e-002           8.24813e-003           2.48130e-004
                  136.00    342.70866                               13.23782             80.594                                        3.42709e+002           4.27087e+001           2.70866e+000           7.08660e-001           8.65974e-003           8.65974e-003           6.59741e-004
                  136.10    342.70923                               13.23782             80.594                                        3.42709e+002           4.27092e+001           2.70923e+000           7.09228e-001           9.22789e-003           9.22789e-003           2.27891e-004
                  136.20    342.71880                               13.23782             80.594                                        3.42719e+002           4.27188e+001           2.71880e+000           7.18797e-001           1.87969e-002           8.79689e-003           7.96886e-004
                  136.30    342.72463                               13.23782             80.594                                        3.42725e+002           4.27246e+001           2.72463e+000           7.24630e-001           2.46298e-002           4.62978e-003           6.29781e-004
                  136.40    342.72565                               13.23782             80.594                                        3.42726e+002           4.27257e+001           2.72565e+000           7.25654e-001           2.56536e-002           5.65359e-003           6.53595e-004
