~VERSION INFORMATION
VERS                    .            2.0                                    :CWLS LOG ASCII STANDARD
WRAP                    .            NO                                     :ONE LINE PER TIME STEP


~WELL INFORMATION
#MNEM                   .UNIT        DATA                                    DESCRIPTION
#________________________________________________________________________________________
STRTTIME                .HH/MM/SS    23:13:04                               :START TIME
STOPTIME                .HH/MM/SS    23:16:31                               :STOP TIME
STRT                    .s           2.10                                   :START DATA
STOP                    .s           205.60                                 :STOP DATA
STEP                    .s           0.10                                   :MEASUREMENT TIME INTERVAL
NULL                    .            -999.25                                :NULL VALUE
COMP                    .            Statoil ASA                            :COMPANY
FLD                     .            Volve                                  :FIELD
WELL                    .            15/9-F-1 C                             :WELL
RUN                     .            4                                      :RUN
LOC                     .                                                   :LOCATION
PROV                    .            na                                     :PROVINCE
SRVC                    .            Baker Hughes INTEQ                     :SERVICE COMPANY
DATE                    .YY/MM/DD    14/03/14                               :LOG DATE
UWI                     .                                                   :UNIQUE WELL ID
DEPTHMD                 .m           3858.0                                 :MEASURED DEPTH
DEPTHTVD                .m           3096.5                                 :TRUE VERTICAL DEPTH


~CURVE INFORMATION
#MNEM                   .UNIT        API CODES                               DESCRIPTION
#________________________________________________________________________________________
TIME                    .s                                                  :01 TIME
DD_PRESS                .bar                                                :02 DRAW DOWN PRESSURE
DD_VOLUME               .cm3                                                :03 INCREMENTAL DRAW DOWN VOLUME
TEMP                    .degC                                               :04 TRANSDUCER TEMPERATURE
DD_PRESS_MOD_1000       .bar                                                :05 DRAW DOWN PRESSURE MOD 1000
DD_PRESS_MOD_100        .bar                                                :06 DRAW DOWN PRESSURE MOD 100
DD_PRESS_MOD_10         .bar                                                :07 DRAW DOWN PRESSURE MOD 10
DD_PRESS_MOD_1          .bar                                                :08 DRAW DOWN PRESSURE MOD 1
DD_PRESS_MOD_01         .bar                                                :09 DRAW DOWN PRESSURE MOD 01
DD_PRESS_MOD_001        .bar                                                :10 DRAW DOWN PRESSURE MOD 001
DD_PRESS_MOD_0001       .bar                                                :11 DRAW DOWN PRESSURE MOD 0001


~PARAMETER INFORMATION
#MNEM                   .UNIT        VALUE                                   DESCRIPTION
#________________________________________________________________________________________
TOOLFACE                .deg         88.6                                   :01 TOOLFACE
PUMP_CAPACITY           .bar         400                                    :02 NOMINAL DRAW DOWN PUMP CAPACITY
PUMP_LIMIT              .bar         240                                    :03 DOWNLINK PUMP LIMIT
TIME_LIMIT              .min         10                                     :04 DOWNLINK MAX TIME
TEST_TYPE               .            HIGH MOBILITY                          :05 DOWNLINK
DD_PIST_A               .cm2         3.1416                                 :06 DRAW DOWN PISTON AREA
V_SYS                   .cm3         131.0000                               :07 SYSTEM VOLUME
PROBE_ID                .cm          1.2700                                 :08 TTK PROBE ID
G0                      .            4.6700                                 :09 GEOMETRY FACTOR


~A                  TIME     DD_PRESS                              DD_VOLUME               TEMP                                   DD_PRESS_MOD_1000       DD_PRESS_MOD_100        DD_PRESS_MOD_10         DD_PRESS_MOD_1        DD_PRESS_MOD_01       DD_PRESS_MOD_001      DD_PRESS_MOD_0001
# ...
                  136.50    332.48710                               24.64292             90.008                                        3.32487e+002           3.24871e+001           2.48710e+000           4.87103e-001           8.71032e-002           7.10317e-003           1.03171e-004
                  136.60    332.45436                               24.84778             90.008                                        3.32454e+002           3.24544e+001           2.45436e+000           4.54361e-001           5.43610e-002           4.36098e-003           3.60975e-004
                  136.70    332.42711                               25.05259             90.008                                        3.32427e+002           3.24271e+001           2.42711e+000           4.27107e-001           2.71071e-002           7.10712e-003           1.07116e-004
                  136.80    332.40476                               25.25716             90.008                                        3.32405e+002           3.24048e+001           2.40476e+000           4.04756e-001           4.75597e-003           4.75597e-003           7.55968e-004
                  136.90    332.37994                               25.46209             90.008                                        3.32380e+002           3.23799e+001           2.37994e+000           3.79940e-001           7.99397e-002           9.93969e-003           9.39688e-004
                  137.00    332.35580                               25.66713             90.008                                        3.32356e+002           3.23558e+001           2.35580e+000           3.55796e-001           5.57955e-002           5.79551e-003           7.95507e-004
                  137.10    332.33798                               25.87208             90.008                                        3.32338e+002           3.23380e+001           2.33798e+000           3.37979e-001           3.79788e-002           7.97880e-003           9.78804e-004
                  137.20    332.32902                               26.07714             90.008                                        3.32329e+002           3.23290e+001           2.32902e+000           3.29017e-001           2.90170e-002           9.01699e-003           1.69868e-005
                  137.30    332.31989                               26.28240             90.008                                        3.32320e+002           3.23199e+001           2.31989e+000           3.19887e-001           1.98868e-002           9.88678e-003           8.86777e-004
                  137.40    332.30611                               26.48771             90.008                                        3.32306e+002           3.23061e+001           2.30611e+000           3.06114e-001           6.11450e-003           6.11450e-003           1.14496e-004
                  137.50    332.29631                               26.69289             90.008                                        3.32296e+002           3.22963e+001           2.29631e+000           2.96306e-001           9.63059e-002           6.30592e-003           3.05924e-004
                  137.60    332.29220                               26.89835             90.008                                        3.32292e+002           3.22922e+001           2.29220e+000           2.92200e-001           9.22000e-002           2.20000e-003           1.99998e-004
                  137.70    332.28245                               27.10399             90.008                                        3.32282e+002           3.22825e+001           2.28245e+000           2.82451e-001           8.24507e-002           2.45068e-003           4.50685e-004
                  137.80    332.27431                               27.30982             90.008                                        3.32274e+002           3.22743e+001           2.27431e+000           2.74313e-001           7.43128e-002           4.31284e-003           3.12842e-004
                  137.90    332.27035                               27.51574             90.008                                        3.32270e+002           3.22704e+001           2.27035e+000           2.70352e-001           7.03524e-002           3.52367e-004           3.52367e-004
                  138.00    332.26708                               27.72163             90.008                                        3.32267e+002           3.22671e+001           2.26708e+000           2.67079e-001           6.70785e-002           7.07853e-003           7.85323e-005
                  138.10    332.26115                               27.92737             90.008                                        3.32261e+002           3.22612e+001           2.26115e+000           2.61152e-001           6.11516e-002           1.15159e-003           1.51593e-004
                  138.20    332.25799                               28.13308             90.008                                        3.32258e+002           3.22580e+001           2.25799e+000           2.57993e-001           5.79930e-002           7.99296e-003           9.92961e-004
                  138.30    332.25371                               28.33872             90.008                                        3.32254e+002           3.22537e+001           2.25371e+000           2.53710e-001           5.37100e-002           3.71004e-003           7.10044e-004
                  138.40    332.25253                               28.54443             90.005                                        3.32253e+002           3.22525e+001           2.25253e+000           2.52533e-001           5.25333e-002           2.53329e-003           5.33290e-004
                  138.50    332.25148                               28.75021             90.002                                        3.32251e+002           3.22515e+001           2.25148e+000           2.51481e-001           5.14807e-002           1.48065e-003           4.80652e-004
                  138.60    332.24896                               28.95587             90.000                                        3.32249e+002           3.22490e+001           2.24896e+000           2.48961e-001           4.89614e-002           8.96138e-003           9.61380e-004
                  138.70    332.60797                               29.15582             90.000                                        3.32608e+002           3.26080e+001           2.60797e+000           6.07974e-001           7.97428e-003           7.97428e-003           9.74280e-004
                  138.80    335.96672                               29.29682             90.000                                        3.35967e+002           3.59667e+001           5.96672e+000           9.66718e-001           6.67180e-002           6.71800e-003           7.18001e-004
                  138.90    342.03701                               29.34915             90.000                                        3.42037e+002           4.20370e+001           2.03701e+000           3.70089e-002           3.70089e-002           7.00891e-003           8.91431e-006
                  139.00    347.19747                               29.35196             90.000                                        3.47197e+002           4.71975e+001           7.19747e+000           1.97466e-001           9.74656e-002           7.46563e-003           4.65627e-004
                  139.10    349.73510                               29.35196             90.000                                        3.49735e+002           4.97351e+001           9.73510e+000           7.35099e-001           3.50992e-002           5.09917e-003           9.91651e-005
                  139.20    350.93667                               29.35196             90.000                                        3.50937e+002           5.09367e+001           9.36667e-001           9.36667e-001           3.66668e-002           6.66679e-003           6.66790e-004
