~VERSION INFORMATION
VERS                    .            2.0                                    :CWLS LOG ASCII STANDARD
WRAP                    .            NO                                     :ONE LINE PER TIME STEP


~WELL INFORMATION
#MNEM                   .UNIT        DATA                                    DESCRIPTION
#________________________________________________________________________________________
STRTTIME                .HH/MM/SS    16:37:30                               :START TIME
STOPTIME                .HH/MM/SS    16:40:36                               :STOP TIME
STRT                    .s           2.10                                   :START DATA
STOP                    .s           184.70                                 :STOP DATA
STEP                    .s           0.10                                   :MEASUREMENT TIME INTERVAL
NULL                    .            -999.25                                :NULL VALUE
COMP                    .            Statoil ASA                            :COMPANY
FLD                     .            Volve                                  :FIELD
WELL                    .            15/9-F-1 B                             :WELL
RUN                     .            7                                      :RUN
LOC                     .            Maersk Inspirer                        :LOCATION
PROV                    .            na                                     :PROVINCE
SRVC                    .            Baker Hughes INTEQ                     :SERVICE COMPANY
DATE                    .YY/MM/DD    13/09/06                               :LOG DATE
UWI                     .                                                   :UNIQUE WELL ID
DEPTHMD                 .m           3247.0                                 :MEASURED DEPTH
DEPTHTVD                .m           3043.3                                 :TRUE VERTICAL DEPTH


~CURVE INFORMATION
#MNEM                   .UNIT        API CODES                               DESCRIPTION
#________________________________________________________________________________________
TIME                    .s                                                  :01 TIME
DD_PRESS                .bar                                                :02 DRAW DOWN PRESSURE
DD_VOLUME               .cm3                                                :03 INCREMENTAL DRAW DOWN VOLUME
TEMP                    .degC                                               :04 TRANSDUCER TEMPERATURE
DD_PRESS_MOD_1000       .bar                                                :05 DRAW DOWN PRESSURE MOD 1000
DD_PRESS_MOD_100        .bar                                                :06 DRAW DOWN PRESSURE MOD 100
DD_PRESS_MOD_10         .bar                                                :07 DRAW DOWN PRESSURE MOD 10
DD_PRESS_MOD_1          .bar                                                :08 DRAW DOWN PRESSURE MOD 1
DD_PRESS_MOD_01         .bar                                                :09 DRAW DOWN PRESSURE MOD 01
DD_PRESS_MOD_001        .bar                                                :10 DRAW DOWN PRESSURE MOD 001
DD_PRESS_MOD_0001       .bar                                                :11 DRAW DOWN PRESSURE MOD 0001


~PARAMETER INFORMATION
#MNEM                   .UNIT        VALUE                                   DESCRIPTION
#________________________________________________________________________________________
TOOLFACE                .deg         na                                     :01 TOOLFACE
PUMP_CAPACITY           .bar         400                                    :02 NOMINAL DRAW DOWN PUMP CAPACITY
PUMP_LIMIT              .bar         400                                    :03 DOWNLINK PUMP LIMIT
TIME_LIMIT              .min         10                                     :04 DOWNLINK MAX TIME
TEST_TYPE               .            LOW MOBILITY                           :05 DOWNLINK
DD_PIST_A               .cm2         3.1416                                 :06 DRAW DOWN PISTON AREA
V_SYS                   .cm3         131.0000                               :07 SYSTEM VOLUME
PROBE_ID                .cm          1.2700                                 :08 TTK PROBE ID
G0                      .            4.6700                                 :09 GEOMETRY FACTOR


~A                  TIME     DD_PRESS                              DD_VOLUME               TEMP                                   DD_PRESS_MOD_1000       DD_PRESS_MOD_100        DD_PRESS_MOD_10         DD_PRESS_MOD_1        DD_PRESS_MOD_01       DD_PRESS_MOD_001      DD_PRESS_MOD_0001
# ...
                   38.50    340.07228                                9.96079             81.555                                        3.40072e+002           4.00723e+001           7.22842e-002           7.22842e-002           7.22842e-002           2.28422e-003           2.84218e-004
                   38.60    340.17416                               10.02699             81.552                                        3.40174e+002           4.01742e+001           1.74163e-001           1.74163e-001           7.41626e-002           4.16264e-003           1.62642e-004
                   38.70    340.28177                               10.09159             81.549                                        3.40282e+002           4.02818e+001           2.81766e-001           2.81766e-001           8.17657e-002           1.76567e-003           7.65673e-004
                   38.80    340.37969                               10.15453             81.547                                        3.40380e+002           4.03797e+001           3.79691e-001           3.79691e-001           7.96910e-002           9.69100e-003           6.90996e-004
                   38.90    340.46928                               10.21595             81.547                                        3.40469e+002           4.04693e+001           4.69282e-001           4.69282e-001           6.92818e-002           9.28181e-003           2.81814e-004
                   39.00    340.56778                               10.27594             81.547                                        3.40568e+002           4.05678e+001           5.67776e-001           5.67776e-001           6.77763e-002           7.77626e-003           7.76264e-004
                   39.10    340.68049                               10.33447             81.547                                        3.40680e+002           4.06805e+001           6.80492e-001           6.80492e-001           8.04922e-002           4.92159e-004           4.92159e-004
                   39.20    340.78137                               10.39121             81.547                                        3.40781e+002           4.07814e+001           7.81370e-001           7.81370e-001           8.13705e-002           1.37046e-003           3.70462e-004
                   39.30    340.87077                               10.44621             81.547                                        3.40871e+002           4.08708e+001           8.70770e-001           8.70770e-001           7.07697e-002           7.69683e-004           7.69683e-004
                   39.40    340.98617                               10.49968             81.547                                        3.40986e+002           4.09862e+001           9.86166e-001           9.86166e-001           8.61663e-002           6.16633e-003           1.66332e-004
                   39.50    341.12362                               10.55143             81.547                                        3.41124e+002           4.11236e+001           1.12362e+000           1.23616e-001           2.36163e-002           3.61629e-003           6.16292e-004
                   39.60    341.23859                               10.60147             81.547                                        3.41239e+002           4.12386e+001           1.23859e+000           2.38594e-001           3.85940e-002           8.59399e-003           5.93986e-004
                   39.70    341.33140                               10.64971             81.547                                        3.41331e+002           4.13314e+001           1.33140e+000           3.31398e-001           3.13985e-002           1.39846e-003           3.98461e-004
                   39.80    341.44790                               10.69616             81.547                                        3.41448e+002           4.14479e+001           1.44790e+000           4.47895e-001           4.78954e-002           7.89540e-003           8.95397e-004
                   39.90    341.58695                               10.74086             81.547                                        3.41587e+002           4.15870e+001           1.58695e+000           5.86952e-001           8.69524e-002           6.95240e-003           9.52402e-004
                   40.00    341.69700                               10.78373             81.547                                        3.41697e+002           4.16970e+001           1.69700e+000           6.97004e-001           9.70043e-002           7.00431e-003           4.30562e-006
                   40.10    341.78368                               10.82484             81.547                                        3.41784e+002           4.17837e+001           1.78368e+000           7.83681e-001           8.36807e-002           3.68068e-003           6.80682e-004
                   40.20    341.89573                               10.86421             81.547                                        3.41896e+002           4.18957e+001           1.89573e+000           8.95727e-001           9.57273e-002           5.72731e-003           7.27310e-004
                   40.30    342.03342                               10.90178             81.547                                        3.42033e+002           4.20334e+001           2.03342e+000           3.34156e-002           3.34156e-002           3.41556e-003           4.15555e-004
                   40.40    342.15583                               10.93740             81.547                                        3.42156e+002           4.21558e+001           2.15583e+000           1.55834e-001           5.58341e-002           5.83409e-003           8.34088e-004
                   40.50    342.46129                               10.96772             81.547                                        3.42461e+002           4.24613e+001           2.46129e+000           4.61287e-001           6.12869e-002           1.28687e-003           2.86866e-004
                   40.60    343.23103                               10.98435             81.547                                        3.43231e+002           4.32310e+001           3.23103e+000           2.31031e-001           3.10306e-002           1.03064e-003           3.06411e-005
                   40.70    344.04553                               10.98812             81.547                                        3.44046e+002           4.40455e+001           4.04553e+000           4.55313e-002           4.55313e-002           5.53128e-003           5.31283e-004
                   40.80    344.38710                               10.98828             81.547                                        3.44387e+002           4.43871e+001           4.38710e+000           3.87099e-001           8.70991e-002           7.09907e-003           9.90676e-005
                   40.90    344.47175                               10.98828             81.547                                        3.44472e+002           4.44717e+001           4.47175e+000           4.71748e-001           7.17478e-002           1.74777e-003           7.47775e-004
                   41.00    344.50038                               10.98828             81.547                                        3.44500e+002           4.45004e+001           4.50038e+000           5.00378e-001           3.78168e-004           3.78168e-004           3.78168e-004
                   41.10    344.52734                               10.98828             81.547                                        3.44527e+002           4.45273e+001           4.52734e+000           5.27335e-001           2.73354e-002           7.33540e-003           3.35397e-004
                   41.20    344.53821                               10.98828             81.547                                        3.44538e+002           4.45382e+001           4.53821e+000           5.38214e-001           3.82137e-002           8.21374e-003           2.13745e-004
