~VERSION INFORMATION
VERS                    .            2.0                                    :CWLS LOG ASCII STANDARD
WRAP                    .            NO                                     :ONE LINE PER TIME STEP


~WELL INFORMATION
#MNEM                   .UNIT        DATA                                    DESCRIPTION
#________________________________________________________________________________________
STRTTIME                .HH/MM/SS    01:44:52                               :START TIME
STOPTIME                .HH/MM/SS    01:47:47                               :STOP TIME
STRT                    .s           2.10                                   :START DATA
STOP                    .s           173.40                                 :STOP DATA
STEP                    .s           0.10                                   :MEASUREMENT TIME INTERVAL
NULL                    .            -999.25                                :NULL VALUE
COMP                    .            Statoil ASA                            :COMPANY
FLD                     .            Volve                                  :FIELD
WELL                    .            15/9-F-1 C                             :WELL
RUN                     .            4                                      :RUN
LOC                     .                                                   :LOCATION
PROV                    .            na                                     :PROVINCE
SRVC                    .            Baker Hughes INTEQ                     :SERVICE COMPANY
DATE                    .YY/MM/DD    14/03/15                               :LOG DATE
UWI                     .                                                   :UNIQUE WELL ID
DEPTHMD                 .m           3620.2                                 :MEASURED DEPTH
DEPTHTVD                .m           3012.3                                 :TRUE VERTICAL DEPTH


~CURVE INFORMATION
#MNEM                   .UNIT        API CODES                               DESCRIPTION
#________________________________________________________________________________________
TIME                    .s                                                  :01 TIME
DD_PRESS                .bar                                                :02 DRAW DOWN PRESSURE
DD_VOLUME               .cm3                                                :03 INCREMENTAL DRAW DOWN VOLUME
TEMP                    .degC                                               :04 TRANSDUCER TEMPERATURE
DD_PRESS_MOD_1000       .bar                                                :05 DRAW DOWN PRESSURE MOD 1000
DD_PRESS_MOD_100        .bar                                                :06 DRAW DOWN PRESSURE MOD 100
DD_PRESS_MOD_10         .bar                                                :07 DRAW DOWN PRESSURE MOD 10
DD_PRESS_MOD_1          .bar                                                :08 DRAW DOWN PRESSURE MOD 1
DD_PRESS_MOD_01         .bar                                                :09 DRAW DOWN PRESSURE MOD 01
DD_PRESS_MOD_001        .bar                                                :10 DRAW DOWN PRESSURE MOD 001
DD_PRESS_MOD_0001       .bar                                                :11 DRAW DOWN PRESSURE MOD 0001


~PARAMETER INFORMATION
#MNEM                   .UNIT        VALUE                                   DESCRIPTION
#________________________________________________________________________________________
TOOLFACE                .deg         108.7                                  :01 TOOLFACE
PUMP_CAPACITY           .bar         400                                    :02 NOMINAL DRAW DOWN PUMP CAPACITY
PUMP_LIMIT              .bar         240                                    :03 DOWNLINK PUMP LIMIT
TIME_LIMIT              .min         10                                     :04 DOWNLINK MAX TIME
TEST_TYPE               .            REPEAT                                 :05 DOWNLINK
TEST_TYPE               .            HIGH MOBILITY                          :06 DOWNLINK
DD_PIST_A               .cm2         3.1416                                 :07 DRAW DOWN PISTON AREA
V_SYS                   .cm3         131.0000                               :08 SYSTEM VOLUME
PROBE_ID                .cm          1.2700                                 :09 TTK PROBE ID
G0                      .            4.6700                                 :10 GEOMETRY FACTOR


~A                  TIME     DD_PRESS                              DD_VOLUME               TEMP                                   DD_PRESS_MOD_1000       DD_PRESS_MOD_100        DD_PRESS_MOD_10         DD_PRESS_MOD_1        DD_PRESS_MOD_01       DD_PRESS_MOD_001      DD_PRESS_MOD_0001
# ...
                   58.10    344.35390                               10.69069             87.156                                        3.44354e+002           4.43539e+001           4.35390e+000           3.53900e-001           5.38998e-002           3.89984e-003           8.99836e-004
                   58.20    344.35359                               10.69069             87.156                                        3.44354e+002           4.43536e+001           4.35359e+000           3.53594e-001           5.35940e-002           3.59402e-003           5.94019e-004
                   58.30    344.35595                               10.69069             87.156                                        3.44356e+002           4.43559e+001           4.35595e+000           3.55946e-001           5.59463e-002           5.94627e-003           9.46271e-004
                   58.40    344.35632                               10.69069             87.156                                        3.44356e+002           4.43563e+001           4.35632e+000           3.56325e-001           5.63249e-002           6.32494e-003           3.24944e-004
                   58.50    344.35486                               10.69069             87.156                                        3.44355e+002           4.43549e+001           4.35486e+000           3.54858e-001           5.48583e-002           4.85829e-003           8.58291e-004
                   58.60    344.35510                               10.69069             87.156                                        3.44355e+002           4.43551e+001           4.35510e+000           3.55095e-001           5.50953e-002           5.09534e-003           9.53434e-005
                   58.70    344.35589                               10.69069             87.156                                        3.44356e+002           4.43559e+001           4.35589e+000           3.55891e-001           5.58910e-002           5.89104e-003           8.91041e-004
                   58.80    344.35557                               10.69069             87.156                                        3.44356e+002           4.43556e+001           4.35557e+000           3.55567e-001           5.55672e-002           5.56720e-003           5.67201e-004
                   58.90    344.35627                               10.69069             87.156                                        3.44356e+002           4.43563e+001           4.35627e+000           3.56268e-001           5.62676e-002           6.26765e-003           2.67650e-004
                   59.00    344.35667                               10.69069             87.156                                        3.44357e+002           4.43567e+001           4.35667e+000           3.56674e-001           5.66735e-002           6.67354e-003           6.73539e-004
                   59.10    344.35561                               10.69069             87.156                                        3.44356e+002           4.43556e+001           4.35561e+000           3.55606e-001           5.56058e-002           5.60580e-003           6.05801e-004
                   59.20    344.35493                               10.69069             87.156                                        3.44355e+002           4.43549e+001           4.35493e+000           3.54930e-001           5.49299e-002           4.92991e-003           9.29907e-004
                   59.30    344.35553                               10.69069             87.156                                        3.44356e+002           4.43555e+001           4.35553e+000           3.55532e-001           5.55322e-002           5.53218e-003           5.32182e-004
                   59.40    344.35654                               10.69069             87.156                                        3.44357e+002           4.43565e+001           4.35654e+000           3.56541e-001           5.65410e-002           6.54105e-003           5.41050e-004
                   59.50    344.35710                               10.69069             87.156                                        3.44357e+002           4.43571e+001           4.35710e+000           3.57102e-001           5.71017e-002           7.10172e-003           1.01720e-004
                   59.60    344.35458                               10.69069             87.156                                        3.44355e+002           4.43546e+001           4.35458e+000           3.54575e-001           5.45754e-002           4.57539e-003           5.75387e-004
                   59.70    344.35539                               10.69069             87.156                                        3.44355e+002           4.43554e+001           4.35539e+000           3.55394e-001           5.53943e-002           5.39429e-003           3.94293e-004
                   59.80    344.35694                               10.69069             87.156                                        3.44357e+002           4.43569e+001           4.35694e+000           3.56943e-001           5.69430e-002           6.94297e-003           9.42968e-004
                   59.90    344.35537                               10.69069             87.156                                        3.44355e+002           4.43554e+001           4.35537e+000           3.55365e-001           5.53650e-002           5.36504e-003           3.65045e-004
                   60.00    344.35518                               10.69069             87.156                                        3.44355e+002           4.43552e+001           4.35518e+000           3.55179e-001           5.51790e-002           5.17902e-003           1.79016e-004
                   60.10    344.35448                               10.69069             87.156                                        3.44354e+002           4.43545e+001           4.35448e+000           3.54476e-001           5.44755e-002           4.47555e-003           4.75549e-004
                   60.20    344.35381                               10.69069             87.156                                        3.44354e+002           4.43538e+001           4.35381e+000           3.53805e-001           5.38054e-002           3.80540e-003           8.05404e-004
                   60.30    344.35550                               10.69069             87.156                                        3.44356e+002           4.43555e+001           4.35550e+000           3.55504e-001           5.55045e-002           5.50445e-003           5.04452e-004
                   60.40    344.35788                               10.69069             87.156                                        3.44358e+002           4.43579e+001           4.35788e+000           3.57879e-001           5.78786e-002           7.87863e-003           8.78629e-004
                   60.50    344.35665                               10.69069             87.156                                        3.44357e+002           4.43567e+001           4.35665e+000           3.56653e-001           5.66529e-002           6.65292e-003           6.52919e-004
                   60.60    344.35394                               10.69069             87.156                                        3.44354e+002           4.43539e+001           4.35394e+000           3.53938e-001           5.39382e-002           3.93816e-003           9.38164e-004
                   60.70    344.35268                               10.69069             87.156                                        3.44353e+002           4.43527e+001           4.35268e+000           3.52679e-001           5.26785e-002           2.67855e-003           6.78548e-004
                   60.80    344.35467                               10.69069             87.156                                        3.44355e+002           4.43547e+001           4.35467e+000           3.54669e-001           5.46686e-002           4.66864e-003           6.68642e-004
