~VERSION INFORMATION
VERS                    .            2.0                                    :CWLS LOG ASCII STANDARD
WRAP                    .            NO                                     :ONE LINE PER TIME STEP


~WELL INFORMATION
#MNEM                   .UNIT        DATA                                    DESCRIPTION
#________________________________________________________________________________________
STRTTIME                .HH/MM/SS    16:37:30                               :START TIME
STOPTIME                .HH/MM/SS    16:40:36                               :STOP TIME
STRT                    .s           2.10                                   :START DATA
STOP                    .s           184.70                                 :STOP DATA
STEP                    .s           0.10                                   :MEASUREMENT TIME INTERVAL
NULL                    .            -999.25                                :NULL VALUE
COMP                    .            Statoil ASA                            :COMPANY
FLD                     .            Volve                                  :FIELD
WELL                    .            15/9-F-1 B                             :WELL
RUN                     .            7                                      :RUN
LOC                     .            Maersk Inspirer                        :LOCATION
PROV                    .            na                                     :PROVINCE
SRVC                    .            Baker Hughes INTEQ                     :SERVICE COMPANY
DATE                    .YY/MM/DD    13/09/06                               :LOG DATE
UWI                     .                                                   :UNIQUE WELL ID
DEPTHMD                 .m           3247.0                                 :MEASURED DEPTH
DEPTHTVD                .m           3043.3                                 :TRUE VERTICAL DEPTH


~CURVE INFORMATION
#MNEM                   .UNIT        API CODES                               DESCRIPTION
#________________________________________________________________________________________
TIME                    .s                                                  :01 TIME
DD_PRESS                .bar                                                :02 DRAW DOWN PRESSURE
DD_VOLUME               .cm3                                                :03 INCREMENTAL DRAW DOWN VOLUME
TEMP                    .degC                                               :04 TRANSDUCER TEMPERATURE
DD_PRESS_MOD_1000       .bar                                                :05 DRAW DOWN PRESSURE MOD 1000
DD_PRESS_MOD_100        .bar                                                :06 DRAW DOWN PRESSURE MOD 100
DD_PRESS_MOD_10         .bar                                                :07 DRAW DOWN PRESSURE MOD 10
DD_PRESS_MOD_1          .bar                                                :08 DRAW DOWN PRESSURE MOD 1
DD_PRESS_MOD_01         .bar                                                :09 DRAW DOWN PRESSURE MOD 01
DD_PRESS_MOD_001        .bar                                                :10 DRAW DOWN PRESSURE MOD 001
DD_PRESS_MOD_0001       .bar                                                :11 DRAW DOWN PRESSURE MOD 0001


~PARAMETER INFORMATION
#MNEM                   .UNIT        VALUE                                   DESCRIPTION
#________________________________________________________________________________________
TOOLFACE                .deg         na                                     :01 TOOLFACE
PUMP_CAPACITY           .bar         400                                    :02 NOMINAL DRAW DOWN PUMP CAPACITY
PUMP_LIMIT              .bar         400                                    :03 DOWNLINK PUMP LIMIT
TIME_LIMIT              .min         10                                     :04 DOWNLINK MAX TIME
TEST_TYPE               .            LOW MOBILITY                           :05 DOWNLINK
DD_PIST_A               .cm2         3.1416                                 :06 DRAW DOWN PISTON AREA
V_SYS                   .cm3         131.0000                               :07 SYSTEM VOLUME
PROBE_ID                .cm          1.2700                                 :08 TTK PROBE ID
G0                      .            4.6700                                 :09 GEOMETRY FACTOR


~A                  TIME     DD_PRESS                              DD_VOLUME               TEMP                                   DD_PRESS_MOD_1000       DD_PRESS_MOD_100        DD_PRESS_MOD_10         DD_PRESS_MOD_1        DD_PRESS_MOD_01       DD_PRESS_MOD_001      DD_PRESS_MOD_0001
# ...
                  144.90    344.55832                               29.23081             81.508                                        3.44558e+002           4.45583e+001           4.55832e+000           5.58319e-001           5.83189e-002           8.31893e-003           3.18932e-004
                  145.00    344.56097                               29.23081             81.508                                        3.44561e+002           4.45610e+001           4.56097e+000           5.60968e-001           6.09679e-002           9.67852e-004           9.67852e-004
                  145.10    344.57331                               29.23081             81.508                                        3.44573e+002           4.45733e+001           4.57331e+000           5.73312e-001           7.33120e-002           3.31201e-003           3.12014e-004
                  145.20    344.57594                               29.23081             81.508                                        3.44576e+002           4.45759e+001           4.57594e+000           5.75943e-001           7.59427e-002           5.94266e-003           9.42656e-004
                  145.30    344.55670                               29.23081             81.508                                        3.44557e+002           4.45567e+001           4.55670e+000           5.56700e-001           5.67001e-002           6.70008e-003           7.00080e-004
                  145.40    344.54828                               29.23081             81.508                                        3.44548e+002           4.45483e+001           4.54828e+000           5.48277e-001           4.82769e-002           8.27691e-003           2.76911e-004
                  145.50    344.56599                               29.23081             81.508                                        3.44566e+002           4.45660e+001           4.56599e+000           5.65990e-001           6.59896e-002           5.98962e-003           9.89622e-004
                  145.60    344.58102                               29.23081             81.508                                        3.44581e+002           4.45810e+001           4.58102e+000           5.81015e-001           8.10155e-002           1.01548e-003           1.54833e-005
                  145.70    344.55788                               29.23081             81.508                                        3.44558e+002           4.45579e+001           4.55788e+000           5.57884e-001           5.78839e-002           7.88389e-003           8.83895e-004
                  145.80    344.53753                               29.23081             81.508                                        3.44538e+002           4.45375e+001           4.53753e+000           5.37528e-001           3.75281e-002           7.52811e-003           5.28112e-004
                  145.90    344.55890                               29.23081             81.508                                        3.44559e+002           4.45589e+001           4.55890e+000           5.58901e-001           5.89011e-002           8.90108e-003           9.01075e-004
                  146.00    344.58898                               29.23081             81.508                                        3.44589e+002           4.45890e+001           4.58898e+000           5.88976e-001           8.89761e-002           8.97606e-003           9.76058e-004
                  146.10    344.57759                               29.23081             81.508                                        3.44578e+002           4.45776e+001           4.57759e+000           5.77585e-001           7.75853e-002           7.58528e-003           5.85284e-004
                  146.20    344.54609                               29.23081             81.508                                        3.44546e+002           4.45461e+001           4.54609e+000           5.46094e-001           4.60935e-002           6.09351e-003           9.35057e-005
                  146.30    344.54293                               29.23081             81.508                                        3.44543e+002           4.45429e+001           4.54293e+000           5.42932e-001           4.29318e-002           2.93183e-003           9.31831e-004
                  146.40    344.57030                               29.23081             81.508                                        3.44570e+002           4.45703e+001           4.57030e+000           5.70297e-001           7.02968e-002           2.96834e-004           2.96834e-004
                  146.50    344.57594                               29.23081             81.508                                        3.44576e+002           4.45759e+001           4.57594e+000           5.75939e-001           7.59388e-002           5.93877e-003           9.38771e-004
                  146.60    344.55993                               29.23081             81.508                                        3.44560e+002           4.45599e+001           4.55993e+000           5.59927e-001           5.99271e-002           9.92712e-003           9.27118e-004
                  146.70    344.55573                               29.23081             81.508                                        3.44556e+002           4.45557e+001           4.55573e+000           5.55728e-001           5.57281e-002           5.72805e-003           7.28050e-004
                  146.80    344.56767                               29.23081             81.508                                        3.44568e+002           4.45677e+001           4.56767e+000           5.67667e-001           6.76670e-002           7.66703e-003           6.67027e-004
                  146.90    344.56853                               29.23081             81.508                                        3.44569e+002           4.45685e+001           4.56853e+000           5.68528e-001           6.85283e-002           8.52830e-003           5.28299e-004
                  147.00    344.56066                               29.23081             81.508                                        3.44561e+002           4.45607e+001           4.56066e+000           5.60658e-001           6.06576e-002           6.57620e-004           6.57620e-004
                  147.10    344.56258                               29.23081             81.508                                        3.44563e+002           4.45626e+001           4.56258e+000           5.62577e-001           6.25770e-002           2.57705e-003           5.77049e-004
                  147.20    344.57188                               29.23081             81.508                                        3.44572e+002           4.45719e+001           4.57188e+000           5.71880e-001           7.18801e-002           1.88006e-003           8.80063e-004
                  147.30    344.56542                               29.23081             81.508                                        3.44565e+002           4.45654e+001           4.56542e+000           5.65420e-001           6.54196e-002           5.41962e-003           4.19617e-004
                  147.40    344.55363                               29.23081             81.508                                        3.44554e+002           4.45536e+001           4.55363e+000           5.53631e-001           5.36308e-002           3.63075e-003           6.30754e-004
                  147.50    344.56243                               29.23081             81.508                                        3.44562e+002           4.45624e+001           4.56243e+000           5.62426e-001           6.24257e-002           2.42569e-003           4.25687e-004
                  147.60    344.57810                               29.23081             81.508                                        3.44578e+002           4.45781e+001           4.57810e+000           5.78097e-001           7.80972e-002           8.09716e-003           9.71608e-005
