~VERSION INFORMATION
VERS                    .            2.0                                    :CWLS LOG ASCII STANDARD
WRAP                    .            NO                                     :ONE LINE PER TIME STEP


~WELL INFORMATION
#MNEM                   .UNIT        DATA                                    DESCRIPTION
#________________________________________________________________________________________
STRTTIME                .HH/MM/SS    09:08:53                               :START TIME
STOPTIME                .HH/MM/SS    09:11:57                               :STOP TIME
STRT                    .s           2.10                                   :START DATA
STOP                    .s           182.80                                 :STOP DATA
STEP                    .s           0.10                                   :MEASUREMENT TIME INTERVAL
NULL                    .            -999.25                                :NULL VALUE
COMP                    .            Statoil ASA                            :COMPANY
FLD                     .            Volve                                  :FIELD
WELL                    .            15/9-F-11 A                            :WELL
RUN                     .            8                                      :RUN
LOC                     .            Maersk Inspirer                        :LOCATION
PROV                    .            na                                     :PROVINCE
SRVC                    .            Baker Hughes INTEQ                     :SERVICE COMPANY
DATE                    .YY/MM/DD    13/05/21                               :LOG DATE
UWI                     .                                                   :UNIQUE WELL ID
DEPTHMD                 .m           3671.1                                 :MEASURED DEPTH
DEPTHTVD                .m           3056.7                                 :TRUE VERTICAL DEPTH


~CURVE INFORMATION
#MNEM                   .UNIT        API CODES                               DESCRIPTION
#________________________________________________________________________________________
TIME                    .s                                                  :01 TIME
DD_PRESS                .bar                                                :02 DRAW DOWN PRESSURE
DD_VOLUME               .cm3                                                :03 INCREMENTAL DRAW DOWN VOLUME
TEMP                    .degC                                               :04 TRANSDUCER TEMPERATURE
DD_PRESS_MOD_1000       .bar                                                :05 DRAW DOWN PRESSURE MOD 1000
DD_PRESS_MOD_100        .bar                                                :06 DRAW DOWN PRESSURE MOD 100
DD_PRESS_MOD_10         .bar                                                :07 DRAW DOWN PRESSURE MOD 10
DD_PRESS_MOD_1          .bar                                                :08 DRAW DOWN PRESSURE MOD 1
DD_PRESS_MOD_01         .bar                                                :09 DRAW DOWN PRESSURE MOD 01
DD_PRESS_MOD_001        .bar                                                :10 DRAW DOWN PRESSURE MOD 001
DD_PRESS_MOD_0001       .bar                                                :11 DRAW DOWN PRESSURE MOD 0001


~PARAMETER INFORMATION
#MNEM                   .UNIT        VALUE                                   DESCRIPTION
#________________________________________________________________________________________
TOOLFACE                .deg         -56.2                                  :01 TOOLFACE
PUMP_CAPACITY           .bar         400                                    :02 NOMINAL DRAW DOWN PUMP CAPACITY
PUMP_LIMIT              .bar         240                                    :03 DOWNLINK PUMP LIMIT
TIME_LIMIT              .min         10                                     :04 DOWNLINK MAX TIME
TEST_TYPE               .            REPEAT                                 :05 DOWNLINK
TEST_TYPE               .            HIGH MOBILITY                          :06 DOWNLINK
DD_PIST_A               .cm2         3.1416                                 :07 DRAW DOWN PISTON AREA
V_SYS                   .cm3         131.0000                               :08 SYSTEM VOLUME
PROBE_ID                .cm          1.2700                                 :09 TTK PROBE ID
G0                      .            4.6700                                 :10 GEOMETRY FACTOR


~A                  TIME     DD_PRESS                              DD_VOLUME               TEMP                                   DD_PRESS_MOD_1000       DD_PRESS_MOD_100        DD_PRESS_MOD_10         DD_PRESS_MOD_1        DD_PRESS_MOD_01       DD_PRESS_MOD_001      DD_PRESS_MOD_0001
                    2.10    423.00771                                0.00000             82.422                                        4.23008e+002           2.30077e+001           3.00771e+000           7.71036e-003           7.71036e-003           7.71036e-003           7.10363e-004
                    2.20    422.99682                                0.00000             82.422                                        4.22997e+002           2.29968e+001           2.99682e+000           9.96824e-001           9.68236e-002           6.82364e-003           8.23637e-004
                    2.30    422.95887                                0.00000             82.420                                        4.22959e+002           2.29589e+001           2.95887e+000           9.58868e-001           5.88683e-002           8.86834e-003           8.68342e-004
                    2.40    422.90982                                0.00000             82.416                                        4.22910e+002           2.29098e+001           2.90982e+000           9.09818e-001           9.81820e-003           9.81820e-003           8.18200e-004
                    2.50    422.90173                                0.00000             82.414                                        4.22902e+002           2.29017e+001           2.90173e+000           9.01735e-001           1.73489e-003           1.73489e-003           7.34888e-004
                    2.60    422.93945                                0.00000             82.416                                        4.22939e+002           2.29395e+001           2.93945e+000           9.39451e-001           3.94513e-002           9.45134e-003           4.51342e-004
                    2.70    422.98445                                0.00000             82.420                                        4.22984e+002           2.29845e+001           2.98445e+000           9.84451e-001           8.44511e-002           4.45108e-003           4.51081e-004
                    2.80    423.00073                                0.00000             82.422                                        4.23001e+002           2.30007e+001           3.00073e+000           7.27498e-004           7.27498e-004           7.27498e-004           7.27498e-004
                    2.90    423.01515                                0.00000             82.422                                        4.23015e+002           2.30152e+001           3.01515e+000           1.51540e-002           1.51540e-002           5.15398e-003           1.53983e-004
                    3.00    423.03196                                0.00000             82.422                                        4.23032e+002           2.30320e+001           3.03196e+000           3.19560e-002           3.19560e-002           1.95601e-003           9.56012e-004
                    3.10    423.04621                                0.00000             82.422                                        4.23046e+002           2.30462e+001           3.04621e+000           4.62054e-002           4.62054e-002           6.20536e-003           2.05357e-004
                    3.20    423.03663                                0.00000             82.422                                        4.23037e+002           2.30366e+001           3.03663e+000           3.66347e-002           3.66347e-002           6.63471e-003           6.34713e-004
                    3.30    423.02815                                0.00000             82.422                                        4.23028e+002           2.30282e+001           3.02815e+000           2.81526e-002           2.81526e-002           8.15260e-003           1.52597e-004
                    3.40    423.01200                                0.00000             82.420                                        4.23012e+002           2.30120e+001           3.01200e+000           1.19967e-002           1.19967e-002           1.99674e-003           9.96738e-004
                    3.50    422.96858                                0.00000             82.416                                        4.22969e+002           2.29686e+001           2.96858e+000           9.68577e-001           6.85774e-002           8.57743e-003           5.77435e-004
                    3.60    422.89717                                0.00000             82.414                                        4.22897e+002           2.28972e+001           2.89717e+000           8.97168e-001           9.71684e-002           7.16837e-003           1.68374e-004
                    3.70    422.83050                                0.00000             82.416                                        4.22831e+002           2.28305e+001           2.83050e+000           8.30504e-001           3.05042e-002           5.04182e-004           5.04182e-004
                    3.80    422.79565                                0.00000             82.418                                        4.22796e+002           2.27956e+001           2.79565e+000           7.95647e-001           9.56472e-002           5.64722e-003           6.47223e-004
                    3.90    422.77668                                0.00000             82.416                                        4.22777e+002           2.27767e+001           2.77668e+000           7.76677e-001           7.66774e-002           6.67736e-003           6.77356e-004
                    4.00    422.74231                                0.00000             82.414                                        4.22742e+002           2.27423e+001           2.74231e+000           7.42312e-001           4.23123e-002           2.31231e-003           3.12306e-004
                    4.10    422.70863                                0.00000             82.414                                        4.22709e+002           2.27086e+001           2.70863e+000           7.08628e-001           8.62822e-003           8.62822e-003           6.28221e-004
                    4.20    422.70951                                0.00000             82.414                                        4.22710e+002           2.27095e+001           2.70951e+000           7.09513e-001           9.51302e-003           9.51302e-003           5.13018e-004
                    4.30    422.71368                                0.00000             82.414                                        4.22714e+002           2.27137e+001           2.71368e+000           7.13678e-001           1.36775e-002           3.67753e-003           6.77530e-004
                    4.40    422.72596                                0.00000             82.414                                        4.22726e+002           2.27260e+001           2.72596e+000           7.25956e-001           2.59559e-002           5.95586e-003           9.55855e-004
                    4.50    422.75029                                0.00000             82.414                                        4.22750e+002           2.27503e+001           2.75029e+000           7.50295e-001           5.02945e-002           2.94533e-004           2.94533e-004
                    4.60    422.76599                                0.00000             82.414                                        4.22766e+002           2.27660e+001           2.76599e+000           7.65989e-001           6.59895e-002           5.98946e-003           9.89462e-004
                    4.70    422.74821                                0.00000             82.414                                        4.22748e+002           2.27482e+001           2.74821e+000           7.48205e-001           4.82052e-002           8.20516e-003           2.05160e-004
                    4.80    422.73120                                0.00000             82.414                                        4.22731e+002           2.27312e+001           2.73120e+000           7.31200e-001           3.12000e-002           1.19997e-003           1.99972e-004
