~VERSION INFORMATION
VERS                    .            2.0                                    :CWLS LOG ASCII STANDARD
WRAP                    .            NO                                     :ONE LINE PER TIME STEP


~WELL INFORMATION
#MNEM                   .UNIT        DATA                                    DESCRIPTION
#________________________________________________________________________________________
STRTTIME                .HH/MM/SS    23:39:21                               :START TIME
STOPTIME                .HH/MM/SS    23:43:19                               :STOP TIME
STRT                    .s           2.10                                   :START DATA
STOP                    .s           236.60                                 :STOP DATA
STEP                    .s           0.10                                   :MEASUREMENT TIME INTERVAL
NULL                    .            -999.25                                :NULL VALUE
COMP                    .            Statoil                                :COMPANY
FLD                     .            Volve                                  :FIELD
WELL                    .            15/9-F-11 T2                           :WELL
RUN                     .            7                                      :RUN
LOC                     .            Maersk Inspirer                        :LOCATION
PROV                    .            na                                     :PROVINCE
SRVC                    .            Baker Hughes INTEQ                     :SERVICE COMPANY
DATE                    .YY/MM/DD    13/05/04                               :LOG DATE
UWI                     .                                                   :UNIQUE WELL ID
DEPTHMD                 .m           4417.0                                 :MEASURED DEPTH
DEPTHTVD                .m           3257.6                                 :TRUE VERTICAL DEPTH


~CURVE INFORMATION
#MNEM                   .UNIT        API CODES                               DESCRIPTION
#________________________________________________________________________________________
TIME                    .s                                                  :01 TIME
DD_PRESS                .bar                                                :02 DRAW DOWN PRESSURE
DD_VOLUME               .cm3                                                :03 INCREMENTAL DRAW DOWN VOLUME
TEMP                    .degC                                               :04 TRANSDUCER TEMPERATURE
DD_PRESS_MOD_1000       .bar                                                :05 DRAW DOWN PRESSURE MOD 1000
DD_PRESS_MOD_100        .bar                                                :06 DRAW DOWN PRESSURE MOD 100
DD_PRESS_MOD_10         .bar                                                :07 DRAW DOWN PRESSURE MOD 10
DD_PRESS_MOD_1          .bar                                                :08 DRAW DOWN PRESSURE MOD 1
DD_PRESS_MOD_01         .bar                                                :09 DRAW DOWN PRESSURE MOD 01
DD_PRESS_MOD_001        .bar                                                :10 DRAW DOWN PRESSURE MOD 001
DD_PRESS_MOD_0001       .bar                                                :11 DRAW DOWN PRESSURE MOD 0001


~PARAMETER INFORMATION
#MNEM                   .UNIT        VALUE                                   DESCRIPTION
#________________________________________________________________________________________
TOOLFACE                .deg         na                                     :01 TOOLFACE
PUMP_CAPACITY           .bar         400                                    :02 NOMINAL DRAW DOWN PUMP CAPACITY
PUMP_LIMIT              .bar         240                                    :03 DOWNLINK PUMP LIMIT
TIME_LIMIT              .min         10                                     :04 DOWNLINK MAX TIME
TEST_TYPE               .            REPEAT                                 :05 DOWNLINK
TEST_TYPE               .            HIGH MOBILITY                          :06 DOWNLINK
DD_PIST_A               .cm2         3.1416                                 :07 DRAW DOWN PISTON AREA
V_SYS                   .cm3         131.0000                               :08 SYSTEM VOLUME
PROBE_ID                .cm          1.2700                                 :09 TTK PROBE ID
G0                      .            4.6700                                 :10 GEOMETRY FACTOR


~A                  TIME     DD_PRESS                              DD_VOLUME               TEMP                                   DD_PRESS_MOD_1000       DD_PRESS_MOD_100        DD_PRESS_MOD_10         DD_PRESS_MOD_1        DD_PRESS_MOD_01       DD_PRESS_MOD_001      DD_PRESS_MOD_0001
# ...
                  111.30    349.06597                               14.02965             96.008                                        3.49066e+002           4.90660e+001           9.06597e+000           6.59693e-002           6.59693e-002           5.96931e-003           9.69311e-004
                  111.40    349.53936                               14.04711             96.008                                        3.49539e+002           4.95394e+001           9.53936e+000           5.39363e-001           3.93630e-002           9.36299e-003           3.62994e-004
                  111.50    350.03080                               14.06377             96.008                                        3.50031e+002           5.00308e+001           3.07980e-002           3.07980e-002           3.07980e-002           7.97989e-004           7.97989e-004
                  111.60    350.49285                               14.07966             96.008                                        3.50493e+002           5.04928e+001           4.92845e-001           4.92845e-001           9.28454e-002           2.84543e-003           8.45432e-004
                  111.70    350.95558                               14.09475             96.008                                        3.50956e+002           5.09556e+001           9.55583e-001           9.55583e-001           5.55834e-002           5.58343e-003           5.83434e-004
                  111.80    351.43486                               14.10906             96.008                                        3.51435e+002           5.14349e+001           1.43486e+000           4.34860e-001           3.48605e-002           4.86050e-003           8.60497e-004
                  111.90    351.91117                               14.12245             96.008                                        3.51911e+002           5.19112e+001           1.91117e+000           9.11168e-001           1.11678e-002           1.16781e-003           1.67810e-004
                  112.00    352.37719                               14.13506             96.008                                        3.52377e+002           5.23772e+001           2.37719e+000           3.77187e-001           7.71865e-002           7.18651e-003           1.86509e-004
                  112.10    352.86495                               14.14681             96.008                                        3.52865e+002           5.28649e+001           2.86495e+000           8.64949e-001           6.49485e-002           4.94852e-003           9.48519e-004
                  112.20    353.34412                               14.15781             96.008                                        3.53344e+002           5.33441e+001           3.34412e+000           3.44116e-001           4.41159e-002           4.11592e-003           1.15920e-004
                  112.30    353.80991                               14.16795             96.008                                        3.53810e+002           5.38099e+001           3.80991e+000           8.09914e-001           9.91426e-003           9.91426e-003           9.14257e-004
                  112.40    354.29214                               14.17734             96.008                                        3.54292e+002           5.42921e+001           4.29214e+000           2.92143e-001           9.21427e-002           2.14269e-003           1.42690e-004
                  112.50    354.76627                               14.18589             96.008                                        3.54766e+002           5.47663e+001           4.76627e+000           7.66274e-001           6.62741e-002           6.27406e-003           2.74055e-004
                  112.60    355.21051                               14.19369             96.008                                        3.55211e+002           5.52105e+001           5.21051e+000           2.10510e-001           1.05096e-002           5.09576e-004           5.09576e-004
                  112.70    355.66142                               14.20067             96.008                                        3.55661e+002           5.56614e+001           5.66142e+000           6.61417e-001           6.14174e-002           1.41737e-003           4.17372e-004
                  112.80    356.12757                               14.20682             96.008                                        3.56128e+002           5.61276e+001           6.12757e+000           1.27565e-001           2.75654e-002           7.56540e-003           5.65397e-004
                  112.90    356.57589                               14.21215             96.008                                        3.56576e+002           5.65759e+001           6.57589e+000           5.75886e-001           7.58860e-002           5.88605e-003           8.86045e-004
                  113.00    357.01287                               14.21664             96.008                                        3.57013e+002           5.70129e+001           7.01287e+000           1.28666e-002           1.28666e-002           2.86663e-003           8.66634e-004
                  113.10    357.46151                               14.22029             96.008                                        3.57462e+002           5.74615e+001           7.46151e+000           4.61510e-001           6.15102e-002           1.51022e-003           5.10220e-004
                  113.20    357.90014                               14.22316             96.008                                        3.57900e+002           5.79001e+001           7.90014e+000           9.00141e-001           1.41427e-004           1.41427e-004           1.41427e-004
                  113.30    358.30639                               14.22525             96.008                                        3.58306e+002           5.83064e+001           8.30639e+000           3.06387e-001           6.38709e-003           6.38709e-003           3.87089e-004
                  113.40    358.71335                               14.22661             96.008                                        3.58713e+002           5.87134e+001           8.71335e+000           7.13351e-001           1.33514e-002           3.35135e-003           3.51355e-004
                  113.50    359.11711                               14.22722             96.008                                        3.59117e+002           5.91171e+001           9.11711e+000           1.17112e-001           1.71125e-002           7.11246e-003           1.12460e-004
                  113.60    359.47032                               14.22735             96.008                                        3.59470e+002           5.94703e+001           9.47032e+000           4.70318e-001           7.03176e-002           3.17614e-004           3.17614e-004
                  113.70    359.76483                               14.22735             96.008                                        3.59765e+002           5.97648e+001           9.76483e+000           7.64834e-001           6.48338e-002           4.83378e-003           8.33779e-004
                  113.80    360.00961                               14.22735             96.008                                        3.60010e+002           6.00096e+001           9.60627e-003           9.60627e-003           9.60627e-003           9.60627e-003           6.06273e-004
                  113.90    360.21796                               14.22735             96.008                                        3.60218e+002           6.02180e+001           2.17958e-001           2.17958e-001           1.79578e-002           7.95783e-003           9.57833e-004
                  114.00    360.39150                               14.22735             96.008                                        3.60392e+002           6.03915e+001           3.91502e-001           3.91502e-001           9.15017e-002           1.50174e-003           5.01739e-004
