~VERSION INFORMATION
VERS                    .            2.0                                    :CWLS LOG ASCII STANDARD
WRAP                    .            NO                                     :ONE LINE PER TIME STEP


~WELL INFORMATION
#MNEM                   .UNIT        DATA                                    DESCRIPTION
#________________________________________________________________________________________
STRTTIME                .HH/MM/SS    09:08:53                               :START TIME
STOPTIME                .HH/MM/SS    09:11:57                               :STOP TIME
STRT                    .s           2.10                                   :START DATA
STOP                    .s           182.80                                 :STOP DATA
STEP                    .s           0.10                                   :MEASUREMENT TIME INTERVAL
NULL                    .            -999.25                                :NULL VALUE
COMP                    .            Statoil ASA                            :COMPANY
FLD                     .            Volve                                  :FIELD
WELL                    .            15/9-F-11 A                            :WELL
RUN                     .            8                                      :RUN
LOC                     .            Maersk Inspirer                        :LOCATION
PROV                    .            na                                     :PROVINCE
SRVC                    .            Baker Hughes INTEQ                     :SERVICE COMPANY
DATE                    .YY/MM/DD    13/05/21                               :LOG DATE
UWI                     .                                                   :UNIQUE WELL ID
DEPTHMD                 .m           3671.1                                 :MEASURED DEPTH
DEPTHTVD                .m           3056.7                                 :TRUE VERTICAL DEPTH


~CURVE INFORMATION
#MNEM                   .UNIT        API CODES                               DESCRIPTION
#________________________________________________________________________________________
TIME                    .s                                                  :01 TIME
DD_PRESS                .bar                                                :02 DRAW DOWN PRESSURE
DD_VOLUME               .cm3                                                :03 INCREMENTAL DRAW DOWN VOLUME
TEMP                    .degC                                               :04 TRANSDUCER TEMPERATURE
DD_PRESS_MOD_1000       .bar                                                :05 DRAW DOWN PRESSURE MOD 1000
DD_PRESS_MOD_100        .bar                                                :06 DRAW DOWN PRESSURE MOD 100
DD_PRESS_MOD_10         .bar                                                :07 DRAW DOWN PRESSURE MOD 10
DD_PRESS_MOD_1          .bar                                                :08 DRAW DOWN PRESSURE MOD 1
DD_PRESS_MOD_01         .bar                                                :09 DRAW DOWN PRESSURE MOD 01
DD_PRESS_MOD_001        .bar                                                :10 DRAW DOWN PRESSURE MOD 001
DD_PRESS_MOD_0001       .bar                                                :11 DRAW DOWN PRESSURE MOD 0001


~PARAMETER INFORMATION
#MNEM                   .UNIT        VALUE                                   DESCRIPTION
#________________________________________________________________________________________
TOOLFACE                .deg         -56.2                                  :01 TOOLFACE
PUMP_CAPACITY           .bar         400                                    :02 NOMINAL DRAW DOWN PUMP CAPACITY
PUMP_LIMIT              .bar         240                                    :03 DOWNLINK PUMP LIMIT
TIME_LIMIT              .min         10                                     :04 DOWNLINK MAX TIME
TEST_TYPE               .            REPEAT                                 :05 DOWNLINK
TEST_TYPE               .            HIGH MOBILITY                          :06 DOWNLINK
DD_PIST_A               .cm2         3.1416                                 :07 DRAW DOWN PISTON AREA
V_SYS                   .cm3         131.0000                               :08 SYSTEM VOLUME
PROBE_ID                .cm          1.2700                                 :09 TTK PROBE ID
G0                      .            4.6700                                 :10 GEOMETRY FACTOR


~A                  TIME     DD_PRESS                              DD_VOLUME               TEMP                                   DD_PRESS_MOD_1000       DD_PRESS_MOD_100        DD_PRESS_MOD_10         DD_PRESS_MOD_1        DD_PRESS_MOD_01       DD_PRESS_MOD_001      DD_PRESS_MOD_0001
# ...
                   60.90    345.05419                               10.66141             82.383                                        3.45054e+002           4.50542e+001           5.05419e+000           5.41863e-002           5.41863e-002           4.18625e-003           1.86253e-004
                   61.00    345.06584                               10.66141             82.383                                        3.45066e+002           4.50658e+001           5.06584e+000           6.58402e-002           6.58402e-002           5.84016e-003           8.40159e-004
                   61.10    345.06890                               10.66141             82.383                                        3.45069e+002           4.50689e+001           5.06890e+000           6.88994e-002           6.88994e-002           8.89944e-003           8.99436e-004
                   61.20    345.05587                               10.66141             82.383                                        3.45056e+002           4.50559e+001           5.05587e+000           5.58735e-002           5.58735e-002           5.87347e-003           8.73475e-004
                   61.30    345.05046                               10.66141             82.383                                        3.45050e+002           4.50505e+001           5.05046e+000           5.04565e-002           5.04565e-002           4.56486e-004           4.56486e-004
                   61.40    345.05289                               10.66141             82.383                                        3.45053e+002           4.50529e+001           5.05289e+000           5.28891e-002           5.28891e-002           2.88912e-003           8.89117e-004
                   61.50    345.05915                               10.66141             82.383                                        3.45059e+002           4.50592e+001           5.05915e+000           5.91526e-002           5.91526e-002           9.15262e-003           1.52616e-004
                   61.60    345.06562                               10.66141             82.383                                        3.45066e+002           4.50656e+001           5.06562e+000           6.56184e-002           6.56184e-002           5.61842e-003           6.18422e-004
                   61.70    345.06717                               10.66141             82.383                                        3.45067e+002           4.50672e+001           5.06717e+000           6.71708e-002           6.71708e-002           7.17079e-003           1.70793e-004
                   61.80    345.06254                               10.66141             82.383                                        3.45063e+002           4.50625e+001           5.06254e+000           6.25426e-002           6.25426e-002           2.54264e-003           5.42640e-004
                   61.90    345.06134                               10.66141             82.383                                        3.45061e+002           4.50613e+001           5.06134e+000           6.13371e-002           6.13371e-002           1.33711e-003           3.37112e-004
                   62.00    345.05638                               10.66141             82.383                                        3.45056e+002           4.50564e+001           5.05638e+000           5.63809e-002           5.63809e-002           6.38086e-003           3.80862e-004
                   62.10    345.05127                               10.66141             82.383                                        3.45051e+002           4.50513e+001           5.05127e+000           5.12720e-002           5.12720e-002           1.27197e-003           2.71971e-004
                   62.20    345.05784                               10.66141             82.383                                        3.45058e+002           4.50578e+001           5.05784e+000           5.78429e-002           5.78429e-002           7.84290e-003           8.42903e-004
                   62.30    345.08206                               10.66141             82.383                                        3.45082e+002           4.50821e+001           5.08206e+000           8.20590e-002           8.20590e-002           2.05904e-003           5.90430e-005
                   62.40    345.08630                               10.66141             82.383                                        3.45086e+002           4.50863e+001           5.08630e+000           8.63016e-002           8.63016e-002           6.30158e-003           3.01576e-004
                   62.50    345.05957                               10.66141             82.383                                        3.45060e+002           4.50596e+001           5.05957e+000           5.95655e-002           5.95655e-002           9.56547e-003           5.65469e-004
                   62.60    345.05056                               10.66141             82.383                                        3.45051e+002           4.50506e+001           5.05056e+000           5.05640e-002           5.05640e-002           5.64018e-004           5.64018e-004
                   62.70    345.07024                               10.66141             82.383                                        3.45070e+002           4.50702e+001           5.07024e+000           7.02441e-002           7.02441e-002           2.44063e-004           2.44063e-004
                   62.80    345.07274                               10.66141             82.383                                        3.45073e+002           4.50727e+001           5.07274e+000           7.27445e-002           7.27445e-002           2.74452e-003           7.44525e-004
                   62.90    345.05203                               10.66141             82.383                                        3.45052e+002           4.50520e+001           5.05203e+000           5.20323e-002           5.20323e-002           2.03229e-003           3.22874e-005
                   63.00    345.04199                               10.66141             82.383                                        3.45042e+002           4.50420e+001           5.04199e+000           4.19921e-002           4.19921e-002           1.99206e-003           9.92058e-004
                   63.10    345.05171                               10.66141             82.383                                        3.45052e+002           4.50517e+001           5.05171e+000           5.17137e-002           5.17137e-002           1.71371e-003           7.13714e-004
                   63.20    345.07008                               10.66141             82.383                                        3.45070e+002           4.50701e+001           5.07008e+000           7.00844e-002           7.00844e-002           8.44115e-005           8.44115e-005
                   63.30    345.07756                               10.66141             82.383                                        3.45078e+002           4.50776e+001           5.07756e+000           7.75551e-002           7.75551e-002           7.55505e-003           5.55053e-004
                   63.40    345.07189                               10.66141             82.383                                        3.45072e+002           4.50719e+001           5.07189e+000           7.18913e-002           7.18913e-002           1.89129e-003           8.91286e-004
                   63.50    345.06557                               10.66141             82.383                                        3.45066e+002           4.50656e+001           5.06557e+000           6.55654e-002           6.55654e-002           5.56544e-003           5.65443e-004
                   63.60    345.07135                               10.66141             82.383                                        3.45071e+002           4.50714e+001           5.07135e+000           7.13528e-002           7.13528e-002           1.35276e-003           3.52758e-004
