~VERSION INFORMATION
VERS                    .            2.0                                    :CWLS LOG ASCII STANDARD
WRAP                    .            NO                                     :ONE LINE PER TIME STEP


~WELL INFORMATION
#MNEM                   .UNIT        DATA                                    DESCRIPTION
#________________________________________________________________________________________
STRTTIME                .HH/MM/SS    22:39:37                               :START TIME
STOPTIME                .HH/MM/SS    22:43:03                               :STOP TIME
STRT                    .s           2.10                                   :START DATA
STOP                    .s           204.10                                 :STOP DATA
STEP                    .s           0.10                                   :MEASUREMENT TIME INTERVAL
NULL                    .            -999.25                                :NULL VALUE
COMP                    .            Statoil ASA                            :COMPANY
FLD                     .            Volve                                  :FIELD
WELL                    .            15/9-F-1 C                             :WELL
RUN                     .            4                                      :RUN
LOC                     .                                                   :LOCATION
PROV                    .            na                                     :PROVINCE
SRVC                    .            Baker Hughes INTEQ                     :SERVICE COMPANY
DATE                    .YY/MM/DD    14/03/14                               :LOG DATE
UWI                     .                                                   :UNIQUE WELL ID
DEPTHMD                 .m           3925.1                                 :MEASURED DEPTH
DEPTHTVD                .m           3120.2                                 :TRUE VERTICAL DEPTH


~CURVE INFORMATION
#MNEM                   .UNIT        API CODES                               DESCRIPTION
#________________________________________________________________________________________
TIME                    .s                                                  :01 TIME
DD_PRESS                .bar                                                :02 DRAW DOWN PRESSURE
DD_VOLUME               .cm3                                                :03 INCREMENTAL DRAW DOWN VOLUME
TEMP                    .degC                                               :04 TRANSDUCER TEMPERATURE
DD_PRESS_MOD_1000       .bar                                                :05 DRAW DOWN PRESSURE MOD 1000
DD_PRESS_MOD_100        .bar                                                :06 DRAW DOWN PRESSURE MOD 100
DD_PRESS_MOD_10         .bar                                                :07 DRAW DOWN PRESSURE MOD 10
DD_PRESS_MOD_1          .bar                                                :08 DRAW DOWN PRESSURE MOD 1
DD_PRESS_MOD_01         .bar                                                :09 DRAW DOWN PRESSURE MOD 01
DD_PRESS_MOD_001        .bar                                                :10 DRAW DOWN PRESSURE MOD 001
DD_PRESS_MOD_0001       .bar                                                :11 DRAW DOWN PRESSURE MOD 0001


~PARAMETER INFORMATION
#MNEM                   .UNIT        VALUE                                   DESCRIPTION
#________________________________________________________________________________________
TOOLFACE                .deg         -7.4                                   :01 TOOLFACE
PUMP_CAPACITY           .bar         400                                    :02 NOMINAL DRAW DOWN PUMP CAPACITY
PUMP_LIMIT              .bar         240                                    :03 DOWNLINK PUMP LIMIT
TIME_LIMIT              .min         10                                     :04 DOWNLINK MAX TIME
TEST_TYPE               .            HIGH MOBILITY                          :05 DOWNLINK
DD_PIST_A               .cm2         3.1416                                 :06 DRAW DOWN PISTON AREA
V_SYS                   .cm3         131.0000                               :07 SYSTEM VOLUME
PROBE_ID                .cm          1.2700                                 :08 TTK PROBE ID
G0                      .            4.6700                                 :09 GEOMETRY FACTOR


~A                  TIME     DD_PRESS                              DD_VOLUME               TEMP                                   DD_PRESS_MOD_1000       DD_PRESS_MOD_100        DD_PRESS_MOD_10         DD_PRESS_MOD_1        DD_PRESS_MOD_01       DD_PRESS_MOD_001      DD_PRESS_MOD_0001
# ...
                   41.30    353.13978                               10.80103             91.375                                        3.53140e+002           5.31398e+001           3.13978e+000           1.39782e-001           3.97819e-002           9.78195e-003           7.81949e-004
                   41.40    353.13960                               10.80103             91.375                                        3.53140e+002           5.31396e+001           3.13960e+000           1.39595e-001           3.95954e-002           9.59535e-003           5.95350e-004
                   41.50    353.14517                               10.80103             91.375                                        3.53145e+002           5.31452e+001           3.14517e+000           1.45170e-001           4.51697e-002           5.16975e-003           1.69749e-004
                   41.60    353.14709                               10.80103             91.375                                        3.53147e+002           5.31471e+001           3.14709e+000           1.47093e-001           4.70929e-002           7.09294e-003           9.29362e-005
                   41.70    353.14257                               10.80103             91.375                                        3.53143e+002           5.31426e+001           3.14257e+000           1.42568e-001           4.25679e-002           2.56792e-003           5.67921e-004
                   41.80    353.14067                               10.80103             91.375                                        3.53141e+002           5.31407e+001           3.14067e+000           1.40671e-001           4.06708e-002           6.70811e-004           6.70811e-004
                   41.90    353.14303                               10.80103             91.375                                        3.53143e+002           5.31430e+001           3.14303e+000           1.43031e-001           4.30306e-002           3.03056e-003           3.05605e-005
                   42.00    353.15116                               10.80103             91.375                                        3.53151e+002           5.31512e+001           3.15116e+000           1.51162e-001           5.11620e-002           1.16204e-003           1.62040e-004
                   42.10    353.15933                               10.80103             91.375                                        3.53159e+002           5.31593e+001           3.15933e+000           1.59332e-001           5.93319e-002           9.33185e-003           3.31852e-004
                   42.20    353.16002                               10.80103             91.375                                        3.53160e+002           5.31600e+001           3.16002e+000           1.60023e-001           6.00226e-002           2.26347e-005           2.26347e-005
                   42.30    353.15451                               10.80103             91.375                                        3.53155e+002           5.31545e+001           3.15451e+000           1.54508e-001           5.45085e-002           4.50845e-003           5.08451e-004
                   42.40    353.15130                               10.80103             91.375                                        3.53151e+002           5.31513e+001           3.15130e+000           1.51299e-001           5.12992e-002           1.29923e-003           2.99229e-004
                   42.50    353.15255                               10.80103             91.375                                        3.53153e+002           5.31525e+001           3.15255e+000           1.52545e-001           5.25453e-002           2.54528e-003           5.45280e-004
                   42.60    353.15511                               10.80103             91.375                                        3.53155e+002           5.31551e+001           3.15511e+000           1.55107e-001           5.51069e-002           5.10687e-003           1.06872e-004
                   42.70    353.15635                               10.80103             91.375                                        3.53156e+002           5.31563e+001           3.15635e+000           1.56350e-001           5.63500e-002           6.34997e-003           3.49971e-004
                   42.80    353.15735                               10.80103             91.375                                        3.53157e+002           5.31573e+001           3.15735e+000           1.57347e-001           5.73475e-002           7.34748e-003           3.47477e-004
                   42.90    353.15719                               10.80103             91.375                                        3.53157e+002           5.31572e+001           3.15719e+000           1.57188e-001           5.71876e-002           7.18763e-003           1.87628e-004
                   43.00    353.15361                               10.80103             91.375                                        3.53154e+002           5.31536e+001           3.15361e+000           1.53615e-001           5.36148e-002           3.61477e-003           6.14765e-004
                   43.10    353.14956                               10.80103             91.375                                        3.53150e+002           5.31496e+001           3.14956e+000           1.49563e-001           4.95635e-002           9.56348e-003           5.63481e-004
                   43.20    353.14919                               10.80103             91.375                                        3.53149e+002           5.31492e+001           3.14919e+000           1.49192e-001           4.91921e-002           9.19205e-003           1.92050e-004
                   43.30    353.15187                               10.80103             91.375                                        3.53152e+002           5.31519e+001           3.15187e+000           1.51873e-001           5.18730e-002           1.87296e-003           8.72964e-004
                   43.40    353.14792                               10.80103             91.375                                        3.53148e+002           5.31479e+001           3.14792e+000           1.47922e-001           4.79216e-002           7.92155e-003           9.21551e-004
                   43.50    353.14355                               10.80103             91.375                                        3.53144e+002           5.31436e+001           3.14355e+000           1.43554e-001           4.35536e-002           3.55362e-003           5.53624e-004
                   43.60    353.14722                               10.80103             91.375                                        3.53147e+002           5.31472e+001           3.14722e+000           1.47220e-001           4.72196e-002           7.21960e-003           2.19597e-004
                   43.70    353.15275                               10.80103             91.375                                        3.53153e+002           5.31528e+001           3.15275e+000           1.52753e-001           5.27531e-002           2.75308e-003           7.53075e-004
                   43.80    353.15362                               10.80103             91.375                                        3.53154e+002           5.31536e+001           3.15362e+000           1.53620e-001           5.36204e-002           3.62044e-003           6.20440e-004
                   43.90    353.15360                               10.80103             91.375                                        3.53154e+002           5.31536e+001           3.15360e+000           1.53597e-001           5.35969e-002           3.59694e-003           5.96943e-004
                   44.00    353.15361                               10.80103             91.375                                        3.53154e+002           5.31536e+001           3.15361e+000           1.53612e-001           5.36118e-002           3.61181e-003           6.11811e-004
