~VERSION INFORMATION
VERS                    .            2.0                                    :CWLS LOG ASCII STANDARD
WRAP                    .            NO                                     :ONE LINE PER TIME STEP


~WELL INFORMATION
#MNEM                   .UNIT        DATA                                    DESCRIPTION
#________________________________________________________________________________________
STRTTIME                .HH/MM/SS    19:37:02                               :START TIME
STOPTIME                .HH/MM/SS    19:40:38                               :STOP TIME
STRT                    .s           2.10                                   :START DATA
STOP                    .s           214.10                                 :STOP DATA
STEP                    .s           0.10                                   :MEASUREMENT TIME INTERVAL
NULL                    .            -999.25                                :NULL VALUE
COMP                    .            Statoil ASA                            :COMPANY
FLD                     .            Volve                                  :FIELD
WELL                    .            15/9-F-11 A                            :WELL
RUN                     .            8                                      :RUN
LOC                     .            Maersk Inspirer                        :LOCATION
PROV                    .            na                                     :PROVINCE
SRVC                    .            Baker Hughes INTEQ                     :SERVICE COMPANY
DATE                    .YY/MM/DD    13/05/23                               :LOG DATE
UWI                     .                                                   :UNIQUE WELL ID
DEPTHMD                 .m           3607.9                                 :MEASURED DEPTH
DEPTHTVD                .m           3008.4                                 :TRUE VERTICAL DEPTH


~CURVE INFORMATION
#MNEM                   .UNIT        API CODES                               DESCRIPTION
#________________________________________________________________________________________
TIME                    .s                                                  :01 TIME
DD_PRESS                .bar                                                :02 DRAW DOWN PRESSURE
DD_VOLUME               .cm3                                                :03 INCREMENTAL DRAW DOWN VOLUME
TEMP                    .degC                                               :04 TRANSDUCER TEMPERATURE
DD_PRESS_MOD_1000       .bar                                                :05 DRAW DOWN PRESSURE MOD 1000
DD_PRESS_MOD_100        .bar                                                :06 DRAW DOWN PRESSURE MOD 100
DD_PRESS_MOD_10         .bar                                                :07 DRAW DOWN PRESSURE MOD 10
DD_PRESS_MOD_1          .bar                                                :08 DRAW DOWN PRESSURE MOD 1
DD_PRESS_MOD_01         .bar                                                :09 DRAW DOWN PRESSURE MOD 01
DD_PRESS_MOD_001        .bar                                                :10 DRAW DOWN PRESSURE MOD 001
DD_PRESS_MOD_0001       .bar                                                :11 DRAW DOWN PRESSURE MOD 0001


~PARAMETER INFORMATION
#MNEM                   .UNIT        VALUE                                   DESCRIPTION
#________________________________________________________________________________________
TOOLFACE                .deg         -38.9                                  :01 TOOLFACE
PUMP_CAPACITY           .bar         400                                    :02 NOMINAL DRAW DOWN PUMP CAPACITY
PUMP_LIMIT              .bar         240                                    :03 DOWNLINK PUMP LIMIT
TIME_LIMIT              .min         10                                     :04 DOWNLINK MAX TIME
TEST_TYPE               .            REPEAT                                 :05 DOWNLINK
TEST_TYPE               .            HIGH MOBILITY                          :06 DOWNLINK
DD_PIST_A               .cm2         3.1416                                 :07 DRAW DOWN PISTON AREA
V_SYS                   .cm3         131.0000                               :08 SYSTEM VOLUME
PROBE_ID                .cm          1.2700                                 :09 TTK PROBE ID
G0                      .            4.6700                                 :10 GEOMETRY FACTOR


~A                  TIME     DD_PRESS                              DD_VOLUME               TEMP                                   DD_PRESS_MOD_1000       DD_PRESS_MOD_100        DD_PRESS_MOD_10         DD_PRESS_MOD_1        DD_PRESS_MOD_01       DD_PRESS_MOD_001      DD_PRESS_MOD_0001
# ...
                   86.10    323.04914                               14.24738             71.209                                        3.23049e+002           2.30491e+001           3.04914e+000           4.91370e-002           4.91370e-002           9.13696e-003           1.36957e-004
                   86.20    322.83818                               14.35843             71.205                                        3.22838e+002           2.28382e+001           2.83818e+000           8.38183e-001           3.81834e-002           8.18344e-003           1.83435e-004
                   86.30    322.63874                               14.47082             71.205                                        3.22639e+002           2.26387e+001           2.63874e+000           6.38742e-001           3.87422e-002           8.74223e-003           7.42233e-004
                   86.40    322.44958                               14.58455             71.209                                        3.22450e+002           2.24496e+001           2.44958e+000           4.49577e-001           4.95773e-002           9.57729e-003           5.77293e-004
                   86.50    322.26690                               14.69943             71.211                                        3.22267e+002           2.22669e+001           2.26690e+000           2.66900e-001           6.69005e-002           6.90046e-003           9.00462e-004
                   86.60    322.09180                               14.81542             71.211                                        3.22092e+002           2.20918e+001           2.09180e+000           9.17955e-002           9.17955e-002           1.79547e-003           7.95471e-004
                   86.70    321.92819                               14.93247             71.209                                        3.21928e+002           2.19282e+001           1.92819e+000           9.28192e-001           2.81918e-002           8.19179e-003           1.91793e-004
                   86.80    321.77103                               15.05078             71.205                                        3.21771e+002           2.17710e+001           1.77103e+000           7.71027e-001           7.10266e-002           1.02661e-003           2.66137e-005
                   86.90    321.61565                               15.17031             71.203                                        3.21616e+002           2.16156e+001           1.61565e+000           6.15648e-001           1.56475e-002           5.64752e-003           6.47518e-004
                   87.00    321.47252                               15.29062             71.203                                        3.21473e+002           2.14725e+001           1.47252e+000           4.72522e-001           7.25219e-002           2.52192e-003           5.21921e-004
                   87.10    321.33651                               15.41172             71.203                                        3.21337e+002           2.13365e+001           1.33651e+000           3.36512e-001           3.65117e-002           6.51174e-003           5.11738e-004
                   87.20    321.20604                               15.53389             71.203                                        3.21206e+002           2.12060e+001           1.20604e+000           2.06042e-001           6.04204e-003           6.04204e-003           4.20422e-005
                   87.30    321.08624                               15.65668             71.203                                        3.21086e+002           2.10862e+001           1.08624e+000           8.62441e-002           8.62441e-002           6.24405e-003           2.44054e-004
                   87.40    320.98515                               15.77979             71.203                                        3.20985e+002           2.09851e+001           9.85145e-001           9.85145e-001           8.51454e-002           5.14538e-003           1.45378e-004
                   87.50    320.88563                               15.90345             71.203                                        3.20886e+002           2.08856e+001           8.85627e-001           8.85627e-001           8.56272e-002           5.62719e-003           6.27193e-004
                   87.60    320.78959                               16.02760             71.203                                        3.20790e+002           2.07896e+001           7.89593e-001           7.89593e-001           8.95931e-002           9.59313e-003           5.93131e-004
                   87.70    320.70683                               16.15195             71.203                                        3.20707e+002           2.07068e+001           7.06833e-001           7.06833e-001           6.83267e-003           6.83267e-003           8.32671e-004
                   87.80    320.64181                               16.27646             71.203                                        3.20642e+002           2.06418e+001           6.41810e-001           6.41810e-001           4.18095e-002           1.80954e-003           8.09542e-004
                   87.90    320.58688                               16.40106             71.203                                        3.20587e+002           2.05869e+001           5.86883e-001           5.86883e-001           8.68830e-002           6.88295e-003           8.82954e-004
                   88.00    320.53997                               16.52613             71.203                                        3.20540e+002           2.05400e+001           5.39966e-001           5.39966e-001           3.99661e-002           9.96610e-003           9.66104e-004
                   88.10    320.49710                               16.65173             71.203                                        3.20497e+002           2.04971e+001           4.97100e-001           4.97100e-001           9.71003e-002           7.10026e-003           1.00255e-004
                   88.20    320.46834                               16.77765             71.203                                        3.20468e+002           2.04683e+001           4.68337e-001           4.68337e-001           6.83374e-002           8.33744e-003           3.37439e-004
                   88.30    320.46960                               16.90360             71.203                                        3.20470e+002           2.04696e+001           4.69598e-001           4.69598e-001           6.95978e-002           9.59776e-003           5.97764e-004
                   88.40    320.56842                               17.02800             71.203                                        3.20568e+002           2.05684e+001           5.68416e-001           5.68416e-001           6.84158e-002           8.41576e-003           4.15763e-004
                   88.50    320.81888                               17.14902             71.203                                        3.20819e+002           2.08189e+001           8.18884e-001           8.18884e-001           1.88839e-002           8.88389e-003           8.83888e-004
                   88.60    321.21855                               17.26600             71.203                                        3.21219e+002           2.12186e+001           1.21855e+000           2.18553e-001           1.85528e-002           8.55281e-003           5.52814e-004
                   88.70    321.69411                               17.37915             71.203                                        3.21694e+002           2.16941e+001           1.69411e+000           6.94105e-001           9.41052e-002           4.10524e-003           1.05243e-004
                   88.80    322.20752                               17.48837             71.203                                        3.22208e+002           2.22075e+001           2.20752e+000           2.07524e-001           7.52416e-003           7.52416e-003           5.24161e-004
