~VERSION INFORMATION
VERS                    .            2.0                                    :CWLS LOG ASCII STANDARD
WRAP                    .            NO                                     :ONE LINE PER TIME STEP


~WELL INFORMATION
#MNEM                   .UNIT        DATA                                    DESCRIPTION
#________________________________________________________________________________________
STRTTIME                .HH/MM/SS    02:42:03                               :START TIME
STOPTIME                .HH/MM/SS    02:44:56                               :STOP TIME
STRT                    .s           2.10                                   :START DATA
STOP                    .s           171.40                                 :STOP DATA
STEP                    .s           0.10                                   :MEASUREMENT TIME INTERVAL
NULL                    .            -999.25                                :NULL VALUE
COMP                    .            Statoil ASA                            :COMPANY
FLD                     .            Volve                                  :FIELD
WELL                    .            15/9-F-1 C                             :WELL
RUN                     .            4                                      :RUN
LOC                     .                                                   :LOCATION
PROV                    .            na                                     :PROVINCE
SRVC                    .            Baker Hughes INTEQ                     :SERVICE COMPANY
DATE                    .YY/MM/DD    14/03/15                               :LOG DATE
UWI                     .                                                   :UNIQUE WELL ID
DEPTHMD                 .m           3551.1                                 :MEASURED DEPTH
DEPTHTVD                .m           2992.9                                 :TRUE VERTICAL DEPTH


~CURVE INFORMATION
#MNEM                   .UNIT        API CODES                               DESCRIPTION
#________________________________________________________________________________________
TIME                    .s                                                  :01 TIME
DD_PRESS                .bar                                                :02 DRAW DOWN PRESSURE
DD_VOLUME               .cm3                                                :03 INCREMENTAL DRAW DOWN VOLUME
TEMP                    .degC                                               :04 TRANSDUCER TEMPERATURE
DD_PRESS_MOD_1000       .bar                                                :05 DRAW DOWN PRESSURE MOD 1000
DD_PRESS_MOD_100        .bar                                                :06 DRAW DOWN PRESSURE MOD 100
DD_PRESS_MOD_10         .bar                                                :07 DRAW DOWN PRESSURE MOD 10
DD_PRESS_MOD_1          .bar                                                :08 DRAW DOWN PRESSURE MOD 1
DD_PRESS_MOD_01         .bar                                                :09 DRAW DOWN PRESSURE MOD 01
DD_PRESS_MOD_001        .bar                                                :10 DRAW DOWN PRESSURE MOD 001
DD_PRESS_MOD_0001       .bar                                                :11 DRAW DOWN PRESSURE MOD 0001


~PARAMETER INFORMATION
#MNEM                   .UNIT        VALUE                                   DESCRIPTION
#________________________________________________________________________________________
TOOLFACE                .deg         84.6                                   :01 TOOLFACE
PUMP_CAPACITY           .bar         400                                    :02 NOMINAL DRAW DOWN PUMP CAPACITY
PUMP_LIMIT              .bar         240                                    :03 DOWNLINK PUMP LIMIT
TIME_LIMIT              .min         10                                     :04 DOWNLINK MAX TIME
TEST_TYPE               .            REPEAT                                 :05 DOWNLINK
TEST_TYPE               .            HIGH MOBILITY                          :06 DOWNLINK
DD_PIST_A               .cm2         3.1416                                 :07 DRAW DOWN PISTON AREA
V_SYS                   .cm3         131.0000                               :08 SYSTEM VOLUME
PROBE_ID                .cm          1.2700                                 :09 TTK PROBE ID
G0                      .            4.6700                                 :10 GEOMETRY FACTOR


~A                  TIME     DD_PRESS                              DD_VOLUME               TEMP                                   DD_PRESS_MOD_1000       DD_PRESS_MOD_100        DD_PRESS_MOD_10         DD_PRESS_MOD_1        DD_PRESS_MOD_01       DD_PRESS_MOD_001      DD_PRESS_MOD_0001
# ...
                   13.30    422.73872                                0.00000             85.227                                        4.22739e+002           2.27387e+001           2.73872e+000           7.38719e-001           3.87188e-002           8.71878e-003           7.18778e-004
                   13.40    422.75320                                0.00000             85.227                                        4.22753e+002           2.27532e+001           2.75320e+000           7.53205e-001           5.32049e-002           3.20486e-003           2.04862e-004
                   13.50    422.75994                                0.00000             85.227                                        4.22760e+002           2.27599e+001           2.75994e+000           7.59941e-001           5.99412e-002           9.94121e-003           9.41206e-004
                   13.60    422.74703                                0.00000             85.227                                        4.22747e+002           2.27470e+001           2.74703e+000           7.47034e-001           4.70338e-002           7.03380e-003           3.38032e-005
                   13.70    422.74418                                0.00000             85.227                                        4.22744e+002           2.27442e+001           2.74418e+000           7.44181e-001           4.41808e-002           4.18081e-003           1.80808e-004
                   13.80    422.76629                                0.00000             85.227                                        4.22766e+002           2.27663e+001           2.76629e+000           7.66295e-001           6.62949e-002           6.29487e-003           2.94866e-004
                   13.90    422.78307                                0.00000             85.227                                        4.22783e+002           2.27831e+001           2.78307e+000           7.83073e-001           8.30733e-002           3.07334e-003           7.33363e-005
                   14.00    422.77305                                0.00000             85.227                                        4.22773e+002           2.27731e+001           2.77305e+000           7.73053e-001           7.30526e-002           3.05257e-003           5.25745e-005
                   14.10    422.75954                                0.00000             85.227                                        4.22760e+002           2.27595e+001           2.75954e+000           7.59541e-001           5.95412e-002           9.54116e-003           5.41159e-004
                   14.20    422.76637                                0.00000             85.227                                        4.22766e+002           2.27664e+001           2.76637e+000           7.66370e-001           6.63696e-002           6.36965e-003           3.69646e-004
                   14.30    422.78254                                0.00000             85.227                                        4.22783e+002           2.27825e+001           2.78254e+000           7.82544e-001           8.25435e-002           2.54353e-003           5.43533e-004
                   14.40    422.78609                                0.00000             85.227                                        4.22786e+002           2.27861e+001           2.78609e+000           7.86090e-001           8.60899e-002           6.08987e-003           8.98703e-005
                   14.50    422.77303                                0.00000             85.227                                        4.22773e+002           2.27730e+001           2.77303e+000           7.73031e-001           7.30313e-002           3.03131e-003           3.13058e-005
                   14.60    422.76727                                0.00000             85.224                                        4.22767e+002           2.27673e+001           2.76727e+000           7.67274e-001           6.72740e-002           7.27400e-003           2.74001e-004
                   14.70    422.78635                                0.00000             85.223                                        4.22786e+002           2.27864e+001           2.78635e+000           7.86350e-001           8.63503e-002           6.35034e-003           3.50344e-004
                   14.80    422.80286                                0.00000             85.222                                        4.22803e+002           2.28029e+001           2.80286e+000           8.02859e-001           2.85938e-003           2.85938e-003           8.59376e-004
                   14.90    422.78899                                0.00000             85.221                                        4.22789e+002           2.27890e+001           2.78899e+000           7.88992e-001           8.89924e-002           8.99240e-003           9.92397e-004
                   15.00    422.76892                                0.00000             85.219                                        4.22769e+002           2.27689e+001           2.76892e+000           7.68921e-001           6.89210e-002           8.92103e-003           9.21034e-004
                   15.10    422.78223                                0.00000             85.219                                        4.22782e+002           2.27822e+001           2.78223e+000           7.82235e-001           8.22346e-002           2.23458e-003           2.34577e-004
                   15.20    422.81362                                0.00000             85.219                                        4.22814e+002           2.28136e+001           2.81362e+000           8.13618e-001           1.36180e-002           3.61802e-003           6.18024e-004
                   15.30    422.83171                                0.00000             85.219                                        4.22832e+002           2.28317e+001           2.83171e+000           8.31713e-001           3.17128e-002           1.71281e-003           7.12806e-004
                   15.40    422.82319                                0.00000             85.219                                        4.22823e+002           2.28232e+001           2.82319e+000           8.23188e-001           2.31876e-002           3.18759e-003           1.87586e-004
                   15.50    422.80924                                0.00000             85.219                                        4.22809e+002           2.28092e+001           2.80924e+000           8.09244e-001           9.24402e-003           9.24402e-003           2.44021e-004
                   15.60    422.81707                                0.00000             85.219                                        4.22817e+002           2.28171e+001           2.81707e+000           8.17067e-001           1.70675e-002           7.06745e-003           6.74516e-005
                   15.70    422.83013                                0.00000             85.219                                        4.22830e+002           2.28301e+001           2.83013e+000           8.30126e-001           3.01258e-002           1.25754e-004           1.25754e-004
                   15.80    422.82011                                0.00000             85.219                                        4.22820e+002           2.28201e+001           2.82011e+000           8.20111e-001           2.01108e-002           1.10846e-004           1.10846e-004
                   15.90    422.80122                                0.00000             85.219                                        4.22801e+002           2.28012e+001           2.80122e+000           8.01221e-001           1.22080e-003           1.22080e-003           2.20798e-004
                   16.00    422.80204                                0.00000             85.219                                        4.22802e+002           2.28020e+001           2.80204e+000           8.02044e-001           2.04402e-003           2.04402e-003           4.40237e-005
