~VERSION INFORMATION
VERS                    .            2.0                                    :CWLS LOG ASCII STANDARD
WRAP                    .            NO                                     :ONE LINE PER TIME STEP


~WELL INFORMATION
#MNEM                   .UNIT        DATA                                    DESCRIPTION
#________________________________________________________________________________________
STRTTIME                .HH/MM/SS    14:04:48                               :START TIME
STOPTIME                .HH/MM/SS    14:07:57                               :STOP TIME
STRT                    .s           2.10                                   :START DATA
STOP                    .s           187.50                                 :STOP DATA
STEP                    .s           0.10                                   :MEASUREMENT TIME INTERVAL
NULL                    .            -999.25                                :NULL VALUE
COMP                    .            Statoil ASA                            :COMPANY
FLD                     .            Volve                                  :FIELD
WELL                    .            15/9-F-1 B                             :WELL
RUN                     .            7                                      :RUN
LOC                     .            Maersk Inspirer                        :LOCATION
PROV                    .            na                                     :PROVINCE
SRVC                    .            Baker Hughes INTEQ                     :SERVICE COMPANY
DATE                    .YY/MM/DD    13/09/06                               :LOG DATE
UWI                     .                                                   :UNIQUE WELL ID
DEPTHMD                 .m           3296.0                                 :MEASURED DEPTH
DEPTHTVD                .m           3091.5                                 :TRUE VERTICAL DEPTH


~CURVE INFORMATION
#MNEM                   .UNIT        API CODES                               DESCRIPTION
#________________________________________________________________________________________
TIME                    .s                                                  :01 TIME
DD_PRESS                .bar                                                :02 DRAW DOWN PRESSURE
DD_VOLUME               .cm3                                                :03 INCREMENTAL DRAW DOWN VOLUME
TEMP                    .degC                                               :04 TRANSDUCER TEMPERATURE
DD_PRESS_MOD_1000       .bar                                                :05 DRAW DOWN PRESSURE MOD 1000
DD_PRESS_MOD_100        .bar                                                :06 DRAW DOWN PRESSURE MOD 100
DD_PRESS_MOD_10         .bar                                                :07 DRAW DOWN PRESSURE MOD 10
DD_PRESS_MOD_1          .bar                                                :08 DRAW DOWN PRESSURE MOD 1
DD_PRESS_MOD_01         .bar                                                :09 DRAW DOWN PRESSURE MOD 01
DD_PRESS_MOD_001        .bar                                                :10 DRAW DOWN PRESSURE MOD 001
DD_PRESS_MOD_0001       .bar                                                :11 DRAW DOWN PRESSURE MOD 0001


~PARAMETER INFORMATION
#MNEM                   .UNIT        VALUE                                   DESCRIPTION
#________________________________________________________________________________________
TOOLFACE                .deg         na                                     :01 TOOLFACE
PUMP_CAPACITY           .bar         400                                    :02 NOMINAL DRAW DOWN PUMP CAPACITY
PUMP_LIMIT              .bar         400                                    :03 DOWNLINK PUMP LIMIT
TIME_LIMIT              .min         10                                     :04 DOWNLINK MAX TIME
TEST_TYPE               .            LOW MOBILITY                           :05 DOWNLINK
DD_PIST_A               .cm2         3.1416                                 :06 DRAW DOWN PISTON AREA
V_SYS                   .cm3         131.0000                               :07 SYSTEM VOLUME
PROBE_ID                .cm          1.2700                                 :08 TTK PROBE ID
G0                      .            4.6700                                 :09 GEOMETRY FACTOR


~A                  TIME     DD_PRESS                              DD_VOLUME               TEMP                                   DD_PRESS_MOD_1000       DD_PRESS_MOD_100        DD_PRESS_MOD_10         DD_PRESS_MOD_1        DD_PRESS_MOD_01       DD_PRESS_MOD_001      DD_PRESS_MOD_0001
# ...
                   38.50    341.39657                                9.92154             83.313                                        3.41397e+002           4.13966e+001           1.39657e+000           3.96570e-001           9.65701e-002           6.57011e-003           5.70106e-004
                   38.60    341.56389                                9.98897             83.313                                        3.41564e+002           4.15639e+001           1.56389e+000           5.63892e-001           6.38917e-002           3.89175e-003           8.91748e-004
                   38.70    341.72161                               10.05487             83.313                                        3.41722e+002           4.17216e+001           1.72161e+000           7.21609e-001           2.16091e-002           1.60909e-003           6.09093e-004
                   38.80    341.87867                               10.11928             83.313                                        3.41879e+002           4.18787e+001           1.87867e+000           8.78672e-001           7.86724e-002           8.67242e-003           6.72417e-004
                   38.90    342.04913                               10.18217             83.313                                        3.42049e+002           4.20491e+001           2.04913e+000           4.91283e-002           4.91283e-002           9.12830e-003           1.28302e-004
                   39.00    342.21159                               10.24346             83.313                                        3.42212e+002           4.22116e+001           2.21159e+000           2.11592e-001           1.15918e-002           1.59175e-003           5.91751e-004
                   39.10    342.37227                               10.30327             83.313                                        3.42372e+002           4.23723e+001           2.37227e+000           3.72270e-001           7.22704e-002           2.27036e-003           2.70363e-004
                   39.20    342.53822                               10.36138             83.313                                        3.42538e+002           4.25382e+001           2.53822e+000           5.38218e-001           3.82176e-002           8.21759e-003           2.17589e-004
                   39.30    342.71452                               10.41778             83.313                                        3.42715e+002           4.27145e+001           2.71452e+000           7.14517e-001           1.45166e-002           4.51664e-003           5.16636e-004
                   39.40    342.89400                               10.47261             83.313                                        3.42894e+002           4.28940e+001           2.89400e+000           8.94004e-001           9.40043e-002           4.00426e-003           4.25867e-006
                   39.50    343.08124                               10.52579             83.313                                        3.43081e+002           4.30812e+001           3.08124e+000           8.12434e-002           8.12434e-002           1.24337e-003           2.43371e-004
                   39.60    343.25492                               10.57724             83.313                                        3.43255e+002           4.32549e+001           3.25492e+000           2.54921e-001           5.49210e-002           4.92104e-003           9.21044e-004
                   39.70    343.44209                               10.62697             83.313                                        3.43442e+002           4.34421e+001           3.44209e+000           4.42093e-001           4.20935e-002           2.09347e-003           9.34660e-005
                   39.80    343.63301                               10.67483             83.313                                        3.43633e+002           4.36330e+001           3.63301e+000           6.33009e-001           3.30092e-002           3.00917e-003           9.17184e-006
                   39.90    343.81536                               10.72095             83.313                                        3.43815e+002           4.38154e+001           3.81536e+000           8.15355e-001           1.53553e-002           5.35529e-003           3.55287e-004
                   40.00    343.99160                               10.76549             83.313                                        3.43992e+002           4.39916e+001           3.99160e+000           9.91596e-001           9.15960e-002           1.59601e-003           5.96006e-004
                   40.10    344.16894                               10.80820             83.313                                        3.44169e+002           4.41689e+001           4.16894e+000           1.68937e-001           6.89374e-002           8.93741e-003           9.37409e-004
                   40.20    344.34628                               10.84908             83.310                                        3.44346e+002           4.43463e+001           4.34628e+000           3.46284e-001           4.62838e-002           6.28377e-003           2.83768e-004
                   40.30    344.53661                               10.88822             83.307                                        3.44537e+002           4.45366e+001           4.53661e+000           5.36606e-001           3.66056e-002           6.60559e-003           6.05592e-004
                   40.40    344.71749                               10.92540             83.305                                        3.44717e+002           4.47175e+001           4.71749e+000           7.17489e-001           1.74893e-002           7.48933e-003           4.89332e-004
                   40.50    344.90966                               10.96063             83.305                                        3.44910e+002           4.49097e+001           4.90966e+000           9.09665e-001           9.66452e-003           9.66452e-003           6.64523e-004
                   40.60    345.41430                               10.98914             83.307                                        3.45414e+002           4.54143e+001           5.41430e+000           4.14299e-001           1.42986e-002           4.29857e-003           2.98569e-004
                   40.70    346.45026                               11.00353             83.311                                        3.46450e+002           4.64503e+001           6.45026e+000           4.50260e-001           5.02598e-002           2.59808e-004           2.59808e-004
                   40.80    347.52567                               11.00609             83.313                                        3.47526e+002           4.75257e+001           7.52567e+000           5.25666e-001           2.56664e-002           5.66636e-003           6.66364e-004
                   40.90    348.10787                               11.00622             83.313                                        3.48108e+002           4.81079e+001           8.10787e+000           1.07871e-001           7.87096e-003           7.87096e-003           8.70958e-004
                   41.00    348.38016                               11.00622             83.313                                        3.48380e+002           4.83802e+001           8.38016e+000           3.80158e-001           8.01583e-002           1.58303e-004           1.58303e-004
                   41.10    348.49198                               11.00622             83.313                                        3.48492e+002           4.84920e+001           8.49198e+000           4.91975e-001           9.19754e-002           1.97541e-003           9.75413e-004
                   41.20    348.54656                               11.00622             83.313                                        3.48547e+002           4.85466e+001           8.54656e+000           5.46558e-001           4.65576e-002           6.55763e-003           5.57628e-004
