~VERSION INFORMATION
VERS                    .            2.0                                    :CWLS LOG ASCII STANDARD
WRAP                    .            NO                                     :ONE LINE PER TIME STEP


~WELL INFORMATION
#MNEM                   .UNIT        DATA                                    DESCRIPTION
#________________________________________________________________________________________
STRTTIME                .HH/MM/SS    19:37:02                               :START TIME
STOPTIME                .HH/MM/SS    19:40:38                               :STOP TIME
STRT                    .s           2.10                                   :START DATA
STOP                    .s           214.10                                 :STOP DATA
STEP                    .s           0.10                                   :MEASUREMENT TIME INTERVAL
NULL                    .            -999.25                                :NULL VALUE
COMP                    .            Statoil ASA                            :COMPANY
FLD                     .            Volve                                  :FIELD
WELL                    .            15/9-F-11 A                            :WELL
RUN                     .            8                                      :RUN
LOC                     .            Maersk Inspirer                        :LOCATION
PROV                    .            na                                     :PROVINCE
SRVC                    .            Baker Hughes INTEQ                     :SERVICE COMPANY
DATE                    .YY/MM/DD    13/05/23                               :LOG DATE
UWI                     .                                                   :UNIQUE WELL ID
DEPTHMD                 .m           3607.9                                 :MEASURED DEPTH
DEPTHTVD                .m           3008.4                                 :TRUE VERTICAL DEPTH


~CURVE INFORMATION
#MNEM                   .UNIT        API CODES                               DESCRIPTION
#________________________________________________________________________________________
TIME                    .s                                                  :01 TIME
DD_PRESS                .bar                                                :02 DRAW DOWN PRESSURE
DD_VOLUME               .cm3                                                :03 INCREMENTAL DRAW DOWN VOLUME
TEMP                    .degC                                               :04 TRANSDUCER TEMPERATURE
DD_PRESS_MOD_1000       .bar                                                :05 DRAW DOWN PRESSURE MOD 1000
DD_PRESS_MOD_100        .bar                                                :06 DRAW DOWN PRESSURE MOD 100
DD_PRESS_MOD_10         .bar                                                :07 DRAW DOWN PRESSURE MOD 10
DD_PRESS_MOD_1          .bar                                                :08 DRAW DOWN PRESSURE MOD 1
DD_PRESS_MOD_01         .bar                                                :09 DRAW DOWN PRESSURE MOD 01
DD_PRESS_MOD_001        .bar                                                :10 DRAW DOWN PRESSURE MOD 001
DD_PRESS_MOD_0001       .bar                                                :11 DRAW DOWN PRESSURE MOD 0001


~PARAMETER INFORMATION
#MNEM                   .UNIT        VALUE                                   DESCRIPTION
#________________________________________________________________________________________
TOOLFACE                .deg         -38.9                                  :01 TOOLFACE
PUMP_CAPACITY           .bar         400                                    :02 NOMINAL DRAW DOWN PUMP CAPACITY
PUMP_LIMIT              .bar         240                                    :03 DOWNLINK PUMP LIMIT
TIME_LIMIT              .min         10                                     :04 DOWNLINK MAX TIME
TEST_TYPE               .            REPEAT                                 :05 DOWNLINK
TEST_TYPE               .            HIGH MOBILITY                          :06 DOWNLINK
DD_PIST_A               .cm2         3.1416                                 :07 DRAW DOWN PISTON AREA
V_SYS                   .cm3         131.0000                               :08 SYSTEM VOLUME
PROBE_ID                .cm          1.2700                                 :09 TTK PROBE ID
G0                      .            4.6700                                 :10 GEOMETRY FACTOR


~A                  TIME     DD_PRESS                              DD_VOLUME               TEMP                                   DD_PRESS_MOD_1000       DD_PRESS_MOD_100        DD_PRESS_MOD_10         DD_PRESS_MOD_1        DD_PRESS_MOD_01       DD_PRESS_MOD_001      DD_PRESS_MOD_0001
# ...
                  156.10    340.31744                               28.01154             71.185                                        3.40317e+002           4.03174e+001           3.17444e-001           3.17444e-001           1.74436e-002           7.44356e-003           4.43556e-004
                  156.20    340.31662                               28.01154             71.184                                        3.40317e+002           4.03166e+001           3.16624e-001           3.16624e-001           1.66239e-002           6.62386e-003           6.23863e-004
                  156.30    340.32397                               28.01154             71.186                                        3.40324e+002           4.03240e+001           3.23973e-001           3.23973e-001           2.39731e-002           3.97305e-003           9.73054e-004
                  156.40    340.32925                               28.01154             71.188                                        3.40329e+002           4.03292e+001           3.29249e-001           3.29249e-001           2.92491e-002           9.24909e-003           2.49089e-004
                  156.50    340.31817                               28.01154             71.188                                        3.40318e+002           4.03182e+001           3.18166e-001           3.18166e-001           1.81655e-002           8.16552e-003           1.65518e-004
                  156.60    340.31961                               28.01154             71.185                                        3.40320e+002           4.03196e+001           3.19608e-001           3.19608e-001           1.96085e-002           9.60848e-003           6.08478e-004
                  156.70    340.32519                               28.01154             71.182                                        3.40325e+002           4.03252e+001           3.25193e-001           3.25193e-001           2.51935e-002           5.19349e-003           1.93488e-004
                  156.80    340.32378                               28.01154             71.180                                        3.40324e+002           4.03238e+001           3.23784e-001           3.23784e-001           2.37838e-002           3.78383e-003           7.83828e-004
                  156.90    340.32040                               28.01154             71.180                                        3.40320e+002           4.03204e+001           3.20399e-001           3.20399e-001           2.03994e-002           3.99356e-004           3.99356e-004
                  157.00    340.31927                               28.01154             71.180                                        3.40319e+002           4.03193e+001           3.19269e-001           3.19269e-001           1.92693e-002           9.26930e-003           2.69304e-004
                  157.10    340.32388                               28.01154             71.180                                        3.40324e+002           4.03239e+001           3.23878e-001           3.23878e-001           2.38784e-002           3.87843e-003           8.78426e-004
                  157.20    340.32278                               28.01154             71.180                                        3.40323e+002           4.03228e+001           3.22780e-001           3.22780e-001           2.27796e-002           2.77963e-003           7.79626e-004
                  157.30    340.31916                               28.01154             71.182                                        3.40319e+002           4.03192e+001           3.19157e-001           3.19157e-001           1.91567e-002           9.15667e-003           1.56668e-004
                  157.40    340.32065                               28.01154             71.183                                        3.40321e+002           4.03207e+001           3.20655e-001           3.20655e-001           2.06547e-002           6.54734e-004           6.54734e-004
                  157.50    340.33188                               28.01154             71.182                                        3.40332e+002           4.03319e+001           3.31880e-001           3.31880e-001           3.18798e-002           1.87985e-003           8.79849e-004
                  157.60    340.33754                               28.01154             71.180                                        3.40338e+002           4.03375e+001           3.37543e-001           3.37543e-001           3.75427e-002           7.54274e-003           5.42736e-004
                  157.70    340.32635                               28.01154             71.180                                        3.40326e+002           4.03263e+001           3.26345e-001           3.26345e-001           2.63451e-002           6.34515e-003           3.45146e-004
                  157.80    340.31971                               28.01154             71.180                                        3.40320e+002           4.03197e+001           3.19711e-001           3.19711e-001           1.97110e-002           9.71103e-003           7.11031e-004
                  157.90    340.32618                               28.01154             71.182                                        3.40326e+002           4.03262e+001           3.26183e-001           3.26183e-001           2.61835e-002           6.18346e-003           1.83464e-004
                  158.00    340.32218                               28.01154             71.186                                        3.40322e+002           4.03222e+001           3.22175e-001           3.22175e-001           2.21754e-002           2.17539e-003           1.75388e-004
                  158.10    340.30993                               28.01154             71.188                                        3.40310e+002           4.03099e+001           3.09933e-001           3.09933e-001           9.93272e-003           9.93272e-003           9.32717e-004
                  158.20    340.32108                               28.01154             71.188                                        3.40321e+002           4.03211e+001           3.21078e-001           3.21078e-001           2.10777e-002           1.07773e-003           7.77258e-005
                  158.30    340.33252                               28.01154             71.185                                        3.40333e+002           4.03325e+001           3.32521e-001           3.32521e-001           3.25213e-002           2.52133e-003           5.21334e-004
                  158.40    340.32541                               28.01154             71.182                                        3.40325e+002           4.03254e+001           3.25407e-001           3.25407e-001           2.54075e-002           5.40746e-003           4.07456e-004
                  158.50    340.31624                               28.01154             71.182                                        3.40316e+002           4.03162e+001           3.16243e-001           3.16243e-001           1.62430e-002           6.24304e-003           2.43043e-004
                  158.60    340.32706                               28.01154             71.186                                        3.40327e+002           4.03271e+001           3.27058e-001           3.27058e-001           2.70578e-002           7.05784e-003           5.78385e-005
                  158.70    340.33815                               28.01154             71.185                                        3.40338e+002           4.03381e+001           3.38148e-001           3.38148e-001           3.81479e-002           8.14786e-003           1.47862e-004
                  158.80    340.32559                               28.01154             71.182                                        3.40326e+002           4.03256e+001           3.25594e-001           3.25594e-001           2.55936e-002           5.59365e-003           5.93646e-004
