~VERSION INFORMATION
VERS                    .            2.0                                    :CWLS LOG ASCII STANDARD
WRAP                    .            NO                                     :ONE LINE PER TIME STEP


~WELL INFORMATION
#MNEM                   .UNIT        DATA                                    DESCRIPTION
#________________________________________________________________________________________
STRTTIME                .HH/MM/SS    10:02:47                               :START TIME
STOPTIME                .HH/MM/SS    10:07:04                               :STOP TIME
STRT                    .s           2.10                                   :START DATA
STOP                    .s           255.20                                 :STOP DATA
STEP                    .s           0.10                                   :MEASUREMENT TIME INTERVAL
NULL                    .            -999.25                                :NULL VALUE
COMP                    .            Statoil ASA                            :COMPANY
FLD                     .            Volve                                  :FIELD
WELL                    .            15/9-F-11 A                            :WELL
RUN                     .            8                                      :RUN
LOC                     .            Maersk Inspirer                        :LOCATION
PROV                    .            na                                     :PROVINCE
SRVC                    .            Baker Hughes INTEQ                     :SERVICE COMPANY
DATE                    .YY/MM/DD    13/05/21                               :LOG DATE
UWI                     .                                                   :UNIQUE WELL ID
DEPTHMD                 .m           3657.3                                 :MEASURED DEPTH
DEPTHTVD                .m           3046.2                                 :TRUE VERTICAL DEPTH


~CURVE INFORMATION
#MNEM                   .UNIT        API CODES                               DESCRIPTION
#________________________________________________________________________________________
TIME                    .s                                                  :01 TIME
DD_PRESS                .bar                                                :02 DRAW DOWN PRESSURE
DD_VOLUME               .cm3                                                :03 INCREMENTAL DRAW DOWN VOLUME
TEMP                    .degC                                               :04 TRANSDUCER TEMPERATURE
DD_PRESS_MOD_1000       .bar                                                :05 DRAW DOWN PRESSURE MOD 1000
DD_PRESS_MOD_100        .bar                                                :06 DRAW DOWN PRESSURE MOD 100
DD_PRESS_MOD_10         .bar                                                :07 DRAW DOWN PRESSURE MOD 10
DD_PRESS_MOD_1          .bar                                                :08 DRAW DOWN PRESSURE MOD 1
DD_PRESS_MOD_01         .bar                                                :09 DRAW DOWN PRESSURE MOD 01
DD_PRESS_MOD_001        .bar                                                :10 DRAW DOWN PRESSURE MOD 001
DD_PRESS_MOD_0001       .bar                                                :11 DRAW DOWN PRESSURE MOD 0001


~PARAMETER INFORMATION
#MNEM                   .UNIT        VALUE                                   DESCRIPTION
#________________________________________________________________________________________
TOOLFACE                .deg         60.1                                   :01 TOOLFACE
PUMP_CAPACITY           .bar         400                                    :02 NOMINAL DRAW DOWN PUMP CAPACITY
PUMP_LIMIT              .bar         240                                    :03 DOWNLINK PUMP LIMIT
TIME_LIMIT              .min         10                                     :04 DOWNLINK MAX TIME
TEST_TYPE               .            REPEAT                                 :05 DOWNLINK
TEST_TYPE               .            HIGH MOBILITY                          :06 DOWNLINK
DD_PIST_A               .cm2         3.1416                                 :07 DRAW DOWN PISTON AREA
V_SYS                   .cm3         131.0000                               :08 SYSTEM VOLUME
PROBE_ID                .cm          1.2700                                 :09 TTK PROBE ID
G0                      .            4.6700                                 :10 GEOMETRY FACTOR


~A                  TIME     DD_PRESS                              DD_VOLUME               TEMP                                   DD_PRESS_MOD_1000       DD_PRESS_MOD_100        DD_PRESS_MOD_10         DD_PRESS_MOD_1        DD_PRESS_MOD_01       DD_PRESS_MOD_001      DD_PRESS_MOD_0001
# ...
                  133.70    344.38352                               12.37699             82.117                                        3.44384e+002           4.43835e+001           4.38352e+000           3.83521e-001           8.35205e-002           3.52052e-003           5.20517e-004
                  133.80    344.37942                               12.37699             82.117                                        3.44379e+002           4.43794e+001           4.37942e+000           3.79416e-001           7.94161e-002           9.41615e-003           4.16149e-004
                  133.90    344.37222                               12.37699             82.117                                        3.44372e+002           4.43722e+001           4.37222e+000           3.72223e-001           7.22233e-002           2.22328e-003           2.23278e-004
                  134.00    344.37357                               12.37699             82.117                                        3.44374e+002           4.43736e+001           4.37357e+000           3.73570e-001           7.35702e-002           3.57020e-003           5.70197e-004
                  134.10    344.38229                               12.37699             82.117                                        3.44382e+002           4.43823e+001           4.38229e+000           3.82289e-001           8.22894e-002           2.28940e-003           2.89401e-004
                  134.20    344.38805                               12.37699             82.117                                        3.44388e+002           4.43880e+001           4.38805e+000           3.88045e-001           8.80451e-002           8.04505e-003           4.50524e-005
                  134.30    344.39452                               12.37699             82.117                                        3.44395e+002           4.43945e+001           4.39452e+000           3.94523e-001           9.45232e-002           4.52320e-003           5.23196e-004
                  134.40    344.39507                               12.37699             82.117                                        3.44395e+002           4.43951e+001           4.39507e+000           3.95073e-001           9.50732e-002           5.07324e-003           7.32447e-005
                  134.50    344.39127                               12.37699             82.117                                        3.44391e+002           4.43913e+001           4.39127e+000           3.91275e-001           9.12748e-002           1.27485e-003           2.74848e-004
                  134.60    344.39228                               12.37699             82.117                                        3.44392e+002           4.43923e+001           4.39228e+000           3.92284e-001           9.22845e-002           2.28446e-003           2.84462e-004
                  134.70    344.39487                               12.37699             82.117                                        3.44395e+002           4.43949e+001           4.39487e+000           3.94868e-001           9.48682e-002           4.86815e-003           8.68151e-004
                  134.80    344.39277                               12.37699             82.117                                        3.44393e+002           4.43928e+001           4.39277e+000           3.92769e-001           9.27686e-002           2.76855e-003           7.68554e-004
                  134.90    344.38734                               12.37699             82.117                                        3.44387e+002           4.43873e+001           4.38734e+000           3.87336e-001           8.73362e-002           7.33620e-003           3.36197e-004
                  135.00    344.38455                               12.37699             82.117                                        3.44385e+002           4.43846e+001           4.38455e+000           3.84553e-001           8.45525e-002           4.55251e-003           5.52514e-004
                  135.10    344.38859                               12.37699             82.117                                        3.44389e+002           4.43886e+001           4.38859e+000           3.88594e-001           8.85944e-002           8.59442e-003           5.94421e-004
                  135.20    344.38576                               12.37699             82.117                                        3.44386e+002           4.43858e+001           4.38576e+000           3.85758e-001           8.57577e-002           5.75768e-003           7.57683e-004
                  135.30    344.37504                               12.37699             82.117                                        3.44375e+002           4.43750e+001           4.37504e+000           3.75040e-001           7.50400e-002           5.03999e-003           3.99911e-005
                  135.40    344.37365                               12.37699             82.117                                        3.44374e+002           4.43736e+001           4.37365e+000           3.73648e-001           7.36484e-002           3.64843e-003           6.48426e-004
                  135.50    344.38567                               12.37699             82.117                                        3.44386e+002           4.43857e+001           4.38567e+000           3.85673e-001           8.56730e-002           5.67299e-003           6.72992e-004
                  135.60    344.39338                               12.37699             82.117                                        3.44393e+002           4.43934e+001           4.39338e+000           3.93382e-001           9.33820e-002           3.38200e-003           3.81998e-004
                  135.70    344.38641                               12.37699             82.117                                        3.44386e+002           4.43864e+001           4.38641e+000           3.86409e-001           8.64091e-002           6.40908e-003           4.09079e-004
                  135.80    344.37946                               12.37699             82.117                                        3.44379e+002           4.43795e+001           4.37946e+000           3.79459e-001           7.94593e-002           9.45926e-003           4.59256e-004
                  135.90    344.38190                               12.37699             82.117                                        3.44382e+002           4.43819e+001           4.38190e+000           3.81904e-001           8.19042e-002           1.90425e-003           9.04247e-004
                  136.00    344.38442                               12.37699             82.117                                        3.44384e+002           4.43844e+001           4.38442e+000           3.84415e-001           8.44155e-002           4.41548e-003           4.15482e-004
                  136.10    344.37675                               12.37699             82.117                                        3.44377e+002           4.43767e+001           4.37675e+000           3.76748e-001           7.67478e-002           6.74776e-003           7.47763e-004
                  136.20    344.36827                               12.37699             82.117                                        3.44368e+002           4.43683e+001           4.36827e+000           3.68273e-001           6.82734e-002           8.27336e-003           2.73355e-004
                  136.30    344.36882                               12.37699             82.117                                        3.44369e+002           4.43688e+001           4.36882e+000           3.68821e-001           6.88205e-002           8.82051e-003           8.20509e-004
                  136.40    344.37937                               12.37699             82.117                                        3.44379e+002           4.43794e+001           4.37937e+000           3.79372e-001           7.93719e-002           9.37189e-003           3.71893e-004
