~VERSION INFORMATION
VERS                    .            2.0                                    :CWLS LOG ASCII STANDARD
WRAP                    .            NO                                     :ONE LINE PER TIME STEP


~WELL INFORMATION
#MNEM                   .UNIT        DATA                                    DESCRIPTION
#________________________________________________________________________________________
STRTTIME                .HH/MM/SS    22:05:32                               :START TIME
STOPTIME                .HH/MM/SS    22:09:32                               :STOP TIME
STRT                    .s           2.10                                   :START DATA
STOP                    .s           238.90                                 :STOP DATA
STEP                    .s           0.10                                   :MEASUREMENT TIME INTERVAL
NULL                    .            -999.25                                :NULL VALUE
COMP                    .            Statoil                                :COMPANY
FLD                     .            Volve                                  :FIELD
WELL                    .            15/9-F-11 T2                           :WELL
RUN                     .            7                                      :RUN
LOC                     .            Maersk Inspirer                        :LOCATION
PROV                    .            na                                     :PROVINCE
SRVC                    .            Baker Hughes INTEQ                     :SERVICE COMPANY
DATE                    .YY/MM/DD    13/05/04                               :LOG DATE
UWI                     .                                                   :UNIQUE WELL ID
DEPTHMD                 .m           4490.1                                 :MEASURED DEPTH
DEPTHTVD                .m           3328.5                                 :TRUE VERTICAL DEPTH


~CURVE INFORMATION
#MNEM                   .UNIT        API CODES                               DESCRIPTION
#________________________________________________________________________________________
TIME                    .s                                                  :01 TIME
DD_PRESS                .bar                                                :02 DRAW DOWN PRESSURE
DD_VOLUME               .cm3                                                :03 INCREMENTAL DRAW DOWN VOLUME
TEMP                    .degC                                               :04 TRANSDUCER TEMPERATURE
DD_PRESS_MOD_1000       .bar                                                :05 DRAW DOWN PRESSURE MOD 1000
DD_PRESS_MOD_100        .bar                                                :06 DRAW DOWN PRESSURE MOD 100
DD_PRESS_MOD_10         .bar                                                :07 DRAW DOWN PRESSURE MOD 10
DD_PRESS_MOD_1          .bar                                                :08 DRAW DOWN PRESSURE MOD 1
DD_PRESS_MOD_01         .bar                                                :09 DRAW DOWN PRESSURE MOD 01
DD_PRESS_MOD_001        .bar                                                :10 DRAW DOWN PRESSURE MOD 001
DD_PRESS_MOD_0001       .bar                                                :11 DRAW DOWN PRESSURE MOD 0001


~PARAMETER INFORMATION
#MNEM                   .UNIT        VALUE                                   DESCRIPTION
#________________________________________________________________________________________
TOOLFACE                .deg         na                                     :01 TOOLFACE
PUMP_CAPACITY           .bar         400                                    :02 NOMINAL DRAW DOWN PUMP CAPACITY
PUMP_LIMIT              .bar         240                                    :03 DOWNLINK PUMP LIMIT
TIME_LIMIT              .min         10                                     :04 DOWNLINK MAX TIME
TEST_TYPE               .            HIGH MOBILITY                          :05 DOWNLINK
DD_PIST_A               .cm2         3.1416                                 :06 DRAW DOWN PISTON AREA
V_SYS                   .cm3         131.0000                               :07 SYSTEM VOLUME
PROBE_ID                .cm          1.2700                                 :08 TTK PROBE ID
G0                      .            4.6700                                 :09 GEOMETRY FACTOR


~A                  TIME     DD_PRESS                              DD_VOLUME               TEMP                                   DD_PRESS_MOD_1000       DD_PRESS_MOD_100        DD_PRESS_MOD_10         DD_PRESS_MOD_1        DD_PRESS_MOD_01       DD_PRESS_MOD_001      DD_PRESS_MOD_0001
# ...
                   32.90    347.65264                                6.78419             97.305                                        3.47653e+002           4.76526e+001           7.65264e+000           6.52638e-001           5.26379e-002           2.63792e-003           6.37916e-004
                   33.00    347.68329                                6.88344             97.302                                        3.47683e+002           4.76833e+001           7.68329e+000           6.83295e-001           8.32948e-002           3.29483e-003           2.94829e-004
                   33.10    347.71749                                6.98251             97.299                                        3.47717e+002           4.77175e+001           7.71749e+000           7.17493e-001           1.74934e-002           7.49338e-003           4.93376e-004
                   33.20    347.75746                                7.08129             97.297                                        3.47757e+002           4.77575e+001           7.75746e+000           7.57463e-001           5.74631e-002           7.46313e-003           4.63133e-004
                   33.30    347.81568                                7.17970             97.297                                        3.47816e+002           4.78157e+001           7.81568e+000           8.15681e-001           1.56808e-002           5.68081e-003           6.80805e-004
                   33.40    347.86961                                7.27786             97.297                                        3.47870e+002           4.78696e+001           7.86961e+000           8.69612e-001           6.96125e-002           9.61249e-003           6.12487e-004
                   33.50    347.93892                                7.37567             97.297                                        3.47939e+002           4.79389e+001           7.93892e+000           9.38916e-001           3.89160e-002           8.91597e-003           9.15975e-004
                   33.60    348.03113                                7.47306             97.297                                        3.48031e+002           4.80311e+001           8.03113e+000           3.11279e-002           3.11279e-002           1.12786e-003           1.27856e-004
                   33.70    348.13402                                7.57002             97.297                                        3.48134e+002           4.81340e+001           8.13402e+000           1.34023e-001           3.40231e-002           4.02314e-003           2.31421e-005
                   33.80    348.23263                                7.66653             97.297                                        3.48233e+002           4.82326e+001           8.23263e+000           2.32628e-001           3.26276e-002           2.62761e-003           6.27606e-004
                   33.90    348.31383                                7.76250             97.297                                        3.48314e+002           4.83138e+001           8.31383e+000           3.13827e-001           1.38271e-002           3.82715e-003           8.27146e-004
                   34.00    348.42233                                7.85794             97.297                                        3.48422e+002           4.84223e+001           8.42233e+000           4.22327e-001           2.23268e-002           2.32679e-003           3.26789e-004
                   34.10    348.58861                                7.95278             97.295                                        3.48589e+002           4.85886e+001           8.58861e+000           5.88613e-001           8.86131e-002           8.61309e-003           6.13087e-004
                   34.20    348.74301                                8.04696             97.291                                        3.48743e+002           4.87430e+001           8.74301e+000           7.43009e-001           4.30092e-002           3.00917e-003           9.17303e-006
                   34.30    348.85296                                8.14043             97.289                                        3.48853e+002           4.88530e+001           8.85296e+000           8.52957e-001           5.29566e-002           2.95658e-003           9.56575e-004
                   34.40    348.97012                                8.23322             97.289                                        3.48970e+002           4.89701e+001           8.97012e+000           9.70118e-001           7.01178e-002           1.17789e-004           1.17789e-004
                   34.50    349.10767                                8.32530             97.289                                        3.49108e+002           4.91077e+001           9.10767e+000           1.07666e-001           7.66583e-003           7.66583e-003           6.65831e-004
                   34.60    349.22067                                8.41662             97.289                                        3.49221e+002           4.92207e+001           9.22067e+000           2.20673e-001           2.06730e-002           6.73007e-004           6.73007e-004
                   34.70    349.30621                                8.50705             97.289                                        3.49306e+002           4.93062e+001           9.30621e+000           3.06212e-001           6.21174e-003           6.21174e-003           2.11742e-004
                   34.80    349.44495                                8.59670             97.289                                        3.49445e+002           4.94449e+001           9.44495e+000           4.44948e-001           4.49484e-002           4.94842e-003           9.48420e-004
                   34.90    349.62707                                8.68548             97.289                                        3.49627e+002           4.96271e+001           9.62707e+000           6.27069e-001           2.70689e-002           7.06892e-003           6.89162e-005
                   35.00    349.76972                                8.77326             97.289                                        3.49770e+002           4.97697e+001           9.76972e+000           7.69721e-001           6.97206e-002           9.72056e-003           7.20562e-004
                   35.10    349.88815                                8.85999             97.289                                        3.49888e+002           4.98882e+001           9.88815e+000           8.88151e-001           8.81513e-002           8.15131e-003           1.51313e-004
                   35.20    350.04375                                8.94572             97.289                                        3.50044e+002           5.00438e+001           4.37519e-002           4.37519e-002           4.37519e-002           3.75192e-003           7.51925e-004
                   35.30    350.21925                                9.03062             97.289                                        3.50219e+002           5.02192e+001           2.19246e-001           2.19246e-001           1.92462e-002           9.24621e-003           2.46207e-004
                   35.40    350.37587                                9.11452             97.289                                        3.50376e+002           5.03759e+001           3.75872e-001           3.75872e-001           7.58716e-002           5.87162e-003           8.71624e-004
                   35.50    350.51433                                9.19715             97.289                                        3.50514e+002           5.05143e+001           5.14328e-001           5.14328e-001           1.43276e-002           4.32763e-003           3.27627e-004
                   35.60    350.67212                                9.27867             97.289                                        3.50672e+002           5.06721e+001           6.72120e-001           6.72120e-001           7.21198e-002           2.11981e-003           1.19810e-004
