~VERSION INFORMATION
VERS                    .            2.0                                    :CWLS LOG ASCII STANDARD
WRAP                    .            NO                                     :ONE LINE PER TIME STEP


~WELL INFORMATION
#MNEM                   .UNIT        DATA                                    DESCRIPTION
#________________________________________________________________________________________
STRTTIME                .HH/MM/SS    16:20:20                               :START TIME
STOPTIME                .HH/MM/SS    16:23:23                               :STOP TIME
STRT                    .s           2.10                                   :START DATA
STOP                    .s           182.00                                 :STOP DATA
STEP                    .s           0.10                                   :MEASUREMENT TIME INTERVAL
NULL                    .            -999.25                                :NULL VALUE
COMP                    .            Statoil ASA                            :COMPANY
FLD                     .            Volve                                  :FIELD
WELL                    .            15/9-F-1 B                             :WELL
RUN                     .            7                                      :RUN
LOC                     .            Maersk Inspirer                        :LOCATION
PROV                    .            na                                     :PROVINCE
SRVC                    .            Baker Hughes INTEQ                     :SERVICE COMPANY
DATE                    .YY/MM/DD    13/09/06                               :LOG DATE
UWI                     .                                                   :UNIQUE WELL ID
DEPTHMD                 .m           3255.0                                 :MEASURED DEPTH
DEPTHTVD                .m           3051.1                                 :TRUE VERTICAL DEPTH


~CURVE INFORMATION
#MNEM                   .UNIT        API CODES                               DESCRIPTION
#________________________________________________________________________________________
TIME                    .s                                                  :01 TIME
DD_PRESS                .bar                                                :02 DRAW DOWN PRESSURE
DD_VOLUME               .cm3                                                :03 INCREMENTAL DRAW DOWN VOLUME
TEMP                    .degC                                               :04 TRANSDUCER TEMPERATURE
DD_PRESS_MOD_1000       .bar                                                :05 DRAW DOWN PRESSURE MOD 1000
DD_PRESS_MOD_100        .bar                                                :06 DRAW DOWN PRESSURE MOD 100
DD_PRESS_MOD_10         .bar                                                :07 DRAW DOWN PRESSURE MOD 10
DD_PRESS_MOD_1          .bar                                                :08 DRAW DOWN PRESSURE MOD 1
DD_PRESS_MOD_01         .bar                                                :09 DRAW DOWN PRESSURE MOD 01
DD_PRESS_MOD_001        .bar                                                :10 DRAW DOWN PRESSURE MOD 001
DD_PRESS_MOD_0001       .bar                                                :11 DRAW DOWN PRESSURE MOD 0001


~PARAMETER INFORMATION
#MNEM                   .UNIT        VALUE                                   DESCRIPTION
#________________________________________________________________________________________
TOOLFACE                .deg         na                                     :01 TOOLFACE
PUMP_CAPACITY           .bar         400                                    :02 NOMINAL DRAW DOWN PUMP CAPACITY
PUMP_LIMIT              .bar         400                                    :03 DOWNLINK PUMP LIMIT
TIME_LIMIT              .min         10                                     :04 DOWNLINK MAX TIME
TEST_TYPE               .            LOW MOBILITY                           :05 DOWNLINK
DD_PIST_A               .cm2         3.1416                                 :06 DRAW DOWN PISTON AREA
V_SYS                   .cm3         131.0000                               :07 SYSTEM VOLUME
PROBE_ID                .cm          1.2700                                 :08 TTK PROBE ID
G0                      .            4.6700                                 :09 GEOMETRY FACTOR


~A                  TIME     DD_PRESS                              DD_VOLUME               TEMP                                   DD_PRESS_MOD_1000       DD_PRESS_MOD_100        DD_PRESS_MOD_10         DD_PRESS_MOD_1        DD_PRESS_MOD_01       DD_PRESS_MOD_001      DD_PRESS_MOD_0001
# ...
                  108.50    345.12046                               19.96054             81.758                                        3.45120e+002           4.51205e+001           5.12046e+000           1.20460e-001           2.04597e-002           4.59713e-004           4.59713e-004
                  108.60    345.11017                               19.96054             81.758                                        3.45110e+002           4.51102e+001           5.11017e+000           1.10174e-001           1.01736e-002           1.73572e-004           1.73572e-004
                  108.70    345.11228                               19.96054             81.758                                        3.45112e+002           4.51123e+001           5.11228e+000           1.12283e-001           1.22830e-002           2.28298e-003           2.82984e-004
                  108.80    345.12390                               19.96054             81.758                                        3.45124e+002           4.51239e+001           5.12390e+000           1.23905e-001           2.39047e-002           3.90471e-003           9.04714e-004
                  108.90    345.12893                               19.96054             81.758                                        3.45129e+002           4.51289e+001           5.12893e+000           1.28926e-001           2.89262e-002           8.92624e-003           9.26239e-004
                  109.00    345.12125                               19.96054             81.758                                        3.45121e+002           4.51213e+001           5.12125e+000           1.21254e-001           2.12539e-002           1.25389e-003           2.53885e-004
                  109.10    345.12266                               19.96054             81.758                                        3.45123e+002           4.51227e+001           5.12266e+000           1.22663e-001           2.26630e-002           2.66304e-003           6.63039e-004
                  109.20    345.13524                               19.96054             81.758                                        3.45135e+002           4.51352e+001           5.13524e+000           1.35241e-001           3.52406e-002           5.24057e-003           2.40574e-004
                  109.30    345.13027                               19.96054             81.758                                        3.45130e+002           4.51303e+001           5.13027e+000           1.30273e-001           3.02733e-002           2.73319e-004           2.73319e-004
                  109.40    345.10723                               19.96054             81.758                                        3.45107e+002           4.51072e+001           5.10723e+000           1.07229e-001           7.22920e-003           7.22920e-003           2.29200e-004
                  109.50    345.10856                               19.96054             81.758                                        3.45109e+002           4.51086e+001           5.10856e+000           1.08556e-001           8.55609e-003           8.55609e-003           5.56089e-004
                  109.60    345.12658                               19.96054             81.758                                        3.45127e+002           4.51266e+001           5.12658e+000           1.26576e-001           2.65760e-002           6.57600e-003           5.76001e-004
                  109.70    345.13002                               19.96054             81.758                                        3.45130e+002           4.51300e+001           5.13002e+000           1.30016e-001           3.00157e-002           1.56998e-005           1.56998e-005
                  109.80    345.11836                               19.96054             81.758                                        3.45118e+002           4.51184e+001           5.11836e+000           1.18359e-001           1.83593e-002           8.35934e-003           3.59337e-004
                  109.90    345.11773                               19.96054             81.758                                        3.45118e+002           4.51177e+001           5.11773e+000           1.17725e-001           1.77253e-002           7.72535e-003           7.25347e-004
                  110.00    345.12438                               19.96054             81.758                                        3.45124e+002           4.51244e+001           5.12438e+000           1.24379e-001           2.43787e-002           4.37866e-003           3.78661e-004
                  110.10    345.12096                               19.96054             81.758                                        3.45121e+002           4.51210e+001           5.12096e+000           1.20960e-001           2.09601e-002           9.60063e-004           9.60063e-004
                  110.20    345.11267                               19.96054             81.758                                        3.45113e+002           4.51127e+001           5.11267e+000           1.12667e-001           1.26666e-002           2.66662e-003           6.66615e-004
                  110.30    345.12004                               19.96054             81.758                                        3.45120e+002           4.51200e+001           5.12004e+000           1.20039e-001           2.00393e-002           3.92815e-005           3.92815e-005
                  110.40    345.12451                               19.96054             81.758                                        3.45125e+002           4.51245e+001           5.12451e+000           1.24511e-001           2.45114e-002           4.51145e-003           5.11447e-004
                  110.50    345.11634                               19.96054             81.758                                        3.45116e+002           4.51163e+001           5.11634e+000           1.16336e-001           1.63365e-002           6.33645e-003           3.36451e-004
                  110.60    345.10656                               19.96054             81.758                                        3.45107e+002           4.51066e+001           5.10656e+000           1.06558e-001           6.55824e-003           6.55824e-003           5.58238e-004
                  110.70    345.11762                               19.96054             81.758                                        3.45118e+002           4.51176e+001           5.11762e+000           1.17623e-001           1.76234e-002           7.62343e-003           6.23427e-004
                  110.80    345.12779                               19.96054             81.758                                        3.45128e+002           4.51278e+001           5.12779e+000           1.27792e-001           2.77916e-002           7.79156e-003           7.91560e-004
                  110.90    345.12033                               19.96054             81.758                                        3.45120e+002           4.51203e+001           5.12033e+000           1.20329e-001           2.03285e-002           3.28525e-004           3.28525e-004
                  111.00    345.11344                               19.96054             81.758                                        3.45113e+002           4.51134e+001           5.11344e+000           1.13437e-001           1.34366e-002           3.43663e-003           4.36633e-004
                  111.10    345.12148                               19.96054             81.758                                        3.45121e+002           4.51215e+001           5.12148e+000           1.21483e-001           2.14834e-002           1.48340e-003           4.83403e-004
                  111.20    345.12944                               19.96054             81.758                                        3.45129e+002           4.51294e+001           5.12944e+000           1.29435e-001           2.94351e-002           9.43511e-003           4.35107e-004
