~VERSION INFORMATION
VERS                    .            2.0                                    :CWLS LOG ASCII STANDARD
WRAP                    .            NO                                     :ONE LINE PER TIME STEP


~WELL INFORMATION
#MNEM                   .UNIT        DATA                                    DESCRIPTION
#________________________________________________________________________________________
STRTTIME                .HH/MM/SS    22:05:32                               :START TIME
STOPTIME                .HH/MM/SS    22:09:32                               :STOP TIME
STRT                    .s           2.10                                   :START DATA
STOP                    .s           238.90                                 :STOP DATA
STEP                    .s           0.10                                   :MEASUREMENT TIME INTERVAL
NULL                    .            -999.25                                :NULL VALUE
COMP                    .            Statoil                                :COMPANY
FLD                     .            Volve                                  :FIELD
WELL                    .            15/9-F-11 T2                           :WELL
RUN                     .            7                                      :RUN
LOC                     .            Maersk Inspirer                        :LOCATION
PROV                    .            na                                     :PROVINCE
SRVC                    .            Baker Hughes INTEQ                     :SERVICE COMPANY
DATE                    .YY/MM/DD    13/05/04                               :LOG DATE
UWI                     .                                                   :UNIQUE WELL ID
DEPTHMD                 .m           4490.1                                 :MEASURED DEPTH
DEPTHTVD                .m           3328.5                                 :TRUE VERTICAL DEPTH


~CURVE INFORMATION
#MNEM                   .UNIT        API CODES                               DESCRIPTION
#________________________________________________________________________________________
TIME                    .s                                                  :01 TIME
DD_PRESS                .bar                                                :02 DRAW DOWN PRESSURE
DD_VOLUME               .cm3                                                :03 INCREMENTAL DRAW DOWN VOLUME
TEMP                    .degC                                               :04 TRANSDUCER TEMPERATURE
DD_PRESS_MOD_1000       .bar                                                :05 DRAW DOWN PRESSURE MOD 1000
DD_PRESS_MOD_100        .bar                                                :06 DRAW DOWN PRESSURE MOD 100
DD_PRESS_MOD_10         .bar                                                :07 DRAW DOWN PRESSURE MOD 10
DD_PRESS_MOD_1          .bar                                                :08 DRAW DOWN PRESSURE MOD 1
DD_PRESS_MOD_01         .bar                                                :09 DRAW DOWN PRESSURE MOD 01
DD_PRESS_MOD_001        .bar                                                :10 DRAW DOWN PRESSURE MOD 001
DD_PRESS_MOD_0001       .bar                                                :11 DRAW DOWN PRESSURE MOD 0001


~PARAMETER INFORMATION
#MNEM                   .UNIT        VALUE                                   DESCRIPTION
#________________________________________________________________________________________
TOOLFACE                .deg         na                                     :01 TOOLFACE
PUMP_CAPACITY           .bar         400                                    :02 NOMINAL DRAW DOWN PUMP CAPACITY
PUMP_LIMIT              .bar         240                                    :03 DOWNLINK PUMP LIMIT
TIME_LIMIT              .min         10                                     :04 DOWNLINK MAX TIME
TEST_TYPE               .            HIGH MOBILITY                          :05 DOWNLINK
DD_PIST_A               .cm2         3.1416                                 :06 DRAW DOWN PISTON AREA
V_SYS                   .cm3         131.0000                               :07 SYSTEM VOLUME
PROBE_ID                .cm          1.2700                                 :08 TTK PROBE ID
G0                      .            4.6700                                 :09 GEOMETRY FACTOR


~A                  TIME     DD_PRESS                              DD_VOLUME               TEMP                                   DD_PRESS_MOD_1000       DD_PRESS_MOD_100        DD_PRESS_MOD_10         DD_PRESS_MOD_1        DD_PRESS_MOD_01       DD_PRESS_MOD_001      DD_PRESS_MOD_0001
# ...
                  189.70    367.48092                               23.59084             97.250                                        3.67481e+002           6.74809e+001           7.48092e+000           4.80923e-001           8.09227e-002           9.22675e-004           9.22675e-004
                  189.80    367.47338                               23.59084             97.250                                        3.67473e+002           6.74734e+001           7.47338e+000           4.73377e-001           7.33772e-002           3.37725e-003           3.77246e-004
                  189.90    367.48563                               23.59084             97.250                                        3.67486e+002           6.74856e+001           7.48563e+000           4.85631e-001           8.56314e-002           5.63145e-003           6.31447e-004
                  190.00    367.45934                               23.59084             97.250                                        3.67459e+002           6.74593e+001           7.45934e+000           4.59336e-001           5.93355e-002           9.33553e-003           3.35528e-004
                  190.10    367.43023                               23.59084             97.250                                        3.67430e+002           6.74302e+001           7.43023e+000           4.30228e-001           3.02279e-002           2.27933e-004           2.27933e-004
                  190.20    367.45981                               23.59084             97.250                                        3.67460e+002           6.74598e+001           7.45981e+000           4.59811e-001           5.98114e-002           9.81136e-003           8.11363e-004
                  190.30    367.49001                               23.59084             97.250                                        3.67490e+002           6.74900e+001           7.49001e+000           4.90012e-001           9.00125e-002           1.24826e-005           1.24826e-005
                  190.40    367.48848                               23.59084             97.250                                        3.67488e+002           6.74885e+001           7.48848e+000           4.88483e-001           8.84835e-002           8.48350e-003           4.83500e-004
                  190.50    367.50403                               23.59084             97.250                                        3.67504e+002           6.75040e+001           7.50403e+000           5.04033e-001           4.03350e-003           4.03350e-003           3.34987e-005
                  190.60    367.53622                               23.59084             97.250                                        3.67536e+002           6.75362e+001           7.53622e+000           5.36219e-001           3.62186e-002           6.21860e-003           2.18605e-004
                  190.70    367.53847                               23.59084             97.250                                        3.67538e+002           6.75385e+001           7.53847e+000           5.38467e-001           3.84674e-002           8.46741e-003           4.67413e-004
                  190.80    367.48869                               23.59084             97.250                                        3.67489e+002           6.74887e+001           7.48869e+000           4.88690e-001           8.86905e-002           8.69047e-003           6.90472e-004
                  190.90    367.44610                               23.59084             97.250                                        3.67446e+002           6.74461e+001           7.44610e+000           4.46102e-001           4.61021e-002           6.10211e-003           1.02111e-004
                  191.00    367.46202                               23.59084             97.250                                        3.67462e+002           6.74620e+001           7.46202e+000           4.62023e-001           6.20232e-002           2.02319e-003           2.31947e-005
                  191.10    367.48534                               23.59084             97.250                                        3.67485e+002           6.74853e+001           7.48534e+000           4.85341e-001           8.53415e-002           5.34149e-003           3.41485e-004
                  191.20    367.47332                               23.59084             97.250                                        3.67473e+002           6.74733e+001           7.47332e+000           4.73321e-001           7.33207e-002           3.32065e-003           3.20653e-004
                  191.30    367.45767                               23.59084             97.250                                        3.67458e+002           6.74577e+001           7.45767e+000           4.57673e-001           5.76734e-002           7.67337e-003           6.73373e-004
                  191.40    367.48778                               23.59084             97.250                                        3.67488e+002           6.74878e+001           7.48778e+000           4.87780e-001           8.77799e-002           7.77989e-003           7.79886e-004
                  191.50    367.51376                               23.59084             97.250                                        3.67514e+002           6.75138e+001           7.51376e+000           5.13759e-001           1.37595e-002           3.75948e-003           7.59483e-004
                  191.60    367.48453                               23.59084             97.250                                        3.67485e+002           6.74845e+001           7.48453e+000           4.84533e-001           8.45329e-002           4.53289e-003           5.32885e-004
                  191.70    367.45842                               23.59084             97.250                                        3.67458e+002           6.74584e+001           7.45842e+000           4.58418e-001           5.84176e-002           8.41760e-003           4.17601e-004
                  191.80    367.47025                               23.59084             97.250                                        3.67470e+002           6.74702e+001           7.47025e+000           4.70247e-001           7.02471e-002           2.47140e-004           2.47140e-004
                  191.90    367.47764                               23.59084             97.250                                        3.67478e+002           6.74776e+001           7.47764e+000           4.77638e-001           7.76380e-002           7.63799e-003           6.37987e-004
                  192.00    367.47586                               23.59084             97.250                                        3.67476e+002           6.74759e+001           7.47586e+000           4.75864e-001           7.58641e-002           5.86413e-003           8.64130e-004
                  192.10    367.48825                               23.59084             97.250                                        3.67488e+002           6.74882e+001           7.48825e+000           4.88245e-001           8.82452e-002           8.24522e-003           2.45216e-004
                  192.20    367.50766                               23.59084             97.250                                        3.67508e+002           6.75077e+001           7.50766e+000           5.07663e-001           7.66250e-003           7.66250e-003           6.62504e-004
                  192.30    367.51548                               23.59084             97.250                                        3.67515e+002           6.75155e+001           7.51548e+000           5.15483e-001           1.54832e-002           5.48322e-003           4.83219e-004
                  192.40    367.48789                               23.59084             97.250                                        3.67488e+002           6.74879e+001           7.48789e+000           4.87893e-001           8.78932e-002           7.89324e-003           8.93245e-004
