~VERSION INFORMATION
VERS                    .            2.0                                    :CWLS LOG ASCII STANDARD
WRAP                    .            NO                                     :ONE LINE PER TIME STEP


~WELL INFORMATION
#MNEM                   .UNIT        DATA                                    DESCRIPTION
#________________________________________________________________________________________
STRTTIME                .HH/MM/SS    14:50:05                               :START TIME
STOPTIME                .HH/MM/SS    14:53:18                               :STOP TIME
STRT                    .s           2.10                                   :START DATA
STOP                    .s           191.60                                 :STOP DATA
STEP                    .s           0.10                                   :MEASUREMENT TIME INTERVAL
NULL                    .            -999.25                                :NULL VALUE
COMP                    .            Statoil ASA                            :COMPANY
FLD                     .            Volve                                  :FIELD
WELL                    .            15/9-F-1 B                             :WELL
RUN                     .            7                                      :RUN
LOC                     .            Maersk Inspirer                        :LOCATION
PROV                    .            na                                     :PROVINCE
SRVC                    .            Baker Hughes INTEQ                     :SERVICE COMPANY
DATE                    .YY/MM/DD    13/09/06                               :LOG DATE
UWI                     .                                                   :UNIQUE WELL ID
DEPTHMD                 .m           3280.5                                 :MEASURED DEPTH
DEPTHTVD                .m           3076.1                                 :TRUE VERTICAL DEPTH


~CURVE INFORMATION
#MNEM                   .UNIT        API CODES                               DESCRIPTION
#________________________________________________________________________________________
TIME                    .s                                                  :01 TIME
DD_PRESS                .bar                                                :02 DRAW DOWN PRESSURE
DD_VOLUME               .cm3                                                :03 INCREMENTAL DRAW DOWN VOLUME
TEMP                    .degC                                               :04 TRANSDUCER TEMPERATURE
DD_PRESS_MOD_1000       .bar                                                :05 DRAW DOWN PRESSURE MOD 1000
DD_PRESS_MOD_100        .bar                                                :06 DRAW DOWN PRESSURE MOD 100
DD_PRESS_MOD_10         .bar                                                :07 DRAW DOWN PRESSURE MOD 10
DD_PRESS_MOD_1          .bar                                                :08 DRAW DOWN PRESSURE MOD 1
DD_PRESS_MOD_01         .bar                                                :09 DRAW DOWN PRESSURE MOD 01
DD_PRESS_MOD_001        .bar                                                :10 DRAW DOWN PRESSURE MOD 001
DD_PRESS_MOD_0001       .bar                                                :11 DRAW DOWN PRESSURE MOD 0001


~PARAMETER INFORMATION
#MNEM                   .UNIT        VALUE                                   DESCRIPTION
#________________________________________________________________________________________
TOOLFACE                .deg         na                                     :01 TOOLFACE
PUMP_CAPACITY           .bar         400                                    :02 NOMINAL DRAW DOWN PUMP CAPACITY
PUMP_LIMIT              .bar         400                                    :03 DOWNLINK PUMP LIMIT
TIME_LIMIT              .min         10                                     :04 DOWNLINK MAX TIME
TEST_TYPE               .            LOW MOBILITY                           :05 DOWNLINK
DD_PIST_A               .cm2         3.1416                                 :06 DRAW DOWN PISTON AREA
V_SYS                   .cm3         131.0000                               :07 SYSTEM VOLUME
PROBE_ID                .cm          1.2700                                 :08 TTK PROBE ID
G0                      .            4.6700                                 :09 GEOMETRY FACTOR


~A                  TIME     DD_PRESS                              DD_VOLUME               TEMP                                   DD_PRESS_MOD_1000       DD_PRESS_MOD_100        DD_PRESS_MOD_10         DD_PRESS_MOD_1        DD_PRESS_MOD_01       DD_PRESS_MOD_001      DD_PRESS_MOD_0001
# ...
                  114.10    347.58293                               19.92655             82.477                                        3.47583e+002           4.75829e+001           7.58293e+000           5.82931e-001           8.29315e-002           2.93146e-003           9.31460e-004
                  114.20    347.58531                               19.92655             82.477                                        3.47585e+002           4.75853e+001           7.58531e+000           5.85309e-001           8.53089e-002           5.30890e-003           3.08903e-004
                  114.30    347.57817                               19.92655             82.477                                        3.47578e+002           4.75782e+001           7.57817e+000           5.78172e-001           7.81716e-002           8.17156e-003           1.71563e-004
                  114.40    347.57752                               19.92655             82.477                                        3.47578e+002           4.75775e+001           7.57752e+000           5.77515e-001           7.75151e-002           7.51509e-003           5.15086e-004
                  114.50    347.58303                               19.92655             82.477                                        3.47583e+002           4.75830e+001           7.58303e+000           5.83029e-001           8.30294e-002           3.02939e-003           2.93881e-005
                  114.60    347.58491                               19.92655             82.477                                        3.47585e+002           4.75849e+001           7.58491e+000           5.84909e-001           8.49085e-002           4.90853e-003           9.08529e-004
                  114.70    347.57910                               19.92655             82.477                                        3.47579e+002           4.75791e+001           7.57910e+000           5.79096e-001           7.90958e-002           9.09577e-003           9.57740e-005
                  114.80    347.58061                               19.92655             82.477                                        3.47581e+002           4.75806e+001           7.58061e+000           5.80615e-001           8.06146e-002           6.14620e-004           6.14620e-004
                  114.90    347.58971                               19.92655             82.474                                        3.47590e+002           4.75897e+001           7.58971e+000           5.89706e-001           8.97063e-002           9.70633e-003           7.06332e-004
                  115.00    347.58831                               19.92655             82.471                                        3.47588e+002           4.75883e+001           7.58831e+000           5.88305e-001           8.83053e-002           8.30532e-003           3.05323e-004
                  115.10    347.58111                               19.92655             82.471                                        3.47581e+002           4.75811e+001           7.58111e+000           5.81105e-001           8.11052e-002           1.10519e-003           1.05193e-004
                  115.20    347.58029                               19.92655             82.475                                        3.47580e+002           4.75803e+001           7.58029e+000           5.80286e-001           8.02864e-002           2.86434e-004           2.86434e-004
                  115.30    347.58552                               19.92655             82.474                                        3.47586e+002           4.75855e+001           7.58552e+000           5.85520e-001           8.55204e-002           5.52043e-003           5.20428e-004
                  115.40    347.58583                               19.92655             82.471                                        3.47586e+002           4.75858e+001           7.58583e+000           5.85830e-001           8.58297e-002           5.82971e-003           8.29712e-004
                  115.50    347.57778                               19.92655             82.471                                        3.47578e+002           4.75778e+001           7.57778e+000           5.77783e-001           7.77834e-002           7.78344e-003           7.83444e-004
                  115.60    347.57892                               19.92655             82.475                                        3.47579e+002           4.75789e+001           7.57892e+000           5.78923e-001           7.89233e-002           8.92329e-003           9.23289e-004
                  115.70    347.59019                               19.92655             82.477                                        3.47590e+002           4.75902e+001           7.59019e+000           5.90194e-001           9.01939e-002           1.93932e-004           1.93932e-004
                  115.80    347.58651                               19.92655             82.477                                        3.47587e+002           4.75865e+001           7.58651e+000           5.86510e-001           8.65102e-002           6.51016e-003           5.10162e-004
                  115.90    347.57673                               19.92655             82.477                                        3.47577e+002           4.75767e+001           7.57673e+000           5.76728e-001           7.67280e-002           6.72802e-003           7.28021e-004
                  116.00    347.57971                               19.92655             82.477                                        3.47580e+002           4.75797e+001           7.57971e+000           5.79706e-001           7.97060e-002           9.70596e-003           7.05962e-004
                  116.10    347.59203                               19.92655             82.474                                        3.47592e+002           4.75920e+001           7.59203e+000           5.92026e-001           9.20255e-002           2.02553e-003           2.55301e-005
                  116.20    347.58882                               19.92655             82.473                                        3.47589e+002           4.75888e+001           7.58882e+000           5.88820e-001           8.88198e-002           8.81982e-003           8.19816e-004
                  116.30    347.57663                               19.92655             82.472                                        3.47577e+002           4.75766e+001           7.57663e+000           5.76628e-001           7.66277e-002           6.62771e-003           6.27712e-004
                  116.40    347.57872                               19.92655             82.471                                        3.47579e+002           4.75787e+001           7.57872e+000           5.78719e-001           7.87190e-002           8.71899e-003           7.18993e-004
                  116.50    347.59118                               19.92655             82.469                                        3.47591e+002           4.75912e+001           7.59118e+000           5.91182e-001           9.11824e-002           1.18237e-003           1.82372e-004
                  116.60    347.58852                               19.92655             82.469                                        3.47589e+002           4.75885e+001           7.58852e+000           5.88524e-001           8.85242e-002           8.52419e-003           5.24191e-004
                  116.70    347.57633                               19.92655             82.469                                        3.47576e+002           4.75763e+001           7.57633e+000           5.76329e-001           7.63285e-002           6.32852e-003           3.28517e-004
                  116.80    347.57371                               19.92655             82.469                                        3.47574e+002           4.75737e+001           7.57371e+000           5.73710e-001           7.37100e-002           3.71003e-003           7.10025e-004
