~VERSION INFORMATION
VERS                    .            2.0                                    :CWLS LOG ASCII STANDARD
WRAP                    .            NO                                     :ONE LINE PER TIME STEP


~WELL INFORMATION
#MNEM                   .UNIT        DATA                                    DESCRIPTION
#________________________________________________________________________________________
STRTTIME                .HH/MM/SS    08:48:41                               :START TIME
STOPTIME                .HH/MM/SS    08:51:35                               :STOP TIME
STRT                    .s           2.10                                   :START DATA
STOP                    .s           172.50                                 :STOP DATA
STEP                    .s           0.10                                   :MEASUREMENT TIME INTERVAL
NULL                    .            -999.25                                :NULL VALUE
COMP                    .            Statoil ASA                            :COMPANY
FLD                     .            Volve                                  :FIELD
WELL                    .            15/9-F-11 A                            :WELL
RUN                     .            8                                      :RUN
LOC                     .            Maersk Inspirer                        :LOCATION
PROV                    .            na                                     :PROVINCE
SRVC                    .            Baker Hughes INTEQ                     :SERVICE COMPANY
DATE                    .YY/MM/DD    13/05/21                               :LOG DATE
UWI                     .                                                   :UNIQUE WELL ID
DEPTHMD                 .m           3681.0                                 :MEASURED DEPTH
DEPTHTVD                .m           3064.4                                 :TRUE VERTICAL DEPTH


~CURVE INFORMATION
#MNEM                   .UNIT        API CODES                               DESCRIPTION
#________________________________________________________________________________________
TIME                    .s                                                  :01 TIME
DD_PRESS                .bar                                                :02 DRAW DOWN PRESSURE
DD_VOLUME               .cm3                                                :03 INCREMENTAL DRAW DOWN VOLUME
TEMP                    .degC                                               :04 TRANSDUCER TEMPERATURE
DD_PRESS_MOD_1000       .bar                                                :05 DRAW DOWN PRESSURE MOD 1000
DD_PRESS_MOD_100        .bar                                                :06 DRAW DOWN PRESSURE MOD 100
DD_PRESS_MOD_10         .bar                                                :07 DRAW DOWN PRESSURE MOD 10
DD_PRESS_MOD_1          .bar                                                :08 DRAW DOWN PRESSURE MOD 1
DD_PRESS_MOD_01         .bar                                                :09 DRAW DOWN PRESSURE MOD 01
DD_PRESS_MOD_001        .bar                                                :10 DRAW DOWN PRESSURE MOD 001
DD_PRESS_MOD_0001       .bar                                                :11 DRAW DOWN PRESSURE MOD 0001


~PARAMETER INFORMATION
#MNEM                   .UNIT        VALUE                                   DESCRIPTION
#________________________________________________________________________________________
TOOLFACE                .deg         -59.5                                  :01 TOOLFACE
PUMP_CAPACITY           .bar         400                                    :02 NOMINAL DRAW DOWN PUMP CAPACITY
PUMP_LIMIT              .bar         240                                    :03 DOWNLINK PUMP LIMIT
TIME_LIMIT              .min         10                                     :04 DOWNLINK MAX TIME
TEST_TYPE               .            REPEAT                                 :05 DOWNLINK
TEST_TYPE               .            HIGH MOBILITY                          :06 DOWNLINK
DD_PIST_A               .cm2         3.1416                                 :07 DRAW DOWN PISTON AREA
V_SYS                   .cm3         131.0000                               :08 SYSTEM VOLUME
PROBE_ID                .cm          1.2700                                 :09 TTK PROBE ID
G0                      .            4.6700                                 :10 GEOMETRY FACTOR


~A                  TIME     DD_PRESS                              DD_VOLUME               TEMP                                   DD_PRESS_MOD_1000       DD_PRESS_MOD_100        DD_PRESS_MOD_10         DD_PRESS_MOD_1        DD_PRESS_MOD_01       DD_PRESS_MOD_001      DD_PRESS_MOD_0001
# ...
                   24.50    423.97550                                0.00000             82.641                                        4.23976e+002           2.39755e+001           3.97550e+000           9.75502e-001           7.55015e-002           5.50152e-003           5.01516e-004
                   24.60    424.02554                                0.00000             82.641                                        4.24026e+002           2.40255e+001           4.02554e+000           2.55381e-002           2.55381e-002           5.53810e-003           5.38095e-004
                   24.70    424.08772                                0.00000             82.641                                        4.24088e+002           2.40877e+001           4.08772e+000           8.77189e-002           8.77189e-002           7.71888e-003           7.18881e-004
                   24.80    424.11299                                0.00000             82.641                                        4.24113e+002           2.41130e+001           4.11299e+000           1.12986e-001           1.29856e-002           2.98556e-003           9.85557e-004
                   24.90    424.09748                                0.00000             82.641                                        4.24097e+002           2.40975e+001           4.09748e+000           9.74808e-002           9.74808e-002           7.48081e-003           4.80808e-004
                   25.00    424.02636                                1.08605             82.641                                        4.24026e+002           2.40264e+001           4.02636e+000           2.63570e-002           2.63570e-002           6.35700e-003           3.56998e-004
                   25.10    424.01151                                1.08545             82.641                                        4.24012e+002           2.40115e+001           4.01151e+000           1.15097e-002           1.15097e-002           1.50967e-003           5.09668e-004
                   25.20    424.09401                                1.08492             82.641                                        4.24094e+002           2.40940e+001           4.09401e+000           9.40076e-002           9.40076e-002           4.00761e-003           7.60992e-006
                   25.30    424.21116                                1.08656             82.641                                        4.24211e+002           2.42112e+001           4.21116e+000           2.11161e-001           1.11614e-002           1.16138e-003           1.61384e-004
                   25.40    424.14653                                1.09060             82.641                                        4.24147e+002           2.41465e+001           4.14653e+000           1.46526e-001           4.65260e-002           6.52604e-003           5.26042e-004
                   25.50    423.83725                                1.09657             82.641                                        4.23837e+002           2.38372e+001           3.83725e+000           8.37247e-001           3.72475e-002           7.24745e-003           2.47453e-004
                   25.60    423.38502                                1.10449             82.641                                        4.23385e+002           2.33850e+001           3.38502e+000           3.85023e-001           8.50229e-002           5.02285e-003           2.28517e-005
                   25.70    422.85661                                1.11436             82.641                                        4.22857e+002           2.28566e+001           2.85661e+000           8.56606e-001           5.66061e-002           6.60613e-003           6.06125e-004
                   25.80    422.20707                                1.12627             82.641                                        4.22207e+002           2.22071e+001           2.20707e+000           2.07067e-001           7.06685e-003           7.06685e-003           6.68475e-005
                   25.90    421.40694                                1.14022             82.641                                        4.21407e+002           2.14069e+001           1.40694e+000           4.06944e-001           6.94409e-003           6.94409e-003           9.44095e-004
                   26.00    420.46800                                1.15609             82.641                                        4.20468e+002           2.04680e+001           4.68001e-001           4.68001e-001           6.80006e-002           8.00064e-003           6.42486e-007
                   26.10    419.41002                                1.17394             82.641                                        4.19410e+002           1.94100e+001           9.41002e+000           4.10019e-001           1.00188e-002           1.87638e-005           1.87638e-005
                   26.20    418.20281                                1.19377             82.641                                        4.18203e+002           1.82028e+001           8.20281e+000           2.02807e-001           2.80669e-003           2.80669e-003           8.06694e-004
                   26.30    416.83587                                1.21541             82.641                                        4.16836e+002           1.68359e+001           6.83587e+000           8.35868e-001           3.58682e-002           5.86820e-003           8.68196e-004
                   26.40    415.33628                                1.23903             82.641                                        4.15336e+002           1.53363e+001           5.33628e+000           3.36282e-001           3.62818e-002           6.28184e-003           2.81845e-004
                   26.50    413.78574                                1.26469             82.641                                        4.13786e+002           1.37857e+001           3.78574e+000           7.85742e-001           8.57423e-002           5.74231e-003           7.42307e-004
                   26.60    412.12597                                1.29226             82.641                                        4.12126e+002           1.21260e+001           2.12597e+000           1.25974e-001           2.59737e-002           5.97373e-003           9.73730e-004
                   26.70    410.26044                                1.32168             82.641                                        4.10260e+002           1.02604e+001           2.60438e-001           2.60438e-001           6.04382e-002           4.38226e-004           4.38226e-004
                   26.80    408.20472                                1.35296             82.641                                        4.08205e+002           8.20472e+000           8.20472e+000           2.04725e-001           4.72492e-003           4.72492e-003           7.24916e-004
                   26.90    406.05686                                1.38606             82.641                                        4.06057e+002           6.05686e+000           6.05686e+000           5.68576e-002           5.68576e-002           6.85764e-003           8.57640e-004
                   27.00    403.76344                                1.42103             82.641                                        4.03763e+002           3.76344e+000           3.76344e+000           7.63437e-001           6.34372e-002           3.43718e-003           4.37178e-004
                   27.10    401.30470                                1.45794             82.641                                        4.01305e+002           1.30470e+000           1.30470e+000           3.04697e-001           4.69693e-003           4.69693e-003           6.96928e-004
                   27.20    398.67667                                1.49676             82.641                                        3.98677e+002           9.86767e+001           8.67667e+000           6.76673e-001           7.66729e-002           6.67294e-003           6.72944e-004
