~VERSION INFORMATION
VERS                    .            2.0                                    :CWLS LOG ASCII STANDARD
WRAP                    .            NO                                     :ONE LINE PER TIME STEP


~WELL INFORMATION
#MNEM                   .UNIT        DATA                                    DESCRIPTION
#________________________________________________________________________________________
STRTTIME                .HH/MM/SS    14:50:05                               :START TIME
STOPTIME                .HH/MM/SS    14:53:18                               :STOP TIME
STRT                    .s           2.10                                   :START DATA
STOP                    .s           191.60                                 :STOP DATA
STEP                    .s           0.10                                   :MEASUREMENT TIME INTERVAL
NULL                    .            -999.25                                :NULL VALUE
COMP                    .            Statoil ASA                            :COMPANY
FLD                     .            Volve                                  :FIELD
WELL                    .            15/9-F-1 B                             :WELL
RUN                     .            7                                      :RUN
LOC                     .            Maersk Inspirer                        :LOCATION
PROV                    .            na                                     :PROVINCE
SRVC                    .            Baker Hughes INTEQ                     :SERVICE COMPANY
DATE                    .YY/MM/DD    13/09/06                               :LOG DATE
UWI                     .                                                   :UNIQUE WELL ID
DEPTHMD                 .m           3280.5                                 :MEASURED DEPTH
DEPTHTVD                .m           3076.1                                 :TRUE VERTICAL DEPTH


~CURVE INFORMATION
#MNEM                   .UNIT        API CODES                               DESCRIPTION
#________________________________________________________________________________________
TIME                    .s                                                  :01 TIME
DD_PRESS                .bar                                                :02 DRAW DOWN PRESSURE
DD_VOLUME               .cm3                                                :03 INCREMENTAL DRAW DOWN VOLUME
TEMP                    .degC                                               :04 TRANSDUCER TEMPERATURE
DD_PRESS_MOD_1000       .bar                                                :05 DRAW DOWN PRESSURE MOD 1000
DD_PRESS_MOD_100        .bar                                                :06 DRAW DOWN PRESSURE MOD 100
DD_PRESS_MOD_10         .bar                                                :07 DRAW DOWN PRESSURE MOD 10
DD_PRESS_MOD_1          .bar                                                :08 DRAW DOWN PRESSURE MOD 1
DD_PRESS_MOD_01         .bar                                                :09 DRAW DOWN PRESSURE MOD 01
DD_PRESS_MOD_001        .bar                                                :10 DRAW DOWN PRESSURE MOD 001
DD_PRESS_MOD_0001       .bar                                                :11 DRAW DOWN PRESSURE MOD 0001


~PARAMETER INFORMATION
#MNEM                   .UNIT        VALUE                                   DESCRIPTION
#________________________________________________________________________________________
TOOLFACE                .deg         na                                     :01 TOOLFACE
PUMP_CAPACITY           .bar         400                                    :02 NOMINAL DRAW DOWN PUMP CAPACITY
PUMP_LIMIT              .bar         400                                    :03 DOWNLINK PUMP LIMIT
TIME_LIMIT              .min         10                                     :04 DOWNLINK MAX TIME
TEST_TYPE               .            LOW MOBILITY                           :05 DOWNLINK
DD_PIST_A               .cm2         3.1416                                 :06 DRAW DOWN PISTON AREA
V_SYS                   .cm3         131.0000                               :07 SYSTEM VOLUME
PROBE_ID                .cm          1.2700                                 :08 TTK PROBE ID
G0                      .            4.6700                                 :09 GEOMETRY FACTOR


~A                  TIME     DD_PRESS                              DD_VOLUME               TEMP                                   DD_PRESS_MOD_1000       DD_PRESS_MOD_100        DD_PRESS_MOD_10         DD_PRESS_MOD_1        DD_PRESS_MOD_01       DD_PRESS_MOD_001      DD_PRESS_MOD_0001
# ...
                  139.30    347.56551                               29.22933             82.461                                        3.47566e+002           4.75655e+001           7.56551e+000           5.65514e-001           6.55137e-002           5.51366e-003           5.13656e-004
                  139.40    347.56977                               29.22933             82.461                                        3.47570e+002           4.75698e+001           7.56977e+000           5.69775e-001           6.97749e-002           9.77493e-003           7.74927e-004
                  139.50    347.57136                               29.22933             82.461                                        3.47571e+002           4.75714e+001           7.57136e+000           5.71361e-001           7.13613e-002           1.36128e-003           3.61275e-004
                  139.60    347.57050                               29.22933             82.461                                        3.47571e+002           4.75705e+001           7.57050e+000           5.70504e-001           7.05041e-002           5.04061e-004           5.04061e-004
                  139.70    347.56845                               29.22933             82.461                                        3.47568e+002           4.75684e+001           7.56845e+000           5.68446e-001           6.84464e-002           8.44637e-003           4.46371e-004
                  139.80    347.56739                               29.22933             82.461                                        3.47567e+002           4.75674e+001           7.56739e+000           5.67393e-001           6.73927e-002           7.39272e-003           3.92717e-004
                  139.90    347.57600                               29.22933             82.461                                        3.47576e+002           4.75760e+001           7.57600e+000           5.75996e-001           7.59961e-002           5.99605e-003           9.96051e-004
                  140.00    347.57467                               29.22933             82.461                                        3.47575e+002           4.75747e+001           7.57467e+000           5.74668e-001           7.46678e-002           4.66777e-003           6.67768e-004
                  140.10    347.56834                               29.22933             82.461                                        3.47568e+002           4.75683e+001           7.56834e+000           5.68342e-001           6.83422e-002           8.34223e-003           3.42231e-004
                  140.20    347.57052                               29.22933             82.461                                        3.47571e+002           4.75705e+001           7.57052e+000           5.70524e-001           7.05241e-002           5.24120e-004           5.24120e-004
                  140.30    347.57496                               29.22933             82.461                                        3.47575e+002           4.75750e+001           7.57496e+000           5.74962e-001           7.49616e-002           4.96158e-003           9.61584e-004
                  140.40    347.57695                               29.22933             82.461                                        3.47577e+002           4.75769e+001           7.57695e+000           5.76949e-001           7.69486e-002           6.94856e-003           9.48561e-004
                  140.50    347.57435                               29.22933             82.461                                        3.47574e+002           4.75744e+001           7.57435e+000           5.74354e-001           7.43544e-002           4.35441e-003           3.54413e-004
                  140.60    347.57405                               29.22933             82.461                                        3.47574e+002           4.75740e+001           7.57405e+000           5.74048e-001           7.40477e-002           4.04774e-003           4.77416e-005
                  140.70    347.57656                               29.22933             82.461                                        3.47577e+002           4.75766e+001           7.57656e+000           5.76562e-001           7.65624e-002           6.56241e-003           5.62415e-004
                  140.80    347.57844                               29.22933             82.461                                        3.47578e+002           4.75784e+001           7.57844e+000           5.78439e-001           7.84388e-002           8.43877e-003           4.38770e-004
                  140.90    347.57722                               29.22933             82.461                                        3.47577e+002           4.75772e+001           7.57722e+000           5.77222e-001           7.72220e-002           7.22201e-003           2.22015e-004
                  141.00    347.57281                               29.22933             82.461                                        3.47573e+002           4.75728e+001           7.57281e+000           5.72806e-001           7.28063e-002           2.80626e-003           8.06257e-004
                  141.10    347.57440                               29.22933             82.461                                        3.47574e+002           4.75744e+001           7.57440e+000           5.74397e-001           7.43968e-002           4.39680e-003           3.96796e-004
                  141.20    347.57922                               29.22933             82.461                                        3.47579e+002           4.75792e+001           7.57922e+000           5.79221e-001           7.92215e-002           9.22146e-003           2.21460e-004
                  141.30    347.57849                               29.22933             82.461                                        3.47578e+002           4.75785e+001           7.57849e+000           5.78487e-001           7.84874e-002           8.48742e-003           4.87418e-004
                  141.40    347.57677                               29.22933             82.461                                        3.47577e+002           4.75768e+001           7.57677e+000           5.76773e-001           7.67730e-002           6.77298e-003           7.72980e-004
                  141.50    347.57848                               29.22933             82.461                                        3.47578e+002           4.75785e+001           7.57848e+000           5.78482e-001           7.84824e-002           8.48237e-003           4.82373e-004
                  141.60    347.58124                               29.22933             82.461                                        3.47581e+002           4.75812e+001           7.58124e+000           5.81241e-001           8.12409e-002           1.24094e-003           2.40938e-004
                  141.70    347.58238                               29.22933             82.461                                        3.47582e+002           4.75824e+001           7.58238e+000           5.82382e-001           8.23821e-002           2.38209e-003           3.82087e-004
                  141.80    347.57648                               29.22933             82.461                                        3.47576e+002           4.75765e+001           7.57648e+000           5.76483e-001           7.64831e-002           6.48308e-003           4.83081e-004
                  141.90    347.57582                               29.22933             82.461                                        3.47576e+002           4.75758e+001           7.57582e+000           5.75818e-001           7.58184e-002           5.81843e-003           8.18429e-004
                  142.00    347.58280                               29.22933             82.461                                        3.47583e+002           4.75828e+001           7.58280e+000           5.82797e-001           8.27974e-002           2.79743e-003           7.97427e-004
