~VERSION INFORMATION
VERS                    .            2.0                                    :CWLS LOG ASCII STANDARD
WRAP                    .            NO                                     :ONE LINE PER TIME STEP


~WELL INFORMATION
#MNEM                   .UNIT        DATA                                    DESCRIPTION
#________________________________________________________________________________________
STRTTIME                .HH/MM/SS    16:02:11                               :START TIME
STOPTIME                .HH/MM/SS    16:05:47                               :STOP TIME
STRT                    .s           2.10                                   :START DATA
STOP                    .s           214.40                                 :STOP DATA
STEP                    .s           0.10                                   :MEASUREMENT TIME INTERVAL
NULL                    .            -999.25                                :NULL VALUE
COMP                    .            Statoil ASA                            :COMPANY
FLD                     .            Volve                                  :FIELD
WELL                    .            15/9-F-1 B                             :WELL
RUN                     .            7                                      :RUN
LOC                     .            Maersk Inspirer                        :LOCATION
PROV                    .            na                                     :PROVINCE
SRVC                    .            Baker Hughes INTEQ                     :SERVICE COMPANY
DATE                    .YY/MM/DD    13/09/06                               :LOG DATE
UWI                     .                                                   :UNIQUE WELL ID
DEPTHMD                 .m           3261.0                                 :MEASURED DEPTH
DEPTHTVD                .m           3057.0                                 :TRUE VERTICAL DEPTH


~CURVE INFORMATION
#MNEM                   .UNIT        API CODES                               DESCRIPTION
#________________________________________________________________________________________
TIME                    .s                                                  :01 TIME
DD_PRESS                .bar                                                :02 DRAW DOWN PRESSURE
DD_VOLUME               .cm3                                                :03 INCREMENTAL DRAW DOWN VOLUME
TEMP                    .degC                                               :04 TRANSDUCER TEMPERATURE
DD_PRESS_MOD_1000       .bar                                                :05 DRAW DOWN PRESSURE MOD 1000
DD_PRESS_MOD_100        .bar                                                :06 DRAW DOWN PRESSURE MOD 100
DD_PRESS_MOD_10         .bar                                                :07 DRAW DOWN PRESSURE MOD 10
DD_PRESS_MOD_1          .bar                                                :08 DRAW DOWN PRESSURE MOD 1
DD_PRESS_MOD_01         .bar                                                :09 DRAW DOWN PRESSURE MOD 01
DD_PRESS_MOD_001        .bar                                                :10 DRAW DOWN PRESSURE MOD 001
DD_PRESS_MOD_0001       .bar                                                :11 DRAW DOWN PRESSURE MOD 0001


~PARAMETER INFORMATION
#MNEM                   .UNIT        VALUE                                   DESCRIPTION
#________________________________________________________________________________________
TOOLFACE                .deg         na                                     :01 TOOLFACE
PUMP_CAPACITY           .bar         400                                    :02 NOMINAL DRAW DOWN PUMP CAPACITY
PUMP_LIMIT              .bar         400                                    :03 DOWNLINK PUMP LIMIT
TIME_LIMIT              .min         10                                     :04 DOWNLINK MAX TIME
TEST_TYPE               .            LOW MOBILITY                           :05 DOWNLINK
DD_PIST_A               .cm2         3.1416                                 :06 DRAW DOWN PISTON AREA
V_SYS                   .cm3         131.0000                               :07 SYSTEM VOLUME
PROBE_ID                .cm          1.2700                                 :08 TTK PROBE ID
G0                      .            4.6700                                 :09 GEOMETRY FACTOR


~A                  TIME     DD_PRESS                              DD_VOLUME               TEMP                                   DD_PRESS_MOD_1000       DD_PRESS_MOD_100        DD_PRESS_MOD_10         DD_PRESS_MOD_1        DD_PRESS_MOD_01       DD_PRESS_MOD_001      DD_PRESS_MOD_0001
# ...
                   58.10    345.60111                               10.91395             82.109                                        3.45601e+002           4.56011e+001           5.60111e+000           6.01108e-001           1.10823e-003           1.10823e-003           1.08233e-004
                   58.20    345.60538                               10.91395             82.109                                        3.45605e+002           4.56054e+001           5.60538e+000           6.05379e-001           5.37941e-003           5.37941e-003           3.79411e-004
                   58.30    345.60389                               10.91395             82.109                                        3.45604e+002           4.56039e+001           5.60389e+000           6.03893e-001           3.89329e-003           3.89329e-003           8.93287e-004
                   58.40    345.59807                               10.91395             82.109                                        3.45598e+002           4.55981e+001           5.59807e+000           5.98068e-001           9.80679e-002           8.06793e-003           6.79251e-005
                   58.50    345.59710                               10.91395             82.109                                        3.45597e+002           4.55971e+001           5.59710e+000           5.97095e-001           9.70953e-002           7.09529e-003           9.52927e-005
                   58.60    345.59933                               10.91395             82.109                                        3.45599e+002           4.55993e+001           5.59933e+000           5.99332e-001           9.93317e-002           9.33171e-003           3.31714e-004
                   58.70    345.60684                               10.91395             82.109                                        3.45607e+002           4.56068e+001           5.60684e+000           6.06843e-001           6.84268e-003           6.84268e-003           8.42684e-004
                   58.80    345.60768                               10.91395             82.109                                        3.45608e+002           4.56077e+001           5.60768e+000           6.07682e-001           7.68200e-003           7.68200e-003           6.81996e-004
                   58.90    345.60286                               10.91395             82.109                                        3.45603e+002           4.56029e+001           5.60286e+000           6.02858e-001           2.85841e-003           2.85841e-003           8.58409e-004
                   59.00    345.60040                               10.91395             82.109                                        3.45600e+002           4.56004e+001           5.60040e+000           6.00401e-001           4.00819e-004           4.00819e-004           4.00819e-004
                   59.10    345.60041                               10.91395             82.109                                        3.45600e+002           4.56004e+001           5.60041e+000           6.00414e-001           4.14008e-004           4.14008e-004           4.14008e-004
                   59.20    345.60294                               10.91395             82.109                                        3.45603e+002           4.56029e+001           5.60294e+000           6.02945e-001           2.94472e-003           2.94472e-003           9.44722e-004
                   59.30    345.60369                               10.91395             82.109                                        3.45604e+002           4.56037e+001           5.60369e+000           6.03694e-001           3.69409e-003           3.69409e-003           6.94088e-004
                   59.40    345.59433                               10.91395             82.109                                        3.45594e+002           4.55943e+001           5.59433e+000           5.94335e-001           9.43350e-002           4.33496e-003           3.34963e-004
                   59.50    345.59662                               10.91395             82.109                                        3.45597e+002           4.55966e+001           5.59662e+000           5.96618e-001           9.66183e-002           6.61825e-003           6.18255e-004
                   59.60    345.60283                               10.91395             82.109                                        3.45603e+002           4.56028e+001           5.60283e+000           6.02828e-001           2.82825e-003           2.82825e-003           8.28251e-004
                   59.70    345.60617                               10.91395             82.109                                        3.45606e+002           4.56062e+001           5.60617e+000           6.06165e-001           6.16536e-003           6.16536e-003           1.65362e-004
                   59.80    345.60316                               10.91395             82.109                                        3.45603e+002           4.56032e+001           5.60316e+000           6.03158e-001           3.15781e-003           3.15781e-003           1.57810e-004
                   59.90    345.60263                               10.91395             82.109                                        3.45603e+002           4.56026e+001           5.60263e+000           6.02627e-001           2.62671e-003           2.62671e-003           6.26714e-004
                   60.00    345.60364                               10.91395             82.109                                        3.45604e+002           4.56036e+001           5.60364e+000           6.03643e-001           3.64264e-003           3.64264e-003           6.42641e-004
                   60.10    345.60636                               10.91395             82.109                                        3.45606e+002           4.56064e+001           5.60636e+000           6.06357e-001           6.35661e-003           6.35661e-003           3.56608e-004
                   60.20    345.59695                               10.91395             82.109                                        3.45597e+002           4.55970e+001           5.59695e+000           5.96955e-001           9.69547e-002           6.95469e-003           9.54694e-004
                   60.30    345.59390                               10.91395             82.109                                        3.45594e+002           4.55939e+001           5.59390e+000           5.93905e-001           9.39050e-002           3.90498e-003           9.04979e-004
                   60.40    345.60012                               10.91395             82.109                                        3.45600e+002           4.56001e+001           5.60012e+000           6.00124e-001           1.23819e-004           1.23819e-004           1.23819e-004
                   60.50    345.60578                               10.91395             82.109                                        3.45606e+002           4.56058e+001           5.60578e+000           6.05779e-001           5.77923e-003           5.77923e-003           7.79226e-004
                   60.60    345.60057                               10.91395             82.109                                        3.45601e+002           4.56006e+001           5.60057e+000           6.00567e-001           5.66856e-004           5.66856e-004           5.66856e-004
                   60.70    345.59612                               10.91395             82.109                                        3.45596e+002           4.55961e+001           5.59612e+000           5.96123e-001           9.61228e-002           6.12279e-003           1.22788e-004
                   60.80    345.60414                               10.91395             82.109                                        3.45604e+002           4.56041e+001           5.60414e+000           6.04136e-001           4.13627e-003           4.13627e-003           1.36273e-004
