~VERSION INFORMATION
VERS                    .            2.0                                    :CWLS LOG ASCII STANDARD
WRAP                    .            NO                                     :ONE LINE PER TIME STEP


~WELL INFORMATION
#MNEM                   .UNIT        DATA                                    DESCRIPTION
#________________________________________________________________________________________
STRTTIME                .HH/MM/SS    03:28:02                               :START TIME
STOPTIME                .HH/MM/SS    03:30:44                               :STOP TIME
STRT                    .s           2.10                                   :START DATA
STOP                    .s           160.80                                 :STOP DATA
STEP                    .s           0.10                                   :MEASUREMENT TIME INTERVAL
NULL                    .            -999.25                                :NULL VALUE
COMP                    .            Statoil ASA                            :COMPANY
FLD                     .            Volve                                  :FIELD
WELL                    .            15/9-F-1 C                             :WELL
RUN                     .            4                                      :RUN
LOC                     .                                                   :LOCATION
PROV                    .            na                                     :PROVINCE
SRVC                    .            Baker Hughes INTEQ                     :SERVICE COMPANY
DATE                    .YY/MM/DD    14/03/15                               :LOG DATE
UWI                     .                                                   :UNIQUE WELL ID
DEPTHMD                 .m           3493.0                                 :MEASURED DEPTH
DEPTHTVD                .m           2980.2                                 :TRUE VERTICAL DEPTH


~CURVE INFORMATION
#MNEM                   .UNIT        API CODES                               DESCRIPTION
#________________________________________________________________________________________
TIME                    .s                                                  :01 TIME
DD_PRESS                .bar                                                :02 DRAW DOWN PRESSURE
DD_VOLUME               .cm3                                                :03 INCREMENTAL DRAW DOWN VOLUME
TEMP                    .degC                                               :04 TRANSDUCER TEMPERATURE
DD_PRESS_MOD_1000       .bar                                                :05 DRAW DOWN PRESSURE MOD 1000
DD_PRESS_MOD_100        .bar                                                :06 DRAW DOWN PRESSURE MOD 100
DD_PRESS_MOD_10         .bar                                                :07 DRAW DOWN PRESSURE MOD 10
DD_PRESS_MOD_1          .bar                                                :08 DRAW DOWN PRESSURE MOD 1
DD_PRESS_MOD_01         .bar                                                :09 DRAW DOWN PRESSURE MOD 01
DD_PRESS_MOD_001        .bar                                                :10 DRAW DOWN PRESSURE MOD 001
DD_PRESS_MOD_0001       .bar                                                :11 DRAW DOWN PRESSURE MOD 0001


~PARAMETER INFORMATION
#MNEM                   .UNIT        VALUE                                   DESCRIPTION
#________________________________________________________________________________________
TOOLFACE                .deg         89.6                                   :01 TOOLFACE
PUMP_CAPACITY           .bar         400                                    :02 NOMINAL DRAW DOWN PUMP CAPACITY
PUMP_LIMIT              .bar         240                                    :03 DOWNLINK PUMP LIMIT
TIME_LIMIT              .min         10                                     :04 DOWNLINK MAX TIME
TEST_TYPE               .            REPEAT                                 :05 DOWNLINK
TEST_TYPE               .            HIGH MOBILITY                          :06 DOWNLINK
DD_PIST_A               .cm2         3.1416                                 :07 DRAW DOWN PISTON AREA
V_SYS                   .cm3         131.0000                               :08 SYSTEM VOLUME
PROBE_ID                .cm          1.2700                                 :09 TTK PROBE ID
G0                      .            4.6700                                 :10 GEOMETRY FACTOR


~A                  TIME     DD_PRESS                              DD_VOLUME               TEMP                                   DD_PRESS_MOD_1000       DD_PRESS_MOD_100        DD_PRESS_MOD_10         DD_PRESS_MOD_1        DD_PRESS_MOD_01       DD_PRESS_MOD_001      DD_PRESS_MOD_0001
# ...
                  147.70    422.13277                                0.00000             83.695                                        4.22133e+002           2.21328e+001           2.13277e+000           1.32769e-001           3.27694e-002           2.76945e-003           7.69445e-004
                  147.80    422.15121                                0.00000             83.695                                        4.22151e+002           2.21512e+001           2.15121e+000           1.51207e-001           5.12068e-002           1.20678e-003           2.06779e-004
                  147.90    422.14540                                0.00000             83.695                                        4.22145e+002           2.21454e+001           2.14540e+000           1.45401e-001           4.54010e-002           5.40101e-003           4.01010e-004
                  148.00    422.12434                                0.00000             83.695                                        4.22124e+002           2.21243e+001           2.12434e+000           1.24338e-001           2.43375e-002           4.33751e-003           3.37508e-004
                  148.10    422.12321                                0.00000             83.695                                        4.22123e+002           2.21232e+001           2.12321e+000           1.23206e-001           2.32058e-002           3.20583e-003           2.05826e-004
                  148.20    422.14421                                0.00000             83.695                                        4.22144e+002           2.21442e+001           2.14421e+000           1.44213e-001           4.42130e-002           4.21304e-003           2.13037e-004
                  148.30    422.15251                                0.00000             83.695                                        4.22153e+002           2.21525e+001           2.15251e+000           1.52515e-001           5.25147e-002           2.51468e-003           5.14682e-004
                  148.40    422.14021                                0.00000             83.695                                        4.22140e+002           2.21402e+001           2.14021e+000           1.40211e-001           4.02109e-002           2.10936e-004           2.10936e-004
                  148.50    422.12162                                0.00000             83.695                                        4.22122e+002           2.21216e+001           2.12162e+000           1.21618e-001           2.16182e-002           1.61818e-003           6.18176e-004
                  148.60    422.11693                                0.00000             83.695                                        4.22117e+002           2.21169e+001           2.11693e+000           1.16932e-001           1.69323e-002           6.93229e-003           9.32287e-004
                  148.70    422.13359                                0.00000             83.695                                        4.22134e+002           2.21336e+001           2.13359e+000           1.33592e-001           3.35918e-002           3.59182e-003           5.91823e-004
                  148.80    422.14074                                0.00000             83.695                                        4.22141e+002           2.21407e+001           2.14074e+000           1.40743e-001           4.07428e-002           7.42816e-004           7.42816e-004
                  148.90    422.12139                                0.00000             83.695                                        4.22121e+002           2.21214e+001           2.12139e+000           1.21388e-001           2.13877e-002           1.38766e-003           3.87661e-004
                  149.00    422.11081                                0.00000             83.695                                        4.22111e+002           2.21108e+001           2.11081e+000           1.10814e-001           1.08141e-002           8.14063e-004           8.14063e-004
                  149.10    422.12028                                0.00000             83.695                                        4.22120e+002           2.21203e+001           2.12028e+000           1.20284e-001           2.02840e-002           2.84048e-004           2.84048e-004
                  149.20    422.12895                                0.00000             83.695                                        4.22129e+002           2.21290e+001           2.12895e+000           1.28953e-001           2.89532e-002           8.95316e-003           9.53164e-004
                  149.30    422.12449                                0.00000             83.695                                        4.22124e+002           2.21245e+001           2.12449e+000           1.24488e-001           2.44879e-002           4.48791e-003           4.87905e-004
                  149.40    422.12158                                0.00000             83.695                                        4.22122e+002           2.21216e+001           2.12158e+000           1.21578e-001           2.15778e-002           1.57778e-003           5.77781e-004
                  149.50    422.11998                                0.00000             83.695                                        4.22120e+002           2.21200e+001           2.11998e+000           1.19983e-001           1.99830e-002           9.98298e-003           9.82979e-004
                  149.60    422.11947                                0.00000             83.695                                        4.22119e+002           2.21195e+001           2.11947e+000           1.19471e-001           1.94709e-002           9.47087e-003           4.70870e-004
                  149.70    422.11734                                0.00000             83.695                                        4.22117e+002           2.21173e+001           2.11734e+000           1.17342e-001           1.73421e-002           7.34212e-003           3.42118e-004
                  149.80    422.10704                                0.00000             83.695                                        4.22107e+002           2.21070e+001           2.10704e+000           1.07040e-001           7.03979e-003           7.03979e-003           3.97903e-005
                  149.90    422.10569                                0.00000             83.695                                        4.22106e+002           2.21057e+001           2.10569e+000           1.05693e-001           5.69252e-003           5.69252e-003           6.92519e-004
                  150.00    422.12188                                0.00000             83.695                                        4.22122e+002           2.21219e+001           2.12188e+000           1.21880e-001           2.18803e-002           1.88029e-003           8.80288e-004
                  150.10    422.12672                                0.00000             83.695                                        4.22127e+002           2.21267e+001           2.12672e+000           1.26720e-001           2.67200e-002           6.72002e-003           7.20021e-004
                  150.20    422.11518                                0.00000             83.695                                        4.22115e+002           2.21152e+001           2.11518e+000           1.15177e-001           1.51772e-002           5.17721e-003           1.77211e-004
                  150.30    422.11292                                0.00000             83.695                                        4.22113e+002           2.21129e+001           2.11292e+000           1.12922e-001           1.29223e-002           2.92229e-003           9.22292e-004
                  150.40    422.12247                                0.00000             83.695                                        4.22122e+002           2.21225e+001           2.12247e+000           1.22469e-001           2.24688e-002           2.46878e-003           4.68782e-004
