~VERSION INFORMATION
VERS                    .            2.0                                    :CWLS LOG ASCII STANDARD
WRAP                    .            NO                                     :ONE LINE PER TIME STEP


~WELL INFORMATION
#MNEM                   .UNIT        DATA                                    DESCRIPTION
#________________________________________________________________________________________
STRTTIME                .HH/MM/SS    15:44:09                               :START TIME
STOPTIME                .HH/MM/SS    15:46:59                               :STOP TIME
STRT                    .s           2.10                                   :START DATA
STOP                    .s           168.10                                 :STOP DATA
STEP                    .s           0.10                                   :MEASUREMENT TIME INTERVAL
NULL                    .            -999.25                                :NULL VALUE
COMP                    .            Statoil ASA                            :COMPANY
FLD                     .            Volve                                  :FIELD
WELL                    .            15/9-F-1 B                             :WELL
RUN                     .            7                                      :RUN
LOC                     .            Maersk Inspirer                        :LOCATION
PROV                    .            na                                     :PROVINCE
SRVC                    .            Baker Hughes INTEQ                     :SERVICE COMPANY
DATE                    .YY/MM/DD    13/09/06                               :LOG DATE
UWI                     .                                                   :UNIQUE WELL ID
DEPTHMD                 .m           3266.5                                 :MEASURED DEPTH
DEPTHTVD                .m           3062.4                                 :TRUE VERTICAL DEPTH


~CURVE INFORMATION
#MNEM                   .UNIT        API CODES                               DESCRIPTION
#________________________________________________________________________________________
TIME                    .s                                                  :01 TIME
DD_PRESS                .bar                                                :02 DRAW DOWN PRESSURE
DD_VOLUME               .cm3                                                :03 INCREMENTAL DRAW DOWN VOLUME
TEMP                    .degC                                               :04 TRANSDUCER TEMPERATURE
DD_PRESS_MOD_1000       .bar                                                :05 DRAW DOWN PRESSURE MOD 1000
DD_PRESS_MOD_100        .bar                                                :06 DRAW DOWN PRESSURE MOD 100
DD_PRESS_MOD_10         .bar                                                :07 DRAW DOWN PRESSURE MOD 10
DD_PRESS_MOD_1          .bar                                                :08 DRAW DOWN PRESSURE MOD 1
DD_PRESS_MOD_01         .bar                                                :09 DRAW DOWN PRESSURE MOD 01
DD_PRESS_MOD_001        .bar                                                :10 DRAW DOWN PRESSURE MOD 001
DD_PRESS_MOD_0001       .bar                                                :11 DRAW DOWN PRESSURE MOD 0001


~PARAMETER INFORMATION
#MNEM                   .UNIT        VALUE                                   DESCRIPTION
#________________________________________________________________________________________
TOOLFACE                .deg         na                                     :01 TOOLFACE
PUMP_CAPACITY           .bar         400                                    :02 NOMINAL DRAW DOWN PUMP CAPACITY
PUMP_LIMIT              .bar         400                                    :03 DOWNLINK PUMP LIMIT
TIME_LIMIT              .min         10                                     :04 DOWNLINK MAX TIME
TEST_TYPE               .            LOW MOBILITY                           :05 DOWNLINK
DD_PIST_A               .cm2         3.1416                                 :06 DRAW DOWN PISTON AREA
V_SYS                   .cm3         131.0000                               :07 SYSTEM VOLUME
PROBE_ID                .cm          1.2700                                 :08 TTK PROBE ID
G0                      .            4.6700                                 :09 GEOMETRY FACTOR


~A                  TIME     DD_PRESS                              DD_VOLUME               TEMP                                   DD_PRESS_MOD_1000       DD_PRESS_MOD_100        DD_PRESS_MOD_10         DD_PRESS_MOD_1        DD_PRESS_MOD_01       DD_PRESS_MOD_001      DD_PRESS_MOD_0001
# ...
                   55.30    346.52018                               10.81939             82.547                                        3.46520e+002           4.65202e+001           6.52018e+000           5.20176e-001           2.01762e-002           1.76173e-004           1.76173e-004
                   55.40    346.51979                               10.81939             82.547                                        3.46520e+002           4.65198e+001           6.51979e+000           5.19789e-001           1.97886e-002           9.78859e-003           7.88585e-004
                   55.50    346.51951                               10.81939             82.545                                        3.46520e+002           4.65195e+001           6.51951e+000           5.19511e-001           1.95109e-002           9.51091e-003           5.10913e-004
                   55.60    346.51975                               10.81939             82.541                                        3.46520e+002           4.65198e+001           6.51975e+000           5.19753e-001           1.97530e-002           9.75305e-003           7.53046e-004
                   55.70    346.52008                               10.81939             82.539                                        3.46520e+002           4.65201e+001           6.52008e+000           5.20076e-001           2.00761e-002           7.60512e-005           7.60512e-005
                   55.80    346.52020                               10.81939             82.541                                        3.46520e+002           4.65202e+001           6.52020e+000           5.20204e-001           2.02043e-002           2.04319e-004           2.04319e-004
                   55.90    346.51881                               10.81939             82.545                                        3.46519e+002           4.65188e+001           6.51881e+000           5.18811e-001           1.88106e-002           8.81063e-003           8.10633e-004
                   56.00    346.51771                               10.81939             82.547                                        3.46518e+002           4.65177e+001           6.51771e+000           5.17714e-001           1.77144e-002           7.71437e-003           7.14374e-004
                   56.10    346.51874                               10.81939             82.547                                        3.46519e+002           4.65187e+001           6.51874e+000           5.18736e-001           1.87363e-002           8.73633e-003           7.36331e-004
                   56.20    346.52050                               10.81939             82.547                                        3.46521e+002           4.65205e+001           6.52050e+000           5.20502e-001           2.05018e-002           5.01800e-004           5.01800e-004
                   56.30    346.51905                               10.81939             82.547                                        3.46519e+002           4.65191e+001           6.51905e+000           5.19051e-001           1.90507e-002           9.05066e-003           5.06553e-005
                   56.40    346.51840                               10.81939             82.547                                        3.46518e+002           4.65184e+001           6.51840e+000           5.18396e-001           1.83964e-002           8.39636e-003           3.96363e-004
                   56.50    346.51940                               10.81939             82.547                                        3.46519e+002           4.65194e+001           6.51940e+000           5.19397e-001           1.93965e-002           9.39653e-003           3.96534e-004
                   56.60    346.51890                               10.81939             82.547                                        3.46519e+002           4.65189e+001           6.51890e+000           5.18900e-001           1.88998e-002           8.89979e-003           8.99787e-004
                   56.70    346.51840                               10.81939             82.547                                        3.46518e+002           4.65184e+001           6.51840e+000           5.18401e-001           1.84008e-002           8.40078e-003           4.00775e-004
                   56.80    346.51953                               10.81939             82.547                                        3.46520e+002           4.65195e+001           6.51953e+000           5.19526e-001           1.95255e-002           9.52551e-003           5.25505e-004
                   56.90    346.51904                               10.81939             82.547                                        3.46519e+002           4.65190e+001           6.51904e+000           5.19043e-001           1.90434e-002           9.04341e-003           4.34138e-005
                   57.00    346.51770                               10.81939             82.547                                        3.46518e+002           4.65177e+001           6.51770e+000           5.17695e-001           1.76955e-002           7.69545e-003           6.95453e-004
                   57.10    346.51804                               10.81939             82.547                                        3.46518e+002           4.65180e+001           6.51804e+000           5.18044e-001           1.80444e-002           8.04438e-003           4.43781e-005
                   57.20    346.51984                               10.81939             82.545                                        3.46520e+002           4.65198e+001           6.51984e+000           5.19836e-001           1.98360e-002           9.83602e-003           8.36021e-004
                   57.30    346.52021                               10.81939             82.541                                        3.46520e+002           4.65202e+001           6.52021e+000           5.20210e-001           2.02096e-002           2.09566e-004           2.09566e-004
                   57.40    346.52011                               10.81939             82.541                                        3.46520e+002           4.65201e+001           6.52011e+000           5.20110e-001           2.01096e-002           1.09597e-004           1.09597e-004
                   57.50    346.51998                               10.81939             82.545                                        3.46520e+002           4.65200e+001           6.51998e+000           5.19981e-001           1.99810e-002           9.98104e-003           9.81037e-004
                   57.60    346.52041                               10.81939             82.547                                        3.46520e+002           4.65204e+001           6.52041e+000           5.20408e-001           2.04079e-002           4.07906e-004           4.07906e-004
                   57.70    346.52055                               10.81939             82.547                                        3.46521e+002           4.65206e+001           6.52055e+000           5.20553e-001           2.05527e-002           5.52691e-004           5.52691e-004
                   57.80    346.51989                               10.81939             82.545                                        3.46520e+002           4.65199e+001           6.51989e+000           5.19894e-001           1.98939e-002           9.89391e-003           8.93909e-004
                   57.90    346.51970                               10.81939             82.543                                        3.46520e+002           4.65197e+001           6.51970e+000           5.19701e-001           1.97006e-002           9.70063e-003           7.00628e-004
                   58.00    346.52018                               10.81939             82.543                                        3.46520e+002           4.65202e+001           6.52018e+000           5.20181e-001           2.01808e-002           1.80754e-004           1.80754e-004
