~VERSION INFORMATION
VERS                    .            2.0                                    :CWLS LOG ASCII STANDARD
WRAP                    .            NO                                     :ONE LINE PER TIME STEP


~WELL INFORMATION
#MNEM                   .UNIT        DATA                                    DESCRIPTION
#________________________________________________________________________________________
STRTTIME                .HH/MM/SS    03:28:02                               :START TIME
STOPTIME                .HH/MM/SS    03:30:44                               :STOP TIME
STRT                    .s           2.10                                   :START DATA
STOP                    .s           160.80                                 :STOP DATA
STEP                    .s           0.10                                   :MEASUREMENT TIME INTERVAL
NULL                    .            -999.25                                :NULL VALUE
COMP                    .            Statoil ASA                            :COMPANY
FLD                     .            Volve                                  :FIELD
WELL                    .            15/9-F-1 C                             :WELL
RUN                     .            4                                      :RUN
LOC                     .                                                   :LOCATION
PROV                    .            na                                     :PROVINCE
SRVC                    .            Baker Hughes INTEQ                     :SERVICE COMPANY
DATE                    .YY/MM/DD    14/03/15                               :LOG DATE
UWI                     .                                                   :UNIQUE WELL ID
DEPTHMD                 .m           3493.0                                 :MEASURED DEPTH
DEPTHTVD                .m           2980.2                                 :TRUE VERTICAL DEPTH


~CURVE INFORMATION
#MNEM                   .UNIT        API CODES                               DESCRIPTION
#________________________________________________________________________________________
TIME                    .s                                                  :01 TIME
DD_PRESS                .bar                                                :02 DRAW DOWN PRESSURE
DD_VOLUME               .cm3                                                :03 INCREMENTAL DRAW DOWN VOLUME
TEMP                    .degC                                               :04 TRANSDUCER TEMPERATURE
DD_PRESS_MOD_1000       .bar                                                :05 DRAW DOWN PRESSURE MOD 1000
DD_PRESS_MOD_100        .bar                                                :06 DRAW DOWN PRESSURE MOD 100
DD_PRESS_MOD_10         .bar                                                :07 DRAW DOWN PRESSURE MOD 10
DD_PRESS_MOD_1          .bar                                                :08 DRAW DOWN PRESSURE MOD 1
DD_PRESS_MOD_01         .bar                                                :09 DRAW DOWN PRESSURE MOD 01
DD_PRESS_MOD_001        .bar                                                :10 DRAW DOWN PRESSURE MOD 001
DD_PRESS_MOD_0001       .bar                                                :11 DRAW DOWN PRESSURE MOD 0001


~PARAMETER INFORMATION
#MNEM                   .UNIT        VALUE                                   DESCRIPTION
#________________________________________________________________________________________
TOOLFACE                .deg         89.6                                   :01 TOOLFACE
PUMP_CAPACITY           .bar         400                                    :02 NOMINAL DRAW DOWN PUMP CAPACITY
PUMP_LIMIT              .bar         240                                    :03 DOWNLINK PUMP LIMIT
TIME_LIMIT              .min         10                                     :04 DOWNLINK MAX TIME
TEST_TYPE               .            REPEAT                                 :05 DOWNLINK
TEST_TYPE               .            HIGH MOBILITY                          :06 DOWNLINK
DD_PIST_A               .cm2         3.1416                                 :07 DRAW DOWN PISTON AREA
V_SYS                   .cm3         131.0000                               :08 SYSTEM VOLUME
PROBE_ID                .cm          1.2700                                 :09 TTK PROBE ID
G0                      .            4.6700                                 :10 GEOMETRY FACTOR


~A                  TIME     DD_PRESS                              DD_VOLUME               TEMP                                   DD_PRESS_MOD_1000       DD_PRESS_MOD_100        DD_PRESS_MOD_10         DD_PRESS_MOD_1        DD_PRESS_MOD_01       DD_PRESS_MOD_001      DD_PRESS_MOD_0001
# ...
                   44.10    340.44344                               10.76582             83.758                                        3.40443e+002           4.04434e+001           4.43442e-001           4.43442e-001           4.34415e-002           3.44154e-003           4.41544e-004
                   44.20    340.44206                               10.76582             83.758                                        3.40442e+002           4.04421e+001           4.42057e-001           4.42057e-001           4.20568e-002           2.05676e-003           5.67597e-005
                   44.30    340.44604                               10.76582             83.758                                        3.40446e+002           4.04460e+001           4.46044e-001           4.46044e-001           4.60444e-002           6.04437e-003           4.43702e-005
                   44.40    340.44916                               10.76582             83.758                                        3.40449e+002           4.04492e+001           4.49157e-001           4.49157e-001           4.91571e-002           9.15710e-003           1.57103e-004
                   44.50    340.44714                               10.76582             83.758                                        3.40447e+002           4.04471e+001           4.47143e-001           4.47143e-001           4.71431e-002           7.14314e-003           1.43135e-004
                   44.60    340.44637                               10.76582             83.758                                        3.40446e+002           4.04464e+001           4.46365e-001           4.46365e-001           4.63655e-002           6.36547e-003           3.65468e-004
                   44.70    340.44564                               10.76582             83.758                                        3.40446e+002           4.04456e+001           4.45641e-001           4.45641e-001           4.56405e-002           5.64053e-003           6.40531e-004
                   44.80    340.44574                               10.76582             83.758                                        3.40446e+002           4.04457e+001           4.45739e-001           4.45739e-001           4.57391e-002           5.73913e-003           7.39131e-004
                   44.90    340.44803                               10.76582             83.758                                        3.40448e+002           4.04480e+001           4.48025e-001           4.48025e-001           4.80253e-002           8.02530e-003           2.53010e-005
                   45.00    340.44909                               10.76582             83.758                                        3.40449e+002           4.04491e+001           4.49092e-001           4.49092e-001           4.90925e-002           9.09249e-003           9.24906e-005
                   45.10    340.44356                               10.76582             83.758                                        3.40444e+002           4.04436e+001           4.43556e-001           4.43556e-001           4.35563e-002           3.55634e-003           5.56338e-004
                   45.20    340.44158                               10.76582             83.758                                        3.40442e+002           4.04416e+001           4.41584e-001           4.41584e-001           4.15843e-002           1.58429e-003           5.84286e-004
                   45.30    340.44549                               10.76582             83.758                                        3.40445e+002           4.04455e+001           4.45489e-001           4.45489e-001           4.54894e-002           5.48936e-003           4.89359e-004
                   45.40    340.44685                               10.76582             83.758                                        3.40447e+002           4.04468e+001           4.46850e-001           4.46850e-001           4.68499e-002           6.84988e-003           8.49876e-004
                   45.50    340.44443                               10.76582             83.758                                        3.40444e+002           4.04444e+001           4.44432e-001           4.44432e-001           4.44318e-002           4.43177e-003           4.31766e-004
                   45.60    340.44444                               10.76582             83.758                                        3.40444e+002           4.04444e+001           4.44436e-001           4.44436e-001           4.44358e-002           4.43575e-003           4.35754e-004
                   45.70    340.44683                               10.76582             83.758                                        3.40447e+002           4.04468e+001           4.46827e-001           4.46827e-001           4.68270e-002           6.82701e-003           8.27009e-004
                   45.80    340.44714                               10.76582             83.758                                        3.40447e+002           4.04471e+001           4.47144e-001           4.47144e-001           4.71440e-002           7.14397e-003           1.43973e-004
                   45.90    340.44618                               10.76582             83.758                                        3.40446e+002           4.04462e+001           4.46177e-001           4.46177e-001           4.61769e-002           6.17692e-003           1.76922e-004
                   46.00    340.44540                               10.76582             83.758                                        3.40445e+002           4.04454e+001           4.45403e-001           4.45403e-001           4.54032e-002           5.40317e-003           4.03170e-004
                   46.10    340.44542                               10.76582             83.758                                        3.40445e+002           4.04454e+001           4.45420e-001           4.45420e-001           4.54201e-002           5.42007e-003           4.20066e-004
                   46.20    340.44591                               10.76582             83.758                                        3.40446e+002           4.04459e+001           4.45908e-001           4.45908e-001           4.59084e-002           5.90840e-003           9.08398e-004
                   46.30    340.44734                               10.76582             83.758                                        3.40447e+002           4.04473e+001           4.47343e-001           4.47343e-001           4.73432e-002           7.34320e-003           3.43202e-004
                   46.40    340.44838                               10.76582             83.758                                        3.40448e+002           4.04484e+001           4.48377e-001           4.48377e-001           4.83770e-002           8.37700e-003           3.77001e-004
                   46.50    340.44460                               10.76582             83.758                                        3.40445e+002           4.04446e+001           4.44604e-001           4.44604e-001           4.46040e-002           4.60401e-003           6.04006e-004
                   46.60    340.44467                               10.76582             83.758                                        3.40445e+002           4.04447e+001           4.44668e-001           4.44668e-001           4.46680e-002           4.66803e-003           6.68033e-004
                   46.70    340.44866                               10.76582             83.758                                        3.40449e+002           4.04487e+001           4.48662e-001           4.48662e-001           4.86615e-002           8.66151e-003           6.61515e-004
                   46.80    340.44939                               10.76582             83.758                                        3.40449e+002           4.04494e+001           4.49387e-001           4.49387e-001           4.93870e-002           9.38695e-003           3.86953e-004
