~VERSION INFORMATION
VERS                    .            2.0                                    :CWLS LOG ASCII STANDARD
WRAP                    .            NO                                     :ONE LINE PER TIME STEP


~WELL INFORMATION
#MNEM                   .UNIT        DATA                                    DESCRIPTION
#________________________________________________________________________________________
STRTTIME                .HH/MM/SS    10:22:55                               :START TIME
STOPTIME                .HH/MM/SS    10:26:06                               :STOP TIME
STRT                    .s           2.10                                   :START DATA
STOP                    .s           189.80                                 :STOP DATA
STEP                    .s           0.10                                   :MEASUREMENT TIME INTERVAL
NULL                    .            -999.25                                :NULL VALUE
COMP                    .            Statoil ASA                            :COMPANY
FLD                     .            Volve                                  :FIELD
WELL                    .            15/9-F-11 A                            :WELL
RUN                     .            8                                      :RUN
LOC                     .            Maersk Inspirer                        :LOCATION
PROV                    .            na                                     :PROVINCE
SRVC                    .            Baker Hughes INTEQ                     :SERVICE COMPANY
DATE                    .YY/MM/DD    13/05/21                               :LOG DATE
UWI                     .                                                   :UNIQUE WELL ID
DEPTHMD                 .m           3651.0                                 :MEASURED DEPTH
DEPTHTVD                .m           3041.4                                 :TRUE VERTICAL DEPTH


~CURVE INFORMATION
#MNEM                   .UNIT        API CODES                               DESCRIPTION
#________________________________________________________________________________________
TIME                    .s                                                  :01 TIME
DD_PRESS                .bar                                                :02 DRAW DOWN PRESSURE
DD_VOLUME               .cm3                                                :03 INCREMENTAL DRAW DOWN VOLUME
TEMP                    .degC                                               :04 TRANSDUCER TEMPERATURE
DD_PRESS_MOD_1000       .bar                                                :05 DRAW DOWN PRESSURE MOD 1000
DD_PRESS_MOD_100        .bar                                                :06 DRAW DOWN PRESSURE MOD 100
DD_PRESS_MOD_10         .bar                                                :07 DRAW DOWN PRESSURE MOD 10
DD_PRESS_MOD_1          .bar                                                :08 DRAW DOWN PRESSURE MOD 1
DD_PRESS_MOD_01         .bar                                                :09 DRAW DOWN PRESSURE MOD 01
DD_PRESS_MOD_001        .bar                                                :10 DRAW DOWN PRESSURE MOD 001
DD_PRESS_MOD_0001       .bar                                                :11 DRAW DOWN PRESSURE MOD 0001


~PARAMETER INFORMATION
#MNEM                   .UNIT        VALUE                                   DESCRIPTION
#________________________________________________________________________________________
TOOLFACE                .deg         61.5                                   :01 TOOLFACE
PUMP_CAPACITY           .bar         400                                    :02 NOMINAL DRAW DOWN PUMP CAPACITY
PUMP_LIMIT              .bar         240                                    :03 DOWNLINK PUMP LIMIT
TIME_LIMIT              .min         10                                     :04 DOWNLINK MAX TIME
TEST_TYPE               .            REPEAT                                 :05 DOWNLINK
TEST_TYPE               .            HIGH MOBILITY                          :06 DOWNLINK
DD_PIST_A               .cm2         3.1416                                 :07 DRAW DOWN PISTON AREA
V_SYS                   .cm3         131.0000                               :08 SYSTEM VOLUME
PROBE_ID                .cm          1.2700                                 :09 TTK PROBE ID
G0                      .            4.6700                                 :10 GEOMETRY FACTOR


~A                  TIME     DD_PRESS                              DD_VOLUME               TEMP                                   DD_PRESS_MOD_1000       DD_PRESS_MOD_100        DD_PRESS_MOD_10         DD_PRESS_MOD_1        DD_PRESS_MOD_01       DD_PRESS_MOD_001      DD_PRESS_MOD_0001
# ...
                   38.50    343.60240                               10.37670             81.063                                        3.43602e+002           4.36024e+001           3.60240e+000           6.02403e-001           2.40325e-003           2.40325e-003           4.03245e-004
                   38.60    343.61138                               10.42076             81.063                                        3.43611e+002           4.36114e+001           3.61138e+000           6.11377e-001           1.13774e-002           1.37738e-003           3.77375e-004
                   38.70    343.61992                               10.46299             81.063                                        3.43620e+002           4.36199e+001           3.61992e+000           6.19917e-001           1.99166e-002           9.91659e-003           9.16590e-004
                   38.80    343.62786                               10.50347             81.063                                        3.43628e+002           4.36279e+001           3.62786e+000           6.27864e-001           2.78641e-002           7.86410e-003           8.64098e-004
                   38.90    343.63565                               10.54207             81.063                                        3.43636e+002           4.36357e+001           3.63565e+000           6.35654e-001           3.56539e-002           5.65388e-003           6.53878e-004
                   39.00    343.64313                               10.57881             81.063                                        3.43643e+002           4.36431e+001           3.64313e+000           6.43128e-001           4.31282e-002           3.12817e-003           1.28169e-004
                   39.10    343.65825                               10.61356             81.063                                        3.43658e+002           4.36583e+001           3.65825e+000           6.58254e-001           5.82536e-002           8.25365e-003           2.53645e-004
                   39.20    343.70872                               10.63961             81.063                                        3.43709e+002           4.37087e+001           3.70872e+000           7.08722e-001           8.72193e-003           8.72193e-003           7.21931e-004
                   39.30    343.76504                               10.65093             81.063                                        3.43765e+002           4.37650e+001           3.76504e+000           7.65038e-001           6.50381e-002           5.03809e-003           3.80869e-005
                   39.40    343.78565                               10.65244             81.063                                        3.43786e+002           4.37857e+001           3.78565e+000           7.85652e-001           8.56524e-002           5.65244e-003           6.52438e-004
                   39.50    343.78433                               10.65286             81.063                                        3.43784e+002           4.37843e+001           3.78433e+000           7.84332e-001           8.43316e-002           4.33164e-003           3.31637e-004
                   39.60    343.78461                               10.65291             81.063                                        3.43785e+002           4.37846e+001           3.78461e+000           7.84614e-001           8.46142e-002           4.61418e-003           6.14177e-004
                   39.70    343.78627                               10.65291             81.063                                        3.43786e+002           4.37863e+001           3.78627e+000           7.86268e-001           8.62681e-002           6.26809e-003           2.68089e-004
                   39.80    343.78626                               10.65291             81.063                                        3.43786e+002           4.37863e+001           3.78626e+000           7.86256e-001           8.62563e-002           6.25625e-003           2.56252e-004
                   39.90    343.78631                               10.65291             81.063                                        3.43786e+002           4.37863e+001           3.78631e+000           7.86306e-001           8.63063e-002           6.30633e-003           3.06334e-004
                   40.00    343.78626                               10.65291             81.063                                        3.43786e+002           4.37863e+001           3.78626e+000           7.86258e-001           8.62583e-002           6.25835e-003           2.58347e-004
                   40.10    343.78628                               10.65291             81.063                                        3.43786e+002           4.37863e+001           3.78628e+000           7.86281e-001           8.62811e-002           6.28113e-003           2.81129e-004
                   40.20    343.78627                               10.65291             81.063                                        3.43786e+002           4.37863e+001           3.78627e+000           7.86271e-001           8.62714e-002           6.27137e-003           2.71366e-004
                   40.30    343.78623                               10.65291             81.063                                        3.43786e+002           4.37862e+001           3.78623e+000           7.86230e-001           8.62305e-002           6.23046e-003           2.30461e-004
                   40.40    343.78631                               10.65291             81.063                                        3.43786e+002           4.37863e+001           3.78631e+000           7.86311e-001           8.63111e-002           6.31107e-003           3.11074e-004
                   40.50    343.78634                               10.65291             81.063                                        3.43786e+002           4.37863e+001           3.78634e+000           7.86343e-001           8.63428e-002           6.34280e-003           3.42795e-004
                   40.60    343.78633                               10.65291             81.063                                        3.43786e+002           4.37863e+001           3.78633e+000           7.86332e-001           8.63322e-002           6.33220e-003           3.32204e-004
                   40.70    343.78640                               10.65291             81.063                                        3.43786e+002           4.37864e+001           3.78640e+000           7.86403e-001           8.64026e-002           6.40257e-003           4.02567e-004
                   40.80    343.78643                               10.65291             81.063                                        3.43786e+002           4.37864e+001           3.78643e+000           7.86434e-001           8.64339e-002           6.43388e-003           4.33882e-004
                   40.90    343.78643                               10.65291             81.063                                        3.43786e+002           4.37864e+001           3.78643e+000           7.86434e-001           8.64341e-002           6.43412e-003           4.34124e-004
                   41.00    343.78658                               10.65291             81.063                                        3.43787e+002           4.37866e+001           3.78658e+000           7.86583e-001           8.65831e-002           6.58315e-003           5.83148e-004
                   41.10    343.78667                               10.65291             81.063                                        3.43787e+002           4.37867e+001           3.78667e+000           7.86667e-001           8.66670e-002           6.66705e-003           6.67050e-004
                   41.20    343.78652                               10.65291             81.063                                        3.43787e+002           4.37865e+001           3.78652e+000           7.86517e-001           8.65167e-002           6.51665e-003           5.16655e-004
