~VERSION INFORMATION
VERS                    .            2.0                                    :CWLS LOG ASCII STANDARD
WRAP                    .            NO                                     :ONE LINE PER TIME STEP


~WELL INFORMATION
#MNEM                   .UNIT        DATA                                    DESCRIPTION
#________________________________________________________________________________________
STRTTIME                .HH/MM/SS    02:42:03                               :START TIME
STOPTIME                .HH/MM/SS    02:44:56                               :STOP TIME
STRT                    .s           2.10                                   :START DATA
STOP                    .s           171.40                                 :STOP DATA
STEP                    .s           0.10                                   :MEASUREMENT TIME INTERVAL
NULL                    .            -999.25                                :NULL VALUE
COMP                    .            Statoil ASA                            :COMPANY
FLD                     .            Volve                                  :FIELD
WELL                    .            15/9-F-1 C                             :WELL
RUN                     .            4                                      :RUN
LOC                     .                                                   :LOCATION
PROV                    .            na                                     :PROVINCE
SRVC                    .            Baker Hughes INTEQ                     :SERVICE COMPANY
DATE                    .YY/MM/DD    14/03/15                               :LOG DATE
UWI                     .                                                   :UNIQUE WELL ID
DEPTHMD                 .m           3551.1                                 :MEASURED DEPTH
DEPTHTVD                .m           2992.9                                 :TRUE VERTICAL DEPTH


~CURVE INFORMATION
#MNEM                   .UNIT        API CODES                               DESCRIPTION
#________________________________________________________________________________________
TIME                    .s                                                  :01 TIME
DD_PRESS                .bar                                                :02 DRAW DOWN PRESSURE
DD_VOLUME               .cm3                                                :03 INCREMENTAL DRAW DOWN VOLUME
TEMP                    .degC                                               :04 TRANSDUCER TEMPERATURE
DD_PRESS_MOD_1000       .bar                                                :05 DRAW DOWN PRESSURE MOD 1000
DD_PRESS_MOD_100        .bar                                                :06 DRAW DOWN PRESSURE MOD 100
DD_PRESS_MOD_10         .bar                                                :07 DRAW DOWN PRESSURE MOD 10
DD_PRESS_MOD_1          .bar                                                :08 DRAW DOWN PRESSURE MOD 1
DD_PRESS_MOD_01         .bar                                                :09 DRAW DOWN PRESSURE MOD 01
DD_PRESS_MOD_001        .bar                                                :10 DRAW DOWN PRESSURE MOD 001
DD_PRESS_MOD_0001       .bar                                                :11 DRAW DOWN PRESSURE MOD 0001


~PARAMETER INFORMATION
#MNEM                   .UNIT        VALUE                                   DESCRIPTION
#________________________________________________________________________________________
TOOLFACE                .deg         84.6                                   :01 TOOLFACE
PUMP_CAPACITY           .bar         400                                    :02 NOMINAL DRAW DOWN PUMP CAPACITY
PUMP_LIMIT              .bar         240                                    :03 DOWNLINK PUMP LIMIT
TIME_LIMIT              .min         10                                     :04 DOWNLINK MAX TIME
TEST_TYPE               .            REPEAT                                 :05 DOWNLINK
TEST_TYPE               .            HIGH MOBILITY                          :06 DOWNLINK
DD_PIST_A               .cm2         3.1416                                 :07 DRAW DOWN PISTON AREA
V_SYS                   .cm3         131.0000                               :08 SYSTEM VOLUME
PROBE_ID                .cm          1.2700                                 :09 TTK PROBE ID
G0                      .            4.6700                                 :10 GEOMETRY FACTOR


~A                  TIME     DD_PRESS                              DD_VOLUME               TEMP                                   DD_PRESS_MOD_1000       DD_PRESS_MOD_100        DD_PRESS_MOD_10         DD_PRESS_MOD_1        DD_PRESS_MOD_01       DD_PRESS_MOD_001      DD_PRESS_MOD_0001
# ...
                  114.10    330.98010                               24.77490             85.133                                        3.30980e+002           3.09801e+001           9.80104e-001           9.80104e-001           8.01040e-002           1.03970e-004           1.03970e-004
                  114.20    330.97632                               25.06983             85.133                                        3.30976e+002           3.09763e+001           9.76320e-001           9.76320e-001           7.63199e-002           6.31988e-003           3.19878e-004
                  114.30    330.97398                               25.36477             85.133                                        3.30974e+002           3.09740e+001           9.73984e-001           9.73984e-001           7.39843e-002           3.98435e-003           9.84347e-004
                  114.40    330.97164                               25.65972             85.133                                        3.30972e+002           3.09716e+001           9.71640e-001           9.71640e-001           7.16403e-002           1.64034e-003           6.40336e-004
                  114.50    330.96695                               25.95475             85.133                                        3.30967e+002           3.09669e+001           9.66945e-001           9.66945e-001           6.69451e-002           6.94513e-003           9.45131e-004
                  114.60    330.95632                               26.24974             85.133                                        3.30956e+002           3.09563e+001           9.56319e-001           9.56319e-001           5.63193e-002           6.31934e-003           3.19336e-004
                  114.70    330.94502                               26.54465             85.130                                        3.30945e+002           3.09450e+001           9.45023e-001           9.45023e-001           4.50232e-002           5.02321e-003           2.32098e-005
                  114.80    330.94555                               26.83953             85.127                                        3.30946e+002           3.09456e+001           9.45553e-001           9.45553e-001           4.55533e-002           5.55333e-003           5.53329e-004
                  114.90    330.95174                               27.13446             85.125                                        3.30952e+002           3.09517e+001           9.51742e-001           9.51742e-001           5.17417e-002           1.74174e-003           7.41737e-004
                  115.00    330.94481                               27.42935             85.125                                        3.30945e+002           3.09448e+001           9.44807e-001           9.44807e-001           4.48072e-002           4.80721e-003           8.07205e-004
                  115.10    330.93053                               27.72426             85.125                                        3.30931e+002           3.09305e+001           9.30530e-001           9.30530e-001           3.05300e-002           5.30035e-004           5.30035e-004
                  115.20    330.92468                               28.01920             85.125                                        3.30925e+002           3.09247e+001           9.24681e-001           9.24681e-001           2.46813e-002           4.68126e-003           6.81265e-004
                  115.30    330.92950                               28.31418             85.125                                        3.30930e+002           3.09295e+001           9.29500e-001           9.29500e-001           2.95004e-002           9.50038e-003           5.00384e-004
                  115.40    330.93294                               28.60913             85.125                                        3.30933e+002           3.09329e+001           9.32939e-001           9.32939e-001           3.29393e-002           2.93933e-003           9.39331e-004
                  115.50    330.93112                               28.90411             85.125                                        3.30931e+002           3.09311e+001           9.31119e-001           9.31119e-001           3.11189e-002           1.11890e-003           1.18901e-004
                  115.60    331.54349                               29.18656             85.125                                        3.31543e+002           3.15435e+001           1.54349e+000           5.43486e-001           4.34864e-002           3.48637e-003           4.86365e-004
                  115.70    334.83546                               29.37645             85.125                                        3.34835e+002           3.48355e+001           4.83546e+000           8.35458e-001           3.54575e-002           5.45755e-003           4.57549e-004
                  115.80    339.02579                               29.44066             85.125                                        3.39026e+002           3.90258e+001           9.02579e+000           2.57870e-002           2.57870e-002           5.78699e-003           7.86987e-004
                  115.90    341.03496                               29.44302             85.125                                        3.41035e+002           4.10350e+001           1.03496e+000           3.49645e-002           3.49645e-002           4.96448e-003           9.64484e-004
                  116.00    341.35755                               29.44302             85.125                                        3.41358e+002           4.13575e+001           1.35755e+000           3.57547e-001           5.75474e-002           7.54743e-003           5.47430e-004
                  116.10    341.41298                               29.44302             85.125                                        3.41413e+002           4.14130e+001           1.41298e+000           4.12978e-001           1.29781e-002           2.97810e-003           9.78095e-004
                  116.20    341.42706                               29.44302             85.125                                        3.41427e+002           4.14271e+001           1.42706e+000           4.27059e-001           2.70592e-002           7.05920e-003           5.92045e-005
                  116.30    341.43475                               29.44302             85.125                                        3.41435e+002           4.14348e+001           1.43475e+000           4.34750e-001           3.47505e-002           4.75048e-003           7.50476e-004
                  116.40    341.44125                               29.44302             85.125                                        3.41441e+002           4.14413e+001           1.44125e+000           4.41253e-001           4.12534e-002           1.25341e-003           2.53410e-004
                  116.50    341.44308                               29.44302             85.125                                        3.41443e+002           4.14431e+001           1.44308e+000           4.43082e-001           4.30817e-002           3.08175e-003           8.17466e-005
                  116.60    341.44323                               29.44302             85.125                                        3.41443e+002           4.14432e+001           1.44323e+000           4.43230e-001           4.32298e-002           3.22984e-003           2.29836e-004
                  116.70    341.44752                               29.44302             85.125                                        3.41448e+002           4.14475e+001           1.44752e+000           4.47524e-001           4.75244e-002           7.52444e-003           5.24443e-004
                  116.80    341.45306                               29.44302             85.125                                        3.41453e+002           4.14531e+001           1.45306e+000           4.53060e-001           5.30598e-002           3.05980e-003           5.97966e-005
