~VERSION INFORMATION
VERS                    .            2.0                                    :CWLS LOG ASCII STANDARD
WRAP                    .            NO                                     :ONE LINE PER TIME STEP


~WELL INFORMATION
#MNEM                   .UNIT        DATA                                    DESCRIPTION
#________________________________________________________________________________________
STRTTIME                .HH/MM/SS    08:31:17                               :START TIME
STOPTIME                .HH/MM/SS    08:34:03                               :STOP TIME
STRT                    .s           2.10                                   :START DATA
STOP                    .s           164.70                                 :STOP DATA
STEP                    .s           0.10                                   :MEASUREMENT TIME INTERVAL
NULL                    .            -999.25                                :NULL VALUE
COMP                    .            Statoil ASA                            :COMPANY
FLD                     .            Volve                                  :FIELD
WELL                    .            15/9-F-11 A                            :WELL
RUN                     .            8                                      :RUN
LOC                     .            Maersk Inspirer                        :LOCATION
PROV                    .            na                                     :PROVINCE
SRVC                    .            Baker Hughes INTEQ                     :SERVICE COMPANY
DATE                    .YY/MM/DD    13/05/21                               :LOG DATE
UWI                     .                                                   :UNIQUE WELL ID
DEPTHMD                 .m           3688.1                                 :MEASURED DEPTH
DEPTHTVD                .m           3069.8                                 :TRUE VERTICAL DEPTH


~CURVE INFORMATION
#MNEM                   .UNIT        API CODES                               DESCRIPTION
#________________________________________________________________________________________
TIME                    .s                                                  :01 TIME
DD_PRESS                .bar                                                :02 DRAW DOWN PRESSURE
DD_VOLUME               .cm3                                                :03 INCREMENTAL DRAW DOWN VOLUME
TEMP                    .degC                                               :04 TRANSDUCER TEMPERATURE
DD_PRESS_MOD_1000       .bar                                                :05 DRAW DOWN PRESSURE MOD 1000
DD_PRESS_MOD_100        .bar                                                :06 DRAW DOWN PRESSURE MOD 100
DD_PRESS_MOD_10         .bar                                                :07 DRAW DOWN PRESSURE MOD 10
DD_PRESS_MOD_1          .bar                                                :08 DRAW DOWN PRESSURE MOD 1
DD_PRESS_MOD_01         .bar                                                :09 DRAW DOWN PRESSURE MOD 01
DD_PRESS_MOD_001        .bar                                                :10 DRAW DOWN PRESSURE MOD 001
DD_PRESS_MOD_0001       .bar                                                :11 DRAW DOWN PRESSURE MOD 0001


~PARAMETER INFORMATION
#MNEM                   .UNIT        VALUE                                   DESCRIPTION
#________________________________________________________________________________________
TOOLFACE                .deg         -78.9                                  :01 TOOLFACE
PUMP_CAPACITY           .bar         400                                    :02 NOMINAL DRAW DOWN PUMP CAPACITY
PUMP_LIMIT              .bar         240                                    :03 DOWNLINK PUMP LIMIT
TIME_LIMIT              .min         10                                     :04 DOWNLINK MAX TIME
TEST_TYPE               .            REPEAT                                 :05 DOWNLINK
TEST_TYPE               .            HIGH MOBILITY                          :06 DOWNLINK
DD_PIST_A               .cm2         3.1416                                 :07 DRAW DOWN PISTON AREA
V_SYS                   .cm3         131.0000                               :08 SYSTEM VOLUME
PROBE_ID                .cm          1.2700                                 :09 TTK PROBE ID
G0                      .            4.6700                                 :10 GEOMETRY FACTOR


~A                  TIME     DD_PRESS                              DD_VOLUME               TEMP                                   DD_PRESS_MOD_1000       DD_PRESS_MOD_100        DD_PRESS_MOD_10         DD_PRESS_MOD_1        DD_PRESS_MOD_01       DD_PRESS_MOD_001      DD_PRESS_MOD_0001
# ...
                   86.10    346.04751                               19.72743             83.266                                        3.46048e+002           4.60475e+001           6.04751e+000           4.75089e-002           4.75089e-002           7.50893e-003           5.08935e-004
                   86.20    346.05247                               19.72743             83.266                                        3.46052e+002           4.60525e+001           6.05247e+000           5.24709e-002           5.24709e-002           2.47089e-003           4.70892e-004
                   86.30    346.04938                               19.72743             83.266                                        3.46049e+002           4.60494e+001           6.04938e+000           4.93772e-002           4.93772e-002           9.37719e-003           3.77186e-004
                   86.40    346.03887                               19.72743             83.266                                        3.46039e+002           4.60389e+001           6.03887e+000           3.88709e-002           3.88709e-002           8.87092e-003           8.70924e-004
                   86.50    346.03749                               19.72743             83.266                                        3.46037e+002           4.60375e+001           6.03749e+000           3.74926e-002           3.74926e-002           7.49263e-003           4.92630e-004
                   86.60    346.04776                               19.72743             83.266                                        3.46048e+002           4.60478e+001           6.04776e+000           4.77552e-002           4.77552e-002           7.75521e-003           7.55205e-004
                   86.70    346.05945                               19.72743             83.266                                        3.46059e+002           4.60594e+001           6.05945e+000           5.94471e-002           5.94471e-002           9.44709e-003           4.47091e-004
                   86.80    346.06214                               19.72743             83.266                                        3.46062e+002           4.60621e+001           6.06214e+000           6.21355e-002           6.21355e-002           2.13550e-003           1.35497e-004
                   86.90    346.05542                               19.72743             83.266                                        3.46055e+002           4.60554e+001           6.05542e+000           5.54203e-002           5.54203e-002           5.42032e-003           4.20321e-004
                   87.00    346.04634                               19.72743             83.266                                        3.46046e+002           4.60463e+001           6.04634e+000           4.63364e-002           4.63364e-002           6.33642e-003           3.36422e-004
                   87.10    346.05015                               19.72743             83.266                                        3.46050e+002           4.60502e+001           6.05015e+000           5.01520e-002           5.01520e-002           1.51989e-004           1.51989e-004
                   87.20    346.06212                               19.72743             83.266                                        3.46062e+002           4.60621e+001           6.06212e+000           6.21220e-002           6.21220e-002           2.12199e-003           1.21991e-004
                   87.30    346.06153                               19.72743             83.266                                        3.46062e+002           4.60615e+001           6.06153e+000           6.15275e-002           6.15275e-002           1.52748e-003           5.27485e-004
                   87.40    346.04913                               19.72743             83.266                                        3.46049e+002           4.60491e+001           6.04913e+000           4.91259e-002           4.91259e-002           9.12590e-003           1.25900e-004
                   87.50    346.04550                               19.72743             83.266                                        3.46045e+002           4.60455e+001           6.04550e+000           4.54976e-002           4.54976e-002           5.49755e-003           4.97553e-004
                   87.60    346.05805                               19.72743             83.266                                        3.46058e+002           4.60580e+001           6.05805e+000           5.80499e-002           5.80499e-002           8.04987e-003           4.98666e-005
                   87.70    346.06351                               19.72743             83.266                                        3.46064e+002           4.60635e+001           6.06351e+000           6.35104e-002           6.35104e-002           3.51037e-003           5.10371e-004
                   87.80    346.05602                               19.72743             83.266                                        3.46056e+002           4.60560e+001           6.05602e+000           5.60180e-002           5.60180e-002           6.01800e-003           1.79985e-005
                   87.90    346.05208                               19.72743             83.266                                        3.46052e+002           4.60521e+001           6.05208e+000           5.20842e-002           5.20842e-002           2.08415e-003           8.41512e-005
                   88.00    346.05341                               19.72743             83.266                                        3.46053e+002           4.60534e+001           6.05341e+000           5.34072e-002           5.34072e-002           3.40724e-003           4.07244e-004
                   88.10    346.05082                               19.72743             83.266                                        3.46051e+002           4.60508e+001           6.05082e+000           5.08179e-002           5.08179e-002           8.17889e-004           8.17889e-004
                   88.20    346.05144                               19.72743             83.266                                        3.46051e+002           4.60514e+001           6.05144e+000           5.14422e-002           5.14422e-002           1.44215e-003           4.42150e-004
                   88.30    346.05897                               19.72743             83.266                                        3.46059e+002           4.60590e+001           6.05897e+000           5.89713e-002           5.89713e-002           8.97134e-003           9.71336e-004
                   88.40    346.06477                               19.72743             83.266                                        3.46065e+002           4.60648e+001           6.06477e+000           6.47749e-002           6.47749e-002           4.77485e-003           7.74854e-004
                   88.50    346.06318                               19.72743             83.266                                        3.46063e+002           4.60632e+001           6.06318e+000           6.31824e-002           6.31824e-002           3.18243e-003           1.82429e-004
                   88.60    346.05364                               19.72743             83.266                                        3.46054e+002           4.60536e+001           6.05364e+000           5.36377e-002           5.36377e-002           3.63770e-003           6.37700e-004
                   88.70    346.04978                               19.72743             83.266                                        3.46050e+002           4.60498e+001           6.04978e+000           4.97826e-002           4.97826e-002           9.78261e-003           7.82605e-004
                   88.80    346.05437                               19.72743             83.266                                        3.46054e+002           4.60544e+001           6.05437e+000           5.43672e-002           5.43672e-002           4.36719e-003           3.67194e-004
