~VERSION INFORMATION
VERS                    .            2.0                                    :CWLS LOG ASCII STANDARD
WRAP                    .            NO                                     :ONE LINE PER TIME STEP


~WELL INFORMATION
#MNEM                   .UNIT        DATA                                    DESCRIPTION
#________________________________________________________________________________________
STRTTIME                .HH/MM/SS    18:50:18                               :START TIME
STOPTIME                .HH/MM/SS    18:53:14                               :STOP TIME
STRT                    .s           2.10                                   :START DATA
STOP                    .s           174.80                                 :STOP DATA
STEP                    .s           0.10                                   :MEASUREMENT TIME INTERVAL
NULL                    .            -999.25                                :NULL VALUE
COMP                    .            Statoil ASA                            :COMPANY
FLD                     .            Volve                                  :FIELD
WELL                    .            15/9-F-11 A                            :WELL
RUN                     .            8                                      :RUN
LOC                     .            Maersk Inspirer                        :LOCATION
PROV                    .            na                                     :PROVINCE
SRVC                    .            Baker Hughes INTEQ                     :SERVICE COMPANY
DATE                    .YY/MM/DD    13/05/23                               :LOG DATE
UWI                     .                                                   :UNIQUE WELL ID
DEPTHMD                 .m           3651.0                                 :MEASURED DEPTH
DEPTHTVD                .m           3041.4                                 :TRUE VERTICAL DEPTH


~CURVE INFORMATION
#MNEM                   .UNIT        API CODES                               DESCRIPTION
#________________________________________________________________________________________
TIME                    .s                                                  :01 TIME
DD_PRESS                .bar                                                :02 DRAW DOWN PRESSURE
DD_VOLUME               .cm3                                                :03 INCREMENTAL DRAW DOWN VOLUME
TEMP                    .degC                                               :04 TRANSDUCER TEMPERATURE
DD_PRESS_MOD_1000       .bar                                                :05 DRAW DOWN PRESSURE MOD 1000
DD_PRESS_MOD_100        .bar                                                :06 DRAW DOWN PRESSURE MOD 100
DD_PRESS_MOD_10         .bar                                                :07 DRAW DOWN PRESSURE MOD 10
DD_PRESS_MOD_1          .bar                                                :08 DRAW DOWN PRESSURE MOD 1
DD_PRESS_MOD_01         .bar                                                :09 DRAW DOWN PRESSURE MOD 01
DD_PRESS_MOD_001        .bar                                                :10 DRAW DOWN PRESSURE MOD 001
DD_PRESS_MOD_0001       .bar                                                :11 DRAW DOWN PRESSURE MOD 0001


~PARAMETER INFORMATION
#MNEM                   .UNIT        VALUE                                   DESCRIPTION
#________________________________________________________________________________________
TOOLFACE                .deg         -39.7                                  :01 TOOLFACE
PUMP_CAPACITY           .bar         400                                    :02 NOMINAL DRAW DOWN PUMP CAPACITY
PUMP_LIMIT              .bar         240                                    :03 DOWNLINK PUMP LIMIT
TIME_LIMIT              .min         10                                     :04 DOWNLINK MAX TIME
TEST_TYPE               .            REPEAT                                 :05 DOWNLINK
TEST_TYPE               .            HIGH MOBILITY                          :06 DOWNLINK
DD_PIST_A               .cm2         3.1416                                 :07 DRAW DOWN PISTON AREA
V_SYS                   .cm3         131.0000                               :08 SYSTEM VOLUME
PROBE_ID                .cm          1.2700                                 :09 TTK PROBE ID
G0                      .            4.6700                                 :10 GEOMETRY FACTOR


~A                  TIME     DD_PRESS                              DD_VOLUME               TEMP                                   DD_PRESS_MOD_1000       DD_PRESS_MOD_100        DD_PRESS_MOD_10         DD_PRESS_MOD_1        DD_PRESS_MOD_01       DD_PRESS_MOD_001      DD_PRESS_MOD_0001
# ...
                   13.30    422.59608                                0.00000             73.555                                        4.22596e+002           2.25961e+001           2.59608e+000           5.96083e-001           9.60827e-002           6.08271e-003           8.27088e-005
                   13.40    422.60608                                0.00000             73.555                                        4.22606e+002           2.26061e+001           2.60608e+000           6.06082e-001           6.08237e-003           6.08237e-003           8.23706e-005
                   13.50    422.61809                                0.00000             73.555                                        4.22618e+002           2.26181e+001           2.61809e+000           6.18087e-001           1.80875e-002           8.08746e-003           8.74626e-005
                   13.60    422.61136                                0.00000             73.555                                        4.22611e+002           2.26114e+001           2.61136e+000           6.11357e-001           1.13565e-002           1.35654e-003           3.56538e-004
                   13.70    422.61470                                0.00000             73.555                                        4.22615e+002           2.26147e+001           2.61470e+000           6.14702e-001           1.47023e-002           4.70228e-003           7.02277e-004
                   13.80    422.61581                                0.00000             73.555                                        4.22616e+002           2.26158e+001           2.61581e+000           6.15812e-001           1.58124e-002           5.81240e-003           8.12401e-004
                   13.90    422.62860                                0.00000             73.555                                        4.22629e+002           2.26286e+001           2.62860e+000           6.28603e-001           2.86033e-002           8.60330e-003           6.03297e-004
                   14.00    422.63511                                0.00000             73.555                                        4.22635e+002           2.26351e+001           2.63511e+000           6.35108e-001           3.51084e-002           5.10844e-003           1.08442e-004
                   14.10    422.64979                                0.00000             73.555                                        4.22650e+002           2.26498e+001           2.64979e+000           6.49792e-001           4.97918e-002           9.79184e-003           7.91844e-004
                   14.20    422.65298                                0.00000             73.555                                        4.22653e+002           2.26530e+001           2.65298e+000           6.52977e-001           5.29772e-002           2.97716e-003           9.77160e-004
                   14.30    422.65930                                0.00000             73.555                                        4.22659e+002           2.26593e+001           2.65930e+000           6.59295e-001           5.92953e-002           9.29534e-003           2.95336e-004
                   14.40    422.65865                                0.00000             73.555                                        4.22659e+002           2.26587e+001           2.65865e+000           6.58652e-001           5.86519e-002           8.65187e-003           6.51868e-004
                   14.50    422.66813                                0.00000             73.555                                        4.22668e+002           2.26681e+001           2.66813e+000           6.68131e-001           6.81313e-002           8.13130e-003           1.31302e-004
                   14.60    422.67705                                0.00000             73.555                                        4.22677e+002           2.26770e+001           2.67705e+000           6.77048e-001           7.70482e-002           7.04824e-003           4.82440e-005
                   14.70    422.70326                                0.00000             73.555                                        4.22703e+002           2.27033e+001           2.70326e+000           7.03258e-001           3.25831e-003           3.25831e-003           2.58307e-004
                   14.80    422.72833                                0.00000             73.555                                        4.22728e+002           2.27283e+001           2.72833e+000           7.28330e-001           2.83298e-002           8.32978e-003           3.29778e-004
                   14.90    422.73787                                0.00000             73.555                                        4.22738e+002           2.27379e+001           2.73787e+000           7.37873e-001           3.78726e-002           7.87265e-003           8.72648e-004
                   15.00    422.71952                                0.00000             73.555                                        4.22720e+002           2.27195e+001           2.71952e+000           7.19517e-001           1.95173e-002           9.51730e-003           5.17302e-004
                   15.10    422.72409                                0.00000             73.555                                        4.22724e+002           2.27241e+001           2.72409e+000           7.24092e-001           2.40919e-002           4.09194e-003           9.19360e-005
                   15.20    422.75213                                0.00000             73.555                                        4.22752e+002           2.27521e+001           2.75213e+000           7.52134e-001           5.21336e-002           2.13360e-003           1.33604e-004
                   15.30    422.74901                                0.00000             73.555                                        4.22749e+002           2.27490e+001           2.74901e+000           7.49009e-001           4.90087e-002           9.00866e-003           8.66139e-006
                   15.40    422.72494                                0.00000             73.555                                        4.22725e+002           2.27249e+001           2.72494e+000           7.24938e-001           2.49377e-002           4.93772e-003           9.37724e-004
                   15.50    422.73271                                0.00000             73.555                                        4.22733e+002           2.27327e+001           2.73271e+000           7.32708e-001           3.27078e-002           2.70776e-003           7.07757e-004
                   15.60    422.75879                                0.00000             73.555                                        4.22759e+002           2.27588e+001           2.75879e+000           7.58791e-001           5.87915e-002           8.79147e-003           7.91467e-004
                   15.70    422.76195                                0.00000             73.555                                        4.22762e+002           2.27620e+001           2.76195e+000           7.61952e-001           6.19521e-002           1.95215e-003           9.52146e-004
                   15.80    422.75121                                0.00000             73.555                                        4.22751e+002           2.27512e+001           2.75121e+000           7.51211e-001           5.12111e-002           1.21108e-003           2.11078e-004
                   15.90    422.76807                                0.00000             73.555                                        4.22768e+002           2.27681e+001           2.76807e+000           7.68073e-001           6.80731e-002           8.07305e-003           7.30514e-005
                   16.00    422.78863                                0.00000             73.552                                        4.22789e+002           2.27886e+001           2.78863e+000           7.88631e-001           8.86311e-002           8.63112e-003           6.31120e-004
