~VERSION INFORMATION
VERS                    .            2.0                                    :CWLS LOG ASCII STANDARD
WRAP                    .            NO                                     :ONE LINE PER TIME STEP


~WELL INFORMATION
#MNEM                   .UNIT        DATA                                    DESCRIPTION
#________________________________________________________________________________________
STRTTIME                .HH/MM/SS    11:44:47                               :START TIME
STOPTIME                .HH/MM/SS    11:47:33                               :STOP TIME
STRT                    .s           2.10                                   :START DATA
STOP                    .s           164.50                                 :STOP DATA
STEP                    .s           0.10                                   :MEASUREMENT TIME INTERVAL
NULL                    .            -999.25                                :NULL VALUE
COMP                    .            Statoil ASA                            :COMPANY
FLD                     .            Volve                                  :FIELD
WELL                    .            15/9-F-11 A                            :WELL
RUN                     .            8                                      :RUN
LOC                     .            Maersk Inspirer                        :LOCATION
PROV                    .            na                                     :PROVINCE
SRVC                    .            Baker Hughes INTEQ                     :SERVICE COMPANY
DATE                    .YY/MM/DD    13/05/21                               :LOG DATE
UWI                     .                                                   :UNIQUE WELL ID
DEPTHMD                 .m           3624.0                                 :MEASURED DEPTH
DEPTHTVD                .m           3020.7                                 :TRUE VERTICAL DEPTH


~CURVE INFORMATION
#MNEM                   .UNIT        API CODES                               DESCRIPTION
#________________________________________________________________________________________
TIME                    .s                                                  :01 TIME
DD_PRESS                .bar                                                :02 DRAW DOWN PRESSURE
DD_VOLUME               .cm3                                                :03 INCREMENTAL DRAW DOWN VOLUME
TEMP                    .degC                                               :04 TRANSDUCER TEMPERATURE
DD_PRESS_MOD_1000       .bar                                                :05 DRAW DOWN PRESSURE MOD 1000
DD_PRESS_MOD_100        .bar                                                :06 DRAW DOWN PRESSURE MOD 100
DD_PRESS_MOD_10         .bar                                                :07 DRAW DOWN PRESSURE MOD 10
DD_PRESS_MOD_1          .bar                                                :08 DRAW DOWN PRESSURE MOD 1
DD_PRESS_MOD_01         .bar                                                :09 DRAW DOWN PRESSURE MOD 01
DD_PRESS_MOD_001        .bar                                                :10 DRAW DOWN PRESSURE MOD 001
DD_PRESS_MOD_0001       .bar                                                :11 DRAW DOWN PRESSURE MOD 0001


~PARAMETER INFORMATION
#MNEM                   .UNIT        VALUE                                   DESCRIPTION
#________________________________________________________________________________________
TOOLFACE                .deg         61.7                                   :01 TOOLFACE
PUMP_CAPACITY           .bar         400                                    :02 NOMINAL DRAW DOWN PUMP CAPACITY
PUMP_LIMIT              .bar         240                                    :03 DOWNLINK PUMP LIMIT
TIME_LIMIT              .min         10                                     :04 DOWNLINK MAX TIME
TEST_TYPE               .            REPEAT                                 :05 DOWNLINK
TEST_TYPE               .            HIGH MOBILITY                          :06 DOWNLINK
DD_PIST_A               .cm2         3.1416                                 :07 DRAW DOWN PISTON AREA
V_SYS                   .cm3         131.0000                               :08 SYSTEM VOLUME
PROBE_ID                .cm          1.2700                                 :09 TTK PROBE ID
G0                      .            4.6700                                 :10 GEOMETRY FACTOR


~A                  TIME     DD_PRESS                              DD_VOLUME               TEMP                                   DD_PRESS_MOD_1000       DD_PRESS_MOD_100        DD_PRESS_MOD_10         DD_PRESS_MOD_1        DD_PRESS_MOD_01       DD_PRESS_MOD_001      DD_PRESS_MOD_0001
# ...
                  150.50    415.32455                                0.00000             81.453                                        4.15325e+002           1.53245e+001           5.32455e+000           3.24549e-001           2.45494e-002           4.54938e-003           5.49377e-004
                  150.60    415.34389                                0.00000             81.453                                        4.15344e+002           1.53439e+001           5.34389e+000           3.43885e-001           4.38851e-002           3.88510e-003           8.85104e-004
                  150.70    415.34258                                0.00000             81.453                                        4.15343e+002           1.53426e+001           5.34258e+000           3.42585e-001           4.25847e-002           2.58474e-003           5.84741e-004
                  150.80    415.31947                                0.00000             81.453                                        4.15319e+002           1.53195e+001           5.31947e+000           3.19472e-001           1.94717e-002           9.47169e-003           4.71695e-004
                  150.90    415.32701                                0.00000             81.453                                        4.15327e+002           1.53270e+001           5.32701e+000           3.27013e-001           2.70127e-002           7.01274e-003           1.27441e-005
                  151.00    415.33871                                0.00000             81.453                                        4.15339e+002           1.53387e+001           5.33871e+000           3.38712e-001           3.87118e-002           8.71181e-003           7.11808e-004
                  151.10    415.31909                                0.00000             81.453                                        4.15319e+002           1.53191e+001           5.31909e+000           3.19093e-001           1.90926e-002           9.09261e-003           9.26149e-005
                  151.20    415.29925                                0.00000             81.453                                        4.15299e+002           1.52993e+001           5.29925e+000           2.99253e-001           9.92530e-002           9.25297e-003           2.52969e-004
                  151.30    415.33598                                0.00000             81.453                                        4.15336e+002           1.53360e+001           5.33598e+000           3.35984e-001           3.59838e-002           5.98379e-003           9.83793e-004
                  151.40    415.36573                                0.00000             81.453                                        4.15366e+002           1.53657e+001           5.36573e+000           3.65731e-001           6.57307e-002           5.73074e-003           7.30743e-004
                  151.50    415.34795                                0.00000             81.453                                        4.15348e+002           1.53480e+001           5.34795e+000           3.47951e-001           4.79509e-002           7.95087e-003           9.50870e-004
                  151.60    415.32967                                0.00000             81.453                                        4.15330e+002           1.53297e+001           5.32967e+000           3.29666e-001           2.96664e-002           9.66644e-003           6.66437e-004
                  151.70    415.33265                                0.00000             81.453                                        4.15333e+002           1.53326e+001           5.33265e+000           3.32646e-001           3.26457e-002           2.64570e-003           6.45700e-004
                  151.80    415.33083                                0.00000             81.453                                        4.15331e+002           1.53308e+001           5.33083e+000           3.30826e-001           3.08258e-002           8.25761e-004           8.25761e-004
                  151.90    415.32180                                0.00000             81.453                                        4.15322e+002           1.53218e+001           5.32180e+000           3.21799e-001           2.17988e-002           1.79879e-003           7.98789e-004
                  152.00    415.31463                                0.00000             81.453                                        4.15315e+002           1.53146e+001           5.31463e+000           3.14632e-001           1.46321e-002           4.63211e-003           6.32114e-004
                  152.10    415.29961                                0.00000             81.453                                        4.15300e+002           1.52996e+001           5.29961e+000           2.99612e-001           9.96116e-002           9.61158e-003           6.11581e-004
                  152.20    415.28639                                0.00000             81.453                                        4.15286e+002           1.52864e+001           5.28639e+000           2.86393e-001           8.63935e-002           6.39349e-003           3.93491e-004
                  152.30    415.28824                                0.00000             81.453                                        4.15288e+002           1.52882e+001           5.28824e+000           2.88243e-001           8.82432e-002           8.24322e-003           2.43220e-004
                  152.40    415.31543                                0.00000             81.453                                        4.15315e+002           1.53154e+001           5.31543e+000           3.15430e-001           1.54295e-002           5.42953e-003           4.29528e-004
                  152.50    415.33173                                0.00000             81.453                                        4.15332e+002           1.53317e+001           5.33173e+000           3.31728e-001           3.17279e-002           1.72787e-003           7.27865e-004
                  152.60    415.32227                                0.00000             81.453                                        4.15322e+002           1.53223e+001           5.32227e+000           3.22273e-001           2.22730e-002           2.27298e-003           2.72981e-004
                  152.70    415.30473                                0.00000             81.453                                        4.15305e+002           1.53047e+001           5.30473e+000           3.04729e-001           4.72859e-003           4.72859e-003           7.28585e-004
                  152.80    415.30210                                0.00000             81.453                                        4.15302e+002           1.53021e+001           5.30210e+000           3.02103e-001           2.10294e-003           2.10294e-003           1.02942e-004
                  152.90    415.29704                                0.00000             81.453                                        4.15297e+002           1.52970e+001           5.29704e+000           2.97038e-001           9.70379e-002           7.03790e-003           3.78964e-005
                  153.00    415.30729                                0.00000             81.453                                        4.15307e+002           1.53073e+001           5.30729e+000           3.07291e-001           7.29073e-003           7.29073e-003           2.90730e-004
                  153.10    415.31720                                0.00000             81.453                                        4.15317e+002           1.53172e+001           5.31720e+000           3.17201e-001           1.72008e-002           7.20079e-003           2.00792e-004
                  153.20    415.31429                                0.00000             81.453                                        4.15314e+002           1.53143e+001           5.31429e+000           3.14288e-001           1.42883e-002           4.28828e-003           2.88283e-004
