~VERSION INFORMATION
VERS                    .            2.0                                    :CWLS LOG ASCII STANDARD
WRAP                    .            NO                                     :ONE LINE PER TIME STEP


~WELL INFORMATION
#MNEM                   .UNIT        DATA                                    DESCRIPTION
#________________________________________________________________________________________
STRTTIME                .HH/MM/SS    01:44:52                               :START TIME
STOPTIME                .HH/MM/SS    01:47:47                               :STOP TIME
STRT                    .s           2.10                                   :START DATA
STOP                    .s           173.40                                 :STOP DATA
STEP                    .s           0.10                                   :MEASUREMENT TIME INTERVAL
NULL                    .            -999.25                                :NULL VALUE
COMP                    .            Statoil ASA                            :COMPANY
FLD                     .            Volve                                  :FIELD
WELL                    .            15/9-F-1 C                             :WELL
RUN                     .            4                                      :RUN
LOC                     .                                                   :LOCATION
PROV                    .            na                                     :PROVINCE
SRVC                    .            Baker Hughes INTEQ                     :SERVICE COMPANY
DATE                    .YY/MM/DD    14/03/15                               :LOG DATE
UWI                     .                                                   :UNIQUE WELL ID
DEPTHMD                 .m           3620.2                                 :MEASURED DEPTH
DEPTHTVD                .m           3012.3                                 :TRUE VERTICAL DEPTH


~CURVE INFORMATION
#MNEM                   .UNIT        API CODES                               DESCRIPTION
#________________________________________________________________________________________
TIME                    .s                                                  :01 TIME
DD_PRESS                .bar                                                :02 DRAW DOWN PRESSURE
DD_VOLUME               .cm3                                                :03 INCREMENTAL DRAW DOWN VOLUME
TEMP                    .degC                                               :04 TRANSDUCER TEMPERATURE
DD_PRESS_MOD_1000       .bar                                                :05 DRAW DOWN PRESSURE MOD 1000
DD_PRESS_MOD_100        .bar                                                :06 DRAW DOWN PRESSURE MOD 100
DD_PRESS_MOD_10         .bar                                                :07 DRAW DOWN PRESSURE MOD 10
DD_PRESS_MOD_1          .bar                                                :08 DRAW DOWN PRESSURE MOD 1
DD_PRESS_MOD_01         .bar                                                :09 DRAW DOWN PRESSURE MOD 01
DD_PRESS_MOD_001        .bar                                                :10 DRAW DOWN PRESSURE MOD 001
DD_PRESS_MOD_0001       .bar                                                :11 DRAW DOWN PRESSURE MOD 0001


~PARAMETER INFORMATION
#MNEM                   .UNIT        VALUE                                   DESCRIPTION
#________________________________________________________________________________________
TOOLFACE                .deg         108.7                                  :01 TOOLFACE
PUMP_CAPACITY           .bar         400                                    :02 NOMINAL DRAW DOWN PUMP CAPACITY
PUMP_LIMIT              .bar         240                                    :03 DOWNLINK PUMP LIMIT
TIME_LIMIT              .min         10                                     :04 DOWNLINK MAX TIME
TEST_TYPE               .            REPEAT                                 :05 DOWNLINK
TEST_TYPE               .            HIGH MOBILITY                          :06 DOWNLINK
DD_PIST_A               .cm2         3.1416                                 :07 DRAW DOWN PISTON AREA
V_SYS                   .cm3         131.0000                               :08 SYSTEM VOLUME
PROBE_ID                .cm          1.2700                                 :09 TTK PROBE ID
G0                      .            4.6700                                 :10 GEOMETRY FACTOR


~A                  TIME     DD_PRESS                              DD_VOLUME               TEMP                                   DD_PRESS_MOD_1000       DD_PRESS_MOD_100        DD_PRESS_MOD_10         DD_PRESS_MOD_1        DD_PRESS_MOD_01       DD_PRESS_MOD_001      DD_PRESS_MOD_0001
# ...
                  136.50    344.35306                               29.45288             87.086                                        3.44353e+002           4.43531e+001           4.35306e+000           3.53061e-001           5.30606e-002           3.06058e-003           6.05774e-005
                  136.60    344.35288                               29.45288             87.086                                        3.44353e+002           4.43529e+001           4.35288e+000           3.52878e-001           5.28777e-002           2.87772e-003           8.77724e-004
                  136.70    344.35357                               29.45288             87.086                                        3.44354e+002           4.43536e+001           4.35357e+000           3.53575e-001           5.35749e-002           3.57494e-003           5.74941e-004
                  136.80    344.35332                               29.45288             87.086                                        3.44353e+002           4.43533e+001           4.35332e+000           3.53318e-001           5.33180e-002           3.31802e-003           3.18019e-004
                  136.90    344.35094                               29.45288             87.086                                        3.44351e+002           4.43509e+001           4.35094e+000           3.50938e-001           5.09378e-002           9.37764e-004           9.37764e-004
                  137.00    344.35131                               29.45288             87.086                                        3.44351e+002           4.43513e+001           4.35131e+000           3.51310e-001           5.13101e-002           1.31014e-003           3.10145e-004
                  137.10    344.35353                               29.45288             87.086                                        3.44354e+002           4.43535e+001           4.35353e+000           3.53525e-001           5.35254e-002           3.52538e-003           5.25380e-004
                  137.20    344.35357                               29.45288             87.086                                        3.44354e+002           4.43536e+001           4.35357e+000           3.53569e-001           5.35689e-002           3.56888e-003           5.68879e-004
                  137.30    344.35235                               29.45288             87.086                                        3.44352e+002           4.43524e+001           4.35235e+000           3.52355e-001           5.23546e-002           2.35463e-003           3.54633e-004
                  137.40    344.35039                               29.45288             87.086                                        3.44350e+002           4.43504e+001           4.35039e+000           3.50386e-001           5.03856e-002           3.85649e-004           3.85649e-004
                  137.50    344.35037                               29.45288             87.086                                        3.44350e+002           4.43504e+001           4.35037e+000           3.50371e-001           5.03714e-002           3.71432e-004           3.71432e-004
                  137.60    344.35150                               29.45288             87.086                                        3.44351e+002           4.43515e+001           4.35150e+000           3.51495e-001           5.14954e-002           1.49542e-003           4.95421e-004
                  137.70    344.35121                               29.45288             87.086                                        3.44351e+002           4.43512e+001           4.35121e+000           3.51211e-001           5.12114e-002           1.21144e-003           2.11436e-004
                  137.80    344.35047                               29.45288             87.086                                        3.44350e+002           4.43505e+001           4.35047e+000           3.50465e-001           5.04651e-002           4.65143e-004           4.65143e-004
                  137.90    344.35062                               29.45288             87.086                                        3.44351e+002           4.43506e+001           4.35062e+000           3.50622e-001           5.06217e-002           6.21723e-004           6.21723e-004
                  138.00    344.35418                               29.45288             87.086                                        3.44354e+002           4.43542e+001           4.35418e+000           3.54178e-001           5.41783e-002           4.17828e-003           1.78277e-004
                  138.10    344.35513                               29.45288             87.086                                        3.44355e+002           4.43551e+001           4.35513e+000           3.55128e-001           5.51283e-002           5.12826e-003           1.28259e-004
                  138.20    344.35173                               29.45288             87.086                                        3.44352e+002           4.43517e+001           4.35173e+000           3.51732e-001           5.17319e-002           1.73186e-003           7.31856e-004
                  138.30    344.35168                               29.45288             87.086                                        3.44352e+002           4.43517e+001           4.35168e+000           3.51682e-001           5.16824e-002           1.68236e-003           6.82362e-004
                  138.40    344.35378                               29.45288             87.086                                        3.44354e+002           4.43538e+001           4.35378e+000           3.53784e-001           5.37840e-002           3.78403e-003           7.84033e-004
                  138.50    344.35476                               29.45288             87.086                                        3.44355e+002           4.43548e+001           4.35476e+000           3.54762e-001           5.47617e-002           4.76171e-003           7.61711e-004
                  138.60    344.35320                               29.45288             87.086                                        3.44353e+002           4.43532e+001           4.35320e+000           3.53196e-001           5.31963e-002           3.19628e-003           1.96280e-004
                  138.70    344.35135                               29.45288             87.086                                        3.44351e+002           4.43514e+001           4.35135e+000           3.51351e-001           5.13513e-002           1.35134e-003           3.51341e-004
                  138.80    344.35074                               29.45288             87.086                                        3.44351e+002           4.43507e+001           4.35074e+000           3.50736e-001           5.07361e-002           7.36086e-004           7.36086e-004
                  138.90    344.35105                               29.45288             87.086                                        3.44351e+002           4.43510e+001           4.35105e+000           3.51049e-001           5.10494e-002           1.04938e-003           4.93777e-005
                  139.00    344.35283                               29.45288             87.086                                        3.44353e+002           4.43528e+001           4.35283e+000           3.52832e-001           5.28323e-002           2.83228e-003           8.32278e-004
                  139.10    344.35309                               29.45288             87.086                                        3.44353e+002           4.43531e+001           4.35309e+000           3.53088e-001           5.30876e-002           3.08765e-003           8.76500e-005
                  139.20    344.35094                               29.45288             87.086                                        3.44351e+002           4.43509e+001           4.35094e+000           3.50936e-001           5.09361e-002           9.36127e-004           9.36127e-004
