~VERSION INFORMATION
VERS                    .            2.0                                    :CWLS LOG ASCII STANDARD
WRAP                    .            NO                                     :ONE LINE PER TIME STEP


~WELL INFORMATION
#MNEM                   .UNIT        DATA                                    DESCRIPTION
#________________________________________________________________________________________
STRTTIME                .HH/MM/SS    18:24:11                               :START TIME
STOPTIME                .HH/MM/SS    18:26:54                               :STOP TIME
STRT                    .s           2.10                                   :START DATA
STOP                    .s           161.30                                 :STOP DATA
STEP                    .s           0.10                                   :MEASUREMENT TIME INTERVAL
NULL                    .            -999.25                                :NULL VALUE
COMP                    .            Statoil ASA                            :COMPANY
FLD                     .            Volve                                  :FIELD
WELL                    .            15/9-F-11 A                            :WELL
RUN                     .            8                                      :RUN
LOC                     .            Maersk Inspirer                        :LOCATION
PROV                    .            na                                     :PROVINCE
SRVC                    .            Baker Hughes INTEQ                     :SERVICE COMPANY
DATE                    .YY/MM/DD    13/05/23                               :LOG DATE
UWI                     .                                                   :UNIQUE WELL ID
DEPTHMD                 .m           3681.0                                 :MEASURED DEPTH
DEPTHTVD                .m           3064.4                                 :TRUE VERTICAL DEPTH


~CURVE INFORMATION
#MNEM                   .UNIT        API CODES                               DESCRIPTION
#________________________________________________________________________________________
TIME                    .s                                                  :01 TIME
DD_PRESS                .bar                                                :02 DRAW DOWN PRESSURE
DD_VOLUME               .cm3                                                :03 INCREMENTAL DRAW DOWN VOLUME
TEMP                    .degC                                               :04 TRANSDUCER TEMPERATURE
DD_PRESS_MOD_1000       .bar                                                :05 DRAW DOWN PRESSURE MOD 1000
DD_PRESS_MOD_100        .bar                                                :06 DRAW DOWN PRESSURE MOD 100
DD_PRESS_MOD_10         .bar                                                :07 DRAW DOWN PRESSURE MOD 10
DD_PRESS_MOD_1          .bar                                                :08 DRAW DOWN PRESSURE MOD 1
DD_PRESS_MOD_01         .bar                                                :09 DRAW DOWN PRESSURE MOD 01
DD_PRESS_MOD_001        .bar                                                :10 DRAW DOWN PRESSURE MOD 001
DD_PRESS_MOD_0001       .bar                                                :11 DRAW DOWN PRESSURE MOD 0001


~PARAMETER INFORMATION
#MNEM                   .UNIT        VALUE                                   DESCRIPTION
#________________________________________________________________________________________
TOOLFACE                .deg         -38.1                                  :01 TOOLFACE
PUMP_CAPACITY           .bar         400                                    :02 NOMINAL DRAW DOWN PUMP CAPACITY
PUMP_LIMIT              .bar         240                                    :03 DOWNLINK PUMP LIMIT
TIME_LIMIT              .min         10                                     :04 DOWNLINK MAX TIME
TEST_TYPE               .            HIGH MOBILITY                          :05 DOWNLINK
DD_PIST_A               .cm2         3.1416                                 :06 DRAW DOWN PISTON AREA
V_SYS                   .cm3         131.0000                               :07 SYSTEM VOLUME
PROBE_ID                .cm          1.2700                                 :08 TTK PROBE ID
G0                      .            4.6700                                 :09 GEOMETRY FACTOR


~A                  TIME     DD_PRESS                              DD_VOLUME               TEMP                                   DD_PRESS_MOD_1000       DD_PRESS_MOD_100        DD_PRESS_MOD_10         DD_PRESS_MOD_1        DD_PRESS_MOD_01       DD_PRESS_MOD_001      DD_PRESS_MOD_0001
# ...
                  147.70    426.69916                                0.00000             75.086                                        4.26699e+002           2.66992e+001           6.69916e+000           6.99160e-001           9.91601e-002           9.16007e-003           1.60074e-004
                  147.80    426.68970                                0.00000             75.086                                        4.26690e+002           2.66897e+001           6.68970e+000           6.89698e-001           8.96978e-002           9.69784e-003           6.97842e-004
                  147.90    426.68278                                0.00000             75.086                                        4.26683e+002           2.66828e+001           6.68278e+000           6.82776e-001           8.27758e-002           2.77582e-003           7.75821e-004
                  148.00    426.69625                                0.00000             75.086                                        4.26696e+002           2.66963e+001           6.69625e+000           6.96251e-001           9.62506e-002           6.25064e-003           2.50641e-004
                  148.10    426.72054                                0.00000             75.086                                        4.26721e+002           2.67205e+001           6.72054e+000           7.20545e-001           2.05446e-002           5.44595e-004           5.44595e-004
                  148.20    426.70729                                0.00000             75.086                                        4.26707e+002           2.67073e+001           6.70729e+000           7.07294e-001           7.29393e-003           7.29393e-003           2.93930e-004
                  148.30    426.70209                                0.00000             75.086                                        4.26702e+002           2.67021e+001           6.70209e+000           7.02090e-001           2.08978e-003           2.08978e-003           8.97802e-005
                  148.40    426.72529                                0.00000             75.086                                        4.26725e+002           2.67253e+001           6.72529e+000           7.25290e-001           2.52896e-002           5.28956e-003           2.89555e-004
                  148.50    426.72885                                0.00000             75.086                                        4.26729e+002           2.67289e+001           6.72885e+000           7.28854e-001           2.88541e-002           8.85412e-003           8.54122e-004
                  148.60    426.70075                                0.00000             75.086                                        4.26701e+002           2.67008e+001           6.70075e+000           7.00754e-001           7.54032e-004           7.54032e-004           7.54032e-004
                  148.70    426.71203                                0.00000             75.086                                        4.26712e+002           2.67120e+001           6.71203e+000           7.12031e-001           1.20312e-002           2.03120e-003           3.11995e-005
                  148.80    426.72830                                0.00000             75.086                                        4.26728e+002           2.67283e+001           6.72830e+000           7.28299e-001           2.82993e-002           8.29929e-003           2.99285e-004
                  148.90    426.72699                                0.00000             75.086                                        4.26727e+002           2.67270e+001           6.72699e+000           7.26990e-001           2.69897e-002           6.98968e-003           9.89678e-004
                  149.00    426.71411                                0.00000             75.086                                        4.26714e+002           2.67141e+001           6.71411e+000           7.14108e-001           1.41077e-002           4.10774e-003           1.07742e-004
                  149.10    426.71456                                0.00000             75.084                                        4.26715e+002           2.67146e+001           6.71456e+000           7.14558e-001           1.45577e-002           4.55766e-003           5.57655e-004
                  149.20    426.72950                                0.00000             75.080                                        4.26729e+002           2.67295e+001           6.72950e+000           7.29497e-001           2.94972e-002           9.49720e-003           4.97201e-004
                  149.30    426.75035                                0.00000             75.078                                        4.26750e+002           2.67503e+001           6.75035e+000           7.50347e-001           5.03471e-002           3.47067e-004           3.47067e-004
                  149.40    426.76487                                0.00000             75.078                                        4.26765e+002           2.67649e+001           6.76487e+000           7.64872e-001           6.48718e-002           4.87180e-003           8.71803e-004
                  149.50    426.76759                                0.00000             75.078                                        4.26768e+002           2.67676e+001           6.76759e+000           7.67590e-001           6.75899e-002           7.58985e-003           5.89853e-004
                  149.60    426.76368                                0.00000             75.078                                        4.26764e+002           2.67637e+001           6.76368e+000           7.63683e-001           6.36827e-002           3.68267e-003           6.82675e-004
                  149.70    426.75489                                0.00000             75.078                                        4.26755e+002           2.67549e+001           6.75489e+000           7.54889e-001           5.48892e-002           4.88924e-003           8.89238e-004
                  149.80    426.75729                                0.00000             75.078                                        4.26757e+002           2.67573e+001           6.75729e+000           7.57288e-001           5.72881e-002           7.28807e-003           2.88074e-004
                  149.90    426.77043                                0.00000             75.078                                        4.26770e+002           2.67704e+001           6.77043e+000           7.70433e-001           7.04332e-002           4.33157e-004           4.33157e-004
                  150.00    426.77127                                0.00000             75.078                                        4.26771e+002           2.67713e+001           6.77127e+000           7.71272e-001           7.12721e-002           1.27213e-003           2.72130e-004
                  150.10    426.74163                                0.00000             75.078                                        4.26742e+002           2.67416e+001           6.74163e+000           7.41625e-001           4.16251e-002           1.62505e-003           6.25053e-004
                  150.20    426.73286                                0.00000             75.078                                        4.26733e+002           2.67329e+001           6.73286e+000           7.32857e-001           3.28566e-002           2.85659e-003           8.56594e-004
                  150.30    426.75398                                0.00000             75.078                                        4.26754e+002           2.67540e+001           6.75398e+000           7.53982e-001           5.39817e-002           3.98166e-003           9.81662e-004
                  150.40    426.75469                                0.00000             75.078                                        4.26755e+002           2.67547e+001           6.75469e+000           7.54687e-001           5.46870e-002           4.68699e-003           6.86990e-004
