~VERSION INFORMATION
VERS                    .            2.0                                    :CWLS LOG ASCII STANDARD
WRAP                    .            NO                                     :ONE LINE PER TIME STEP


~WELL INFORMATION
#MNEM                   .UNIT        DATA                                    DESCRIPTION
#________________________________________________________________________________________
STRTTIME                .HH/MM/SS    22:05:32                               :START TIME
STOPTIME                .HH/MM/SS    22:09:32                               :STOP TIME
STRT                    .s           2.10                                   :START DATA
STOP                    .s           238.90                                 :STOP DATA
STEP                    .s           0.10                                   :MEASUREMENT TIME INTERVAL
NULL                    .            -999.25                                :NULL VALUE
COMP                    .            Statoil                                :COMPANY
FLD                     .            Volve                                  :FIELD
WELL                    .            15/9-F-11 T2                           :WELL
RUN                     .            7                                      :RUN
LOC                     .            Maersk Inspirer                        :LOCATION
PROV                    .            na                                     :PROVINCE
SRVC                    .            Baker Hughes INTEQ                     :SERVICE COMPANY
DATE                    .YY/MM/DD    13/05/04                               :LOG DATE
UWI                     .                                                   :UNIQUE WELL ID
DEPTHMD                 .m           4490.1                                 :MEASURED DEPTH
DEPTHTVD                .m           3328.5                                 :TRUE VERTICAL DEPTH


~CURVE INFORMATION
#MNEM                   .UNIT        API CODES                               DESCRIPTION
#________________________________________________________________________________________
TIME                    .s                                                  :01 TIME
DD_PRESS                .bar                                                :02 DRAW DOWN PRESSURE
DD_VOLUME               .cm3                                                :03 INCREMENTAL DRAW DOWN VOLUME
TEMP                    .degC                                               :04 TRANSDUCER TEMPERATURE
DD_PRESS_MOD_1000       .bar                                                :05 DRAW DOWN PRESSURE MOD 1000
DD_PRESS_MOD_100        .bar                                                :06 DRAW DOWN PRESSURE MOD 100
DD_PRESS_MOD_10         .bar                                                :07 DRAW DOWN PRESSURE MOD 10
DD_PRESS_MOD_1          .bar                                                :08 DRAW DOWN PRESSURE MOD 1
DD_PRESS_MOD_01         .bar                                                :09 DRAW DOWN PRESSURE MOD 01
DD_PRESS_MOD_001        .bar                                                :10 DRAW DOWN PRESSURE MOD 001
DD_PRESS_MOD_0001       .bar                                                :11 DRAW DOWN PRESSURE MOD 0001


~PARAMETER INFORMATION
#MNEM                   .UNIT        VALUE                                   DESCRIPTION
#________________________________________________________________________________________
TOOLFACE                .deg         na                                     :01 TOOLFACE
PUMP_CAPACITY           .bar         400                                    :02 NOMINAL DRAW DOWN PUMP CAPACITY
PUMP_LIMIT              .bar         240                                    :03 DOWNLINK PUMP LIMIT
TIME_LIMIT              .min         10                                     :04 DOWNLINK MAX TIME
TEST_TYPE               .            HIGH MOBILITY                          :05 DOWNLINK
DD_PIST_A               .cm2         3.1416                                 :06 DRAW DOWN PISTON AREA
V_SYS                   .cm3         131.0000                               :07 SYSTEM VOLUME
PROBE_ID                .cm          1.2700                                 :08 TTK PROBE ID
G0                      .            4.6700                                 :09 GEOMETRY FACTOR


~A                  TIME     DD_PRESS                              DD_VOLUME               TEMP                                   DD_PRESS_MOD_1000       DD_PRESS_MOD_100        DD_PRESS_MOD_10         DD_PRESS_MOD_1        DD_PRESS_MOD_01       DD_PRESS_MOD_001      DD_PRESS_MOD_0001
# ...
                  220.50    467.62694                                0.00000             97.258                                        4.67627e+002           6.76269e+001           7.62694e+000           6.26942e-001           2.69420e-002           6.94198e-003           9.41984e-004
                  220.60    468.60884                                0.00000             97.258                                        4.68609e+002           6.86088e+001           8.60884e+000           6.08841e-001           8.84069e-003           8.84069e-003           8.40685e-004
                  220.70    468.74134                                0.00000             97.258                                        4.68741e+002           6.87413e+001           8.74134e+000           7.41344e-001           4.13440e-002           1.34399e-003           3.43987e-004
                  220.80    468.26595                                0.00000             97.258                                        4.68266e+002           6.82660e+001           8.26595e+000           2.65953e-001           6.59534e-002           5.95344e-003           9.53443e-004
                  220.90    467.77058                                0.00000             97.258                                        4.67771e+002           6.77706e+001           7.77058e+000           7.70585e-001           7.05850e-002           5.84973e-004           5.84973e-004
                  221.00    467.53945                                0.00000             97.258                                        4.67539e+002           6.75394e+001           7.53945e+000           5.39448e-001           3.94479e-002           9.44789e-003           4.47893e-004
                  221.10    467.41106                                0.00000             97.258                                        4.67411e+002           6.74111e+001           7.41106e+000           4.11056e-001           1.10562e-002           1.05620e-003           5.62022e-005
                  221.20    467.43087                                0.00000             97.260                                        4.67431e+002           6.74309e+001           7.43087e+000           4.30871e-001           3.08707e-002           8.70712e-004           8.70712e-004
                  221.30    467.44595                                0.00000             97.264                                        4.67446e+002           6.74460e+001           7.44595e+000           4.45950e-001           4.59502e-002           5.95019e-003           9.50190e-004
                  221.40    467.45204                                0.00000             97.266                                        4.67452e+002           6.74520e+001           7.45204e+000           4.52039e-001           5.20387e-002           2.03868e-003           3.86841e-005
                  221.50    467.44747                                0.00000             97.266                                        4.67447e+002           6.74475e+001           7.44747e+000           4.47474e-001           4.74740e-002           7.47396e-003           4.73962e-004
                  221.60    467.46645                                0.00000             97.266                                        4.67466e+002           6.74665e+001           7.46645e+000           4.66454e-001           6.64543e-002           6.45431e-003           4.54312e-004
                  221.70    467.48839                                0.00000             97.266                                        4.67488e+002           6.74884e+001           7.48839e+000           4.88388e-001           8.83884e-002           8.38841e-003           3.88409e-004
                  221.80    467.50657                                0.00000             97.266                                        4.67507e+002           6.75066e+001           7.50657e+000           5.06575e-001           6.57483e-003           6.57483e-003           5.74832e-004
                  221.90    467.52372                                0.00000             97.266                                        4.67524e+002           6.75237e+001           7.52372e+000           5.23717e-001           2.37168e-002           3.71684e-003           7.16843e-004
                  222.00    467.52691                                0.00000             97.266                                        4.67527e+002           6.75269e+001           7.52691e+000           5.26911e-001           2.69110e-002           6.91100e-003           9.11005e-004
                  222.10    467.51660                                0.00000             97.266                                        4.67517e+002           6.75166e+001           7.51660e+000           5.16596e-001           1.65965e-002           6.59647e-003           5.96470e-004
                  222.20    467.52665                                0.00000             97.266                                        4.67527e+002           6.75267e+001           7.52665e+000           5.26651e-001           2.66507e-002           6.65069e-003           6.50694e-004
                  222.30    467.55110                                0.00000             97.266                                        4.67551e+002           6.75511e+001           7.55110e+000           5.51105e-001           5.11049e-002           1.10494e-003           1.04938e-004
                  222.40    467.56806                                0.00000             97.266                                        4.67568e+002           6.75681e+001           7.56806e+000           5.68061e-001           6.80608e-002           8.06080e-003           6.07963e-005
                  222.50    467.57478                                0.00000             97.266                                        4.67575e+002           6.75748e+001           7.57478e+000           5.74781e-001           7.47812e-002           4.78117e-003           7.81175e-004
                  222.60    467.58603                                0.00000             97.268                                        4.67586e+002           6.75860e+001           7.58603e+000           5.86034e-001           8.60337e-002           6.03372e-003           3.37153e-005
                  222.70    467.59530                                0.00000             97.271                                        4.67595e+002           6.75953e+001           7.59530e+000           5.95301e-001           9.53010e-002           5.30101e-003           3.01008e-004
                  222.80    467.60164                                0.00000             97.273                                        4.67602e+002           6.76016e+001           7.60164e+000           6.01639e-001           1.63880e-003           1.63880e-003           6.38800e-004
                  222.90    467.60386                                0.00000             97.273                                        4.67604e+002           6.76039e+001           7.60386e+000           6.03863e-001           3.86321e-003           3.86321e-003           8.63213e-004
                  223.00    467.61064                                0.00000             97.273                                        4.67611e+002           6.76106e+001           7.61064e+000           6.10644e-001           1.06439e-002           6.43941e-004           6.43941e-004
                  223.10    467.62395                                0.00000             97.273                                        4.67624e+002           6.76239e+001           7.62395e+000           6.23946e-001           2.39458e-002           3.94581e-003           9.45810e-004
                  223.20    467.61999                                0.00000             97.273                                        4.67620e+002           6.76200e+001           7.61999e+000           6.19989e-001           1.99895e-002           9.98949e-003           9.89488e-004
