~VERSION INFORMATION
VERS                    .            2.0                                    :CWLS LOG ASCII STANDARD
WRAP                    .            NO                                     :ONE LINE PER TIME STEP


~WELL INFORMATION
#MNEM                   .UNIT        DATA                                    DESCRIPTION
#________________________________________________________________________________________
STRTTIME                .HH/MM/SS    16:02:11                               :START TIME
STOPTIME                .HH/MM/SS    16:05:47                               :STOP TIME
STRT                    .s           2.10                                   :START DATA
STOP                    .s           214.40                                 :STOP DATA
STEP                    .s           0.10                                   :MEASUREMENT TIME INTERVAL
NULL                    .            -999.25                                :NULL VALUE
COMP                    .            Statoil ASA                            :COMPANY
FLD                     .            Volve                                  :FIELD
WELL                    .            15/9-F-1 B                             :WELL
RUN                     .            7                                      :RUN
LOC                     .            Maersk Inspirer                        :LOCATION
PROV                    .            na                                     :PROVINCE
SRVC                    .            Baker Hughes INTEQ                     :SERVICE COMPANY
DATE                    .YY/MM/DD    13/09/06                               :LOG DATE
UWI                     .                                                   :UNIQUE WELL ID
DEPTHMD                 .m           3261.0                                 :MEASURED DEPTH
DEPTHTVD                .m           3057.0                                 :TRUE VERTICAL DEPTH


~CURVE INFORMATION
#MNEM                   .UNIT        API CODES                               DESCRIPTION
#________________________________________________________________________________________
TIME                    .s                                                  :01 TIME
DD_PRESS                .bar                                                :02 DRAW DOWN PRESSURE
DD_VOLUME               .cm3                                                :03 INCREMENTAL DRAW DOWN VOLUME
TEMP                    .degC                                               :04 TRANSDUCER TEMPERATURE
DD_PRESS_MOD_1000       .bar                                                :05 DRAW DOWN PRESSURE MOD 1000
DD_PRESS_MOD_100        .bar                                                :06 DRAW DOWN PRESSURE MOD 100
DD_PRESS_MOD_10         .bar                                                :07 DRAW DOWN PRESSURE MOD 10
DD_PRESS_MOD_1          .bar                                                :08 DRAW DOWN PRESSURE MOD 1
DD_PRESS_MOD_01         .bar                                                :09 DRAW DOWN PRESSURE MOD 01
DD_PRESS_MOD_001        .bar                                                :10 DRAW DOWN PRESSURE MOD 001
DD_PRESS_MOD_0001       .bar                                                :11 DRAW DOWN PRESSURE MOD 0001


~PARAMETER INFORMATION
#MNEM                   .UNIT        VALUE                                   DESCRIPTION
#________________________________________________________________________________________
TOOLFACE                .deg         na                                     :01 TOOLFACE
PUMP_CAPACITY           .bar         400                                    :02 NOMINAL DRAW DOWN PUMP CAPACITY
PUMP_LIMIT              .bar         400                                    :03 DOWNLINK PUMP LIMIT
TIME_LIMIT              .min         10                                     :04 DOWNLINK MAX TIME
TEST_TYPE               .            LOW MOBILITY                           :05 DOWNLINK
DD_PIST_A               .cm2         3.1416                                 :06 DRAW DOWN PISTON AREA
V_SYS                   .cm3         131.0000                               :07 SYSTEM VOLUME
PROBE_ID                .cm          1.2700                                 :08 TTK PROBE ID
G0                      .            4.6700                                 :09 GEOMETRY FACTOR


~A                  TIME     DD_PRESS                              DD_VOLUME               TEMP                                   DD_PRESS_MOD_1000       DD_PRESS_MOD_100        DD_PRESS_MOD_10         DD_PRESS_MOD_1        DD_PRESS_MOD_01       DD_PRESS_MOD_001      DD_PRESS_MOD_0001
# ...
                  128.10    345.59745                               19.92291             82.063                                        3.45597e+002           4.55975e+001           5.59745e+000           5.97454e-001           9.74536e-002           7.45362e-003           4.53622e-004
                  128.20    345.59818                               19.92291             82.063                                        3.45598e+002           4.55982e+001           5.59818e+000           5.98177e-001           9.81770e-002           8.17696e-003           1.76964e-004
                  128.30    345.60351                               19.92291             82.063                                        3.45604e+002           4.56035e+001           5.60351e+000           6.03508e-001           3.50761e-003           3.50761e-003           5.07609e-004
                  128.40    345.60872                               19.92291             82.063                                        3.45609e+002           4.56087e+001           5.60872e+000           6.08718e-001           8.71767e-003           8.71767e-003           7.17674e-004
                  128.50    345.60266                               19.92291             82.063                                        3.45603e+002           4.56027e+001           5.60266e+000           6.02657e-001           2.65663e-003           2.65663e-003           6.56634e-004
                  128.60    345.59742                               19.92291             82.063                                        3.45597e+002           4.55974e+001           5.59742e+000           5.97423e-001           9.74228e-002           7.42279e-003           4.22791e-004
                  128.70    345.60296                               19.92291             82.063                                        3.45603e+002           4.56030e+001           5.60296e+000           6.02961e-001           2.96058e-003           2.96058e-003           9.60583e-004
                  128.80    345.60904                               19.92291             82.063                                        3.45609e+002           4.56090e+001           5.60904e+000           6.09039e-001           9.03906e-003           9.03906e-003           3.90575e-005
                  128.90    345.60630                               19.92291             82.063                                        3.45606e+002           4.56063e+001           5.60630e+000           6.06305e-001           6.30466e-003           6.30466e-003           3.04657e-004
                  129.00    345.60342                               19.92291             82.063                                        3.45603e+002           4.56034e+001           5.60342e+000           6.03416e-001           3.41625e-003           3.41625e-003           4.16247e-004
                  129.10    345.60351                               19.92291             82.060                                        3.45604e+002           4.56035e+001           5.60351e+000           6.03508e-001           3.50777e-003           3.50777e-003           5.07773e-004
                  129.20    345.60593                               19.92291             82.057                                        3.45606e+002           4.56059e+001           5.60593e+000           6.05926e-001           5.92591e-003           5.92591e-003           9.25907e-004
                  129.30    345.59836                               19.92291             82.055                                        3.45598e+002           4.55984e+001           5.59836e+000           5.98361e-001           9.83607e-002           8.36073e-003           3.60726e-004
                  129.40    345.59396                               19.92291             82.055                                        3.45594e+002           4.55940e+001           5.59396e+000           5.93960e-001           9.39602e-002           3.96017e-003           9.60172e-004
                  129.50    345.59772                               19.92291             82.055                                        3.45598e+002           4.55977e+001           5.59772e+000           5.97722e-001           9.77223e-002           7.72233e-003           7.22327e-004
                  129.60    345.60339                               19.92291             82.055                                        3.45603e+002           4.56034e+001           5.60339e+000           6.03393e-001           3.39313e-003           3.39313e-003           3.93128e-004
                  129.70    345.60076                               19.92291             82.055                                        3.45601e+002           4.56008e+001           5.60076e+000           6.00760e-001           7.60116e-004           7.60116e-004           7.60116e-004
                  129.80    345.60090                               19.92291             82.055                                        3.45601e+002           4.56009e+001           5.60090e+000           6.00900e-001           9.00161e-004           9.00161e-004           9.00161e-004
                  129.90    345.60444                               19.92291             82.055                                        3.45604e+002           4.56044e+001           5.60444e+000           6.04436e-001           4.43605e-003           4.43605e-003           4.36053e-004
                  130.00    345.60565                               19.92291             82.057                                        3.45606e+002           4.56057e+001           5.60565e+000           6.05653e-001           5.65293e-003           5.65293e-003           6.52927e-004
                  130.10    345.60008                               19.92291             82.061                                        3.45600e+002           4.56001e+001           5.60008e+000           6.00080e-001           8.04526e-005           8.04526e-005           8.04526e-005
                  130.20    345.59698                               19.92291             82.063                                        3.45597e+002           4.55970e+001           5.59698e+000           5.96979e-001           9.69788e-002           6.97882e-003           9.78820e-004
                  130.30    345.60043                               19.92291             82.060                                        3.45600e+002           4.56004e+001           5.60043e+000           6.00434e-001           4.33903e-004           4.33903e-004           4.33903e-004
                  130.40    345.60438                               19.92291             82.057                                        3.45604e+002           4.56044e+001           5.60438e+000           6.04379e-001           4.37869e-003           4.37869e-003           3.78689e-004
                  130.50    345.59921                               19.92291             82.055                                        3.45599e+002           4.55992e+001           5.59921e+000           5.99213e-001           9.92128e-002           9.21277e-003           2.12768e-004
                  130.60    345.59712                               19.92291             82.055                                        3.45597e+002           4.55971e+001           5.59712e+000           5.97121e-001           9.71214e-002           7.12143e-003           1.21435e-004
                  130.70    345.60248                               19.92291             82.055                                        3.45602e+002           4.56025e+001           5.60248e+000           6.02481e-001           2.48099e-003           2.48099e-003           4.80994e-004
                  130.80    345.60847                               19.92291             82.055                                        3.45608e+002           4.56085e+001           5.60847e+000           6.08467e-001           8.46658e-003           8.46658e-003           4.66582e-004
