~VERSION INFORMATION
VERS                    .            2.0                                    :CWLS LOG ASCII STANDARD
WRAP                    .            NO                                     :ONE LINE PER TIME STEP


~WELL INFORMATION
#MNEM                   .UNIT        DATA                                    DESCRIPTION
#________________________________________________________________________________________
STRTTIME                .HH/MM/SS    11:44:47                               :START TIME
STOPTIME                .HH/MM/SS    11:47:33                               :STOP TIME
STRT                    .s           2.10                                   :START DATA
STOP                    .s           164.50                                 :STOP DATA
STEP                    .s           0.10                                   :MEASUREMENT TIME INTERVAL
NULL                    .            -999.25                                :NULL VALUE
COMP                    .            Statoil ASA                            :COMPANY
FLD                     .            Volve                                  :FIELD
WELL                    .            15/9-F-11 A                            :WELL
RUN                     .            8                                      :RUN
LOC                     .            Maersk Inspirer                        :LOCATION
PROV                    .            na                                     :PROVINCE
SRVC                    .            Baker Hughes INTEQ                     :SERVICE COMPANY
DATE                    .YY/MM/DD    13/05/21                               :LOG DATE
UWI                     .                                                   :UNIQUE WELL ID
DEPTHMD                 .m           3624.0                                 :MEASURED DEPTH
DEPTHTVD                .m           3020.7                                 :TRUE VERTICAL DEPTH


~CURVE INFORMATION
#MNEM                   .UNIT        API CODES                               DESCRIPTION
#________________________________________________________________________________________
TIME                    .s                                                  :01 TIME
DD_PRESS                .bar                                                :02 DRAW DOWN PRESSURE
DD_VOLUME               .cm3                                                :03 INCREMENTAL DRAW DOWN VOLUME
TEMP                    .degC                                               :04 TRANSDUCER TEMPERATURE
DD_PRESS_MOD_1000       .bar                                                :05 DRAW DOWN PRESSURE MOD 1000
DD_PRESS_MOD_100        .bar                                                :06 DRAW DOWN PRESSURE MOD 100
DD_PRESS_MOD_10         .bar                                                :07 DRAW DOWN PRESSURE MOD 10
DD_PRESS_MOD_1          .bar                                                :08 DRAW DOWN PRESSURE MOD 1
DD_PRESS_MOD_01         .bar                                                :09 DRAW DOWN PRESSURE MOD 01
DD_PRESS_MOD_001        .bar                                                :10 DRAW DOWN PRESSURE MOD 001
DD_PRESS_MOD_0001       .bar                                                :11 DRAW DOWN PRESSURE MOD 0001


~PARAMETER INFORMATION
#MNEM                   .UNIT        VALUE                                   DESCRIPTION
#________________________________________________________________________________________
TOOLFACE                .deg         61.7                                   :01 TOOLFACE
PUMP_CAPACITY           .bar         400                                    :02 NOMINAL DRAW DOWN PUMP CAPACITY
PUMP_LIMIT              .bar         240                                    :03 DOWNLINK PUMP LIMIT
TIME_LIMIT              .min         10                                     :04 DOWNLINK MAX TIME
TEST_TYPE               .            REPEAT                                 :05 DOWNLINK
TEST_TYPE               .            HIGH MOBILITY                          :06 DOWNLINK
DD_PIST_A               .cm2         3.1416                                 :07 DRAW DOWN PISTON AREA
V_SYS                   .cm3         131.0000                               :08 SYSTEM VOLUME
PROBE_ID                .cm          1.2700                                 :09 TTK PROBE ID
G0                      .            4.6700                                 :10 GEOMETRY FACTOR


~A                  TIME     DD_PRESS                              DD_VOLUME               TEMP                                   DD_PRESS_MOD_1000       DD_PRESS_MOD_100        DD_PRESS_MOD_10         DD_PRESS_MOD_1        DD_PRESS_MOD_01       DD_PRESS_MOD_001      DD_PRESS_MOD_0001
# ...
                   32.90    341.66205                                5.86260             81.477                                        3.41662e+002           4.16620e+001           1.66205e+000           6.62049e-001           6.20486e-002           2.04857e-003           4.85687e-005
                   33.00    341.66182                                5.96228             81.477                                        3.41662e+002           4.16618e+001           1.66182e+000           6.61818e-001           6.18175e-002           1.81755e-003           8.17546e-004
                   33.10    341.66252                                6.06195             81.477                                        3.41663e+002           4.16625e+001           1.66252e+000           6.62520e-001           6.25199e-002           2.51989e-003           5.19889e-004
                   33.20    341.66716                                6.16154             81.477                                        3.41667e+002           4.16672e+001           1.66716e+000           6.67164e-001           6.71637e-002           7.16371e-003           1.63713e-004
                   33.30    341.66895                                6.26104             81.477                                        3.41669e+002           4.16690e+001           1.66895e+000           6.68954e-001           6.89545e-002           8.95446e-003           9.54455e-004
                   33.40    341.66872                                6.36037             81.477                                        3.41669e+002           4.16687e+001           1.66872e+000           6.68722e-001           6.87215e-002           8.72152e-003           7.21520e-004
                   33.50    341.66832                                6.45953             81.477                                        3.41668e+002           4.16683e+001           1.66832e+000           6.68319e-001           6.83189e-002           8.31889e-003           3.18894e-004
                   33.60    341.66856                                6.55855             81.477                                        3.41669e+002           4.16686e+001           1.66856e+000           6.68558e-001           6.85584e-002           8.55844e-003           5.58439e-004
                   33.70    341.66695                                6.65722             81.477                                        3.41667e+002           4.16669e+001           1.66695e+000           6.66949e-001           6.69487e-002           6.94869e-003           9.48693e-004
                   33.80    341.66728                                6.75560             81.477                                        3.41667e+002           4.16673e+001           1.66728e+000           6.67279e-001           6.72793e-002           7.27933e-003           2.79331e-004
                   33.90    341.67179                                6.85361             81.477                                        3.41672e+002           4.16718e+001           1.67179e+000           6.71785e-001           7.17853e-002           1.78526e-003           7.85265e-004
                   34.00    341.67522                                6.95150             81.477                                        3.41675e+002           4.16752e+001           1.67522e+000           6.75216e-001           7.52157e-002           5.21571e-003           2.15712e-004
                   34.10    341.67704                                7.04879             81.477                                        3.41677e+002           4.16770e+001           1.67704e+000           6.77042e-001           7.70424e-002           7.04242e-003           4.24234e-005
                   34.20    341.67660                                7.14551             81.477                                        3.41677e+002           4.16766e+001           1.67660e+000           6.76595e-001           7.65950e-002           6.59503e-003           5.95031e-004
                   34.30    341.67936                                7.24181             81.474                                        3.41679e+002           4.16794e+001           1.67936e+000           6.79364e-001           7.93637e-002           9.36373e-003           3.63733e-004
                   34.40    341.68283                                7.33769             81.471                                        3.41683e+002           4.16828e+001           1.68283e+000           6.82825e-001           8.28254e-002           2.82538e-003           8.25383e-004
                   34.50    341.68564                                7.43299             81.469                                        3.41686e+002           4.16856e+001           1.68564e+000           6.85644e-001           8.56441e-002           5.64411e-003           6.44110e-004
                   34.60    341.68811                                7.52773             81.469                                        3.41688e+002           4.16881e+001           1.68811e+000           6.88114e-001           8.81139e-002           8.11385e-003           1.13853e-004
                   34.70    341.69472                                7.62175             81.469                                        3.41695e+002           4.16947e+001           1.69472e+000           6.94721e-001           9.47208e-002           4.72076e-003           7.20755e-004
                   34.80    341.70217                                7.71507             81.469                                        3.41702e+002           4.17022e+001           1.70217e+000           7.02170e-001           2.16986e-003           2.16986e-003           1.69863e-004
                   34.90    341.70675                                7.80776             81.469                                        3.41707e+002           4.17068e+001           1.70675e+000           7.06755e-001           6.75495e-003           6.75495e-003           7.54951e-004
                   35.00    341.71045                                7.89973             81.469                                        3.41710e+002           4.17104e+001           1.71045e+000           7.10449e-001           1.04488e-002           4.48780e-004           4.48780e-004
                   35.10    341.71716                                7.99088             81.469                                        3.41717e+002           4.17172e+001           1.71716e+000           7.17158e-001           1.71576e-002           7.15757e-003           1.57573e-004
                   35.20    341.72300                                8.08114             81.469                                        3.41723e+002           4.17230e+001           1.72300e+000           7.22998e-001           2.29977e-002           2.99768e-003           9.97680e-004
                   35.30    341.72710                                8.17045             81.469                                        3.41727e+002           4.17271e+001           1.72710e+000           7.27097e-001           2.70971e-002           7.09707e-003           9.70742e-005
                   35.40    341.73245                                8.25889             81.469                                        3.41732e+002           4.17324e+001           1.73245e+000           7.32445e-001           3.24452e-002           2.44516e-003           4.45160e-004
                   35.50    341.73716                                8.34651             81.469                                        3.41737e+002           4.17372e+001           1.73716e+000           7.37160e-001           3.71605e-002           7.16046e-003           1.60464e-004
                   35.60    341.74139                                8.43304             81.469                                        3.41741e+002           4.17414e+001           1.74139e+000           7.41394e-001           4.13942e-002           1.39424e-003           3.94237e-004
