~VERSION INFORMATION
VERS                    .            2.0                                    :CWLS LOG ASCII STANDARD
WRAP                    .            NO                                     :ONE LINE PER TIME STEP


~WELL INFORMATION
#MNEM                   .UNIT        DATA                                    DESCRIPTION
#________________________________________________________________________________________
STRTTIME                .HH/MM/SS    10:22:55                               :START TIME
STOPTIME                .HH/MM/SS    10:26:06                               :STOP TIME
STRT                    .s           2.10                                   :START DATA
STOP                    .s           189.80                                 :STOP DATA
STEP                    .s           0.10                                   :MEASUREMENT TIME INTERVAL
NULL                    .            -999.25                                :NULL VALUE
COMP                    .            Statoil ASA                            :COMPANY
FLD                     .            Volve                                  :FIELD
WELL                    .            15/9-F-11 A                            :WELL
RUN                     .            8                                      :RUN
LOC                     .            Maersk Inspirer                        :LOCATION
PROV                    .            na                                     :PROVINCE
SRVC                    .            Baker Hughes INTEQ                     :SERVICE COMPANY
DATE                    .YY/MM/DD    13/05/21                               :LOG DATE
UWI                     .                                                   :UNIQUE WELL ID
DEPTHMD                 .m           3651.0                                 :MEASURED DEPTH
DEPTHTVD                .m           3041.4                                 :TRUE VERTICAL DEPTH


~CURVE INFORMATION
#MNEM                   .UNIT        API CODES                               DESCRIPTION
#________________________________________________________________________________________
TIME                    .s                                                  :01 TIME
DD_PRESS                .bar                                                :02 DRAW DOWN PRESSURE
DD_VOLUME               .cm3                                                :03 INCREMENTAL DRAW DOWN VOLUME
TEMP                    .degC                                               :04 TRANSDUCER TEMPERATURE
DD_PRESS_MOD_1000       .bar                                                :05 DRAW DOWN PRESSURE MOD 1000
DD_PRESS_MOD_100        .bar                                                :06 DRAW DOWN PRESSURE MOD 100
DD_PRESS_MOD_10         .bar                                                :07 DRAW DOWN PRESSURE MOD 10
DD_PRESS_MOD_1          .bar                                                :08 DRAW DOWN PRESSURE MOD 1
DD_PRESS_MOD_01         .bar                                                :09 DRAW DOWN PRESSURE MOD 01
DD_PRESS_MOD_001        .bar                                                :10 DRAW DOWN PRESSURE MOD 001
DD_PRESS_MOD_0001       .bar                                                :11 DRAW DOWN PRESSURE MOD 0001


~PARAMETER INFORMATION
#MNEM                   .UNIT        VALUE                                   DESCRIPTION
#________________________________________________________________________________________
TOOLFACE                .deg         61.5                                   :01 TOOLFACE
PUMP_CAPACITY           .bar         400                                    :02 NOMINAL DRAW DOWN PUMP CAPACITY
PUMP_LIMIT              .bar         240                                    :03 DOWNLINK PUMP LIMIT
TIME_LIMIT              .min         10                                     :04 DOWNLINK MAX TIME
TEST_TYPE               .            REPEAT                                 :05 DOWNLINK
TEST_TYPE               .            HIGH MOBILITY                          :06 DOWNLINK
DD_PIST_A               .cm2         3.1416                                 :07 DRAW DOWN PISTON AREA
V_SYS                   .cm3         131.0000                               :08 SYSTEM VOLUME
PROBE_ID                .cm          1.2700                                 :09 TTK PROBE ID
G0                      .            4.6700                                 :10 GEOMETRY FACTOR


~A                  TIME     DD_PRESS                              DD_VOLUME               TEMP                                   DD_PRESS_MOD_1000       DD_PRESS_MOD_100        DD_PRESS_MOD_10         DD_PRESS_MOD_1        DD_PRESS_MOD_01       DD_PRESS_MOD_001      DD_PRESS_MOD_0001
# ...
                  186.90    418.67600                                0.00000             81.133                                        4.18676e+002           1.86760e+001           8.67600e+000           6.75999e-001           7.59991e-002           5.99911e-003           9.99109e-004
                  187.00    418.65882                                0.00000             81.133                                        4.18659e+002           1.86588e+001           8.65882e+000           6.58825e-001           5.88248e-002           8.82481e-003           8.24814e-004
                  187.10    418.66109                                0.00000             81.133                                        4.18661e+002           1.86611e+001           8.66109e+000           6.61089e-001           6.10895e-002           1.08945e-003           8.94521e-005
                  187.20    418.68551                                0.00000             81.133                                        4.18686e+002           1.86855e+001           8.68551e+000           6.85507e-001           8.55073e-002           5.50734e-003           5.07339e-004
                  187.30    418.69949                                0.00000             81.133                                        4.18699e+002           1.86995e+001           8.69949e+000           6.99492e-001           9.94919e-002           9.49193e-003           4.91932e-004
                  187.40    418.69272                                0.00000             81.133                                        4.18693e+002           1.86927e+001           8.69272e+000           6.92724e-001           9.27243e-002           2.72430e-003           7.24298e-004
                  187.50    418.68373                                0.00000             81.133                                        4.18684e+002           1.86837e+001           8.68373e+000           6.83728e-001           8.37277e-002           3.72766e-003           7.27665e-004
                  187.60    418.67127                                0.00000             81.133                                        4.18671e+002           1.86713e+001           8.67127e+000           6.71271e-001           7.12711e-002           1.27109e-003           2.71094e-004
                  187.70    418.67361                                0.00000             81.133                                        4.18674e+002           1.86736e+001           8.67361e+000           6.73609e-001           7.36092e-002           3.60915e-003           6.09150e-004
                  187.80    418.68161                                0.00000             81.133                                        4.18682e+002           1.86816e+001           8.68161e+000           6.81614e-001           8.16136e-002           1.61363e-003           6.13631e-004
                  187.90    418.67881                                0.00000             81.133                                        4.18679e+002           1.86788e+001           8.67881e+000           6.78813e-001           7.88135e-002           8.81348e-003           8.13485e-004
                  188.00    418.66904                                0.00000             81.133                                        4.18669e+002           1.86690e+001           8.66904e+000           6.69043e-001           6.90431e-002           9.04314e-003           4.31423e-005
                  188.10    418.68535                                0.00000             81.133                                        4.18685e+002           1.86853e+001           8.68535e+000           6.85345e-001           8.53450e-002           5.34505e-003           3.45049e-004
                  188.20    418.70505                                0.00000             81.133                                        4.18705e+002           1.87051e+001           8.70505e+000           7.05052e-001           5.05161e-003           5.05161e-003           5.16128e-005
                  188.30    418.70757                                0.00000             81.133                                        4.18708e+002           1.87076e+001           8.70757e+000           7.07574e-001           7.57445e-003           7.57445e-003           5.74446e-004
                  188.40    418.68869                                0.00000             81.133                                        4.18689e+002           1.86887e+001           8.68869e+000           6.88692e-001           8.86918e-002           8.69184e-003           6.91844e-004
                  188.50    418.66946                                0.00000             81.133                                        4.18669e+002           1.86695e+001           8.66946e+000           6.69460e-001           6.94597e-002           9.45970e-003           4.59701e-004
                  188.60    418.66851                                0.00000             81.133                                        4.18669e+002           1.86685e+001           8.66851e+000           6.68509e-001           6.85092e-002           8.50917e-003           5.09173e-004
                  188.70    418.67459                                0.00000             81.133                                        4.18675e+002           1.86746e+001           8.67459e+000           6.74588e-001           7.45882e-002           4.58823e-003           5.88226e-004
                  188.80    418.67528                                0.00000             81.133                                        4.18675e+002           1.86753e+001           8.67528e+000           6.75282e-001           7.52818e-002           5.28183e-003           2.81834e-004
                  188.90    418.68311                                0.00000             81.133                                        4.18683e+002           1.86831e+001           8.68311e+000           6.83107e-001           8.31074e-002           3.10739e-003           1.07386e-004
                  189.00    418.68927                                0.00000             81.133                                        4.18689e+002           1.86893e+001           8.68927e+000           6.89268e-001           8.92675e-002           9.26751e-003           2.67507e-004
                  189.10    418.67024                                0.00000             81.133                                        4.18670e+002           1.86702e+001           8.67024e+000           6.70239e-001           7.02392e-002           2.39159e-004           2.39159e-004
                  189.20    418.66404                                0.00000             81.133                                        4.18664e+002           1.86640e+001           8.66404e+000           6.64038e-001           6.40379e-002           4.03788e-003           3.78758e-005
                  189.30    418.68048                                0.00000             81.133                                        4.18680e+002           1.86805e+001           8.68048e+000           6.80477e-001           8.04768e-002           4.76822e-004           4.76822e-004
                  189.40    418.68780                                0.00000             81.133                                        4.18688e+002           1.86878e+001           8.68780e+000           6.87799e-001           8.77992e-002           7.79924e-003           7.99242e-004
                  189.50    418.67698                                0.00000             81.133                                        4.18677e+002           1.86770e+001           8.67698e+000           6.76976e-001           7.69760e-002           6.97599e-003           9.75992e-004
                  189.60    418.67519                                0.00000             81.133                                        4.18675e+002           1.86752e+001           8.67519e+000           6.75194e-001           7.51943e-002           5.19425e-003           1.94254e-004
