~VERSION INFORMATION
VERS                    .            2.0                                    :CWLS LOG ASCII STANDARD
WRAP                    .            NO                                     :ONE LINE PER TIME STEP


~WELL INFORMATION
#MNEM                   .UNIT        DATA                                    DESCRIPTION
#________________________________________________________________________________________
STRTTIME                .HH/MM/SS    08:31:17                               :START TIME
STOPTIME                .HH/MM/SS    08:34:03                               :STOP TIME
STRT                    .s           2.10                                   :START DATA
STOP                    .s           164.70                                 :STOP DATA
STEP                    .s           0.10                                   :MEASUREMENT TIME INTERVAL
NULL                    .            -999.25                                :NULL VALUE
COMP                    .            Statoil ASA                            :COMPANY
FLD                     .            Volve                                  :FIELD
WELL                    .            15/9-F-11 A                            :WELL
RUN                     .            8                                      :RUN
LOC                     .            Maersk Inspirer                        :LOCATION
PROV                    .            na                                     :PROVINCE
SRVC                    .            Baker Hughes INTEQ                     :SERVICE COMPANY
DATE                    .YY/MM/DD    13/05/21                               :LOG DATE
UWI                     .                                                   :UNIQUE WELL ID
DEPTHMD                 .m           3688.1                                 :MEASURED DEPTH
DEPTHTVD                .m           3069.8                                 :TRUE VERTICAL DEPTH


~CURVE INFORMATION
#MNEM                   .UNIT        API CODES                               DESCRIPTION
#________________________________________________________________________________________
TIME                    .s                                                  :01 TIME
DD_PRESS                .bar                                                :02 DRAW DOWN PRESSURE
DD_VOLUME               .cm3                                                :03 INCREMENTAL DRAW DOWN VOLUME
TEMP                    .degC                                               :04 TRANSDUCER TEMPERATURE
DD_PRESS_MOD_1000       .bar                                                :05 DRAW DOWN PRESSURE MOD 1000
DD_PRESS_MOD_100        .bar                                                :06 DRAW DOWN PRESSURE MOD 100
DD_PRESS_MOD_10         .bar                                                :07 DRAW DOWN PRESSURE MOD 10
DD_PRESS_MOD_1          .bar                                                :08 DRAW DOWN PRESSURE MOD 1
DD_PRESS_MOD_01         .bar                                                :09 DRAW DOWN PRESSURE MOD 01
DD_PRESS_MOD_001        .bar                                                :10 DRAW DOWN PRESSURE MOD 001
DD_PRESS_MOD_0001       .bar                                                :11 DRAW DOWN PRESSURE MOD 0001


~PARAMETER INFORMATION
#MNEM                   .UNIT        VALUE                                   DESCRIPTION
#________________________________________________________________________________________
TOOLFACE                .deg         -78.9                                  :01 TOOLFACE
PUMP_CAPACITY           .bar         400                                    :02 NOMINAL DRAW DOWN PUMP CAPACITY
PUMP_LIMIT              .bar         240                                    :03 DOWNLINK PUMP LIMIT
TIME_LIMIT              .min         10                                     :04 DOWNLINK MAX TIME
TEST_TYPE               .            REPEAT                                 :05 DOWNLINK
TEST_TYPE               .            HIGH MOBILITY                          :06 DOWNLINK
DD_PIST_A               .cm2         3.1416                                 :07 DRAW DOWN PISTON AREA
V_SYS                   .cm3         131.0000                               :08 SYSTEM VOLUME
PROBE_ID                .cm          1.2700                                 :09 TTK PROBE ID
G0                      .            4.6700                                 :10 GEOMETRY FACTOR


~A                  TIME     DD_PRESS                              DD_VOLUME               TEMP                                   DD_PRESS_MOD_1000       DD_PRESS_MOD_100        DD_PRESS_MOD_10         DD_PRESS_MOD_1        DD_PRESS_MOD_01       DD_PRESS_MOD_001      DD_PRESS_MOD_0001
# ...
                  108.50    346.05821                               19.72743             83.258                                        3.46058e+002           4.60582e+001           6.05821e+000           5.82085e-002           5.82085e-002           8.20851e-003           2.08509e-004
                  108.60    346.06739                               19.72743             83.258                                        3.46067e+002           4.60674e+001           6.06739e+000           6.73852e-002           6.73852e-002           7.38523e-003           3.85232e-004
                  108.70    346.05483                               19.72743             83.258                                        3.46055e+002           4.60548e+001           6.05483e+000           5.48250e-002           5.48250e-002           4.82503e-003           8.25034e-004
                  108.80    345.86028                               19.73004             83.258                                        3.45860e+002           4.58603e+001           5.86028e+000           8.60283e-001           6.02833e-002           2.83309e-004           2.83309e-004
                  108.90    342.97052                               19.78520             83.258                                        3.42971e+002           4.29705e+001           2.97052e+000           9.70516e-001           7.05160e-002           5.16008e-004           5.16008e-004
                  109.00    337.04860                               19.94592             83.258                                        3.37049e+002           3.70486e+001           7.04860e+000           4.86042e-002           4.86042e-002           8.60424e-003           6.04242e-004
                  109.10    332.24501                               20.17277             83.258                                        3.32245e+002           3.22450e+001           2.24501e+000           2.45008e-001           4.50085e-002           5.00845e-003           8.45417e-006
                  109.20    330.80858                               20.39774             83.258                                        3.30809e+002           3.08086e+001           8.08585e-001           8.08585e-001           8.58473e-003           8.58473e-003           5.84729e-004
                  109.30    330.27895                               20.62247             83.258                                        3.30279e+002           3.02790e+001           2.78951e-001           2.78951e-001           7.89506e-002           8.95064e-003           9.50635e-004
                  109.40    329.87110                               20.85280             83.258                                        3.29871e+002           2.98711e+001           9.87110e+000           8.71099e-001           7.10992e-002           1.09923e-003           9.92301e-005
                  109.50    329.51118                               21.08866             83.258                                        3.29511e+002           2.95112e+001           9.51118e+000           5.11183e-001           1.11828e-002           1.18275e-003           1.82751e-004
                  109.60    329.18110                               21.32986             83.258                                        3.29181e+002           2.91811e+001           9.18110e+000           1.81098e-001           8.10977e-002           1.09771e-003           9.77087e-005
                  109.70    328.87654                               21.57596             83.258                                        3.28877e+002           2.88765e+001           8.87654e+000           8.76538e-001           7.65382e-002           6.53821e-003           5.38212e-004
                  109.80    328.60709                               21.82649             83.258                                        3.28607e+002           2.86071e+001           8.60709e+000           6.07094e-001           7.09424e-003           7.09424e-003           9.42376e-005
                  109.90    328.36948                               22.08127             83.258                                        3.28369e+002           2.83695e+001           8.36948e+000           3.69476e-001           6.94764e-002           9.47638e-003           4.76379e-004
                  110.00    328.14463                               22.33975             83.258                                        3.28145e+002           2.81446e+001           8.14463e+000           1.44633e-001           4.46328e-002           4.63279e-003           6.32788e-004
                  110.10    327.93493                               22.60132             83.258                                        3.27935e+002           2.79349e+001           7.93493e+000           9.34929e-001           3.49287e-002           4.92867e-003           9.28672e-004
                  110.20    327.76131                               22.86581             83.258                                        3.27761e+002           2.77613e+001           7.76131e+000           7.61310e-001           6.13102e-002           1.31021e-003           3.10214e-004
                  110.30    327.61958                               23.13356             83.258                                        3.27620e+002           2.76196e+001           7.61958e+000           6.19576e-001           1.95756e-002           9.57562e-003           5.75618e-004
                  110.40    327.49369                               23.40471             83.258                                        3.27494e+002           2.74937e+001           7.49369e+000           4.93687e-001           9.36872e-002           3.68722e-003           6.87223e-004
                  110.50    327.37875                               23.67890             83.258                                        3.27379e+002           2.73788e+001           7.37875e+000           3.78750e-001           7.87501e-002           8.75011e-003           7.50106e-004
                  110.60    327.27632                               23.95584             83.255                                        3.27276e+002           2.72763e+001           7.27632e+000           2.76321e-001           7.63211e-002           6.32114e-003           3.21142e-004
                  110.70    327.16986                               24.23546             83.252                                        3.27170e+002           2.71699e+001           7.16986e+000           1.69857e-001           6.98575e-002           9.85750e-003           8.57496e-004
                  110.80    327.06970                               24.51728             83.250                                        3.27070e+002           2.70697e+001           7.06970e+000           6.97027e-002           6.97027e-002           9.70270e-003           7.02699e-004
                  110.90    326.98047                               24.80088             83.250                                        3.26980e+002           2.69805e+001           6.98047e+000           9.80475e-001           8.04747e-002           4.74740e-004           4.74740e-004
                  111.00    326.89665                               25.08625             83.250                                        3.26897e+002           2.68967e+001           6.89665e+000           8.96654e-001           9.66543e-002           6.65429e-003           6.54295e-004
                  111.10    326.82350                               25.37333             83.250                                        3.26824e+002           2.68235e+001           6.82350e+000           8.23501e-001           2.35005e-002           3.50052e-003           5.00521e-004
                  111.20    326.75315                               25.66205             83.250                                        3.26753e+002           2.67531e+001           6.75315e+000           7.53147e-001           5.31472e-002           3.14721e-003           1.47208e-004
