~VERSION INFORMATION
VERS                    .            2.0                                    :CWLS LOG ASCII STANDARD
WRAP                    .            NO                                     :ONE LINE PER TIME STEP


~WELL INFORMATION
#MNEM                   .UNIT        DATA                                    DESCRIPTION
#________________________________________________________________________________________
STRTTIME                .HH/MM/SS    23:39:21                               :START TIME
STOPTIME                .HH/MM/SS    23:43:19                               :STOP TIME
STRT                    .s           2.10                                   :START DATA
STOP                    .s           236.60                                 :STOP DATA
STEP                    .s           0.10                                   :MEASUREMENT TIME INTERVAL
NULL                    .            -999.25                                :NULL VALUE
COMP                    .            Statoil                                :COMPANY
FLD                     .            Volve                                  :FIELD
WELL                    .            15/9-F-11 T2                           :WELL
RUN                     .            7                                      :RUN
LOC                     .            Maersk Inspirer                        :LOCATION
PROV                    .            na                                     :PROVINCE
SRVC                    .            Baker Hughes INTEQ                     :SERVICE COMPANY
DATE                    .YY/MM/DD    13/05/04                               :LOG DATE
UWI                     .                                                   :UNIQUE WELL ID
DEPTHMD                 .m           4417.0                                 :MEASURED DEPTH
DEPTHTVD                .m           3257.6                                 :TRUE VERTICAL DEPTH


~CURVE INFORMATION
#MNEM                   .UNIT        API CODES                               DESCRIPTION
#________________________________________________________________________________________
TIME                    .s                                                  :01 TIME
DD_PRESS                .bar                                                :02 DRAW DOWN PRESSURE
DD_VOLUME               .cm3                                                :03 INCREMENTAL DRAW DOWN VOLUME
TEMP                    .degC                                               :04 TRANSDUCER TEMPERATURE
DD_PRESS_MOD_1000       .bar                                                :05 DRAW DOWN PRESSURE MOD 1000
DD_PRESS_MOD_100        .bar                                                :06 DRAW DOWN PRESSURE MOD 100
DD_PRESS_MOD_10         .bar                                                :07 DRAW DOWN PRESSURE MOD 10
DD_PRESS_MOD_1          .bar                                                :08 DRAW DOWN PRESSURE MOD 1
DD_PRESS_MOD_01         .bar                                                :09 DRAW DOWN PRESSURE MOD 01
DD_PRESS_MOD_001        .bar                                                :10 DRAW DOWN PRESSURE MOD 001
DD_PRESS_MOD_0001       .bar                                                :11 DRAW DOWN PRESSURE MOD 0001


~PARAMETER INFORMATION
#MNEM                   .UNIT        VALUE                                   DESCRIPTION
#________________________________________________________________________________________
TOOLFACE                .deg         na                                     :01 TOOLFACE
PUMP_CAPACITY           .bar         400                                    :02 NOMINAL DRAW DOWN PUMP CAPACITY
PUMP_LIMIT              .bar         240                                    :03 DOWNLINK PUMP LIMIT
TIME_LIMIT              .min         10                                     :04 DOWNLINK MAX TIME
TEST_TYPE               .            REPEAT                                 :05 DOWNLINK
TEST_TYPE               .            HIGH MOBILITY                          :06 DOWNLINK
DD_PIST_A               .cm2         3.1416                                 :07 DRAW DOWN PISTON AREA
V_SYS                   .cm3         131.0000                               :08 SYSTEM VOLUME
PROBE_ID                .cm          1.2700                                 :09 TTK PROBE ID
G0                      .            4.6700                                 :10 GEOMETRY FACTOR


~A                  TIME     DD_PRESS                              DD_VOLUME               TEMP                                   DD_PRESS_MOD_1000       DD_PRESS_MOD_100        DD_PRESS_MOD_10         DD_PRESS_MOD_1        DD_PRESS_MOD_01       DD_PRESS_MOD_001      DD_PRESS_MOD_0001
# ...
                  217.70    361.43168                                0.00000             96.000                                        3.61432e+002           6.14317e+001           1.43168e+000           4.31677e-001           3.16771e-002           1.67705e-003           6.77054e-004
                  217.80    363.36371                                0.00000             96.000                                        3.63364e+002           6.33637e+001           3.36371e+000           3.63710e-001           6.37103e-002           3.71028e-003           7.10276e-004
                  217.90    366.31087                                0.00000             96.000                                        3.66311e+002           6.63109e+001           6.31087e+000           3.10875e-001           1.08749e-002           8.74861e-004           8.74861e-004
                  218.00    368.71229                                0.00000             96.000                                        3.68712e+002           6.87123e+001           8.71229e+000           7.12292e-001           1.22918e-002           2.29177e-003           2.91765e-004
                  218.10    370.55443                                0.00000             96.000                                        3.70554e+002           7.05544e+001           5.54435e-001           5.54435e-001           5.44345e-002           4.43454e-003           4.34537e-004
                  218.20    372.74601                                0.00000             96.000                                        3.72746e+002           7.27460e+001           2.74601e+000           7.46014e-001           4.60143e-002           6.01427e-003           1.42736e-005
                  218.30    375.73066                                0.00000             96.000                                        3.75731e+002           7.57307e+001           5.73066e+000           7.30659e-001           3.06587e-002           6.58658e-004           6.58658e-004
                  218.40    379.02375                                0.00000             96.000                                        3.79024e+002           7.90237e+001           9.02375e+000           2.37469e-002           2.37469e-002           3.74689e-003           7.46889e-004
                  218.50    382.13008                                0.00000             96.000                                        3.82130e+002           8.21301e+001           2.13008e+000           1.30076e-001           3.00765e-002           7.64987e-005           7.64987e-005
                  218.60    385.74578                                0.00000             96.000                                        3.85746e+002           8.57458e+001           5.74578e+000           7.45775e-001           4.57752e-002           5.77524e-003           7.75235e-004
                  218.70    389.47513                                0.00000             96.000                                        3.89475e+002           8.94751e+001           9.47513e+000           4.75128e-001           7.51282e-002           5.12816e-003           1.28164e-004
                  218.80    393.19747                                0.00000             96.000                                        3.93197e+002           9.31975e+001           3.19747e+000           1.97471e-001           9.74714e-002           7.47142e-003           4.71421e-004
                  218.90    396.97135                                0.00000             96.000                                        3.96971e+002           9.69713e+001           6.97135e+000           9.71348e-001           7.13484e-002           1.34843e-003           3.48429e-004
                  219.00    400.71940                                0.00000             96.000                                        4.00719e+002           7.19397e-001           7.19397e-001           7.19397e-001           1.93965e-002           9.39654e-003           3.96543e-004
                  219.10    404.42105                                0.00000             96.000                                        4.04421e+002           4.42105e+000           4.42105e+000           4.21046e-001           2.10461e-002           1.04615e-003           4.61462e-005
                  219.20    408.05049                                0.00000             96.000                                        4.08050e+002           8.05049e+000           8.05049e+000           5.04869e-002           5.04869e-002           4.86936e-004           4.86936e-004
                  219.30    411.73446                                0.00000             96.000                                        4.11734e+002           1.17345e+001           1.73446e+000           7.34455e-001           3.44550e-002           4.45502e-003           4.55023e-004
                  219.40    415.67802                                0.00000             96.000                                        4.15678e+002           1.56780e+001           5.67802e+000           6.78018e-001           7.80180e-002           8.01803e-003           1.80314e-005
                  219.50    419.91568                                0.00000             96.000                                        4.19916e+002           1.99157e+001           9.91568e+000           9.15685e-001           1.56847e-002           5.68469e-003           6.84686e-004
                  219.60    424.00324                                0.00000             96.000                                        4.24003e+002           2.40032e+001           4.00324e+000           3.24005e-003           3.24005e-003           3.24005e-003           2.40047e-004
                  219.70    427.72197                                0.00000             96.000                                        4.27722e+002           2.77220e+001           7.72197e+000           7.21974e-001           2.19735e-002           1.97352e-003           9.73516e-004
                  219.80    431.30560                                0.00000             96.000                                        4.31306e+002           3.13056e+001           1.30560e+000           3.05598e-001           5.59790e-003           5.59790e-003           5.97903e-004
                  219.90    435.22855                                0.00000             96.000                                        4.35229e+002           3.52286e+001           5.22855e+000           2.28551e-001           2.85505e-002           8.55050e-003           5.50503e-004
                  220.00    439.49916                                0.00000             96.000                                        4.39499e+002           3.94992e+001           9.49916e+000           4.99161e-001           9.91613e-002           9.16126e-003           1.61255e-004
                  220.10    444.41251                                0.00000             96.002                                        4.44413e+002           4.44125e+001           4.41251e+000           4.12506e-001           1.25057e-002           2.50572e-003           5.05716e-004
                  220.20    451.17606                                0.00000             96.006                                        4.51176e+002           5.11761e+001           1.17606e+000           1.76056e-001           7.60563e-002           6.05630e-003           5.62979e-005
                  220.30    456.48999                                0.00000             96.008                                        4.56490e+002           5.64900e+001           6.48999e+000           4.89994e-001           8.99937e-002           9.99375e-003           9.93750e-004
                  220.40    457.76778                                0.00000             96.008                                        4.57768e+002           5.77678e+001           7.76778e+000           7.67776e-001           6.77758e-002           7.77579e-003           7.75791e-004
