~VERSION INFORMATION
VERS                    .            2.0                                    :CWLS LOG ASCII STANDARD
WRAP                    .            NO                                     :ONE LINE PER TIME STEP


~WELL INFORMATION
#MNEM                   .UNIT        DATA                                    DESCRIPTION
#________________________________________________________________________________________
STRTTIME                .HH/MM/SS    16:02:11                               :START TIME
STOPTIME                .HH/MM/SS    16:05:47                               :STOP TIME
STRT                    .s           2.10                                   :START DATA
STOP                    .s           214.40                                 :STOP DATA
STEP                    .s           0.10                                   :MEASUREMENT TIME INTERVAL
NULL                    .            -999.25                                :NULL VALUE
COMP                    .            Statoil ASA                            :COMPANY
FLD                     .            Volve                                  :FIELD
WELL                    .            15/9-F-1 B                             :WELL
RUN                     .            7                                      :RUN
LOC                     .            Maersk Inspirer                        :LOCATION
PROV                    .            na                                     :PROVINCE
SRVC                    .            Baker Hughes INTEQ                     :SERVICE COMPANY
DATE                    .YY/MM/DD    13/09/06                               :LOG DATE
UWI                     .                                                   :UNIQUE WELL ID
DEPTHMD                 .m           3261.0                                 :MEASURED DEPTH
DEPTHTVD                .m           3057.0                                 :TRUE VERTICAL DEPTH


~CURVE INFORMATION
#MNEM                   .UNIT        API CODES                               DESCRIPTION
#________________________________________________________________________________________
TIME                    .s                                                  :01 TIME
DD_PRESS                .bar                                                :02 DRAW DOWN PRESSURE
DD_VOLUME               .cm3                                                :03 INCREMENTAL DRAW DOWN VOLUME
TEMP                    .degC                                               :04 TRANSDUCER TEMPERATURE
DD_PRESS_MOD_1000       .bar                                                :05 DRAW DOWN PRESSURE MOD 1000
DD_PRESS_MOD_100        .bar                                                :06 DRAW DOWN PRESSURE MOD 100
DD_PRESS_MOD_10         .bar                                                :07 DRAW DOWN PRESSURE MOD 10
DD_PRESS_MOD_1          .bar                                                :08 DRAW DOWN PRESSURE MOD 1
DD_PRESS_MOD_01         .bar                                                :09 DRAW DOWN PRESSURE MOD 01
DD_PRESS_MOD_001        .bar                                                :10 DRAW DOWN PRESSURE MOD 001
DD_PRESS_MOD_0001       .bar                                                :11 DRAW DOWN PRESSURE MOD 0001


~PARAMETER INFORMATION
#MNEM                   .UNIT        VALUE                                   DESCRIPTION
#________________________________________________________________________________________
TOOLFACE                .deg         na                                     :01 TOOLFACE
PUMP_CAPACITY           .bar         400                                    :02 NOMINAL DRAW DOWN PUMP CAPACITY
PUMP_LIMIT              .bar         400                                    :03 DOWNLINK PUMP LIMIT
TIME_LIMIT              .min         10                                     :04 DOWNLINK MAX TIME
TEST_TYPE               .            LOW MOBILITY                           :05 DOWNLINK
DD_PIST_A               .cm2         3.1416                                 :06 DRAW DOWN PISTON AREA
V_SYS                   .cm3         131.0000                               :07 SYSTEM VOLUME
PROBE_ID                .cm          1.2700                                 :08 TTK PROBE ID
G0                      .            4.6700                                 :09 GEOMETRY FACTOR


~A                  TIME     DD_PRESS                              DD_VOLUME               TEMP                                   DD_PRESS_MOD_1000       DD_PRESS_MOD_100        DD_PRESS_MOD_10         DD_PRESS_MOD_1        DD_PRESS_MOD_01       DD_PRESS_MOD_001      DD_PRESS_MOD_0001
# ...
                  142.10    345.31721                               19.93736             82.047                                        3.45317e+002           4.53172e+001           5.31721e+000           3.17205e-001           1.72051e-002           7.20505e-003           2.05051e-004
                  142.20    345.24569                               19.94240             82.047                                        3.45246e+002           4.52457e+001           5.24569e+000           2.45686e-001           4.56858e-002           5.68583e-003           6.85827e-004
                  142.30    345.15570                               19.94858             82.047                                        3.45156e+002           4.51557e+001           5.15570e+000           1.55695e-001           5.56951e-002           5.69512e-003           6.95116e-004
                  142.40    345.06232                               19.95586             82.047                                        3.45062e+002           4.50623e+001           5.06232e+000           6.23226e-002           6.23226e-002           2.32257e-003           3.22570e-004
                  142.50    344.97301                               19.96434             82.047                                        3.44973e+002           4.49730e+001           4.97301e+000           9.73008e-001           7.30080e-002           3.00795e-003           7.95067e-006
                  142.60    344.86830                               19.97451             82.047                                        3.44868e+002           4.48683e+001           4.86830e+000           8.68305e-001           6.83045e-002           8.30451e-003           3.04513e-004
                  142.70    344.75267                               19.98623             82.047                                        3.44753e+002           4.47527e+001           4.75267e+000           7.52670e-001           5.26700e-002           2.67004e-003           6.70044e-004
                  142.80    344.62877                               19.99953             82.047                                        3.44629e+002           4.46288e+001           4.62877e+000           6.28769e-001           2.87694e-002           8.76943e-003           7.69434e-004
                  142.90    344.49605                               20.01468             82.047                                        3.44496e+002           4.44960e+001           4.49605e+000           4.96048e-001           9.60479e-002           6.04789e-003           4.78914e-005
                  143.00    344.35388                               20.03173             82.047                                        3.44354e+002           4.43539e+001           4.35388e+000           3.53880e-001           5.38802e-002           3.88020e-003           8.80199e-004
                  143.10    344.20898                               20.05064             82.047                                        3.44209e+002           4.42090e+001           4.20898e+000           2.08981e-001           8.98146e-003           8.98146e-003           9.81463e-004
                  143.20    344.04863                               20.07165             82.047                                        3.44049e+002           4.40486e+001           4.04863e+000           4.86307e-002           4.86307e-002           8.63074e-003           6.30739e-004
                  143.30    343.89967                               20.09480             82.047                                        3.43900e+002           4.38997e+001           3.89967e+000           8.99666e-001           9.96655e-002           9.66550e-003           6.65505e-004
                  143.40    343.74669                               20.12026             82.047                                        3.43747e+002           4.37467e+001           3.74669e+000           7.46691e-001           4.66914e-002           6.69139e-003           6.91390e-004
                  143.50    343.56242                               20.14811             82.047                                        3.43562e+002           4.35624e+001           3.56242e+000           5.62422e-001           6.24217e-002           2.42172e-003           4.21718e-004
                  143.60    343.37478                               20.17845             82.047                                        3.43375e+002           4.33748e+001           3.37478e+000           3.74784e-001           7.47837e-002           4.78373e-003           7.83731e-004
                  143.70    343.19123                               20.21135             82.047                                        3.43191e+002           4.31912e+001           3.19123e+000           1.91225e-001           9.12254e-002           1.22544e-003           2.25442e-004
                  143.80    342.96639                               20.24704             82.047                                        3.42966e+002           4.29664e+001           2.96639e+000           9.66387e-001           6.63867e-002           6.38671e-003           3.86713e-004
                  143.90    342.72466                               20.28568             82.047                                        3.42725e+002           4.27247e+001           2.72466e+000           7.24657e-001           2.46569e-002           4.65687e-003           6.56874e-004
                  144.00    342.51469                               20.32726             82.047                                        3.42515e+002           4.25147e+001           2.51469e+000           5.14689e-001           1.46885e-002           4.68851e-003           6.88506e-004
                  144.10    342.32092                               20.37173             82.047                                        3.42321e+002           4.23209e+001           2.32092e+000           3.20916e-001           2.09160e-002           9.15984e-004           9.15984e-004
                  144.20    342.09160                               20.41966             82.047                                        3.42092e+002           4.20916e+001           2.09160e+000           9.15958e-002           9.15958e-002           1.59578e-003           5.95779e-004
                  144.30    341.85279                               20.47089             82.047                                        3.41853e+002           4.18528e+001           1.85279e+000           8.52790e-001           5.27896e-002           2.78961e-003           7.89612e-004
                  144.40    341.60922                               20.52526             82.047                                        3.41609e+002           4.16092e+001           1.60922e+000           6.09223e-001           9.22314e-003           9.22314e-003           2.23145e-004
                  144.50    341.36348                               20.58298             82.047                                        3.41363e+002           4.13635e+001           1.36348e+000           3.63477e-001           6.34774e-002           3.47739e-003           4.77389e-004
                  144.60    341.10500                               20.64414             82.047                                        3.41105e+002           4.11050e+001           1.10500e+000           1.05005e-001           5.00489e-003           5.00489e-003           4.88727e-006
                  144.70    340.84688                               20.70872             82.047                                        3.40847e+002           4.08469e+001           8.46884e-001           8.46884e-001           4.68840e-002           6.88404e-003           8.84042e-004
                  144.80    340.58218                               20.77700             82.047                                        3.40582e+002           4.05822e+001           5.82179e-001           5.82179e-001           8.21793e-002           2.17934e-003           1.79340e-004
