~VERSION INFORMATION
VERS                    .            2.0                                    :CWLS LOG ASCII STANDARD
WRAP                    .            NO                                     :ONE LINE PER TIME STEP


~WELL INFORMATION
#MNEM                   .UNIT        DATA                                    DESCRIPTION
#________________________________________________________________________________________
STRTTIME                .HH/MM/SS    18:24:11                               :START TIME
STOPTIME                .HH/MM/SS    18:26:54                               :STOP TIME
STRT                    .s           2.10                                   :START DATA
STOP                    .s           161.30                                 :STOP DATA
STEP                    .s           0.10                                   :MEASUREMENT TIME INTERVAL
NULL                    .            -999.25                                :NULL VALUE
COMP                    .            Statoil ASA                            :COMPANY
FLD                     .            Volve                                  :FIELD
WELL                    .            15/9-F-11 A                            :WELL
RUN                     .            8                                      :RUN
LOC                     .            Maersk Inspirer                        :LOCATION
PROV                    .            na                                     :PROVINCE
SRVC                    .            Baker Hughes INTEQ                     :SERVICE COMPANY
DATE                    .YY/MM/DD    13/05/23                               :LOG DATE
UWI                     .                                                   :UNIQUE WELL ID
DEPTHMD                 .m           3681.0                                 :MEASURED DEPTH
DEPTHTVD                .m           3064.4                                 :TRUE VERTICAL DEPTH


~CURVE INFORMATION
#MNEM                   .UNIT        API CODES                               DESCRIPTION
#________________________________________________________________________________________
TIME                    .s                                                  :01 TIME
DD_PRESS                .bar                                                :02 DRAW DOWN PRESSURE
DD_VOLUME               .cm3                                                :03 INCREMENTAL DRAW DOWN VOLUME
TEMP                    .degC                                               :04 TRANSDUCER TEMPERATURE
DD_PRESS_MOD_1000       .bar                                                :05 DRAW DOWN PRESSURE MOD 1000
DD_PRESS_MOD_100        .bar                                                :06 DRAW DOWN PRESSURE MOD 100
DD_PRESS_MOD_10         .bar                                                :07 DRAW DOWN PRESSURE MOD 10
DD_PRESS_MOD_1          .bar                                                :08 DRAW DOWN PRESSURE MOD 1
DD_PRESS_MOD_01         .bar                                                :09 DRAW DOWN PRESSURE MOD 01
DD_PRESS_MOD_001        .bar                                                :10 DRAW DOWN PRESSURE MOD 001
DD_PRESS_MOD_0001       .bar                                                :11 DRAW DOWN PRESSURE MOD 0001


~PARAMETER INFORMATION
#MNEM                   .UNIT        VALUE                                   DESCRIPTION
#________________________________________________________________________________________
TOOLFACE                .deg         -38.1                                  :01 TOOLFACE
PUMP_CAPACITY           .bar         400                                    :02 NOMINAL DRAW DOWN PUMP CAPACITY
PUMP_LIMIT              .bar         240                                    :03 DOWNLINK PUMP LIMIT
TIME_LIMIT              .min         10                                     :04 DOWNLINK MAX TIME
TEST_TYPE               .            HIGH MOBILITY                          :05 DOWNLINK
DD_PIST_A               .cm2         3.1416                                 :06 DRAW DOWN PISTON AREA
V_SYS                   .cm3         131.0000                               :07 SYSTEM VOLUME
PROBE_ID                .cm          1.2700                                 :08 TTK PROBE ID
G0                      .            4.6700                                 :09 GEOMETRY FACTOR


~A                  TIME     DD_PRESS                              DD_VOLUME               TEMP                                   DD_PRESS_MOD_1000       DD_PRESS_MOD_100        DD_PRESS_MOD_10         DD_PRESS_MOD_1        DD_PRESS_MOD_01       DD_PRESS_MOD_001      DD_PRESS_MOD_0001
# ...
                  105.70    345.16215                               19.81606             75.117                                        3.45162e+002           4.51622e+001           5.16215e+000           1.62153e-001           6.21532e-002           2.15320e-003           1.53201e-004
                  105.80    345.15933                               19.81606             75.117                                        3.45159e+002           4.51593e+001           5.15933e+000           1.59331e-001           5.93310e-002           9.33098e-003           3.30978e-004
                  105.90    345.15605                               19.81606             75.117                                        3.45156e+002           4.51560e+001           5.15605e+000           1.56046e-001           5.60463e-002           6.04630e-003           4.62979e-005
                  106.00    345.15532                               19.81606             75.117                                        3.45155e+002           4.51553e+001           5.15532e+000           1.55316e-001           5.53159e-002           5.31594e-003           3.15939e-004
                  106.10    345.15693                               19.81606             75.117                                        3.45157e+002           4.51569e+001           5.15693e+000           1.56930e-001           5.69301e-002           6.93012e-003           9.30118e-004
                  106.20    345.15781                               19.81606             75.117                                        3.45158e+002           4.51578e+001           5.15781e+000           1.57812e-001           5.78116e-002           7.81162e-003           8.11622e-004
                  106.30    345.15730                               19.81606             75.117                                        3.45157e+002           4.51573e+001           5.15730e+000           1.57302e-001           5.73017e-002           7.30172e-003           3.01722e-004
                  106.40    345.15422                               19.81606             75.117                                        3.45154e+002           4.51542e+001           5.15422e+000           1.54224e-001           5.42238e-002           4.22385e-003           2.23845e-004
                  106.50    345.15238                               19.81606             75.117                                        3.45152e+002           4.51524e+001           5.15238e+000           1.52381e-001           5.23805e-002           2.38053e-003           3.80531e-004
                  106.60    345.15908                               19.81606             75.117                                        3.45159e+002           4.51591e+001           5.15908e+000           1.59082e-001           5.90819e-002           9.08191e-003           8.19070e-005
                  106.70    345.16108                               19.81606             75.117                                        3.45161e+002           4.51611e+001           5.16108e+000           1.61077e-001           6.10770e-002           1.07700e-003           7.70046e-005
                  106.80    345.15333                               19.81606             75.117                                        3.45153e+002           4.51533e+001           5.15333e+000           1.53327e-001           5.33266e-002           3.32663e-003           3.26630e-004
                  106.90    345.14859                               19.81606             75.117                                        3.45149e+002           4.51486e+001           5.14859e+000           1.48585e-001           4.85853e-002           8.58531e-003           5.85307e-004
                  107.00    345.15279                               19.81606             75.117                                        3.45153e+002           4.51528e+001           5.15279e+000           1.52789e-001           5.27894e-002           2.78941e-003           7.89414e-004
                  107.10    345.15771                               19.81606             75.117                                        3.45158e+002           4.51577e+001           5.15771e+000           1.57709e-001           5.77087e-002           7.70875e-003           7.08750e-004
                  107.20    345.15893                               19.81606             75.117                                        3.45159e+002           4.51589e+001           5.15893e+000           1.58935e-001           5.89347e-002           8.93474e-003           9.34743e-004
                  107.30    345.15479                               19.81606             75.117                                        3.45155e+002           4.51548e+001           5.15479e+000           1.54789e-001           5.47887e-002           4.78868e-003           7.88677e-004
                  107.40    345.15166                               19.81606             75.117                                        3.45152e+002           4.51517e+001           5.15166e+000           1.51660e-001           5.16601e-002           1.66007e-003           6.60074e-004
                  107.50    345.15541                               19.81606             75.117                                        3.45155e+002           4.51554e+001           5.15541e+000           1.55414e-001           5.54138e-002           5.41381e-003           4.13815e-004
                  107.60    345.15791                               19.81606             75.117                                        3.45158e+002           4.51579e+001           5.15791e+000           1.57911e-001           5.79112e-002           7.91119e-003           9.11192e-004
                  107.70    345.16091                               19.81606             75.117                                        3.45161e+002           4.51609e+001           5.16091e+000           1.60914e-001           6.09142e-002           9.14163e-004           9.14163e-004
                  107.80    345.16510                               19.81606             75.117                                        3.45165e+002           4.51651e+001           5.16510e+000           1.65099e-001           6.50994e-002           5.09938e-003           9.93800e-005
                  107.90    345.15994                               19.81606             75.117                                        3.45160e+002           4.51599e+001           5.15994e+000           1.59937e-001           5.99366e-002           9.93660e-003           9.36603e-004
                  108.00    345.15251                               19.81606             75.117                                        3.45153e+002           4.51525e+001           5.15251e+000           1.52514e-001           5.25141e-002           2.51406e-003           5.14064e-004
                  108.10    345.15182                               19.81606             75.117                                        3.45152e+002           4.51518e+001           5.15182e+000           1.51816e-001           5.18163e-002           1.81632e-003           8.16315e-004
                  108.20    345.03675                               19.81841             75.117                                        3.45037e+002           4.50368e+001           5.03675e+000           3.67516e-002           3.67516e-002           6.75158e-003           7.51584e-004
                  108.30    343.49152                               19.87129             75.117                                        3.43492e+002           4.34915e+001           3.49152e+000           4.91518e-001           9.15176e-002           1.51762e-003           5.17618e-004
                  108.40    340.66549                               20.04055             75.117                                        3.40665e+002           4.06655e+001           6.65493e-001           6.65493e-001           6.54929e-002           5.49285e-003           4.92852e-004
