~VERSION INFORMATION
VERS                    .            2.0                                    :CWLS LOG ASCII STANDARD
WRAP                    .            NO                                     :ONE LINE PER TIME STEP


~WELL INFORMATION
#MNEM                   .UNIT        DATA                                    DESCRIPTION
#________________________________________________________________________________________
STRTTIME                .HH/MM/SS    08:08:34                               :START TIME
STOPTIME                .HH/MM/SS    08:11:25                               :STOP TIME
STRT                    .s           2.10                                   :START DATA
STOP                    .s           169.10                                 :STOP DATA
STEP                    .s           0.10                                   :MEASUREMENT TIME INTERVAL
NULL                    .            -999.25                                :NULL VALUE
COMP                    .            Statoil ASA                            :COMPANY
FLD                     .            Volve                                  :FIELD
WELL                    .            15/9-F-11 A                            :WELL
RUN                     .            8                                      :RUN
LOC                     .            Maersk Inspirer                        :LOCATION
PROV                    .            na                                     :PROVINCE
SRVC                    .            Baker Hughes INTEQ                     :SERVICE COMPANY
DATE                    .YY/MM/DD    13/05/21                               :LOG DATE
UWI                     .                                                   :UNIQUE WELL ID
DEPTHMD                 .m           3694.5                                 :MEASURED DEPTH
DEPTHTVD                .m           3074.7                                 :TRUE VERTICAL DEPTH


~CURVE INFORMATION
#MNEM                   .UNIT        API CODES                               DESCRIPTION
#________________________________________________________________________________________
TIME                    .s                                                  :01 TIME
DD_PRESS                .bar                                                :02 DRAW DOWN PRESSURE
DD_VOLUME               .cm3                                                :03 INCREMENTAL DRAW DOWN VOLUME
TEMP                    .degC                                               :04 TRANSDUCER TEMPERATURE
DD_PRESS_MOD_1000       .bar                                                :05 DRAW DOWN PRESSURE MOD 1000
DD_PRESS_MOD_100        .bar                                                :06 DRAW DOWN PRESSURE MOD 100
DD_PRESS_MOD_10         .bar                                                :07 DRAW DOWN PRESSURE MOD 10
DD_PRESS_MOD_1          .bar                                                :08 DRAW DOWN PRESSURE MOD 1
DD_PRESS_MOD_01         .bar                                                :09 DRAW DOWN PRESSURE MOD 01
DD_PRESS_MOD_001        .bar                                                :10 DRAW DOWN PRESSURE MOD 001
DD_PRESS_MOD_0001       .bar                                                :11 DRAW DOWN PRESSURE MOD 0001


~PARAMETER INFORMATION
#MNEM                   .UNIT        VALUE                                   DESCRIPTION
#________________________________________________________________________________________
TOOLFACE                .deg         -107.9                                 :01 TOOLFACE
PUMP_CAPACITY           .bar         400                                    :02 NOMINAL DRAW DOWN PUMP CAPACITY
PUMP_LIMIT              .bar         240                                    :03 DOWNLINK PUMP LIMIT
TIME_LIMIT              .min         10                                     :04 DOWNLINK MAX TIME
TEST_TYPE               .            HIGH MOBILITY                          :05 DOWNLINK
DD_PIST_A               .cm2         3.1416                                 :06 DRAW DOWN PISTON AREA
V_SYS                   .cm3         131.0000                               :07 SYSTEM VOLUME
PROBE_ID                .cm          1.2700                                 :08 TTK PROBE ID
G0                      .            4.6700                                 :09 GEOMETRY FACTOR


~A                  TIME     DD_PRESS                              DD_VOLUME               TEMP                                   DD_PRESS_MOD_1000       DD_PRESS_MOD_100        DD_PRESS_MOD_10         DD_PRESS_MOD_1        DD_PRESS_MOD_01       DD_PRESS_MOD_001      DD_PRESS_MOD_0001
# ...
                   58.10    346.42384                               10.52664             84.875                                        3.46424e+002           4.64238e+001           6.42384e+000           4.23835e-001           2.38350e-002           3.83500e-003           8.35001e-004
                   58.20    346.42201                               10.52664             84.875                                        3.46422e+002           4.64220e+001           6.42201e+000           4.22012e-001           2.20122e-002           2.01223e-003           1.22324e-005
                   58.30    346.41498                               10.52664             84.875                                        3.46415e+002           4.64150e+001           6.41498e+000           4.14983e-001           1.49827e-002           4.98271e-003           9.82715e-004
                   58.40    346.41400                               10.52664             84.875                                        3.46414e+002           4.64140e+001           6.41400e+000           4.14005e-001           1.40046e-002           4.00462e-003           4.62479e-006
                   58.50    346.42005                               10.52664             84.875                                        3.46420e+002           4.64200e+001           6.42005e+000           4.20049e-001           2.00486e-002           4.85857e-005           4.85857e-005
                   58.60    346.41465                               10.52664             84.875                                        3.46415e+002           4.64147e+001           6.41465e+000           4.14652e-001           1.46517e-002           4.65172e-003           6.51718e-004
                   58.70    346.40786                               10.52664             84.875                                        3.46408e+002           4.64079e+001           6.40786e+000           4.07858e-001           7.85811e-003           7.85811e-003           8.58111e-004
                   58.80    346.41110                               10.52664             84.875                                        3.46411e+002           4.64111e+001           6.41110e+000           4.11101e-001           1.11014e-002           1.10140e-003           1.01396e-004
                   58.90    346.42008                               10.52664             84.875                                        3.46420e+002           4.64201e+001           6.42008e+000           4.20080e-001           2.00795e-002           7.95275e-005           7.95275e-005
                   59.00    346.41931                               10.52664             84.875                                        3.46419e+002           4.64193e+001           6.41931e+000           4.19310e-001           1.93097e-002           9.30973e-003           3.09730e-004
                   59.10    346.41052                               10.52664             84.875                                        3.46411e+002           4.64105e+001           6.41052e+000           4.10519e-001           1.05191e-002           5.19122e-004           5.19122e-004
                   59.20    346.41074                               10.52664             84.875                                        3.46411e+002           4.64107e+001           6.41074e+000           4.10736e-001           1.07363e-002           7.36338e-004           7.36338e-004
                   59.30    346.41931                               10.52664             84.875                                        3.46419e+002           4.64193e+001           6.41931e+000           4.19311e-001           1.93109e-002           9.31087e-003           3.10868e-004
                   59.40    346.42265                               10.52664             84.875                                        3.46423e+002           4.64227e+001           6.42265e+000           4.22653e-001           2.26529e-002           2.65293e-003           6.52931e-004
                   59.50    346.41730                               10.52664             84.875                                        3.46417e+002           4.64173e+001           6.41730e+000           4.17296e-001           1.72963e-002           7.29632e-003           2.96318e-004
                   59.60    346.41542                               10.52664             84.875                                        3.46415e+002           4.64154e+001           6.41542e+000           4.15415e-001           1.54153e-002           5.41528e-003           4.15276e-004
                   59.70    346.41693                               10.52664             84.875                                        3.46417e+002           4.64169e+001           6.41693e+000           4.16934e-001           1.69341e-002           6.93412e-003           9.34119e-004
                   59.80    346.41707                               10.52664             84.875                                        3.46417e+002           4.64171e+001           6.41707e+000           4.17069e-001           1.70690e-002           7.06901e-003           6.90109e-005
                   59.90    346.41819                               10.52664             84.875                                        3.46418e+002           4.64182e+001           6.41819e+000           4.18193e-001           1.81927e-002           8.19272e-003           1.92718e-004
                   60.00    346.42012                               10.52664             84.875                                        3.46420e+002           4.64201e+001           6.42012e+000           4.20122e-001           2.01216e-002           1.21611e-004           1.21611e-004
                   60.10    346.41652                               10.52664             84.875                                        3.46417e+002           4.64165e+001           6.41652e+000           4.16520e-001           1.65202e-002           6.52025e-003           5.20246e-004
                   60.20    346.41418                               10.52664             84.875                                        3.46414e+002           4.64142e+001           6.41418e+000           4.14177e-001           1.41773e-002           4.17727e-003           1.77268e-004
                   60.30    346.41672                               10.52664             84.875                                        3.46417e+002           4.64167e+001           6.41672e+000           4.16719e-001           1.67194e-002           6.71938e-003           7.19375e-004
                   60.40    346.42501                               10.52664             84.875                                        3.46425e+002           4.64250e+001           6.42501e+000           4.25007e-001           2.50073e-002           5.00732e-003           7.31531e-006
                   60.50    346.42319                               10.52664             84.875                                        3.46423e+002           4.64232e+001           6.42319e+000           4.23187e-001           2.31874e-002           3.18742e-003           1.87422e-004
                   60.60    346.41126                               10.52664             84.875                                        3.46411e+002           4.64113e+001           6.41126e+000           4.11259e-001           1.12590e-002           1.25900e-003           2.59000e-004
                   60.70    346.40764                               10.52664             84.875                                        3.46408e+002           4.64076e+001           6.40764e+000           4.07638e-001           7.63847e-003           7.63847e-003           6.38475e-004
                   60.80    346.42054                               10.52664             84.875                                        3.46421e+002           4.64205e+001           6.42054e+000           4.20542e-001           2.05417e-002           5.41727e-004           5.41727e-004
