~VERSION INFORMATION
VERS                    .            2.0                                    :CWLS LOG ASCII STANDARD
WRAP                    .            NO                                     :ONE LINE PER TIME STEP


~WELL INFORMATION
#MNEM                   .UNIT        DATA                                    DESCRIPTION
#________________________________________________________________________________________
STRTTIME                .HH/MM/SS    15:44:09                               :START TIME
STOPTIME                .HH/MM/SS    15:46:59                               :STOP TIME
STRT                    .s           2.10                                   :START DATA
STOP                    .s           168.10                                 :STOP DATA
STEP                    .s           0.10                                   :MEASUREMENT TIME INTERVAL
NULL                    .            -999.25                                :NULL VALUE
COMP                    .            Statoil ASA                            :COMPANY
FLD                     .            Volve                                  :FIELD
WELL                    .            15/9-F-1 B                             :WELL
RUN                     .            7                                      :RUN
LOC                     .            Maersk Inspirer                        :LOCATION
PROV                    .            na                                     :PROVINCE
SRVC                    .            Baker Hughes INTEQ                     :SERVICE COMPANY
DATE                    .YY/MM/DD    13/09/06                               :LOG DATE
UWI                     .                                                   :UNIQUE WELL ID
DEPTHMD                 .m           3266.5                                 :MEASURED DEPTH
DEPTHTVD                .m           3062.4                                 :TRUE VERTICAL DEPTH


~CURVE INFORMATION
#MNEM                   .UNIT        API CODES                               DESCRIPTION
#________________________________________________________________________________________
TIME                    .s                                                  :01 TIME
DD_PRESS                .bar                                                :02 DRAW DOWN PRESSURE
DD_VOLUME               .cm3                                                :03 INCREMENTAL DRAW DOWN VOLUME
TEMP                    .degC                                               :04 TRANSDUCER TEMPERATURE
DD_PRESS_MOD_1000       .bar                                                :05 DRAW DOWN PRESSURE MOD 1000
DD_PRESS_MOD_100        .bar                                                :06 DRAW DOWN PRESSURE MOD 100
DD_PRESS_MOD_10         .bar                                                :07 DRAW DOWN PRESSURE MOD 10
DD_PRESS_MOD_1          .bar                                                :08 DRAW DOWN PRESSURE MOD 1
DD_PRESS_MOD_01         .bar                                                :09 DRAW DOWN PRESSURE MOD 01
DD_PRESS_MOD_001        .bar                                                :10 DRAW DOWN PRESSURE MOD 001
DD_PRESS_MOD_0001       .bar                                                :11 DRAW DOWN PRESSURE MOD 0001


~PARAMETER INFORMATION
#MNEM                   .UNIT        VALUE                                   DESCRIPTION
#________________________________________________________________________________________
TOOLFACE                .deg         na                                     :01 TOOLFACE
PUMP_CAPACITY           .bar         400                                    :02 NOMINAL DRAW DOWN PUMP CAPACITY
PUMP_LIMIT              .bar         400                                    :03 DOWNLINK PUMP LIMIT
TIME_LIMIT              .min         10                                     :04 DOWNLINK MAX TIME
TEST_TYPE               .            LOW MOBILITY                           :05 DOWNLINK
DD_PIST_A               .cm2         3.1416                                 :06 DRAW DOWN PISTON AREA
V_SYS                   .cm3         131.0000                               :07 SYSTEM VOLUME
PROBE_ID                .cm          1.2700                                 :08 TTK PROBE ID
G0                      .            4.6700                                 :09 GEOMETRY FACTOR


~A                  TIME     DD_PRESS                              DD_VOLUME               TEMP                                   DD_PRESS_MOD_1000       DD_PRESS_MOD_100        DD_PRESS_MOD_10         DD_PRESS_MOD_1        DD_PRESS_MOD_01       DD_PRESS_MOD_001      DD_PRESS_MOD_0001
# ...
                   88.90    346.52146                               19.87570             82.531                                        3.46521e+002           4.65215e+001           6.52146e+000           5.21464e-001           2.14639e-002           1.46389e-003           4.63895e-004
                   89.00    346.52152                               19.87570             82.531                                        3.46522e+002           4.65215e+001           6.52152e+000           5.21517e-001           2.15168e-002           1.51684e-003           5.16836e-004
                   89.10    346.52147                               19.87570             82.531                                        3.46521e+002           4.65215e+001           6.52147e+000           5.21471e-001           2.14706e-002           1.47055e-003           4.70550e-004
                   89.20    346.52139                               19.87570             82.531                                        3.46521e+002           4.65214e+001           6.52139e+000           5.21390e-001           2.13905e-002           1.39046e-003           3.90465e-004
                   89.30    346.52136                               19.87570             82.531                                        3.46521e+002           4.65214e+001           6.52136e+000           5.21356e-001           2.13564e-002           1.35640e-003           3.56398e-004
                   89.40    346.52139                               19.87570             82.531                                        3.46521e+002           4.65214e+001           6.52139e+000           5.21391e-001           2.13905e-002           1.39053e-003           3.90533e-004
                   89.50    346.52141                               19.87570             82.531                                        3.46521e+002           4.65214e+001           6.52141e+000           5.21408e-001           2.14079e-002           1.40788e-003           4.07879e-004
                   89.60    346.52144                               19.87570             82.531                                        3.46521e+002           4.65214e+001           6.52144e+000           5.21440e-001           2.14401e-002           1.44012e-003           4.40120e-004
                   89.70    346.52161                               19.87570             82.531                                        3.46522e+002           4.65216e+001           6.52161e+000           5.21608e-001           2.16076e-002           1.60765e-003           6.07649e-004
                   89.80    346.52163                               19.87570             82.531                                        3.46522e+002           4.65216e+001           6.52163e+000           5.21625e-001           2.16251e-002           1.62509e-003           6.25088e-004
                   89.90    346.52153                               19.87570             82.531                                        3.46522e+002           4.65215e+001           6.52153e+000           5.21525e-001           2.15252e-002           1.52519e-003           5.25185e-004
                   90.00    346.52159                               19.87570             82.531                                        3.46522e+002           4.65216e+001           6.52159e+000           5.21587e-001           2.15868e-002           1.58680e-003           5.86797e-004
                   90.10    346.52163                               19.87570             82.531                                        3.46522e+002           4.65216e+001           6.52163e+000           5.21627e-001           2.16266e-002           1.62659e-003           6.26587e-004
                   90.20    346.52164                               19.87570             82.531                                        3.46522e+002           4.65216e+001           6.52164e+000           5.21641e-001           2.16408e-002           1.64078e-003           6.40777e-004
                   90.30    346.52171                               19.87570             82.531                                        3.46522e+002           4.65217e+001           6.52171e+000           5.21710e-001           2.17102e-002           1.71020e-003           7.10198e-004
                   90.40    346.52158                               19.87570             82.531                                        3.46522e+002           4.65216e+001           6.52158e+000           5.21577e-001           2.15769e-002           1.57687e-003           5.76867e-004
                   90.50    346.52145                               19.87570             82.531                                        3.46521e+002           4.65214e+001           6.52145e+000           5.21450e-001           2.14500e-002           1.45000e-003           4.49997e-004
                   90.60    346.52156                               19.87570             82.531                                        3.46522e+002           4.65216e+001           6.52156e+000           5.21557e-001           2.15574e-002           1.55739e-003           5.57385e-004
                   90.70    346.52176                               19.87570             82.531                                        3.46522e+002           4.65218e+001           6.52176e+000           5.21758e-001           2.17582e-002           1.75824e-003           7.58239e-004
                   90.80    346.52177                               19.87570             82.531                                        3.46522e+002           4.65218e+001           6.52177e+000           5.21771e-001           2.17706e-002           1.77061e-003           7.70608e-004
                   90.90    346.52159                               19.87570             82.531                                        3.46522e+002           4.65216e+001           6.52159e+000           5.21590e-001           2.15901e-002           1.59010e-003           5.90097e-004
                   91.00    346.52151                               19.87570             82.531                                        3.46522e+002           4.65215e+001           6.52151e+000           5.21514e-001           2.15144e-002           1.51443e-003           5.14427e-004
                   91.10    346.52162                               19.87570             82.531                                        3.46522e+002           4.65216e+001           6.52162e+000           5.21618e-001           2.16181e-002           1.61808e-003           6.18081e-004
                   91.20    346.52170                               19.87570             82.531                                        3.46522e+002           4.65217e+001           6.52170e+000           5.21698e-001           2.16980e-002           1.69803e-003           6.98033e-004
                   91.30    346.52179                               19.87570             82.531                                        3.46522e+002           4.65218e+001           6.52179e+000           5.21793e-001           2.17929e-002           1.79288e-003           7.92878e-004
                   91.40    346.52174                               19.87570             82.531                                        3.46522e+002           4.65217e+001           6.52174e+000           5.21743e-001           2.17435e-002           1.74350e-003           7.43496e-004
                   91.50    346.52159                               19.87570             82.531                                        3.46522e+002           4.65216e+001           6.52159e+000           5.21591e-001           2.15910e-002           1.59096e-003           5.90960e-004
                   91.60    346.52151                               19.87570             82.531                                        3.46522e+002           4.65215e+001           6.52151e+000           5.21508e-001           2.15076e-002           1.50762e-003           5.07620e-004
