~VERSION INFORMATION
VERS                    .            2.0                                    :CWLS LOG ASCII STANDARD
WRAP                    .            NO                                     :ONE LINE PER TIME STEP


~WELL INFORMATION
#MNEM                   .UNIT        DATA                                    DESCRIPTION
#________________________________________________________________________________________
STRTTIME                .HH/MM/SS    03:09:23                               :START TIME
STOPTIME                .HH/MM/SS    03:12:09                               :STOP TIME
STRT                    .s           2.10                                   :START DATA
STOP                    .s           164.80                                 :STOP DATA
STEP                    .s           0.10                                   :MEASUREMENT TIME INTERVAL
NULL                    .            -999.25                                :NULL VALUE
COMP                    .            Statoil ASA                            :COMPANY
FLD                     .            Volve                                  :FIELD
WELL                    .            15/9-F-1 C                             :WELL
RUN                     .            4                                      :RUN
LOC                     .                                                   :LOCATION
PROV                    .            na                                     :PROVINCE
SRVC                    .            Baker Hughes INTEQ                     :SERVICE COMPANY
DATE                    .YY/MM/DD    14/03/15                               :LOG DATE
UWI                     .                                                   :UNIQUE WELL ID
DEPTHMD                 .m           3523.2                                 :MEASURED DEPTH
DEPTHTVD                .m           2986.7                                 :TRUE VERTICAL DEPTH


~CURVE INFORMATION
#MNEM                   .UNIT        API CODES                               DESCRIPTION
#________________________________________________________________________________________
TIME                    .s                                                  :01 TIME
DD_PRESS                .bar                                                :02 DRAW DOWN PRESSURE
DD_VOLUME               .cm3                                                :03 INCREMENTAL DRAW DOWN VOLUME
TEMP                    .degC                                               :04 TRANSDUCER TEMPERATURE
DD_PRESS_MOD_1000       .bar                                                :05 DRAW DOWN PRESSURE MOD 1000
DD_PRESS_MOD_100        .bar                                                :06 DRAW DOWN PRESSURE MOD 100
DD_PRESS_MOD_10         .bar                                                :07 DRAW DOWN PRESSURE MOD 10
DD_PRESS_MOD_1          .bar                                                :08 DRAW DOWN PRESSURE MOD 1
DD_PRESS_MOD_01         .bar                                                :09 DRAW DOWN PRESSURE MOD 01
DD_PRESS_MOD_001        .bar                                                :10 DRAW DOWN PRESSURE MOD 001
DD_PRESS_MOD_0001       .bar                                                :11 DRAW DOWN PRESSURE MOD 0001


~PARAMETER INFORMATION
#MNEM                   .UNIT        VALUE                                   DESCRIPTION
#________________________________________________________________________________________
TOOLFACE                .deg         104.9                                  :01 TOOLFACE
PUMP_CAPACITY           .bar         400                                    :02 NOMINAL DRAW DOWN PUMP CAPACITY
PUMP_LIMIT              .bar         240                                    :03 DOWNLINK PUMP LIMIT
TIME_LIMIT              .min         10                                     :04 DOWNLINK MAX TIME
TEST_TYPE               .            REPEAT                                 :05 DOWNLINK
TEST_TYPE               .            HIGH MOBILITY                          :06 DOWNLINK
DD_PIST_A               .cm2         3.1416                                 :07 DRAW DOWN PISTON AREA
V_SYS                   .cm3         131.0000                               :08 SYSTEM VOLUME
PROBE_ID                .cm          1.2700                                 :09 TTK PROBE ID
G0                      .            4.6700                                 :10 GEOMETRY FACTOR


~A                  TIME     DD_PRESS                              DD_VOLUME               TEMP                                   DD_PRESS_MOD_1000       DD_PRESS_MOD_100        DD_PRESS_MOD_10         DD_PRESS_MOD_1        DD_PRESS_MOD_01       DD_PRESS_MOD_001      DD_PRESS_MOD_0001
# ...
                  139.30    340.91314                                0.00000             84.477                                        3.40913e+002           4.09131e+001           9.13141e-001           9.13141e-001           1.31412e-002           3.14124e-003           1.41236e-004
                  139.40    341.19917                                0.00000             84.477                                        3.41199e+002           4.11992e+001           1.19917e+000           1.99174e-001           9.91737e-002           9.17371e-003           1.73708e-004
                  139.50    343.52170                                0.00000             84.477                                        3.43522e+002           4.35217e+001           3.52170e+000           5.21702e-001           2.17015e-002           1.70151e-003           7.01513e-004
                  139.60    348.62760                                0.00000             84.474                                        3.48628e+002           4.86276e+001           8.62760e+000           6.27601e-001           2.76011e-002           7.60111e-003           6.01109e-004
                  139.70    355.34050                                0.00000             84.471                                        3.55341e+002           5.53405e+001           5.34050e+000           3.40500e-001           4.05005e-002           5.00455e-004           5.00455e-004
                  139.80    362.76245                                0.00000             84.469                                        3.62762e+002           6.27625e+001           2.76245e+000           7.62452e-001           6.24518e-002           2.45178e-003           4.51784e-004
                  139.90    370.52576                                0.00000             84.469                                        3.70526e+002           7.05258e+001           5.25761e-001           5.25761e-001           2.57610e-002           5.76100e-003           7.61002e-004
                  140.00    378.39784                                0.00000             84.469                                        3.78398e+002           7.83978e+001           8.39784e+000           3.97844e-001           9.78441e-002           7.84406e-003           8.44057e-004
                  140.10    386.02575                                0.00000             84.469                                        3.86026e+002           8.60257e+001           6.02575e+000           2.57450e-002           2.57450e-002           5.74501e-003           7.45006e-004
                  140.20    393.17229                                0.00000             84.469                                        3.93172e+002           9.31723e+001           3.17229e+000           1.72291e-001           7.22907e-002           2.29073e-003           2.90729e-004
                  140.30    399.88600                                0.00000             84.469                                        3.99886e+002           9.98860e+001           9.88600e+000           8.86003e-001           8.60028e-002           6.00285e-003           2.84811e-006
                  140.40    406.09472                                0.00000             84.469                                        4.06095e+002           6.09472e+000           6.09472e+000           9.47161e-002           9.47161e-002           4.71613e-003           7.16126e-004
                  140.50    411.56743                                0.00000             84.469                                        4.11567e+002           1.15674e+001           1.56743e+000           5.67433e-001           6.74327e-002           7.43270e-003           4.32699e-004
                  140.60    416.16940                                0.00000             84.471                                        4.16169e+002           1.61694e+001           6.16940e+000           1.69396e-001           6.93960e-002           9.39596e-003           3.95962e-004
                  140.70    419.47489                                0.00000             84.475                                        4.19475e+002           1.94749e+001           9.47489e+000           4.74888e-001           7.48884e-002           4.88840e-003           8.88399e-004
                  140.80    421.98203                                0.00000             84.477                                        4.21982e+002           2.19820e+001           1.98203e+000           9.82030e-001           8.20298e-002           2.02981e-003           2.98080e-005
                  140.90    424.79767                                0.00000             84.477                                        4.24798e+002           2.47977e+001           4.79767e+000           7.97669e-001           9.76686e-002           7.66863e-003           6.68626e-004
                  141.00    427.52564                                0.00000             84.474                                        4.27526e+002           2.75256e+001           7.52564e+000           5.25637e-001           2.56370e-002           5.63704e-003           6.37036e-004
                  141.10    428.71224                                0.00000             84.473                                        4.28712e+002           2.87122e+001           8.71224e+000           7.12237e-001           1.22375e-002           2.23747e-003           2.37474e-004
                  141.20    428.45882                                0.00000             84.475                                        4.28459e+002           2.84588e+001           8.45882e+000           4.58825e-001           5.88249e-002           8.82490e-003           8.24904e-004
                  141.30    428.11728                                0.00000             84.477                                        4.28117e+002           2.81173e+001           8.11728e+000           1.17277e-001           1.72775e-002           7.27749e-003           2.77492e-004
                  141.40    428.19585                                0.00000             84.477                                        4.28196e+002           2.81959e+001           8.19585e+000           1.95852e-001           9.58525e-002           5.85247e-003           8.52466e-004
                  141.50    427.92724                                0.00000             84.477                                        4.27927e+002           2.79272e+001           7.92724e+000           9.27242e-001           2.72421e-002           7.24211e-003           2.42112e-004
                  141.60    427.24787                                0.00000             84.477                                        4.27248e+002           2.72479e+001           7.24787e+000           2.47869e-001           4.78691e-002           7.86913e-003           8.69132e-004
                  141.70    426.64700                                0.00000             84.477                                        4.26647e+002           2.66470e+001           6.64700e+000           6.46997e-001           4.69972e-002           6.99722e-003           9.97218e-004
                  141.80    426.03778                                0.00000             84.477                                        4.26038e+002           2.60378e+001           6.03778e+000           3.77809e-002           3.77809e-002           7.78089e-003           7.80895e-004
                  141.90    425.34851                                0.00000             84.477                                        4.25349e+002           2.53485e+001           5.34851e+000           3.48507e-001           4.85067e-002           8.50674e-003           5.06736e-004
                  142.00    424.66396                                0.00000             84.477                                        4.24664e+002           2.46640e+001           4.66396e+000           6.63963e-001           6.39630e-002           3.96296e-003           9.62962e-004
