~VERSION INFORMATION
VERS                    .            2.0                                    :CWLS LOG ASCII STANDARD
WRAP                    .            NO                                     :ONE LINE PER TIME STEP


~WELL INFORMATION
#MNEM                   .UNIT        DATA                                    DESCRIPTION
#________________________________________________________________________________________
STRTTIME                .HH/MM/SS    03:28:02                               :START TIME
STOPTIME                .HH/MM/SS    03:30:44                               :STOP TIME
STRT                    .s           2.10                                   :START DATA
STOP                    .s           160.80                                 :STOP DATA
STEP                    .s           0.10                                   :MEASUREMENT TIME INTERVAL
NULL                    .            -999.25                                :NULL VALUE
COMP                    .            Statoil ASA                            :COMPANY
FLD                     .            Volve                                  :FIELD
WELL                    .            15/9-F-1 C                             :WELL
RUN                     .            4                                      :RUN
LOC                     .                                                   :LOCATION
PROV                    .            na                                     :PROVINCE
SRVC                    .            Baker Hughes INTEQ                     :SERVICE COMPANY
DATE                    .YY/MM/DD    14/03/15                               :LOG DATE
UWI                     .                                                   :UNIQUE WELL ID
DEPTHMD                 .m           3493.0                                 :MEASURED DEPTH
DEPTHTVD                .m           2980.2                                 :TRUE VERTICAL DEPTH


~CURVE INFORMATION
#MNEM                   .UNIT        API CODES                               DESCRIPTION
#________________________________________________________________________________________
TIME                    .s                                                  :01 TIME
DD_PRESS                .bar                                                :02 DRAW DOWN PRESSURE
DD_VOLUME               .cm3                                                :03 INCREMENTAL DRAW DOWN VOLUME
TEMP                    .degC                                               :04 TRANSDUCER TEMPERATURE
DD_PRESS_MOD_1000       .bar                                                :05 DRAW DOWN PRESSURE MOD 1000
DD_PRESS_MOD_100        .bar                                                :06 DRAW DOWN PRESSURE MOD 100
DD_PRESS_MOD_10         .bar                                                :07 DRAW DOWN PRESSURE MOD 10
DD_PRESS_MOD_1          .bar                                                :08 DRAW DOWN PRESSURE MOD 1
DD_PRESS_MOD_01         .bar                                                :09 DRAW DOWN PRESSURE MOD 01
DD_PRESS_MOD_001        .bar                                                :10 DRAW DOWN PRESSURE MOD 001
DD_PRESS_MOD_0001       .bar                                                :11 DRAW DOWN PRESSURE MOD 0001


~PARAMETER INFORMATION
#MNEM                   .UNIT        VALUE                                   DESCRIPTION
#________________________________________________________________________________________
TOOLFACE                .deg         89.6                                   :01 TOOLFACE
PUMP_CAPACITY           .bar         400                                    :02 NOMINAL DRAW DOWN PUMP CAPACITY
PUMP_LIMIT              .bar         240                                    :03 DOWNLINK PUMP LIMIT
TIME_LIMIT              .min         10                                     :04 DOWNLINK MAX TIME
TEST_TYPE               .            REPEAT                                 :05 DOWNLINK
TEST_TYPE               .            HIGH MOBILITY                          :06 DOWNLINK
DD_PIST_A               .cm2         3.1416                                 :07 DRAW DOWN PISTON AREA
V_SYS                   .cm3         131.0000                               :08 SYSTEM VOLUME
PROBE_ID                .cm          1.2700                                 :09 TTK PROBE ID
G0                      .            4.6700                                 :10 GEOMETRY FACTOR


~A                  TIME     DD_PRESS                              DD_VOLUME               TEMP                                   DD_PRESS_MOD_1000       DD_PRESS_MOD_100        DD_PRESS_MOD_10         DD_PRESS_MOD_1        DD_PRESS_MOD_01       DD_PRESS_MOD_001      DD_PRESS_MOD_0001
# ...
                  128.10    340.45013                               29.43087             83.680                                        3.40450e+002           4.04501e+001           4.50129e-001           4.50129e-001           5.01291e-002           1.29055e-004           1.29055e-004
                  128.20    340.44712                               29.43087             83.680                                        3.40447e+002           4.04471e+001           4.47125e-001           4.47125e-001           4.71246e-002           7.12460e-003           1.24601e-004
                  128.30    340.44682                               29.43087             83.680                                        3.40447e+002           4.04468e+001           4.46821e-001           4.46821e-001           4.68209e-002           6.82092e-003           8.20918e-004
                  128.40    340.44883                               29.43087             83.680                                        3.40449e+002           4.04488e+001           4.48831e-001           4.48831e-001           4.88308e-002           8.83081e-003           8.30811e-004
                  128.50    340.44899                               29.43087             83.680                                        3.40449e+002           4.04490e+001           4.48987e-001           4.48987e-001           4.89872e-002           8.98723e-003           9.87226e-004
                  128.60    340.44920                               29.43087             83.680                                        3.40449e+002           4.04492e+001           4.49197e-001           4.49197e-001           4.91968e-002           9.19682e-003           1.96815e-004
                  128.70    340.45015                               29.43087             83.680                                        3.40450e+002           4.04502e+001           4.50151e-001           4.50151e-001           5.01511e-002           1.51115e-004           1.51115e-004
                  128.80    340.44909                               29.43087             83.680                                        3.40449e+002           4.04491e+001           4.49086e-001           4.49086e-001           4.90864e-002           9.08642e-003           8.64163e-005
                  128.90    340.44833                               29.43087             83.680                                        3.40448e+002           4.04483e+001           4.48326e-001           4.48326e-001           4.83260e-002           8.32602e-003           3.26024e-004
                  129.00    340.44942                               29.43087             83.680                                        3.40449e+002           4.04494e+001           4.49421e-001           4.49421e-001           4.94205e-002           9.42054e-003           4.20536e-004
                  129.10    340.45082                               29.43087             83.680                                        3.40451e+002           4.04508e+001           4.50823e-001           4.50823e-001           5.08226e-002           8.22608e-004           8.22608e-004
                  129.20    340.45055                               29.43087             83.680                                        3.40451e+002           4.04505e+001           4.50549e-001           4.50549e-001           5.05486e-002           5.48575e-004           5.48575e-004
                  129.30    340.45004                               29.43087             83.680                                        3.40450e+002           4.04500e+001           4.50035e-001           4.50035e-001           5.00351e-002           3.51298e-005           3.51298e-005
                  129.40    340.44870                               29.43087             83.680                                        3.40449e+002           4.04487e+001           4.48696e-001           4.48696e-001           4.86963e-002           8.69627e-003           6.96266e-004
                  129.50    340.44902                               29.43087             83.680                                        3.40449e+002           4.04490e+001           4.49015e-001           4.49015e-001           4.90151e-002           9.01509e-003           1.50902e-005
                  129.60    340.45066                               29.43087             83.680                                        3.40451e+002           4.04507e+001           4.50656e-001           4.50656e-001           5.06562e-002           6.56212e-004           6.56212e-004
                  129.70    340.44883                               29.43087             83.680                                        3.40449e+002           4.04488e+001           4.48830e-001           4.48830e-001           4.88297e-002           8.82973e-003           8.29728e-004
                  129.80    340.44780                               29.43087             83.680                                        3.40448e+002           4.04478e+001           4.47795e-001           4.47795e-001           4.77952e-002           7.79523e-003           7.95231e-004
                  129.90    340.44887                               29.43087             83.680                                        3.40449e+002           4.04489e+001           4.48872e-001           4.48872e-001           4.88724e-002           8.87237e-003           8.72366e-004
                  130.00    340.45074                               29.43087             83.680                                        3.40451e+002           4.04507e+001           4.50740e-001           4.50740e-001           5.07396e-002           7.39591e-004           7.39591e-004
                  130.10    340.44843                               29.43087             83.680                                        3.40448e+002           4.04484e+001           4.48435e-001           4.48435e-001           4.84349e-002           8.43488e-003           4.34885e-004
                  130.20    340.44592                               29.43087             83.680                                        3.40446e+002           4.04459e+001           4.45922e-001           4.45922e-001           4.59224e-002           5.92236e-003           9.22362e-004
                  130.30    340.44750                               29.43087             83.680                                        3.40448e+002           4.04475e+001           4.47503e-001           4.47503e-001           4.75031e-002           7.50309e-003           5.03089e-004
                  130.40    340.44764                               29.43087             83.680                                        3.40448e+002           4.04476e+001           4.47643e-001           4.47643e-001           4.76432e-002           7.64318e-003           6.43180e-004
                  130.50    340.44735                               29.43087             83.680                                        3.40447e+002           4.04474e+001           4.47354e-001           4.47354e-001           4.73543e-002           7.35432e-003           3.54321e-004
                  130.60    340.44873                               29.43087             83.680                                        3.40449e+002           4.04487e+001           4.48730e-001           4.48730e-001           4.87298e-002           8.72984e-003           7.29839e-004
                  130.70    340.45045                               29.43087             83.680                                        3.40450e+002           4.04505e+001           4.50452e-001           4.50452e-001           5.04524e-002           4.52392e-004           4.52392e-004
                  130.80    340.45052                               29.43087             83.680                                        3.40451e+002           4.04505e+001           4.50521e-001           4.50521e-001           5.05211e-002           5.21051e-004           5.21051e-004
