~VERSION INFORMATION
VERS                    .            2.0                                    :CWLS LOG ASCII STANDARD
WRAP                    .            NO                                     :ONE LINE PER TIME STEP


~WELL INFORMATION
#MNEM                   .UNIT        DATA                                    DESCRIPTION
#________________________________________________________________________________________
STRTTIME                .HH/MM/SS    18:24:11                               :START TIME
STOPTIME                .HH/MM/SS    18:26:54                               :STOP TIME
STRT                    .s           2.10                                   :START DATA
STOP                    .s           161.30                                 :STOP DATA
STEP                    .s           0.10                                   :MEASUREMENT TIME INTERVAL
NULL                    .            -999.25                                :NULL VALUE
COMP                    .            Statoil ASA                            :COMPANY
FLD                     .            Volve                                  :FIELD
WELL                    .            15/9-F-11 A                            :WELL
RUN                     .            8                                      :RUN
LOC                     .            Maersk Inspirer                        :LOCATION
PROV                    .            na                                     :PROVINCE
SRVC                    .            Baker Hughes INTEQ                     :SERVICE COMPANY
DATE                    .YY/MM/DD    13/05/23                               :LOG DATE
UWI                     .                                                   :UNIQUE WELL ID
DEPTHMD                 .m           3681.0                                 :MEASURED DEPTH
DEPTHTVD                .m           3064.4                                 :TRUE VERTICAL DEPTH


~CURVE INFORMATION
#MNEM                   .UNIT        API CODES                               DESCRIPTION
#________________________________________________________________________________________
TIME                    .s                                                  :01 TIME
DD_PRESS                .bar                                                :02 DRAW DOWN PRESSURE
DD_VOLUME               .cm3                                                :03 INCREMENTAL DRAW DOWN VOLUME
TEMP                    .degC                                               :04 TRANSDUCER TEMPERATURE
DD_PRESS_MOD_1000       .bar                                                :05 DRAW DOWN PRESSURE MOD 1000
DD_PRESS_MOD_100        .bar                                                :06 DRAW DOWN PRESSURE MOD 100
DD_PRESS_MOD_10         .bar                                                :07 DRAW DOWN PRESSURE MOD 10
DD_PRESS_MOD_1          .bar                                                :08 DRAW DOWN PRESSURE MOD 1
DD_PRESS_MOD_01         .bar                                                :09 DRAW DOWN PRESSURE MOD 01
DD_PRESS_MOD_001        .bar                                                :10 DRAW DOWN PRESSURE MOD 001
DD_PRESS_MOD_0001       .bar                                                :11 DRAW DOWN PRESSURE MOD 0001


~PARAMETER INFORMATION
#MNEM                   .UNIT        VALUE                                   DESCRIPTION
#________________________________________________________________________________________
TOOLFACE                .deg         -38.1                                  :01 TOOLFACE
PUMP_CAPACITY           .bar         400                                    :02 NOMINAL DRAW DOWN PUMP CAPACITY
PUMP_LIMIT              .bar         240                                    :03 DOWNLINK PUMP LIMIT
TIME_LIMIT              .min         10                                     :04 DOWNLINK MAX TIME
TEST_TYPE               .            HIGH MOBILITY                          :05 DOWNLINK
DD_PIST_A               .cm2         3.1416                                 :06 DRAW DOWN PISTON AREA
V_SYS                   .cm3         131.0000                               :07 SYSTEM VOLUME
PROBE_ID                .cm          1.2700                                 :08 TTK PROBE ID
G0                      .            4.6700                                 :09 GEOMETRY FACTOR


~A                  TIME     DD_PRESS                              DD_VOLUME               TEMP                                   DD_PRESS_MOD_1000       DD_PRESS_MOD_100        DD_PRESS_MOD_10         DD_PRESS_MOD_1        DD_PRESS_MOD_01       DD_PRESS_MOD_001      DD_PRESS_MOD_0001
# ...
                   74.90    345.16002                               10.69783             75.172                                        3.45160e+002           4.51600e+001           5.16002e+000           1.60021e-001           6.00209e-002           2.09462e-005           2.09462e-005
                   75.00    345.16073                               10.69783             75.172                                        3.45161e+002           4.51607e+001           5.16073e+000           1.60727e-001           6.07271e-002           7.27097e-004           7.27097e-004
                   75.10    345.16422                               10.69783             75.172                                        3.45164e+002           4.51642e+001           5.16422e+000           1.64216e-001           6.42160e-002           4.21599e-003           2.15993e-004
                   75.20    345.16992                               10.69783             75.172                                        3.45170e+002           4.51699e+001           5.16992e+000           1.69924e-001           6.99237e-002           9.92366e-003           9.23663e-004
                   75.30    345.16779                               10.69783             75.172                                        3.45168e+002           4.51678e+001           5.16779e+000           1.67791e-001           6.77914e-002           7.79142e-003           7.91417e-004
                   75.40    345.16278                               10.69783             75.172                                        3.45163e+002           4.51628e+001           5.16278e+000           1.62782e-001           6.27820e-002           2.78202e-003           7.82021e-004
                   75.50    345.15952                               10.69783             75.172                                        3.45160e+002           4.51595e+001           5.15952e+000           1.59515e-001           5.95154e-002           9.51536e-003           5.15359e-004
                   75.60    345.15925                               10.69800             75.172                                        3.45159e+002           4.51593e+001           5.15925e+000           1.59251e-001           5.92512e-002           9.25115e-003           2.51155e-004
                   75.70    345.16285                               10.69857             75.172                                        3.45163e+002           4.51629e+001           5.16285e+000           1.62854e-001           6.28541e-002           2.85410e-003           8.54098e-004
                   75.80    345.16648                               10.69904             75.172                                        3.45166e+002           4.51665e+001           5.16648e+000           1.66478e-001           6.64783e-002           6.47832e-003           4.78320e-004
                   75.90    345.16630                               10.69906             75.172                                        3.45166e+002           4.51663e+001           5.16630e+000           1.66299e-001           6.62994e-002           6.29940e-003           2.99402e-004
                   76.00    345.15778                               10.69950             75.172                                        3.45158e+002           4.51578e+001           5.15778e+000           1.57778e-001           5.77784e-002           7.77840e-003           7.78399e-004
                   76.10    345.14174                               10.70066             75.172                                        3.45142e+002           4.51417e+001           5.14174e+000           1.41742e-001           4.17420e-002           1.74205e-003           7.42049e-004
                   76.20    345.11991                               10.70262             75.172                                        3.45120e+002           4.51199e+001           5.11991e+000           1.19914e-001           1.99140e-002           9.91397e-003           9.13973e-004
                   76.30    345.09042                               10.70549             75.170                                        3.45090e+002           4.50904e+001           5.09042e+000           9.04176e-002           9.04176e-002           4.17620e-004           4.17620e-004
                   76.40    345.05238                               10.70965             75.166                                        3.45052e+002           4.50524e+001           5.05238e+000           5.23783e-002           5.23783e-002           2.37832e-003           3.78320e-004
                   76.50    345.00172                               10.71531             75.164                                        3.45002e+002           4.50017e+001           5.00172e+000           1.71680e-003           1.71680e-003           1.71680e-003           7.16803e-004
                   76.60    344.95835                               10.72239             75.164                                        3.44958e+002           4.49583e+001           4.95835e+000           9.58347e-001           5.83472e-002           8.34722e-003           3.47224e-004
                   76.70    344.90942                               10.73113             75.166                                        3.44909e+002           4.49094e+001           4.90942e+000           9.09419e-001           9.41877e-003           9.41877e-003           4.18768e-004
                   76.80    344.84446                               10.74192             75.170                                        3.44844e+002           4.48445e+001           4.84446e+000           8.44462e-001           4.44623e-002           4.46227e-003           4.62275e-004
                   76.90    344.77086                               10.75498             75.172                                        3.44771e+002           4.47709e+001           4.77086e+000           7.70861e-001           7.08607e-002           8.60663e-004           8.60663e-004
                   77.00    344.68800                               10.77073             75.172                                        3.44688e+002           4.46880e+001           4.68800e+000           6.88004e-001           8.80035e-002           8.00354e-003           3.53621e-006
                   77.10    344.60478                               10.78950             75.170                                        3.44605e+002           4.46048e+001           4.60478e+000           6.04784e-001           4.78420e-003           4.78420e-003           7.84204e-004
                   77.20    344.51628                               10.81149             75.166                                        3.44516e+002           4.45163e+001           4.51628e+000           5.16282e-001           1.62823e-002           6.28228e-003           2.82278e-004
                   77.30    344.41916                               10.83674             75.164                                        3.44419e+002           4.44192e+001           4.41916e+000           4.19161e-001           1.91607e-002           9.16066e-003           1.60659e-004
                   77.40    344.31725                               10.86538             75.164                                        3.44317e+002           4.43173e+001           4.31725e+000           3.17255e-001           1.72548e-002           7.25482e-003           2.54816e-004
                   77.50    344.21261                               10.89797             75.164                                        3.44213e+002           4.42126e+001           4.21261e+000           2.12612e-001           1.26119e-002           2.61191e-003           6.11913e-004
                   77.60    344.09474                               10.93503             75.164                                        3.44095e+002           4.40947e+001           4.09474e+000           9.47360e-002           9.47360e-002           4.73598e-003           7.35980e-004
