~VERSION INFORMATION
VERS                    .            2.0                                    :CWLS LOG ASCII STANDARD
WRAP                    .            NO                                     :ONE LINE PER TIME STEP


~WELL INFORMATION
#MNEM                   .UNIT        DATA                                    DESCRIPTION
#________________________________________________________________________________________
STRTTIME                .HH/MM/SS    22:05:32                               :START TIME
STOPTIME                .HH/MM/SS    22:09:32                               :STOP TIME
STRT                    .s           2.10                                   :START DATA
STOP                    .s           238.90                                 :STOP DATA
STEP                    .s           0.10                                   :MEASUREMENT TIME INTERVAL
NULL                    .            -999.25                                :NULL VALUE
COMP                    .            Statoil                                :COMPANY
FLD                     .            Volve                                  :FIELD
WELL                    .            15/9-F-11 T2                           :WELL
RUN                     .            7                                      :RUN
LOC                     .            Maersk Inspirer                        :LOCATION
PROV                    .            na                                     :PROVINCE
SRVC                    .            Baker Hughes INTEQ                     :SERVICE COMPANY
DATE                    .YY/MM/DD    13/05/04                               :LOG DATE
UWI                     .                                                   :UNIQUE WELL ID
DEPTHMD                 .m           4490.1                                 :MEASURED DEPTH
DEPTHTVD                .m           3328.5                                 :TRUE VERTICAL DEPTH


~CURVE INFORMATION
#MNEM                   .UNIT        API CODES                               DESCRIPTION
#________________________________________________________________________________________
TIME                    .s                                                  :01 TIME
DD_PRESS                .bar                                                :02 DRAW DOWN PRESSURE
DD_VOLUME               .cm3                                                :03 INCREMENTAL DRAW DOWN VOLUME
TEMP                    .degC                                               :04 TRANSDUCER TEMPERATURE
DD_PRESS_MOD_1000       .bar                                                :05 DRAW DOWN PRESSURE MOD 1000
DD_PRESS_MOD_100        .bar                                                :06 DRAW DOWN PRESSURE MOD 100
DD_PRESS_MOD_10         .bar                                                :07 DRAW DOWN PRESSURE MOD 10
DD_PRESS_MOD_1          .bar                                                :08 DRAW DOWN PRESSURE MOD 1
DD_PRESS_MOD_01         .bar                                                :09 DRAW DOWN PRESSURE MOD 01
DD_PRESS_MOD_001        .bar                                                :10 DRAW DOWN PRESSURE MOD 001
DD_PRESS_MOD_0001       .bar                                                :11 DRAW DOWN PRESSURE MOD 0001


~PARAMETER INFORMATION
#MNEM                   .UNIT        VALUE                                   DESCRIPTION
#________________________________________________________________________________________
TOOLFACE                .deg         na                                     :01 TOOLFACE
PUMP_CAPACITY           .bar         400                                    :02 NOMINAL DRAW DOWN PUMP CAPACITY
PUMP_LIMIT              .bar         240                                    :03 DOWNLINK PUMP LIMIT
TIME_LIMIT              .min         10                                     :04 DOWNLINK MAX TIME
TEST_TYPE               .            HIGH MOBILITY                          :05 DOWNLINK
DD_PIST_A               .cm2         3.1416                                 :06 DRAW DOWN PISTON AREA
V_SYS                   .cm3         131.0000                               :07 SYSTEM VOLUME
PROBE_ID                .cm          1.2700                                 :08 TTK PROBE ID
G0                      .            4.6700                                 :09 GEOMETRY FACTOR


~A                  TIME     DD_PRESS                              DD_VOLUME               TEMP                                   DD_PRESS_MOD_1000       DD_PRESS_MOD_100        DD_PRESS_MOD_10         DD_PRESS_MOD_1        DD_PRESS_MOD_01       DD_PRESS_MOD_001      DD_PRESS_MOD_0001
# ...
                   18.90    466.59583                                0.00000             97.352                                        4.66596e+002           6.65958e+001           6.59583e+000           5.95834e-001           9.58337e-002           5.83374e-003           8.33737e-004
                   19.00    466.60209                                0.00000             97.352                                        4.66602e+002           6.66021e+001           6.60209e+000           6.02089e-001           2.08899e-003           2.08899e-003           8.89890e-005
                   19.10    466.57885                                0.00000             97.352                                        4.66579e+002           6.65789e+001           6.57885e+000           5.78852e-001           7.88521e-002           8.85206e-003           8.52059e-004
                   19.20    466.59116                                0.00000             97.349                                        4.66591e+002           6.65912e+001           6.59116e+000           5.91155e-001           9.11550e-002           1.15504e-003           1.55045e-004
                   19.30    466.61741                                0.00000             97.346                                        4.66617e+002           6.66174e+001           6.61741e+000           6.17408e-001           1.74084e-002           7.40841e-003           4.08411e-004
                   19.40    466.61184                                0.00000             97.344                                        4.66612e+002           6.66118e+001           6.61184e+000           6.11840e-001           1.18401e-002           1.84006e-003           8.40056e-004
                   19.50    466.59694                                0.00000             97.344                                        4.66597e+002           6.65969e+001           6.59694e+000           5.96939e-001           9.69389e-002           6.93893e-003           9.38927e-004
                   19.60    466.62058                                0.00000             97.344                                        4.66621e+002           6.66206e+001           6.62058e+000           6.20580e-001           2.05796e-002           5.79560e-004           5.79560e-004
                   19.70    466.65229                                0.00000             97.344                                        4.66652e+002           6.66523e+001           6.65229e+000           6.52289e-001           5.22888e-002           2.28884e-003           2.88838e-004
                   19.80    466.64491                                0.00000             97.344                                        4.66645e+002           6.66449e+001           6.64491e+000           6.44911e-001           4.49111e-002           4.91115e-003           9.11148e-004
                   19.90    466.62718                                0.00000             97.344                                        4.66627e+002           6.66272e+001           6.62718e+000           6.27179e-001           2.71788e-002           7.17878e-003           1.78782e-004
                   20.00    466.65465                                0.00000             97.344                                        4.66655e+002           6.66547e+001           6.65465e+000           6.54652e-001           5.46524e-002           4.65238e-003           6.52382e-004
                   20.10    466.68751                                0.00000             97.344                                        4.66688e+002           6.66875e+001           6.68751e+000           6.87514e-001           8.75142e-002           7.51423e-003           5.14231e-004
                   20.20    466.68602                                0.00000             97.344                                        4.66686e+002           6.66860e+001           6.68602e+000           6.86023e-001           8.60225e-002           6.02252e-003           2.25244e-005
                   20.30    466.72272                                0.00000             97.344                                        4.66723e+002           6.67227e+001           6.72272e+000           7.22724e-001           2.27243e-002           2.72431e-003           7.24312e-004
                   20.40    466.96545                                0.00000             97.344                                        4.66965e+002           6.69654e+001           6.96545e+000           9.65445e-001           6.54454e-002           5.44538e-003           4.45382e-004
                   20.50    467.58233                                0.00000             97.344                                        4.67582e+002           6.75823e+001           7.58233e+000           5.82331e-001           8.23308e-002           2.33083e-003           3.30830e-004
                   20.60    468.59454                                0.00000             97.344                                        4.68595e+002           6.85945e+001           8.59454e+000           5.94544e-001           9.45436e-002           4.54363e-003           5.43631e-004
                   20.70    469.83259                                0.00000             97.344                                        4.69833e+002           6.98326e+001           9.83259e+000           8.32595e-001           3.25947e-002           2.59469e-003           5.94688e-004
                   20.80    470.80246                                0.00000             97.344                                        4.70802e+002           7.08025e+001           8.02457e-001           8.02457e-001           2.45745e-003           2.45745e-003           4.57446e-004
                   20.90    470.86744                                0.00000             97.344                                        4.70867e+002           7.08674e+001           8.67444e-001           8.67444e-001           6.74444e-002           7.44437e-003           4.44369e-004
                   21.00    469.91886                                0.00000             97.344                                        4.69919e+002           6.99189e+001           9.91886e+000           9.18856e-001           1.88556e-002           8.85562e-003           8.55620e-004
                   21.10    468.64669                                0.00000             97.344                                        4.68647e+002           6.86467e+001           8.64669e+000           6.46689e-001           4.66891e-002           6.68905e-003           6.89054e-004
                   21.20    467.69550                                0.00000             97.344                                        4.67696e+002           6.76955e+001           7.69550e+000           6.95503e-001           9.55030e-002           5.50301e-003           5.03011e-004
                   21.30    466.67513                                0.00000             97.344                                        4.66675e+002           6.66751e+001           6.67513e+000           6.75130e-001           7.51302e-002           5.13022e-003           1.30225e-004
                   21.40    465.59357                                0.00000             97.344                                        4.65594e+002           6.55936e+001           5.59357e+000           5.93566e-001           9.35660e-002           3.56604e-003           5.66040e-004
                   21.50    465.08484                                0.00000             97.344                                        4.65085e+002           6.50848e+001           5.08484e+000           8.48428e-002           8.48428e-002           4.84278e-003           8.42785e-004
                   21.60    465.20077                                0.00000             97.344                                        4.65201e+002           6.52008e+001           5.20077e+000           2.00774e-001           7.73550e-004           7.73550e-004           7.73550e-004
