~VERSION INFORMATION
VERS                    .            2.0                                    :CWLS LOG ASCII STANDARD
WRAP                    .            NO                                     :ONE LINE PER TIME STEP


~WELL INFORMATION
#MNEM                   .UNIT        DATA                                    DESCRIPTION
#________________________________________________________________________________________
STRTTIME                .HH/MM/SS    16:37:30                               :START TIME
STOPTIME                .HH/MM/SS    16:40:36                               :STOP TIME
STRT                    .s           2.10                                   :START DATA
STOP                    .s           184.70                                 :STOP DATA
STEP                    .s           0.10                                   :MEASUREMENT TIME INTERVAL
NULL                    .            -999.25                                :NULL VALUE
COMP                    .            Statoil ASA                            :COMPANY
FLD                     .            Volve                                  :FIELD
WELL                    .            15/9-F-1 B                             :WELL
RUN                     .            7                                      :RUN
LOC                     .            Maersk Inspirer                        :LOCATION
PROV                    .            na                                     :PROVINCE
SRVC                    .            Baker Hughes INTEQ                     :SERVICE COMPANY
DATE                    .YY/MM/DD    13/09/06                               :LOG DATE
UWI                     .                                                   :UNIQUE WELL ID
DEPTHMD                 .m           3247.0                                 :MEASURED DEPTH
DEPTHTVD                .m           3043.3                                 :TRUE VERTICAL DEPTH


~CURVE INFORMATION
#MNEM                   .UNIT        API CODES                               DESCRIPTION
#________________________________________________________________________________________
TIME                    .s                                                  :01 TIME
DD_PRESS                .bar                                                :02 DRAW DOWN PRESSURE
DD_VOLUME               .cm3                                                :03 INCREMENTAL DRAW DOWN VOLUME
TEMP                    .degC                                               :04 TRANSDUCER TEMPERATURE
DD_PRESS_MOD_1000       .bar                                                :05 DRAW DOWN PRESSURE MOD 1000
DD_PRESS_MOD_100        .bar                                                :06 DRAW DOWN PRESSURE MOD 100
DD_PRESS_MOD_10         .bar                                                :07 DRAW DOWN PRESSURE MOD 10
DD_PRESS_MOD_1          .bar                                                :08 DRAW DOWN PRESSURE MOD 1
DD_PRESS_MOD_01         .bar                                                :09 DRAW DOWN PRESSURE MOD 01
DD_PRESS_MOD_001        .bar                                                :10 DRAW DOWN PRESSURE MOD 001
DD_PRESS_MOD_0001       .bar                                                :11 DRAW DOWN PRESSURE MOD 0001


~PARAMETER INFORMATION
#MNEM                   .UNIT        VALUE                                   DESCRIPTION
#________________________________________________________________________________________
TOOLFACE                .deg         na                                     :01 TOOLFACE
PUMP_CAPACITY           .bar         400                                    :02 NOMINAL DRAW DOWN PUMP CAPACITY
PUMP_LIMIT              .bar         400                                    :03 DOWNLINK PUMP LIMIT
TIME_LIMIT              .min         10                                     :04 DOWNLINK MAX TIME
TEST_TYPE               .            LOW MOBILITY                           :05 DOWNLINK
DD_PIST_A               .cm2         3.1416                                 :06 DRAW DOWN PISTON AREA
V_SYS                   .cm3         131.0000                               :07 SYSTEM VOLUME
PROBE_ID                .cm          1.2700                                 :08 TTK PROBE ID
G0                      .            4.6700                                 :09 GEOMETRY FACTOR


~A                  TIME     DD_PRESS                              DD_VOLUME               TEMP                                   DD_PRESS_MOD_1000       DD_PRESS_MOD_100        DD_PRESS_MOD_10         DD_PRESS_MOD_1        DD_PRESS_MOD_01       DD_PRESS_MOD_001      DD_PRESS_MOD_0001
# ...
                   13.30    433.92072                                0.00000             81.602                                        4.33921e+002           3.39207e+001           3.92072e+000           9.20720e-001           2.07199e-002           7.19923e-004           7.19923e-004
                   13.40    433.95099                                0.00000             81.602                                        4.33951e+002           3.39510e+001           3.95099e+000           9.50991e-001           5.09912e-002           9.91188e-004           9.91188e-004
                   13.50    433.97553                                0.00000             81.602                                        4.33976e+002           3.39755e+001           3.97553e+000           9.75529e-001           7.55288e-002           5.52880e-003           5.28803e-004
                   13.60    433.95051                                0.00000             81.602                                        4.33951e+002           3.39505e+001           3.95051e+000           9.50509e-001           5.05085e-002           5.08542e-004           5.08542e-004
                   13.70    433.94319                                0.00000             81.602                                        4.33943e+002           3.39432e+001           3.94319e+000           9.43190e-001           4.31903e-002           3.19026e-003           1.90257e-004
                   13.80    433.97155                                0.00000             81.602                                        4.33972e+002           3.39715e+001           3.97155e+000           9.71549e-001           7.15495e-002           1.54949e-003           5.49487e-004
                   13.90    434.00194                                0.00000             81.602                                        4.34002e+002           3.40019e+001           4.00194e+000           1.93877e-003           1.93877e-003           1.93877e-003           9.38770e-004
                   14.00    433.98599                                0.00000             81.602                                        4.33986e+002           3.39860e+001           3.98599e+000           9.85988e-001           8.59877e-002           5.98774e-003           9.87737e-004
                   14.10    433.98015                                0.00000             81.602                                        4.33980e+002           3.39802e+001           3.98015e+000           9.80154e-001           8.01545e-002           1.54457e-004           1.54457e-004
                   14.20    434.01500                                0.00000             81.602                                        4.34015e+002           3.40150e+001           4.01500e+000           1.50026e-002           1.50026e-002           5.00258e-003           2.58447e-006
                   14.30    434.04499                                0.00000             81.602                                        4.34045e+002           3.40450e+001           4.04499e+000           4.49928e-002           4.49928e-002           4.99277e-003           9.92770e-004
                   14.40    434.02465                                0.00000             81.602                                        4.34025e+002           3.40247e+001           4.02465e+000           2.46528e-002           2.46528e-002           4.65284e-003           6.52842e-004
                   14.50    434.01996                                0.00000             81.602                                        4.34020e+002           3.40200e+001           4.01996e+000           1.99564e-002           1.99564e-002           9.95636e-003           9.56365e-004
                   14.60    434.05293                                0.00000             81.602                                        4.34053e+002           3.40529e+001           4.05293e+000           5.29322e-002           5.29322e-002           2.93217e-003           9.32173e-004
                   14.70    434.08034                                0.00000             81.602                                        4.34080e+002           3.40803e+001           4.08034e+000           8.03407e-002           8.03407e-002           3.40677e-004           3.40677e-004
                   14.80    434.05753                                0.00000             81.602                                        4.34058e+002           3.40575e+001           4.05753e+000           5.75315e-002           5.75315e-002           7.53152e-003           5.31525e-004
                   14.90    434.04651                                0.00000             81.602                                        4.34047e+002           3.40465e+001           4.04651e+000           4.65073e-002           4.65073e-002           6.50726e-003           5.07263e-004
                   15.00    434.07251                                0.00000             81.602                                        4.34073e+002           3.40725e+001           4.07251e+000           7.25072e-002           7.25072e-002           2.50721e-003           5.07205e-004
                   15.10    434.09416                                0.00000             81.602                                        4.34094e+002           3.40942e+001           4.09416e+000           9.41559e-002           9.41559e-002           4.15593e-003           1.55932e-004
                   15.20    434.07411                                0.00000             81.602                                        4.34074e+002           3.40741e+001           4.07411e+000           7.41132e-002           7.41132e-002           4.11318e-003           1.13183e-004
                   15.30    434.07105                                0.00000             81.602                                        4.34071e+002           3.40710e+001           4.07105e+000           7.10493e-002           7.10493e-002           1.04932e-003           4.93218e-005
                   15.40    434.09472                                0.00000             81.602                                        4.34095e+002           3.40947e+001           4.09472e+000           9.47218e-002           9.47218e-002           4.72184e-003           7.21837e-004
                   15.50    434.10939                                0.00000             81.602                                        4.34109e+002           3.41094e+001           4.10939e+000           1.09388e-001           9.38759e-003           9.38759e-003           3.87592e-004
                   15.60    434.08982                                0.00000             81.602                                        4.34090e+002           3.40898e+001           4.08982e+000           8.98188e-002           8.98188e-002           9.81877e-003           8.18773e-004
                   15.70    434.09024                                0.00000             81.602                                        4.34090e+002           3.40902e+001           4.09024e+000           9.02416e-002           9.02416e-002           2.41593e-004           2.41593e-004
                   15.80    434.12478                                0.00000             81.602                                        4.34125e+002           3.41248e+001           4.12478e+000           1.24784e-001           2.47838e-002           4.78383e-003           7.83830e-004
                   15.90    434.14333                                0.00000             81.602                                        4.34143e+002           3.41433e+001           4.14333e+000           1.43329e-001           4.33290e-002           3.32902e-003           3.29023e-004
                   16.00    434.11195                                0.00000             81.602                                        4.34112e+002           3.41120e+001           4.11195e+000           1.11953e-001           1.19528e-002           1.95276e-003           9.52756e-004
