~VERSION INFORMATION
VERS                    .            2.0                                    :CWLS LOG ASCII STANDARD
WRAP                    .            NO                                     :ONE LINE PER TIME STEP


~WELL INFORMATION
#MNEM                   .UNIT        DATA                                    DESCRIPTION
#________________________________________________________________________________________
STRTTIME                .HH/MM/SS    01:44:52                               :START TIME
STOPTIME                .HH/MM/SS    01:47:47                               :STOP TIME
STRT                    .s           2.10                                   :START DATA
STOP                    .s           173.40                                 :STOP DATA
STEP                    .s           0.10                                   :MEASUREMENT TIME INTERVAL
NULL                    .            -999.25                                :NULL VALUE
COMP                    .            Statoil ASA                            :COMPANY
FLD                     .            Volve                                  :FIELD
WELL                    .            15/9-F-1 C                             :WELL
RUN                     .            4                                      :RUN
LOC                     .                                                   :LOCATION
PROV                    .            na                                     :PROVINCE
SRVC                    .            Baker Hughes INTEQ                     :SERVICE COMPANY
DATE                    .YY/MM/DD    14/03/15                               :LOG DATE
UWI                     .                                                   :UNIQUE WELL ID
DEPTHMD                 .m           3620.2                                 :MEASURED DEPTH
DEPTHTVD                .m           3012.3                                 :TRUE VERTICAL DEPTH


~CURVE INFORMATION
#MNEM                   .UNIT        API CODES                               DESCRIPTION
#________________________________________________________________________________________
TIME                    .s                                                  :01 TIME
DD_PRESS                .bar                                                :02 DRAW DOWN PRESSURE
DD_VOLUME               .cm3                                                :03 INCREMENTAL DRAW DOWN VOLUME
TEMP                    .degC                                               :04 TRANSDUCER TEMPERATURE
DD_PRESS_MOD_1000       .bar                                                :05 DRAW DOWN PRESSURE MOD 1000
DD_PRESS_MOD_100        .bar                                                :06 DRAW DOWN PRESSURE MOD 100
DD_PRESS_MOD_10         .bar                                                :07 DRAW DOWN PRESSURE MOD 10
DD_PRESS_MOD_1          .bar                                                :08 DRAW DOWN PRESSURE MOD 1
DD_PRESS_MOD_01         .bar                                                :09 DRAW DOWN PRESSURE MOD 01
DD_PRESS_MOD_001        .bar                                                :10 DRAW DOWN PRESSURE MOD 001
DD_PRESS_MOD_0001       .bar                                                :11 DRAW DOWN PRESSURE MOD 0001


~PARAMETER INFORMATION
#MNEM                   .UNIT        VALUE                                   DESCRIPTION
#________________________________________________________________________________________
TOOLFACE                .deg         108.7                                  :01 TOOLFACE
PUMP_CAPACITY           .bar         400                                    :02 NOMINAL DRAW DOWN PUMP CAPACITY
PUMP_LIMIT              .bar         240                                    :03 DOWNLINK PUMP LIMIT
TIME_LIMIT              .min         10                                     :04 DOWNLINK MAX TIME
TEST_TYPE               .            REPEAT                                 :05 DOWNLINK
TEST_TYPE               .            HIGH MOBILITY                          :06 DOWNLINK
DD_PIST_A               .cm2         3.1416                                 :07 DRAW DOWN PISTON AREA
V_SYS                   .cm3         131.0000                               :08 SYSTEM VOLUME
PROBE_ID                .cm          1.2700                                 :09 TTK PROBE ID
G0                      .            4.6700                                 :10 GEOMETRY FACTOR


~A                  TIME     DD_PRESS                              DD_VOLUME               TEMP                                   DD_PRESS_MOD_1000       DD_PRESS_MOD_100        DD_PRESS_MOD_10         DD_PRESS_MOD_1        DD_PRESS_MOD_01       DD_PRESS_MOD_001      DD_PRESS_MOD_0001
# ...
                   69.30    344.36070                               10.69069             87.148                                        3.44361e+002           4.43607e+001           4.36070e+000           3.60700e-001           6.07003e-002           7.00296e-004           7.00296e-004
                   69.40    344.35998                               10.69069             87.148                                        3.44360e+002           4.43600e+001           4.35998e+000           3.59978e-001           5.99784e-002           9.97844e-003           9.78442e-004
                   69.50    344.35944                               10.69069             87.148                                        3.44359e+002           4.43594e+001           4.35944e+000           3.59437e-001           5.94366e-002           9.43656e-003           4.36559e-004
                   69.60    344.35958                               10.69069             87.148                                        3.44360e+002           4.43596e+001           4.35958e+000           3.59578e-001           5.95776e-002           9.57757e-003           5.77566e-004
                   69.70    344.36011                               10.69069             87.148                                        3.44360e+002           4.43601e+001           4.36011e+000           3.60114e-001           6.01137e-002           1.13741e-004           1.13741e-004
                   69.80    344.36002                               10.69069             87.148                                        3.44360e+002           4.43600e+001           4.36002e+000           3.60021e-001           6.00213e-002           2.12910e-005           2.12910e-005
                   69.90    344.35863                               10.69069             87.148                                        3.44359e+002           4.43586e+001           4.35863e+000           3.58634e-001           5.86344e-002           8.63441e-003           6.34411e-004
                   70.00    344.35848                               10.69069             87.148                                        3.44358e+002           4.43585e+001           4.35848e+000           3.58484e-001           5.84835e-002           8.48355e-003           4.83548e-004
                   70.10    344.35969                               10.69069             87.148                                        3.44360e+002           4.43597e+001           4.35969e+000           3.59687e-001           5.96869e-002           9.68695e-003           6.86946e-004
                   70.20    344.36071                               10.69069             87.148                                        3.44361e+002           4.43607e+001           4.36071e+000           3.60713e-001           6.07128e-002           7.12811e-004           7.12811e-004
                   70.30    344.36059                               10.69069             87.148                                        3.44361e+002           4.43606e+001           4.36059e+000           3.60589e-001           6.05891e-002           5.89102e-004           5.89102e-004
                   70.40    344.35997                               10.69069             87.148                                        3.44360e+002           4.43600e+001           4.35997e+000           3.59968e-001           5.99682e-002           9.96816e-003           9.68160e-004
                   70.50    344.35820                               10.69069             87.148                                        3.44358e+002           4.43582e+001           4.35820e+000           3.58200e-001           5.82003e-002           8.20030e-003           2.00300e-004
                   70.60    344.35800                               10.69069             87.148                                        3.44358e+002           4.43580e+001           4.35800e+000           3.57999e-001           5.79994e-002           7.99945e-003           9.99449e-004
                   70.70    344.35924                               10.69069             87.148                                        3.44359e+002           4.43592e+001           4.35924e+000           3.59239e-001           5.92392e-002           9.23922e-003           2.39224e-004
                   70.80    344.36006                               10.69069             87.148                                        3.44360e+002           4.43601e+001           4.36006e+000           3.60065e-001           6.00646e-002           6.46081e-005           6.46081e-005
                   70.90    344.36013                               10.69069             87.148                                        3.44360e+002           4.43601e+001           4.36013e+000           3.60131e-001           6.01310e-002           1.30952e-004           1.30952e-004
                   71.00    344.36071                               10.69069             87.148                                        3.44361e+002           4.43607e+001           4.36071e+000           3.60713e-001           6.07135e-002           7.13455e-004           7.13455e-004
                   71.10    344.36071                               10.69069             87.148                                        3.44361e+002           4.43607e+001           4.36071e+000           3.60710e-001           6.07097e-002           7.09746e-004           7.09746e-004
                   71.20    344.35967                               10.69069             87.148                                        3.44360e+002           4.43597e+001           4.35967e+000           3.59671e-001           5.96707e-002           9.67072e-003           6.70718e-004
                   71.30    344.35835                               10.69069             87.148                                        3.44358e+002           4.43584e+001           4.35835e+000           3.58352e-001           5.83523e-002           8.35235e-003           3.52347e-004
                   71.40    344.35897                               10.69069             87.148                                        3.44359e+002           4.43590e+001           4.35897e+000           3.58969e-001           5.89693e-002           8.96927e-003           9.69269e-004
                   71.50    344.36077                               10.69069             87.148                                        3.44361e+002           4.43608e+001           4.36077e+000           3.60770e-001           6.07704e-002           7.70415e-004           7.70415e-004
                   71.60    344.36097                               10.69069             87.148                                        3.44361e+002           4.43610e+001           4.36097e+000           3.60968e-001           6.09679e-002           9.67945e-004           9.67945e-004
                   71.70    344.36056                               10.69069             87.148                                        3.44361e+002           4.43606e+001           4.36056e+000           3.60559e-001           6.05585e-002           5.58510e-004           5.58510e-004
                   71.80    344.35996                               10.69069             87.148                                        3.44360e+002           4.43600e+001           4.35996e+000           3.59959e-001           5.99586e-002           9.95865e-003           9.58646e-004
                   71.90    344.35872                               10.69069             87.148                                        3.44359e+002           4.43587e+001           4.35872e+000           3.58716e-001           5.87158e-002           8.71576e-003           7.15757e-004
                   72.00    344.35877                               10.69069             87.148                                        3.44359e+002           4.43588e+001           4.35877e+000           3.58767e-001           5.87673e-002           8.76728e-003           7.67276e-004
