~VERSION INFORMATION
VERS                    .            2.0                                    :CWLS LOG ASCII STANDARD
WRAP                    .            NO                                     :ONE LINE PER TIME STEP


~WELL INFORMATION
#MNEM                   .UNIT        DATA                                    DESCRIPTION
#________________________________________________________________________________________
STRTTIME                .HH/MM/SS    19:52:58                               :START TIME
STOPTIME                .HH/MM/SS    19:58:21                               :STOP TIME
STRT                    .s           2.10                                   :START DATA
STOP                    .s           321.30                                 :STOP DATA
STEP                    .s           0.10                                   :MEASUREMENT TIME INTERVAL
NULL                    .            -999.25                                :NULL VALUE
COMP                    .            Statoil ASA                            :COMPANY
FLD                     .            Volve                                  :FIELD
WELL                    .            15/9-F-11 A                            :WELL
RUN                     .            8                                      :RUN
LOC                     .            Maersk Inspirer                        :LOCATION
PROV                    .            na                                     :PROVINCE
SRVC                    .            Baker Hughes INTEQ                     :SERVICE COMPANY
DATE                    .YY/MM/DD    13/05/23                               :LOG DATE
UWI                     .                                                   :UNIQUE WELL ID
DEPTHMD                 .m           3602.0                                 :MEASURED DEPTH
DEPTHTVD                .m           3003.9                                 :TRUE VERTICAL DEPTH


~CURVE INFORMATION
#MNEM                   .UNIT        API CODES                               DESCRIPTION
#________________________________________________________________________________________
TIME                    .s                                                  :01 TIME
DD_PRESS                .bar                                                :02 DRAW DOWN PRESSURE
DD_VOLUME               .cm3                                                :03 INCREMENTAL DRAW DOWN VOLUME
TEMP                    .degC                                               :04 TRANSDUCER TEMPERATURE
DD_PRESS_MOD_1000       .bar                                                :05 DRAW DOWN PRESSURE MOD 1000
DD_PRESS_MOD_100        .bar                                                :06 DRAW DOWN PRESSURE MOD 100
DD_PRESS_MOD_10         .bar                                                :07 DRAW DOWN PRESSURE MOD 10
DD_PRESS_MOD_1          .bar                                                :08 DRAW DOWN PRESSURE MOD 1
DD_PRESS_MOD_01         .bar                                                :09 DRAW DOWN PRESSURE MOD 01
DD_PRESS_MOD_001        .bar                                                :10 DRAW DOWN PRESSURE MOD 001
DD_PRESS_MOD_0001       .bar                                                :11 DRAW DOWN PRESSURE MOD 0001


~PARAMETER INFORMATION
#MNEM                   .UNIT        VALUE                                   DESCRIPTION
#________________________________________________________________________________________
TOOLFACE                .deg         -40.9                                  :01 TOOLFACE
PUMP_CAPACITY           .bar         400                                    :02 NOMINAL DRAW DOWN PUMP CAPACITY
PUMP_LIMIT              .bar         240                                    :03 DOWNLINK PUMP LIMIT
TIME_LIMIT              .min         10                                     :04 DOWNLINK MAX TIME
TEST_TYPE               .            REPEAT                                 :05 DOWNLINK
TEST_TYPE               .            HIGH MOBILITY                          :06 DOWNLINK
DD_PIST_A               .cm2         3.1416                                 :07 DRAW DOWN PISTON AREA
V_SYS                   .cm3         131.0000                               :08 SYSTEM VOLUME
PROBE_ID                .cm          1.2700                                 :09 TTK PROBE ID
G0                      .            4.6700                                 :10 GEOMETRY FACTOR


~A                  TIME     DD_PRESS                              DD_VOLUME               TEMP                                   DD_PRESS_MOD_1000       DD_PRESS_MOD_100        DD_PRESS_MOD_10         DD_PRESS_MOD_1        DD_PRESS_MOD_01       DD_PRESS_MOD_001      DD_PRESS_MOD_0001
# ...
                   86.10    341.58539                               10.57399             70.977                                        3.41585e+002           4.15854e+001           1.58539e+000           5.85390e-001           8.53901e-002           5.39008e-003           3.90081e-004
                   86.20    341.62612                               10.57399             70.977                                        3.41626e+002           4.16261e+001           1.62612e+000           6.26117e-001           2.61167e-002           6.11666e-003           1.16657e-004
                   86.30    341.54047                               10.57399             70.977                                        3.41540e+002           4.15405e+001           1.54047e+000           5.40469e-001           4.04692e-002           4.69204e-004           4.69204e-004
                   86.40    341.49458                               10.57399             70.977                                        3.41495e+002           4.14946e+001           1.49458e+000           4.94579e-001           9.45794e-002           4.57938e-003           5.79380e-004
                   86.50    341.55542                               10.57399             70.977                                        3.41555e+002           4.15554e+001           1.55542e+000           5.55418e-001           5.54175e-002           5.41751e-003           4.17514e-004
                   86.60    341.56058                               10.57399             70.977                                        3.41561e+002           4.15606e+001           1.56058e+000           5.60579e-001           6.05787e-002           5.78687e-004           5.78687e-004
                   86.70    341.47890                               10.57399             70.977                                        3.41479e+002           4.14789e+001           1.47890e+000           4.78900e-001           7.88997e-002           8.89974e-003           8.99741e-004
                   86.80    341.46379                               10.57399             70.977                                        3.41464e+002           4.14638e+001           1.46379e+000           4.63787e-001           6.37869e-002           3.78688e-003           7.86880e-004
                   86.90    341.53668                               10.57399             70.977                                        3.41537e+002           4.15367e+001           1.53668e+000           5.36679e-001           3.66793e-002           6.67932e-003           6.79321e-004
                   87.00    341.56247                               10.57399             70.977                                        3.41562e+002           4.15625e+001           1.56247e+000           5.62466e-001           6.24663e-002           2.46625e-003           4.66253e-004
                   87.10    341.52334                               10.57399             70.977                                        3.41523e+002           4.15233e+001           1.52334e+000           5.23339e-001           2.33388e-002           3.33877e-003           3.38774e-004
                   87.20    341.53653                               10.57399             70.977                                        3.41537e+002           4.15365e+001           1.53653e+000           5.36527e-001           3.65273e-002           6.52728e-003           5.27284e-004
                   87.30    341.60578                               10.57399             70.977                                        3.41606e+002           4.16058e+001           1.60578e+000           6.05775e-001           5.77549e-003           5.77549e-003           7.75493e-004
                   87.40    341.59336                               10.57399             70.977                                        3.41593e+002           4.15934e+001           1.59336e+000           5.93357e-001           9.33569e-002           3.35690e-003           3.56898e-004
                   87.50    341.51691                               10.57399             70.977                                        3.41517e+002           4.15169e+001           1.51691e+000           5.16907e-001           1.69070e-002           6.90704e-003           9.07039e-004
                   87.60    341.51375                               10.57399             70.977                                        3.41514e+002           4.15138e+001           1.51375e+000           5.13753e-001           1.37531e-002           3.75313e-003           7.53134e-004
                   87.70    341.58633                               10.57399             70.977                                        3.41586e+002           4.15863e+001           1.58633e+000           5.86334e-001           8.63343e-002           6.33428e-003           3.34283e-004
                   87.80    341.58770                               10.57399             70.977                                        3.41588e+002           4.15877e+001           1.58770e+000           5.87696e-001           8.76965e-002           7.69648e-003           6.96484e-004
                   87.90    341.54132                               10.57399             70.977                                        3.41541e+002           4.15413e+001           1.54132e+000           5.41321e-001           4.13207e-002           1.32067e-003           3.20670e-004
                   88.00    341.53376                               10.57399             70.977                                        3.41534e+002           4.15338e+001           1.53376e+000           5.33756e-001           3.37559e-002           3.75587e-003           7.55866e-004
                   88.10    341.60789                               10.57399             70.977                                        3.41608e+002           4.16079e+001           1.60789e+000           6.07893e-001           7.89293e-003           7.89293e-003           8.92931e-004
                   88.20    341.66035                               10.57399             70.977                                        3.41660e+002           4.16603e+001           1.66035e+000           6.60349e-001           6.03492e-002           3.49155e-004           3.49155e-004
                   88.30    341.60635                               10.57399             70.977                                        3.41606e+002           4.16064e+001           1.60635e+000           6.06350e-001           6.35047e-003           6.35047e-003           3.50466e-004
                   88.40    341.53299                               10.57399             70.977                                        3.41533e+002           4.15330e+001           1.53299e+000           5.32993e-001           3.29925e-002           2.99254e-003           9.92536e-004
                   88.50    341.55804                               10.57399             70.977                                        3.41558e+002           4.15580e+001           1.55804e+000           5.58038e-001           5.80378e-002           8.03779e-003           3.77901e-005
                   88.60    341.63950                               10.57399             70.977                                        3.41639e+002           4.16395e+001           1.63950e+000           6.39498e-001           3.94978e-002           9.49781e-003           4.97812e-004
                   88.70    341.66529                               10.57399             70.977                                        3.41665e+002           4.16653e+001           1.66529e+000           6.65286e-001           6.52858e-002           5.28578e-003           2.85776e-004
                   88.80    341.60653                               10.57399             70.977                                        3.41607e+002           4.16065e+001           1.60653e+000           6.06531e-001           6.53147e-003           6.53147e-003           5.31472e-004
