~VERSION INFORMATION
VERS                    .            2.0                                    :CWLS LOG ASCII STANDARD
WRAP                    .            NO                                     :ONE LINE PER TIME STEP


~WELL INFORMATION
#MNEM                   .UNIT        DATA                                    DESCRIPTION
#________________________________________________________________________________________
STRTTIME                .HH/MM/SS    09:08:53                               :START TIME
STOPTIME                .HH/MM/SS    09:11:57                               :STOP TIME
STRT                    .s           2.10                                   :START DATA
STOP                    .s           182.80                                 :STOP DATA
STEP                    .s           0.10                                   :MEASUREMENT TIME INTERVAL
NULL                    .            -999.25                                :NULL VALUE
COMP                    .            Statoil ASA                            :COMPANY
FLD                     .            Volve                                  :FIELD
WELL                    .            15/9-F-11 A                            :WELL
RUN                     .            8                                      :RUN
LOC                     .            Maersk Inspirer                        :LOCATION
PROV                    .            na                                     :PROVINCE
SRVC                    .            Baker Hughes INTEQ                     :SERVICE COMPANY
DATE                    .YY/MM/DD    13/05/21                               :LOG DATE
UWI                     .                                                   :UNIQUE WELL ID
DEPTHMD                 .m           3671.1                                 :MEASURED DEPTH
DEPTHTVD                .m           3056.7                                 :TRUE VERTICAL DEPTH


~CURVE INFORMATION
#MNEM                   .UNIT        API CODES                               DESCRIPTION
#________________________________________________________________________________________
TIME                    .s                                                  :01 TIME
DD_PRESS                .bar                                                :02 DRAW DOWN PRESSURE
DD_VOLUME               .cm3                                                :03 INCREMENTAL DRAW DOWN VOLUME
TEMP                    .degC                                               :04 TRANSDUCER TEMPERATURE
DD_PRESS_MOD_1000       .bar                                                :05 DRAW DOWN PRESSURE MOD 1000
DD_PRESS_MOD_100        .bar                                                :06 DRAW DOWN PRESSURE MOD 100
DD_PRESS_MOD_10         .bar                                                :07 DRAW DOWN PRESSURE MOD 10
DD_PRESS_MOD_1          .bar                                                :08 DRAW DOWN PRESSURE MOD 1
DD_PRESS_MOD_01         .bar                                                :09 DRAW DOWN PRESSURE MOD 01
DD_PRESS_MOD_001        .bar                                                :10 DRAW DOWN PRESSURE MOD 001
DD_PRESS_MOD_0001       .bar                                                :11 DRAW DOWN PRESSURE MOD 0001


~PARAMETER INFORMATION
#MNEM                   .UNIT        VALUE                                   DESCRIPTION
#________________________________________________________________________________________
TOOLFACE                .deg         -56.2                                  :01 TOOLFACE
PUMP_CAPACITY           .bar         400                                    :02 NOMINAL DRAW DOWN PUMP CAPACITY
PUMP_LIMIT              .bar         240                                    :03 DOWNLINK PUMP LIMIT
TIME_LIMIT              .min         10                                     :04 DOWNLINK MAX TIME
TEST_TYPE               .            REPEAT                                 :05 DOWNLINK
TEST_TYPE               .            HIGH MOBILITY                          :06 DOWNLINK
DD_PIST_A               .cm2         3.1416                                 :07 DRAW DOWN PISTON AREA
V_SYS                   .cm3         131.0000                               :08 SYSTEM VOLUME
PROBE_ID                .cm          1.2700                                 :09 TTK PROBE ID
G0                      .            4.6700                                 :10 GEOMETRY FACTOR


~A                  TIME     DD_PRESS                              DD_VOLUME               TEMP                                   DD_PRESS_MOD_1000       DD_PRESS_MOD_100        DD_PRESS_MOD_10         DD_PRESS_MOD_1        DD_PRESS_MOD_01       DD_PRESS_MOD_001      DD_PRESS_MOD_0001
# ...
                   38.50    333.44590                                9.56026             82.367                                        3.33446e+002           3.34459e+001           3.44590e+000           4.45897e-001           4.58973e-002           5.89734e-003           8.97343e-004
                   38.60    333.67296                                9.62799             82.367                                        3.33673e+002           3.36730e+001           3.67296e+000           6.72960e-001           7.29600e-002           2.95997e-003           9.59972e-004
                   38.70    333.91654                                9.69414             82.367                                        3.33917e+002           3.39165e+001           3.91654e+000           9.16544e-001           1.65442e-002           6.54423e-003           5.44234e-004
                   38.80    334.14329                                9.75874             82.367                                        3.34143e+002           3.41433e+001           4.14329e+000           1.43288e-001           4.32885e-002           3.28850e-003           2.88499e-004
                   38.90    334.35771                                9.82192             82.367                                        3.34358e+002           3.43577e+001           4.35771e+000           3.57710e-001           5.77100e-002           7.70996e-003           7.09958e-004
                   39.00    334.61039                                9.88347             82.367                                        3.34610e+002           3.46104e+001           4.61039e+000           6.10393e-001           1.03928e-002           3.92809e-004           3.92809e-004
                   39.10    334.87446                                9.94346             82.367                                        3.34874e+002           3.48745e+001           4.87446e+000           8.74464e-001           7.44639e-002           4.46393e-003           4.63934e-004
                   39.20    335.10471                               10.00187             82.367                                        3.35105e+002           3.51047e+001           5.10471e+000           1.04705e-001           4.70523e-003           4.70523e-003           7.05229e-004
                   39.30    335.33557                               10.05867             82.367                                        3.35336e+002           3.53356e+001           5.33557e+000           3.35570e-001           3.55696e-002           5.56959e-003           5.69589e-004
                   39.40    335.60118                               10.11384             82.367                                        3.35601e+002           3.56012e+001           5.60118e+000           6.01181e-001           1.18105e-003           1.18105e-003           1.81054e-004
                   39.50    335.88325                               10.16737             82.367                                        3.35883e+002           3.58832e+001           5.88325e+000           8.83249e-001           8.32490e-002           3.24904e-003           2.49042e-004
                   39.60    336.15605                               10.21911             82.367                                        3.36156e+002           3.61560e+001           6.15605e+000           1.56047e-001           5.60471e-002           6.04709e-003           4.70946e-005
                   39.70    336.42964                               10.26902             82.367                                        3.36430e+002           3.64296e+001           6.42964e+000           4.29636e-001           2.96362e-002           9.63615e-003           6.36153e-004
                   39.80    336.71064                               10.31729             82.367                                        3.36711e+002           3.67106e+001           6.71064e+000           7.10637e-001           1.06372e-002           6.37160e-004           6.37160e-004
                   39.90    336.98481                               10.36398             82.367                                        3.36985e+002           3.69848e+001           6.98481e+000           9.84812e-001           8.48124e-002           4.81245e-003           8.12449e-004
                   40.00    337.26387                               10.40879             82.367                                        3.37264e+002           3.72639e+001           7.26387e+000           2.63867e-001           6.38668e-002           3.86677e-003           8.66774e-004
                   40.10    337.54106                               10.45181             82.367                                        3.37541e+002           3.75411e+001           7.54106e+000           5.41058e-001           4.10580e-002           1.05799e-003           5.79938e-005
                   40.20    337.82367                               10.49303             82.367                                        3.37824e+002           3.78237e+001           7.82367e+000           8.23675e-001           2.36749e-002           3.67488e-003           6.74882e-004
                   40.30    338.12804                               10.53248             82.367                                        3.38128e+002           3.81280e+001           8.12804e+000           1.28044e-001           2.80441e-002           8.04405e-003           4.40531e-005
                   40.40    338.43779                               10.57005             82.367                                        3.38438e+002           3.84378e+001           8.43779e+000           4.37785e-001           3.77853e-002           7.78534e-003           7.85336e-004
                   40.50    338.72528                               10.60566             82.367                                        3.38725e+002           3.87253e+001           8.72528e+000           7.25275e-001           2.52752e-002           5.27518e-003           2.75184e-004
                   40.60    339.16598                               10.63725             82.367                                        3.39166e+002           3.91660e+001           9.16598e+000           1.65980e-001           6.59802e-002           5.98016e-003           9.80158e-004
                   40.70    340.29393                               10.65615             82.367                                        3.40294e+002           4.02939e+001           2.93927e-001           2.93927e-001           9.39270e-002           3.92702e-003           9.27025e-004
                   40.80    341.84669                               10.66137             82.367                                        3.41847e+002           4.18467e+001           1.84669e+000           8.46689e-001           4.66892e-002           6.68921e-003           6.89210e-004
                   40.90    343.04340                               10.66141             82.367                                        3.43043e+002           4.30434e+001           3.04340e+000           4.34007e-002           4.34007e-002           3.40074e-003           4.00739e-004
                   41.00    343.75518                               10.66141             82.367                                        3.43755e+002           4.37552e+001           3.75518e+000           7.55177e-001           5.51771e-002           5.17706e-003           1.77060e-004
                   41.10    344.22583                               10.66141             82.367                                        3.44226e+002           4.42258e+001           4.22583e+000           2.25833e-001           2.58326e-002           5.83256e-003           8.32559e-004
                   41.20    344.54053                               10.66141             82.367                                        3.44541e+002           4.45405e+001           4.54053e+000           5.40530e-001           4.05303e-002           5.30255e-004           5.30255e-004
