~VERSION INFORMATION
VERS                    .            2.0                                    :CWLS LOG ASCII STANDARD
WRAP                    .            NO                                     :ONE LINE PER TIME STEP


~WELL INFORMATION
#MNEM                   .UNIT        DATA                                    DESCRIPTION
#________________________________________________________________________________________
STRTTIME                .HH/MM/SS    15:44:09                               :START TIME
STOPTIME                .HH/MM/SS    15:46:59                               :STOP TIME
STRT                    .s           2.10                                   :START DATA
STOP                    .s           168.10                                 :STOP DATA
STEP                    .s           0.10                                   :MEASUREMENT TIME INTERVAL
NULL                    .            -999.25                                :NULL VALUE
COMP                    .            Statoil ASA                            :COMPANY
FLD                     .            Volve                                  :FIELD
WELL                    .            15/9-F-1 B                             :WELL
RUN                     .            7                                      :RUN
LOC                     .            Maersk Inspirer                        :LOCATION
PROV                    .            na                                     :PROVINCE
SRVC                    .            Baker Hughes INTEQ                     :SERVICE COMPANY
DATE                    .YY/MM/DD    13/09/06                               :LOG DATE
UWI                     .                                                   :UNIQUE WELL ID
DEPTHMD                 .m           3266.5                                 :MEASURED DEPTH
DEPTHTVD                .m           3062.4                                 :TRUE VERTICAL DEPTH


~CURVE INFORMATION
#MNEM                   .UNIT        API CODES                               DESCRIPTION
#________________________________________________________________________________________
TIME                    .s                                                  :01 TIME
DD_PRESS                .bar                                                :02 DRAW DOWN PRESSURE
DD_VOLUME               .cm3                                                :03 INCREMENTAL DRAW DOWN VOLUME
TEMP                    .degC                                               :04 TRANSDUCER TEMPERATURE
DD_PRESS_MOD_1000       .bar                                                :05 DRAW DOWN PRESSURE MOD 1000
DD_PRESS_MOD_100        .bar                                                :06 DRAW DOWN PRESSURE MOD 100
DD_PRESS_MOD_10         .bar                                                :07 DRAW DOWN PRESSURE MOD 10
DD_PRESS_MOD_1          .bar                                                :08 DRAW DOWN PRESSURE MOD 1
DD_PRESS_MOD_01         .bar                                                :09 DRAW DOWN PRESSURE MOD 01
DD_PRESS_MOD_001        .bar                                                :10 DRAW DOWN PRESSURE MOD 001
DD_PRESS_MOD_0001       .bar                                                :11 DRAW DOWN PRESSURE MOD 0001


~PARAMETER INFORMATION
#MNEM                   .UNIT        VALUE                                   DESCRIPTION
#________________________________________________________________________________________
TOOLFACE                .deg         na                                     :01 TOOLFACE
PUMP_CAPACITY           .bar         400                                    :02 NOMINAL DRAW DOWN PUMP CAPACITY
PUMP_LIMIT              .bar         400                                    :03 DOWNLINK PUMP LIMIT
TIME_LIMIT              .min         10                                     :04 DOWNLINK MAX TIME
TEST_TYPE               .            LOW MOBILITY                           :05 DOWNLINK
DD_PIST_A               .cm2         3.1416                                 :06 DRAW DOWN PISTON AREA
V_SYS                   .cm3         131.0000                               :07 SYSTEM VOLUME
PROBE_ID                .cm          1.2700                                 :08 TTK PROBE ID
G0                      .            4.6700                                 :09 GEOMETRY FACTOR


~A                  TIME     DD_PRESS                              DD_VOLUME               TEMP                                   DD_PRESS_MOD_1000       DD_PRESS_MOD_100        DD_PRESS_MOD_10         DD_PRESS_MOD_1        DD_PRESS_MOD_01       DD_PRESS_MOD_001      DD_PRESS_MOD_0001
# ...
                   66.50    346.52100                               10.81939             82.539                                        3.46521e+002           4.65210e+001           6.52100e+000           5.20999e-001           2.09986e-002           9.98618e-004           9.98618e-004
                   66.60    346.52079                               10.81939             82.539                                        3.46521e+002           4.65208e+001           6.52079e+000           5.20790e-001           2.07902e-002           7.90216e-004           7.90216e-004
                   66.70    346.52077                               10.81939             82.539                                        3.46521e+002           4.65208e+001           6.52077e+000           5.20775e-001           2.07747e-002           7.74716e-004           7.74716e-004
                   66.80    346.52096                               10.81939             82.539                                        3.46521e+002           4.65210e+001           6.52096e+000           5.20958e-001           2.09581e-002           9.58068e-004           9.58068e-004
                   66.90    346.52109                               10.81939             82.539                                        3.46521e+002           4.65211e+001           6.52109e+000           5.21088e-001           2.10876e-002           1.08762e-003           8.76207e-005
                   67.00    346.52115                               10.81939             82.539                                        3.46521e+002           4.65212e+001           6.52115e+000           5.21153e-001           2.11530e-002           1.15296e-003           1.52964e-004
                   67.10    346.52110                               10.81939             82.539                                        3.46521e+002           4.65211e+001           6.52110e+000           5.21098e-001           2.10978e-002           1.09776e-003           9.77585e-005
                   67.20    346.52092                               10.81939             82.539                                        3.46521e+002           4.65209e+001           6.52092e+000           5.20916e-001           2.09156e-002           9.15606e-004           9.15606e-004
                   67.30    346.52085                               10.81939             82.539                                        3.46521e+002           4.65209e+001           6.52085e+000           5.20853e-001           2.08533e-002           8.53284e-004           8.53284e-004
                   67.40    346.52103                               10.81939             82.539                                        3.46521e+002           4.65210e+001           6.52103e+000           5.21033e-001           2.10333e-002           1.03335e-003           3.33499e-005
                   67.50    346.52111                               10.81939             82.539                                        3.46521e+002           4.65211e+001           6.52111e+000           5.21111e-001           2.11105e-002           1.11050e-003           1.10502e-004
                   67.60    346.52099                               10.81939             82.539                                        3.46521e+002           4.65210e+001           6.52099e+000           5.20989e-001           2.09890e-002           9.89040e-004           9.89040e-004
                   67.70    346.52089                               10.81939             82.539                                        3.46521e+002           4.65209e+001           6.52089e+000           5.20887e-001           2.08866e-002           8.86615e-004           8.86615e-004
                   67.80    346.52096                               10.81939             82.539                                        3.46521e+002           4.65210e+001           6.52096e+000           5.20957e-001           2.09567e-002           9.56680e-004           9.56680e-004
                   67.90    346.52093                               10.81939             82.539                                        3.46521e+002           4.65209e+001           6.52093e+000           5.20927e-001           2.09270e-002           9.27003e-004           9.27003e-004
                   68.00    346.52089                               10.81939             82.539                                        3.46521e+002           4.65209e+001           6.52089e+000           5.20894e-001           2.08937e-002           8.93674e-004           8.93674e-004
                   68.10    346.52084                               10.81939             82.539                                        3.46521e+002           4.65208e+001           6.52084e+000           5.20836e-001           2.08362e-002           8.36155e-004           8.36155e-004
                   68.20    346.52090                               10.81939             82.539                                        3.46521e+002           4.65209e+001           6.52090e+000           5.20896e-001           2.08963e-002           8.96328e-004           8.96328e-004
                   68.30    346.52095                               10.81939             82.539                                        3.46521e+002           4.65209e+001           6.52095e+000           5.20946e-001           2.09460e-002           9.45980e-004           9.45980e-004
                   68.40    346.52087                               10.81939             82.539                                        3.46521e+002           4.65209e+001           6.52087e+000           5.20871e-001           2.08708e-002           8.70750e-004           8.70750e-004
                   68.50    346.52103                               10.81939             82.539                                        3.46521e+002           4.65210e+001           6.52103e+000           5.21026e-001           2.10257e-002           1.02569e-003           2.56943e-005
                   68.60    346.52106                               10.81939             82.539                                        3.46521e+002           4.65211e+001           6.52106e+000           5.21057e-001           2.10567e-002           1.05669e-003           5.66858e-005
                   68.70    346.52105                               10.81939             82.539                                        3.46521e+002           4.65210e+001           6.52105e+000           5.21050e-001           2.10496e-002           1.04962e-003           4.96183e-005
                   68.80    346.52109                               10.81939             82.539                                        3.46521e+002           4.65211e+001           6.52109e+000           5.21092e-001           2.10924e-002           1.09239e-003           9.23871e-005
                   68.90    346.52105                               10.81939             82.539                                        3.46521e+002           4.65210e+001           6.52105e+000           5.21048e-001           2.10480e-002           1.04800e-003           4.80037e-005
                   69.00    346.52104                               10.81939             82.539                                        3.46521e+002           4.65210e+001           6.52104e+000           5.21036e-001           2.10361e-002           1.03614e-003           3.61357e-005
                   69.10    346.52108                               10.81939             82.539                                        3.46521e+002           4.65211e+001           6.52108e+000           5.21081e-001           2.10806e-002           1.08061e-003           8.06052e-005
                   69.20    346.52097                               10.81939             82.539                                        3.46521e+002           4.65210e+001           6.52097e+000           5.20970e-001           2.09704e-002           9.70417e-004           9.70417e-004
