~VERSION INFORMATION
VERS                    .            2.0                                    :CWLS LOG ASCII STANDARD
WRAP                    .            NO                                     :ONE LINE PER TIME STEP


~WELL INFORMATION
#MNEM                   .UNIT        DATA                                    DESCRIPTION
#________________________________________________________________________________________
STRTTIME                .HH/MM/SS    22:39:37                               :START TIME
STOPTIME                .HH/MM/SS    22:43:03                               :STOP TIME
STRT                    .s           2.10                                   :START DATA
STOP                    .s           204.10                                 :STOP DATA
STEP                    .s           0.10                                   :MEASUREMENT TIME INTERVAL
NULL                    .            -999.25                                :NULL VALUE
COMP                    .            Statoil ASA                            :COMPANY
FLD                     .            Volve                                  :FIELD
WELL                    .            15/9-F-1 C                             :WELL
RUN                     .            4                                      :RUN
LOC                     .                                                   :LOCATION
PROV                    .            na                                     :PROVINCE
SRVC                    .            Baker Hughes INTEQ                     :SERVICE COMPANY
DATE                    .YY/MM/DD    14/03/14                               :LOG DATE
UWI                     .                                                   :UNIQUE WELL ID
DEPTHMD                 .m           3925.1                                 :MEASURED DEPTH
DEPTHTVD                .m           3120.2                                 :TRUE VERTICAL DEPTH


~CURVE INFORMATION
#MNEM                   .UNIT        API CODES                               DESCRIPTION
#________________________________________________________________________________________
TIME                    .s                                                  :01 TIME
DD_PRESS                .bar                                                :02 DRAW DOWN PRESSURE
DD_VOLUME               .cm3                                                :03 INCREMENTAL DRAW DOWN VOLUME
TEMP                    .degC                                               :04 TRANSDUCER TEMPERATURE
DD_PRESS_MOD_1000       .bar                                                :05 DRAW DOWN PRESSURE MOD 1000
DD_PRESS_MOD_100        .bar                                                :06 DRAW DOWN PRESSURE MOD 100
DD_PRESS_MOD_10         .bar                                                :07 DRAW DOWN PRESSURE MOD 10
DD_PRESS_MOD_1          .bar                                                :08 DRAW DOWN PRESSURE MOD 1
DD_PRESS_MOD_01         .bar                                                :09 DRAW DOWN PRESSURE MOD 01
DD_PRESS_MOD_001        .bar                                                :10 DRAW DOWN PRESSURE MOD 001
DD_PRESS_MOD_0001       .bar                                                :11 DRAW DOWN PRESSURE MOD 0001


~PARAMETER INFORMATION
#MNEM                   .UNIT        VALUE                                   DESCRIPTION
#________________________________________________________________________________________
TOOLFACE                .deg         -7.4                                   :01 TOOLFACE
PUMP_CAPACITY           .bar         400                                    :02 NOMINAL DRAW DOWN PUMP CAPACITY
PUMP_LIMIT              .bar         240                                    :03 DOWNLINK PUMP LIMIT
TIME_LIMIT              .min         10                                     :04 DOWNLINK MAX TIME
TEST_TYPE               .            HIGH MOBILITY                          :05 DOWNLINK
DD_PIST_A               .cm2         3.1416                                 :06 DRAW DOWN PISTON AREA
V_SYS                   .cm3         131.0000                               :07 SYSTEM VOLUME
PROBE_ID                .cm          1.2700                                 :08 TTK PROBE ID
G0                      .            4.6700                                 :09 GEOMETRY FACTOR


~A                  TIME     DD_PRESS                              DD_VOLUME               TEMP                                   DD_PRESS_MOD_1000       DD_PRESS_MOD_100        DD_PRESS_MOD_10         DD_PRESS_MOD_1        DD_PRESS_MOD_01       DD_PRESS_MOD_001      DD_PRESS_MOD_0001
# ...
                  175.70    353.16836                               29.42602             91.320                                        3.53168e+002           5.31684e+001           3.16836e+000           1.68358e-001           6.83580e-002           8.35800e-003           3.57998e-004
                  175.80    353.16318                               29.42602             91.320                                        3.53163e+002           5.31632e+001           3.16318e+000           1.63183e-001           6.31833e-002           3.18326e-003           1.83255e-004
                  175.90    353.16178                               29.42602             91.320                                        3.53162e+002           5.31618e+001           3.16178e+000           1.61783e-001           6.17831e-002           1.78307e-003           7.83075e-004
                  176.00    353.16687                               29.42602             91.320                                        3.53167e+002           5.31669e+001           3.16687e+000           1.66873e-001           6.68733e-002           6.87329e-003           8.73294e-004
                  176.10    353.17026                               29.42602             91.320                                        3.53170e+002           5.31703e+001           3.17026e+000           1.70257e-001           7.02571e-002           2.57146e-004           2.57146e-004
                  176.20    353.16924                               29.42602             91.320                                        3.53169e+002           5.31692e+001           3.16924e+000           1.69241e-001           6.92410e-002           9.24103e-003           2.41034e-004
                  176.30    353.16340                               29.42602             91.320                                        3.53163e+002           5.31634e+001           3.16340e+000           1.63400e-001           6.34001e-002           3.40007e-003           4.00075e-004
                  176.40    353.16051                               29.42602             91.320                                        3.53161e+002           5.31605e+001           3.16051e+000           1.60507e-001           6.05067e-002           5.06749e-004           5.06749e-004
                  176.50    353.16545                               29.42602             91.320                                        3.53165e+002           5.31654e+001           3.16545e+000           1.65448e-001           6.54480e-002           5.44799e-003           4.47987e-004
                  176.60    353.17025                               29.42602             91.320                                        3.53170e+002           5.31703e+001           3.17025e+000           1.70254e-001           7.02539e-002           2.53926e-004           2.53926e-004
                  176.70    353.16721                               29.42602             91.320                                        3.53167e+002           5.31672e+001           3.16721e+000           1.67206e-001           6.72058e-002           7.20576e-003           2.05762e-004
                  176.80    353.16255                               29.42602             91.320                                        3.53163e+002           5.31625e+001           3.16255e+000           1.62549e-001           6.25487e-002           2.54869e-003           5.48690e-004
                  176.90    353.16179                               29.42602             91.320                                        3.53162e+002           5.31618e+001           3.16179e+000           1.61789e-001           6.17892e-002           1.78915e-003           7.89152e-004
                  177.00    353.16602                               29.42602             91.320                                        3.53166e+002           5.31660e+001           3.16602e+000           1.66022e-001           6.60221e-002           6.02210e-003           2.20996e-005
                  177.10    353.16988                               29.42602             91.320                                        3.53170e+002           5.31699e+001           3.16988e+000           1.69882e-001           6.98823e-002           9.88235e-003           8.82346e-004
                  177.20    353.16836                               29.42602             91.320                                        3.53168e+002           5.31684e+001           3.16836e+000           1.68362e-001           6.83617e-002           8.36172e-003           3.61721e-004
                  177.30    353.16418                               29.42602             91.320                                        3.53164e+002           5.31642e+001           3.16418e+000           1.64183e-001           6.41829e-002           4.18293e-003           1.82929e-004
                  177.40    353.16498                               29.42602             91.320                                        3.53165e+002           5.31650e+001           3.16498e+000           1.64975e-001           6.49754e-002           4.97538e-003           9.75383e-004
                  177.50    353.16965                               29.42602             91.320                                        3.53170e+002           5.31697e+001           3.16965e+000           1.69650e-001           6.96503e-002           9.65034e-003           6.50336e-004
                  177.60    353.17050                               29.42602             91.320                                        3.53171e+002           5.31705e+001           3.17050e+000           1.70503e-001           7.05032e-002           5.03228e-004           5.03228e-004
                  177.70    353.16611                               29.42602             91.320                                        3.53166e+002           5.31661e+001           3.16611e+000           1.66107e-001           6.61071e-002           6.10712e-003           1.07116e-004
                  177.80    353.16330                               29.42602             91.320                                        3.53163e+002           5.31633e+001           3.16330e+000           1.63295e-001           6.32954e-002           3.29542e-003           2.95422e-004
                  177.90    353.16612                               29.42602             91.320                                        3.53166e+002           5.31661e+001           3.16612e+000           1.66119e-001           6.61194e-002           6.11943e-003           1.19425e-004
                  178.00    353.16675                               29.42602             91.320                                        3.53167e+002           5.31668e+001           3.16675e+000           1.66752e-001           6.67525e-002           6.75249e-003           7.52488e-004
                  178.10    353.16547                               29.42602             91.320                                        3.53165e+002           5.31655e+001           3.16547e+000           1.65474e-001           6.54738e-002           5.47375e-003           4.73752e-004
                  178.20    353.16557                               29.42602             91.320                                        3.53166e+002           5.31656e+001           3.16557e+000           1.65567e-001           6.55673e-002           5.56733e-003           5.67332e-004
                  178.30    353.16541                               29.42602             91.320                                        3.53165e+002           5.31654e+001           3.16541e+000           1.65410e-001           6.54098e-002           5.40981e-003           4.09806e-004
                  178.40    353.16700                               29.42602             91.320                                        3.53167e+002           5.31670e+001           3.16700e+000           1.66999e-001           6.69994e-002           6.99942e-003           9.99422e-004
