~VERSION INFORMATION
VERS                    .            2.0                                    :CWLS LOG ASCII STANDARD
WRAP                    .            NO                                     :ONE LINE PER TIME STEP


~WELL INFORMATION
#MNEM                   .UNIT        DATA                                    DESCRIPTION
#________________________________________________________________________________________
STRTTIME                .HH/MM/SS    11:07:04                               :START TIME
STOPTIME                .HH/MM/SS    11:10:49                               :STOP TIME
STRT                    .s           2.10                                   :START DATA
STOP                    .s           223.10                                 :STOP DATA
STEP                    .s           0.10                                   :MEASUREMENT TIME INTERVAL
NULL                    .            -999.25                                :NULL VALUE
COMP                    .            Statoil ASA                            :COMPANY
FLD                     .            Volve                                  :FIELD
WELL                    .            15/9-F-11 A                            :WELL
RUN                     .            8                                      :RUN
LOC                     .            Maersk Inspirer                        :LOCATION
PROV                    .            na                                     :PROVINCE
SRVC                    .            Baker Hughes INTEQ                     :SERVICE COMPANY
DATE                    .YY/MM/DD    13/05/21                               :LOG DATE
UWI                     .                                                   :UNIQUE WELL ID
DEPTHMD                 .m           3632.0                                 :MEASURED DEPTH
DEPTHTVD                .m           3026.9                                 :TRUE VERTICAL DEPTH


~CURVE INFORMATION
#MNEM                   .UNIT        API CODES                               DESCRIPTION
#________________________________________________________________________________________
TIME                    .s                                                  :01 TIME
DD_PRESS                .bar                                                :02 DRAW DOWN PRESSURE
DD_VOLUME               .cm3                                                :03 INCREMENTAL DRAW DOWN VOLUME
TEMP                    .degC                                               :04 TRANSDUCER TEMPERATURE
DD_PRESS_MOD_1000       .bar                                                :05 DRAW DOWN PRESSURE MOD 1000
DD_PRESS_MOD_100        .bar                                                :06 DRAW DOWN PRESSURE MOD 100
DD_PRESS_MOD_10         .bar                                                :07 DRAW DOWN PRESSURE MOD 10
DD_PRESS_MOD_1          .bar                                                :08 DRAW DOWN PRESSURE MOD 1
DD_PRESS_MOD_01         .bar                                                :09 DRAW DOWN PRESSURE MOD 01
DD_PRESS_MOD_001        .bar                                                :10 DRAW DOWN PRESSURE MOD 001
DD_PRESS_MOD_0001       .bar                                                :11 DRAW DOWN PRESSURE MOD 0001


~PARAMETER INFORMATION
#MNEM                   .UNIT        VALUE                                   DESCRIPTION
#________________________________________________________________________________________
TOOLFACE                .deg         66.7                                   :01 TOOLFACE
PUMP_CAPACITY           .bar         400                                    :02 NOMINAL DRAW DOWN PUMP CAPACITY
PUMP_LIMIT              .bar         240                                    :03 DOWNLINK PUMP LIMIT
TIME_LIMIT              .min         10                                     :04 DOWNLINK MAX TIME
TEST_TYPE               .            REPEAT                                 :05 DOWNLINK
TEST_TYPE               .            HIGH MOBILITY                          :06 DOWNLINK
DD_PIST_A               .cm2         3.1416                                 :07 DRAW DOWN PISTON AREA
V_SYS                   .cm3         131.0000                               :08 SYSTEM VOLUME
PROBE_ID                .cm          1.2700                                 :09 TTK PROBE ID
G0                      .            4.6700                                 :10 GEOMETRY FACTOR


~A                  TIME     DD_PRESS                              DD_VOLUME               TEMP                                   DD_PRESS_MOD_1000       DD_PRESS_MOD_100        DD_PRESS_MOD_10         DD_PRESS_MOD_1        DD_PRESS_MOD_01       DD_PRESS_MOD_001      DD_PRESS_MOD_0001
# ...
                  102.90    334.41161                               13.19504             80.594                                        3.34412e+002           3.44116e+001           4.41161e+000           4.11610e-001           1.16105e-002           1.61049e-003           6.10493e-004
                  103.00    334.81926                               13.20231             80.594                                        3.34819e+002           3.48193e+001           4.81926e+000           8.19257e-001           1.92566e-002           9.25660e-003           2.56600e-004
                  103.10    335.23781                               13.20889             80.591                                        3.35238e+002           3.52378e+001           5.23781e+000           2.37806e-001           3.78061e-002           7.80612e-003           8.06119e-004
                  103.20    335.65539                               13.21478             80.588                                        3.35655e+002           3.56554e+001           5.65539e+000           6.55395e-001           5.53949e-002           5.39489e-003           3.94890e-004
                  103.30    336.06424                               13.22001             80.588                                        3.36064e+002           3.60642e+001           6.06424e+000           6.42373e-002           6.42373e-002           4.23732e-003           2.37317e-004
                  103.40    336.47727                               13.22450             80.592                                        3.36477e+002           3.64773e+001           6.47727e+000           4.77272e-001           7.72718e-002           7.27181e-003           2.71814e-004
                  103.50    336.90017                               13.22831             80.591                                        3.36900e+002           3.69002e+001           6.90017e+000           9.00169e-001           1.69143e-004           1.69143e-004           1.69143e-004
                  103.60    337.32226                               13.23144             80.588                                        3.37322e+002           3.73223e+001           7.32226e+000           3.22260e-001           2.22603e-002           2.26031e-003           2.60306e-004
                  103.70    337.73936                               13.23388             80.588                                        3.37739e+002           3.77394e+001           7.73936e+000           7.39363e-001           3.93633e-002           9.36331e-003           3.63314e-004
                  103.80    338.16432                               13.23556             80.592                                        3.38164e+002           3.81643e+001           8.16432e+000           1.64324e-001           6.43239e-002           4.32389e-003           3.23889e-004
                  103.90    338.59195                               13.23657             80.594                                        3.38592e+002           3.85919e+001           8.59195e+000           5.91948e-001           9.19480e-002           1.94795e-003           9.47951e-004
                  104.00    338.99883                               13.23730             80.594                                        3.38999e+002           3.89988e+001           8.99883e+000           9.98831e-001           9.88307e-002           8.83072e-003           8.30719e-004
                  104.10    339.37783                               13.23775             80.591                                        3.39378e+002           3.93778e+001           9.37783e+000           3.77833e-001           7.78333e-002           7.83327e-003           8.33267e-004
                  104.20    339.73562                               13.23782             80.590                                        3.39736e+002           3.97356e+001           9.73562e+000           7.35624e-001           3.56237e-002           5.62367e-003           6.23671e-004
                  104.30    340.06186                               13.23782             80.589                                        3.40062e+002           4.00619e+001           6.18594e-002           6.18594e-002           6.18594e-002           1.85939e-003           8.59393e-004
                  104.40    340.34378                               13.23782             80.590                                        3.40344e+002           4.03438e+001           3.43779e-001           3.43779e-001           4.37786e-002           3.77863e-003           7.78633e-004
                  104.50    340.59060                               13.23782             80.592                                        3.40591e+002           4.05906e+001           5.90598e-001           5.90598e-001           9.05981e-002           5.98103e-004           5.98103e-004
                  104.60    340.81399                               13.23782             80.594                                        3.40814e+002           4.08140e+001           8.13990e-001           8.13990e-001           1.39897e-002           3.98966e-003           9.89663e-004
                  104.70    341.01073                               13.23782             80.594                                        3.41011e+002           4.10107e+001           1.01073e+000           1.07267e-002           1.07267e-002           7.26731e-004           7.26731e-004
                  104.80    341.18255                               13.23782             80.594                                        3.41183e+002           4.11825e+001           1.18255e+000           1.82547e-001           8.25471e-002           2.54710e-003           5.47104e-004
                  104.90    341.33560                               13.23782             80.594                                        3.41336e+002           4.13356e+001           1.33560e+000           3.35597e-001           3.55971e-002           5.59710e-003           5.97100e-004
                  105.00    341.47240                               13.23782             80.591                                        3.41472e+002           4.14724e+001           1.47240e+000           4.72398e-001           7.23982e-002           2.39822e-003           3.98224e-004
                  105.10    341.60011                               13.23782             80.588                                        3.41600e+002           4.16001e+001           1.60011e+000           6.00106e-001           1.05963e-004           1.05963e-004           1.05963e-004
                  105.20    341.71497                               13.23782             80.586                                        3.41715e+002           4.17150e+001           1.71497e+000           7.14967e-001           1.49667e-002           4.96669e-003           9.66692e-004
                  105.30    341.80563                               13.23782             80.586                                        3.41806e+002           4.18056e+001           1.80563e+000           8.05633e-001           5.63332e-003           5.63332e-003           6.33323e-004
                  105.40    341.88452                               13.23782             80.586                                        3.41885e+002           4.18845e+001           1.88452e+000           8.84523e-001           8.45229e-002           4.52287e-003           5.22871e-004
                  105.50    341.95873                               13.23782             80.588                                        3.41959e+002           4.19587e+001           1.95873e+000           9.58726e-001           5.87262e-002           8.72616e-003           7.26160e-004
                  105.60    342.02747                               13.23782             80.592                                        3.42027e+002           4.20275e+001           2.02747e+000           2.74679e-002           2.74679e-002           7.46792e-003           4.67918e-004
