~VERSION INFORMATION
VERS                    .            2.0                                    :CWLS LOG ASCII STANDARD
WRAP                    .            NO                                     :ONE LINE PER TIME STEP


~WELL INFORMATION
#MNEM                   .UNIT        DATA                                    DESCRIPTION
#________________________________________________________________________________________
STRTTIME                .HH/MM/SS    13:32:32                               :START TIME
STOPTIME                .HH/MM/SS    13:36:23                               :STOP TIME
STRT                    .s           2.10                                   :START DATA
STOP                    .s           229.20                                 :STOP DATA
STEP                    .s           0.10                                   :MEASUREMENT TIME INTERVAL
NULL                    .            -999.25                                :NULL VALUE
COMP                    .            Statoil ASA                            :COMPANY
FLD                     .            Volve                                  :FIELD
WELL                    .            15/9-F-1 B                             :WELL
RUN                     .            7                                      :RUN
LOC                     .            Maersk Inspirer                        :LOCATION
PROV                    .            na                                     :PROVINCE
SRVC                    .            Baker Hughes INTEQ                     :SERVICE COMPANY
DATE                    .YY/MM/DD    13/09/06                               :LOG DATE
UWI                     .                                                   :UNIQUE WELL ID
DEPTHMD                 .m           3301.5                                 :MEASURED DEPTH
DEPTHTVD                .m           3096.9                                 :TRUE VERTICAL DEPTH


~CURVE INFORMATION
#MNEM                   .UNIT        API CODES                               DESCRIPTION
#________________________________________________________________________________________
TIME                    .s                                                  :01 TIME
DD_PRESS                .bar                                                :02 DRAW DOWN PRESSURE
DD_VOLUME               .cm3                                                :03 INCREMENTAL DRAW DOWN VOLUME
TEMP                    .degC                                               :04 TRANSDUCER TEMPERATURE
DD_PRESS_MOD_1000       .bar                                                :05 DRAW DOWN PRESSURE MOD 1000
DD_PRESS_MOD_100        .bar                                                :06 DRAW DOWN PRESSURE MOD 100
DD_PRESS_MOD_10         .bar                                                :07 DRAW DOWN PRESSURE MOD 10
DD_PRESS_MOD_1          .bar                                                :08 DRAW DOWN PRESSURE MOD 1
DD_PRESS_MOD_01         .bar                                                :09 DRAW DOWN PRESSURE MOD 01
DD_PRESS_MOD_001        .bar                                                :10 DRAW DOWN PRESSURE MOD 001
DD_PRESS_MOD_0001       .bar                                                :11 DRAW DOWN PRESSURE MOD 0001


~PARAMETER INFORMATION
#MNEM                   .UNIT        VALUE                                   DESCRIPTION
#________________________________________________________________________________________
TOOLFACE                .deg         na                                     :01 TOOLFACE
PUMP_CAPACITY           .bar         400                                    :02 NOMINAL DRAW DOWN PUMP CAPACITY
PUMP_LIMIT              .bar         400                                    :03 DOWNLINK PUMP LIMIT
TIME_LIMIT              .min         10                                     :04 DOWNLINK MAX TIME
TEST_TYPE               .            LOW MOBILITY                           :05 DOWNLINK
DD_PIST_A               .cm2         3.1416                                 :06 DRAW DOWN PISTON AREA
V_SYS                   .cm3         131.0000                               :07 SYSTEM VOLUME
PROBE_ID                .cm          1.2700                                 :08 TTK PROBE ID
G0                      .            4.6700                                 :09 GEOMETRY FACTOR


~A                  TIME     DD_PRESS                              DD_VOLUME               TEMP                                   DD_PRESS_MOD_1000       DD_PRESS_MOD_100        DD_PRESS_MOD_10         DD_PRESS_MOD_1        DD_PRESS_MOD_01       DD_PRESS_MOD_001      DD_PRESS_MOD_0001
# ...
                   16.10    441.98016                                0.00000             85.492                                        4.41980e+002           4.19802e+001           1.98016e+000           9.80161e-001           8.01612e-002           1.61195e-004           1.61195e-004
                   16.20    442.01087                                0.00000             85.492                                        4.42011e+002           4.20109e+001           2.01087e+000           1.08666e-002           1.08666e-002           8.66607e-004           8.66607e-004
                   16.30    442.06007                                0.00000             85.492                                        4.42060e+002           4.20601e+001           2.06007e+000           6.00712e-002           6.00712e-002           7.12323e-005           7.12323e-005
                   16.40    442.04390                                0.00000             85.492                                        4.42044e+002           4.20439e+001           2.04390e+000           4.38958e-002           4.38958e-002           3.89580e-003           8.95798e-004
                   16.50    442.00324                                0.00000             85.492                                        4.42003e+002           4.20032e+001           2.00324e+000           3.24303e-003           3.24303e-003           3.24303e-003           2.43032e-004
                   16.60    442.03014                                0.00000             85.492                                        4.42030e+002           4.20301e+001           2.03014e+000           3.01444e-002           3.01444e-002           1.44419e-004           1.44419e-004
                   16.70    442.07815                                0.00000             85.492                                        4.42078e+002           4.20782e+001           2.07815e+000           7.81540e-002           7.81540e-002           8.15404e-003           1.54045e-004
                   16.80    442.06994                                0.00000             85.492                                        4.42070e+002           4.20699e+001           2.06994e+000           6.99397e-002           6.99397e-002           9.93972e-003           9.39716e-004
                   16.90    442.03296                                0.00000             85.492                                        4.42033e+002           4.20330e+001           2.03296e+000           3.29646e-002           3.29646e-002           2.96463e-003           9.64626e-004
                   17.00    442.04974                                0.00000             85.492                                        4.42050e+002           4.20497e+001           2.04974e+000           4.97442e-002           4.97442e-002           9.74423e-003           7.44227e-004
                   17.10    442.07774                                0.00000             85.492                                        4.42078e+002           4.20777e+001           2.07774e+000           7.77361e-002           7.77361e-002           7.73609e-003           7.36089e-004
                   17.20    442.06109                                0.00000             85.492                                        4.42061e+002           4.20611e+001           2.06109e+000           6.10906e-002           6.10906e-002           1.09065e-003           9.06475e-005
                   17.30    442.02882                                0.00000             85.492                                        4.42029e+002           4.20288e+001           2.02882e+000           2.88197e-002           2.88197e-002           8.81968e-003           8.19675e-004
                   17.40    442.05612                                0.00000             85.490                                        4.42056e+002           4.20561e+001           2.05612e+000           5.61211e-002           5.61211e-002           6.12114e-003           1.21142e-004
                   17.50    442.10406                                0.00000             85.486                                        4.42104e+002           4.21041e+001           2.10406e+000           1.04065e-001           4.06459e-003           4.06459e-003           6.45913e-005
                   17.60    442.08379                                0.00000             85.484                                        4.42084e+002           4.20838e+001           2.08379e+000           8.37938e-002           8.37938e-002           3.79381e-003           7.93806e-004
                   17.70    442.04132                                0.00000             85.484                                        4.42041e+002           4.20413e+001           2.04132e+000           4.13172e-002           4.13172e-002           1.31724e-003           3.17244e-004
                   17.80    442.07267                                0.00000             85.484                                        4.42073e+002           4.20727e+001           2.07267e+000           7.26708e-002           7.26708e-002           2.67084e-003           6.70837e-004
                   17.90    442.12459                                0.00000             85.484                                        4.42125e+002           4.21246e+001           2.12459e+000           1.24589e-001           2.45885e-002           4.58853e-003           5.88529e-004
                   18.00    442.09988                                0.00000             85.484                                        4.42100e+002           4.20999e+001           2.09988e+000           9.98769e-002           9.98769e-002           9.87689e-003           8.76891e-004
                   18.10    442.04792                                0.00000             85.484                                        4.42048e+002           4.20479e+001           2.04792e+000           4.79240e-002           4.79240e-002           7.92401e-003           9.24005e-004
                   18.20    442.08007                                0.00000             85.484                                        4.42080e+002           4.20801e+001           2.08007e+000           8.00671e-002           8.00671e-002           6.71495e-005           6.71495e-005
                   18.30    442.12686                                0.00000             85.484                                        4.42127e+002           4.21269e+001           2.12686e+000           1.26857e-001           2.68572e-002           6.85717e-003           8.57171e-004
                   18.40    442.09490                                0.00000             85.484                                        4.42095e+002           4.20949e+001           2.09490e+000           9.49046e-002           9.49046e-002           4.90460e-003           9.04602e-004
                   18.50    442.05104                                0.00000             85.484                                        4.42051e+002           4.20510e+001           2.05104e+000           5.10377e-002           5.10377e-002           1.03765e-003           3.76508e-005
                   18.60    442.09403                                0.00000             85.484                                        4.42094e+002           4.20940e+001           2.09403e+000           9.40333e-002           9.40333e-002           4.03335e-003           3.33452e-005
                   18.70    442.14678                                0.00000             85.484                                        4.42147e+002           4.21468e+001           2.14678e+000           1.46780e-001           4.67797e-002           6.77975e-003           7.79746e-004
                   18.80    442.12576                                0.00000             85.484                                        4.42126e+002           4.21258e+001           2.12576e+000           1.25760e-001           2.57603e-002           5.76034e-003           7.60337e-004
