~VERSION INFORMATION
VERS                    .            2.0                                    :CWLS LOG ASCII STANDARD
WRAP                    .            NO                                     :ONE LINE PER TIME STEP


~WELL INFORMATION
#MNEM                   .UNIT        DATA                                    DESCRIPTION
#________________________________________________________________________________________
STRTTIME                .HH/MM/SS    08:48:41                               :START TIME
STOPTIME                .HH/MM/SS    08:51:35                               :STOP TIME
STRT                    .s           2.10                                   :START DATA
STOP                    .s           172.50                                 :STOP DATA
STEP                    .s           0.10                                   :MEASUREMENT TIME INTERVAL
NULL                    .            -999.25                                :NULL VALUE
COMP                    .            Statoil ASA                            :COMPANY
FLD                     .            Volve                                  :FIELD
WELL                    .            15/9-F-11 A                            :WELL
RUN                     .            8                                      :RUN
LOC                     .            Maersk Inspirer                        :LOCATION
PROV                    .            na                                     :PROVINCE
SRVC                    .            Baker Hughes INTEQ                     :SERVICE COMPANY
DATE                    .YY/MM/DD    13/05/21                               :LOG DATE
UWI                     .                                                   :UNIQUE WELL ID
DEPTHMD                 .m           3681.0                                 :MEASURED DEPTH
DEPTHTVD                .m           3064.4                                 :TRUE VERTICAL DEPTH


~CURVE INFORMATION
#MNEM                   .UNIT        API CODES                               DESCRIPTION
#________________________________________________________________________________________
TIME                    .s                                                  :01 TIME
DD_PRESS                .bar                                                :02 DRAW DOWN PRESSURE
DD_VOLUME               .cm3                                                :03 INCREMENTAL DRAW DOWN VOLUME
TEMP                    .degC                                               :04 TRANSDUCER TEMPERATURE
DD_PRESS_MOD_1000       .bar                                                :05 DRAW DOWN PRESSURE MOD 1000
DD_PRESS_MOD_100        .bar                                                :06 DRAW DOWN PRESSURE MOD 100
DD_PRESS_MOD_10         .bar                                                :07 DRAW DOWN PRESSURE MOD 10
DD_PRESS_MOD_1          .bar                                                :08 DRAW DOWN PRESSURE MOD 1
DD_PRESS_MOD_01         .bar                                                :09 DRAW DOWN PRESSURE MOD 01
DD_PRESS_MOD_001        .bar                                                :10 DRAW DOWN PRESSURE MOD 001
DD_PRESS_MOD_0001       .bar                                                :11 DRAW DOWN PRESSURE MOD 0001


~PARAMETER INFORMATION
#MNEM                   .UNIT        VALUE                                   DESCRIPTION
#________________________________________________________________________________________
TOOLFACE                .deg         -59.5                                  :01 TOOLFACE
PUMP_CAPACITY           .bar         400                                    :02 NOMINAL DRAW DOWN PUMP CAPACITY
PUMP_LIMIT              .bar         240                                    :03 DOWNLINK PUMP LIMIT
TIME_LIMIT              .min         10                                     :04 DOWNLINK MAX TIME
TEST_TYPE               .            REPEAT                                 :05 DOWNLINK
TEST_TYPE               .            HIGH MOBILITY                          :06 DOWNLINK
DD_PIST_A               .cm2         3.1416                                 :07 DRAW DOWN PISTON AREA
V_SYS                   .cm3         131.0000                               :08 SYSTEM VOLUME
PROBE_ID                .cm          1.2700                                 :09 TTK PROBE ID
G0                      .            4.6700                                 :10 GEOMETRY FACTOR


~A                  TIME     DD_PRESS                              DD_VOLUME               TEMP                                   DD_PRESS_MOD_1000       DD_PRESS_MOD_100        DD_PRESS_MOD_10         DD_PRESS_MOD_1        DD_PRESS_MOD_01       DD_PRESS_MOD_001      DD_PRESS_MOD_0001
# ...
                  170.10    424.34840                                0.00000             82.617                                        4.24348e+002           2.43484e+001           4.34840e+000           3.48404e-001           4.84040e-002           8.40404e-003           4.04037e-004
                  170.20    424.33749                                0.00000             82.617                                        4.24337e+002           2.43375e+001           4.33749e+000           3.37492e-001           3.74920e-002           7.49205e-003           4.92049e-004
                  170.30    424.33533                                0.00000             82.617                                        4.24335e+002           2.43353e+001           4.33533e+000           3.35326e-001           3.53255e-002           5.32550e-003           3.25500e-004
                  170.40    424.34042                                0.00000             82.617                                        4.24340e+002           2.43404e+001           4.34042e+000           3.40418e-001           4.04178e-002           4.17774e-004           4.17774e-004
                  170.50    424.34818                                0.00000             82.617                                        4.24348e+002           2.43482e+001           4.34818e+000           3.48184e-001           4.81839e-002           8.18386e-003           1.83863e-004
                  170.60    424.35318                                0.00000             82.617                                        4.24353e+002           2.43532e+001           4.35318e+000           3.53180e-001           5.31804e-002           3.18040e-003           1.80397e-004
                  170.70    424.35328                                0.00000             82.617                                        4.24353e+002           2.43533e+001           4.35328e+000           3.53281e-001           5.32809e-002           3.28094e-003           2.80936e-004
                  170.80    424.34503                                0.00000             82.617                                        4.24345e+002           2.43450e+001           4.34503e+000           3.45030e-001           4.50298e-002           5.02977e-003           2.97738e-005
                  170.90    424.32670                                0.00000             82.617                                        4.24327e+002           2.43267e+001           4.32670e+000           3.26701e-001           2.67006e-002           6.70060e-003           7.00596e-004
                  171.00    424.32282                                0.00000             82.617                                        4.24323e+002           2.43228e+001           4.32282e+000           3.22823e-001           2.28230e-002           2.82296e-003           8.22961e-004
                  171.10    424.32628                                0.00000             82.617                                        4.24326e+002           2.43263e+001           4.32628e+000           3.26281e-001           2.62806e-002           6.28060e-003           2.80601e-004
                  171.20    424.32442                                0.00000             82.617                                        4.24324e+002           2.43244e+001           4.32442e+000           3.24419e-001           2.44189e-002           4.41892e-003           4.18917e-004
                  171.30    424.31695                                0.00000             82.617                                        4.24317e+002           2.43170e+001           4.31695e+000           3.16952e-001           1.69518e-002           6.95185e-003           9.51848e-004
                  171.40    424.32028                                0.00000             82.617                                        4.24320e+002           2.43203e+001           4.32028e+000           3.20281e-001           2.02814e-002           2.81392e-004           2.81392e-004
                  171.50    424.33342                                0.00000             82.617                                        4.24333e+002           2.43334e+001           4.33342e+000           3.33420e-001           3.34196e-002           3.41958e-003           4.19582e-004
                  171.60    424.34137                                0.00000             82.617                                        4.24341e+002           2.43414e+001           4.34137e+000           3.41375e-001           4.13746e-002           1.37460e-003           3.74596e-004
                  171.70    424.32236                                0.00000             82.617                                        4.24322e+002           2.43224e+001           4.32236e+000           3.22363e-001           2.23633e-002           2.36331e-003           3.63307e-004
                  171.80    424.30788                                0.00000             82.617                                        4.24308e+002           2.43079e+001           4.30788e+000           3.07882e-001           7.88239e-003           7.88239e-003           8.82385e-004
                  171.90    424.33530                                0.00000             82.617                                        4.24335e+002           2.43353e+001           4.33530e+000           3.35299e-001           3.52993e-002           5.29928e-003           2.99284e-004
                  172.00    424.35348                                0.00000             82.617                                        4.24353e+002           2.43535e+001           4.35348e+000           3.53479e-001           5.34787e-002           3.47866e-003           4.78662e-004
                  172.10    424.32412                                0.00000             82.617                                        4.24324e+002           2.43241e+001           4.32412e+000           3.24122e-001           2.41223e-002           4.12225e-003           1.22254e-004
                  172.20    424.29872                                0.00000             82.617                                        4.24299e+002           2.42987e+001           4.29872e+000           2.98717e-001           9.87172e-002           8.71721e-003           7.17211e-004
                  172.30    424.31856                                0.00000             82.617                                        4.24319e+002           2.43186e+001           4.31856e+000           3.18559e-001           1.85592e-002           8.55925e-003           5.59247e-004
                  172.40    424.35027                                0.00000             82.617                                        4.24350e+002           2.43503e+001           4.35027e+000           3.50275e-001           5.02747e-002           2.74693e-004           2.74693e-004
                  172.50    424.35677                                0.00000             82.617                                        4.24357e+002           2.43568e+001           4.35677e+000           3.56767e-001           5.67668e-002           6.76676e-003           7.66762e-004
