~VERSION INFORMATION
VERS                    .            2.0                                    :CWLS LOG ASCII STANDARD
WRAP                    .            NO                                     :ONE LINE PER TIME STEP


~WELL INFORMATION
#MNEM                   .UNIT        DATA                                    DESCRIPTION
#________________________________________________________________________________________
STRTTIME                .HH/MM/SS    10:02:47                               :START TIME
STOPTIME                .HH/MM/SS    10:07:04                               :STOP TIME
STRT                    .s           2.10                                   :START DATA
STOP                    .s           255.20                                 :STOP DATA
STEP                    .s           0.10                                   :MEASUREMENT TIME INTERVAL
NULL                    .            -999.25                                :NULL VALUE
COMP                    .            Statoil ASA                            :COMPANY
FLD                     .            Volve                                  :FIELD
WELL                    .            15/9-F-11 A                            :WELL
RUN                     .            8                                      :RUN
LOC                     .            Maersk Inspirer                        :LOCATION
PROV                    .            na                                     :PROVINCE
SRVC                    .            Baker Hughes INTEQ                     :SERVICE COMPANY
DATE                    .YY/MM/DD    13/05/21                               :LOG DATE
UWI                     .                                                   :UNIQUE WELL ID
DEPTHMD                 .m           3657.3                                 :MEASURED DEPTH
DEPTHTVD                .m           3046.2                                 :TRUE VERTICAL DEPTH


~CURVE INFORMATION
#MNEM                   .UNIT        API CODES                               DESCRIPTION
#________________________________________________________________________________________
TIME                    .s                                                  :01 TIME
DD_PRESS                .bar                                                :02 DRAW DOWN PRESSURE
DD_VOLUME               .cm3                                                :03 INCREMENTAL DRAW DOWN VOLUME
TEMP                    .degC                                               :04 TRANSDUCER TEMPERATURE
DD_PRESS_MOD_1000       .bar                                                :05 DRAW DOWN PRESSURE MOD 1000
DD_PRESS_MOD_100        .bar                                                :06 DRAW DOWN PRESSURE MOD 100
DD_PRESS_MOD_10         .bar                                                :07 DRAW DOWN PRESSURE MOD 10
DD_PRESS_MOD_1          .bar                                                :08 DRAW DOWN PRESSURE MOD 1
DD_PRESS_MOD_01         .bar                                                :09 DRAW DOWN PRESSURE MOD 01
DD_PRESS_MOD_001        .bar                                                :10 DRAW DOWN PRESSURE MOD 001
DD_PRESS_MOD_0001       .bar                                                :11 DRAW DOWN PRESSURE MOD 0001


~PARAMETER INFORMATION
#MNEM                   .UNIT        VALUE                                   DESCRIPTION
#________________________________________________________________________________________
TOOLFACE                .deg         60.1                                   :01 TOOLFACE
PUMP_CAPACITY           .bar         400                                    :02 NOMINAL DRAW DOWN PUMP CAPACITY
PUMP_LIMIT              .bar         240                                    :03 DOWNLINK PUMP LIMIT
TIME_LIMIT              .min         10                                     :04 DOWNLINK MAX TIME
TEST_TYPE               .            REPEAT                                 :05 DOWNLINK
TEST_TYPE               .            HIGH MOBILITY                          :06 DOWNLINK
DD_PIST_A               .cm2         3.1416                                 :07 DRAW DOWN PISTON AREA
V_SYS                   .cm3         131.0000                               :08 SYSTEM VOLUME
PROBE_ID                .cm          1.2700                                 :09 TTK PROBE ID
G0                      .            4.6700                                 :10 GEOMETRY FACTOR


~A                  TIME     DD_PRESS                              DD_VOLUME               TEMP                                   DD_PRESS_MOD_1000       DD_PRESS_MOD_100        DD_PRESS_MOD_10         DD_PRESS_MOD_1        DD_PRESS_MOD_01       DD_PRESS_MOD_001      DD_PRESS_MOD_0001
# ...
                   86.10    344.39683                               10.48171             82.141                                        3.44397e+002           4.43968e+001           4.39683e+000           3.96826e-001           9.68261e-002           6.82614e-003           8.26139e-004
                   86.20    344.39516                               10.48171             82.141                                        3.44395e+002           4.43952e+001           4.39516e+000           3.95159e-001           9.51593e-002           5.15934e-003           1.59336e-004
                   86.30    344.37768                               10.48171             82.141                                        3.44378e+002           4.43777e+001           4.37768e+000           3.77677e-001           7.76773e-002           7.67726e-003           6.77256e-004
                   86.40    344.37583                               10.48171             82.141                                        3.44376e+002           4.43758e+001           4.37583e+000           3.75831e-001           7.58306e-002           5.83055e-003           8.30555e-004
                   86.50    344.39420                               10.48171             82.141                                        3.44394e+002           4.43942e+001           4.39420e+000           3.94203e-001           9.42031e-002           4.20308e-003           2.03078e-004
                   86.60    344.40457                               10.48171             82.141                                        3.44405e+002           4.44046e+001           4.40457e+000           4.04571e-001           4.57138e-003           4.57138e-003           5.71378e-004
                   86.70    344.39692                               10.48171             82.141                                        3.44397e+002           4.43969e+001           4.39692e+000           3.96922e-001           9.69223e-002           6.92226e-003           9.22263e-004
                   86.80    344.39071                               10.48171             82.141                                        3.44391e+002           4.43907e+001           4.39071e+000           3.90714e-001           9.07144e-002           7.14442e-004           7.14442e-004
                   86.90    344.39911                               10.48171             82.141                                        3.44399e+002           4.43991e+001           4.39911e+000           3.99112e-001           9.91116e-002           9.11159e-003           1.11588e-004
                   87.00    344.40775                               10.48171             82.141                                        3.44408e+002           4.44077e+001           4.40775e+000           4.07747e-001           7.74706e-003           7.74706e-003           7.47064e-004
                   87.10    344.40060                               10.48171             82.141                                        3.44401e+002           4.44006e+001           4.40060e+000           4.00604e-001           6.04120e-004           6.04120e-004           6.04120e-004
                   87.20    344.38710                               10.48171             82.141                                        3.44387e+002           4.43871e+001           4.38710e+000           3.87101e-001           8.71014e-002           7.10140e-003           1.01402e-004
                   87.30    344.39180                               10.48171             82.141                                        3.44392e+002           4.43918e+001           4.39180e+000           3.91798e-001           9.17982e-002           1.79816e-003           7.98164e-004
                   87.40    344.40694                               10.48171             82.141                                        3.44407e+002           4.44069e+001           4.40694e+000           4.06937e-001           6.93749e-003           6.93749e-003           9.37490e-004
                   87.50    344.41043                               10.48171             82.141                                        3.44410e+002           4.44104e+001           4.41043e+000           4.10427e-001           1.04272e-002           4.27221e-004           4.27221e-004
                   87.60    344.39950                               10.48171             82.141                                        3.44399e+002           4.43995e+001           4.39950e+000           3.99497e-001           9.94973e-002           9.49727e-003           4.97269e-004
                   87.70    344.39801                               10.48171             82.141                                        3.44398e+002           4.43980e+001           4.39801e+000           3.98006e-001           9.80064e-002           8.00636e-003           6.36054e-006
                   87.80    344.40814                               10.48171             82.141                                        3.44408e+002           4.44081e+001           4.40814e+000           4.08145e-001           8.14465e-003           8.14465e-003           1.44652e-004
                   87.90    344.41107                               10.48171             82.141                                        3.44411e+002           4.44111e+001           4.41107e+000           4.11072e-001           1.10719e-002           1.07188e-003           7.18756e-005
                   88.00    344.40026                               10.48171             82.141                                        3.44400e+002           4.44003e+001           4.40026e+000           4.00264e-001           2.64357e-004           2.64357e-004           2.64357e-004
                   88.10    344.39516                               10.48171             82.141                                        3.44395e+002           4.43952e+001           4.39516e+000           3.95159e-001           9.51588e-002           5.15881e-003           1.58810e-004
                   88.20    344.39969                               10.48171             82.141                                        3.44400e+002           4.43997e+001           4.39969e+000           3.99689e-001           9.96894e-002           9.68943e-003           6.89431e-004
                   88.30    344.40074                               10.48171             82.141                                        3.44401e+002           4.44007e+001           4.40074e+000           4.00736e-001           7.35588e-004           7.35588e-004           7.35588e-004
                   88.40    344.39151                               10.48171             82.141                                        3.44392e+002           4.43915e+001           4.39151e+000           3.91508e-001           9.15085e-002           1.50849e-003           5.08491e-004
                   88.50    344.38866                               10.48171             82.141                                        3.44389e+002           4.43887e+001           4.38866e+000           3.88659e-001           8.86590e-002           8.65903e-003           6.59027e-004
                   88.60    344.40058                               10.48171             82.141                                        3.44401e+002           4.44006e+001           4.40058e+000           4.00577e-001           5.77103e-004           5.77103e-004           5.77103e-004
                   88.70    344.40185                               10.48171             82.141                                        3.44402e+002           4.44019e+001           4.40185e+000           4.01852e-001           1.85192e-003           1.85192e-003           8.51920e-004
                   88.80    344.38932                               10.48171             82.141                                        3.44389e+002           4.43893e+001           4.38932e+000           3.89322e-001           8.93221e-002           9.32207e-003           3.22071e-004
