~VERSION INFORMATION
VERS                    .            2.0                                    :CWLS LOG ASCII STANDARD
WRAP                    .            NO                                     :ONE LINE PER TIME STEP


~WELL INFORMATION
#MNEM                   .UNIT        DATA                                    DESCRIPTION
#________________________________________________________________________________________
STRTTIME                .HH/MM/SS    04:27:44                               :START TIME
STOPTIME                .HH/MM/SS    04:30:31                               :STOP TIME
STRT                    .s           2.10                                   :START DATA
STOP                    .s           165.30                                 :STOP DATA
STEP                    .s           0.10                                   :MEASUREMENT TIME INTERVAL
NULL                    .            -999.25                                :NULL VALUE
COMP                    .            Statoil ASA                            :COMPANY
FLD                     .            Volve                                  :FIELD
WELL                    .            15/9-F-1 C                             :WELL
RUN                     .            4                                      :RUN
LOC                     .                                                   :LOCATION
PROV                    .            na                                     :PROVINCE
SRVC                    .            Baker Hughes INTEQ                     :SERVICE COMPANY
DATE                    .YY/MM/DD    14/03/15                               :LOG DATE
UWI                     .                                                   :UNIQUE WELL ID
DEPTHMD                 .m           3273.1                                 :MEASURED DEPTH
DEPTHTVD                .m           2948.3                                 :TRUE VERTICAL DEPTH


~CURVE INFORMATION
#MNEM                   .UNIT        API CODES                               DESCRIPTION
#________________________________________________________________________________________
TIME                    .s                                                  :01 TIME
DD_PRESS                .bar                                                :02 DRAW DOWN PRESSURE
DD_VOLUME               .cm3                                                :03 INCREMENTAL DRAW DOWN VOLUME
TEMP                    .degC                                               :04 TRANSDUCER TEMPERATURE
DD_PRESS_MOD_1000       .bar                                                :05 DRAW DOWN PRESSURE MOD 1000
DD_PRESS_MOD_100        .bar                                                :06 DRAW DOWN PRESSURE MOD 100
DD_PRESS_MOD_10         .bar                                                :07 DRAW DOWN PRESSURE MOD 10
DD_PRESS_MOD_1          .bar                                                :08 DRAW DOWN PRESSURE MOD 1
DD_PRESS_MOD_01         .bar                                                :09 DRAW DOWN PRESSURE MOD 01
DD_PRESS_MOD_001        .bar                                                :10 DRAW DOWN PRESSURE MOD 001
DD_PRESS_MOD_0001       .bar                                                :11 DRAW DOWN PRESSURE MOD 0001


~PARAMETER INFORMATION
#MNEM                   .UNIT        VALUE                                   DESCRIPTION
#________________________________________________________________________________________
TOOLFACE                .deg         76.8                                   :01 TOOLFACE
PUMP_CAPACITY           .bar         400                                    :02 NOMINAL DRAW DOWN PUMP CAPACITY
PUMP_LIMIT              .bar         240                                    :03 DOWNLINK PUMP LIMIT
TIME_LIMIT              .min         10                                     :04 DOWNLINK MAX TIME
TEST_TYPE               .            REPEAT                                 :05 DOWNLINK
TEST_TYPE               .            HIGH MOBILITY                          :06 DOWNLINK
DD_PIST_A               .cm2         3.1416                                 :07 DRAW DOWN PISTON AREA
V_SYS                   .cm3         131.0000                               :08 SYSTEM VOLUME
PROBE_ID                .cm          1.2700                                 :09 TTK PROBE ID
G0                      .            4.6700                                 :10 GEOMETRY FACTOR


~A                  TIME     DD_PRESS                              DD_VOLUME               TEMP                                   DD_PRESS_MOD_1000       DD_PRESS_MOD_100        DD_PRESS_MOD_10         DD_PRESS_MOD_1        DD_PRESS_MOD_01       DD_PRESS_MOD_001      DD_PRESS_MOD_0001
# ...
                   77.70    338.17464                               10.49385             84.984                                        3.38175e+002           3.81746e+001           8.17464e+000           1.74637e-001           7.46371e-002           4.63709e-003           6.37088e-004
                   77.80    338.17377                               10.49385             84.984                                        3.38174e+002           3.81738e+001           8.17377e+000           1.73767e-001           7.37671e-002           3.76714e-003           7.67136e-004
                   77.90    338.17425                               10.49385             84.984                                        3.38174e+002           3.81743e+001           8.17425e+000           1.74254e-001           7.42538e-002           4.25376e-003           2.53762e-004
                   78.00    338.17679                               10.49385             84.984                                        3.38177e+002           3.81768e+001           8.17679e+000           1.76793e-001           7.67931e-002           6.79310e-003           7.93103e-004
                   78.10    338.17806                               10.49385             84.984                                        3.38178e+002           3.81781e+001           8.17806e+000           1.78059e-001           7.80590e-002           8.05902e-003           5.90201e-005
                   78.20    338.17786                               10.49385             84.984                                        3.38178e+002           3.81779e+001           8.17786e+000           1.77863e-001           7.78628e-002           7.86277e-003           8.62768e-004
                   78.30    338.17566                               10.49385             84.984                                        3.38176e+002           3.81757e+001           8.17566e+000           1.75662e-001           7.56618e-002           5.66178e-003           6.61777e-004
                   78.40    338.17511                               10.49385             84.984                                        3.38175e+002           3.81751e+001           8.17511e+000           1.75107e-001           7.51069e-002           5.10693e-003           1.06926e-004
                   78.50    338.17533                               10.49385             84.984                                        3.38175e+002           3.81753e+001           8.17533e+000           1.75335e-001           7.53348e-002           5.33485e-003           3.34847e-004
                   78.60    338.17596                               10.49385             84.984                                        3.38176e+002           3.81760e+001           8.17596e+000           1.75964e-001           7.59642e-002           5.96422e-003           9.64219e-004
                   78.70    338.17543                               10.49385             84.984                                        3.38175e+002           3.81754e+001           8.17543e+000           1.75426e-001           7.54264e-002           5.42645e-003           4.26447e-004
                   78.80    338.17596                               10.49385             84.984                                        3.38176e+002           3.81760e+001           8.17596e+000           1.75959e-001           7.59585e-002           5.95851e-003           9.58505e-004
                   78.90    338.17761                               10.49385             84.984                                        3.38178e+002           3.81776e+001           8.17761e+000           1.77607e-001           7.76066e-002           7.60660e-003           6.06595e-004
                   79.00    338.17521                               10.49385             84.984                                        3.38175e+002           3.81752e+001           8.17521e+000           1.75207e-001           7.52066e-002           5.20655e-003           2.06552e-004
                   79.10    338.17386                               10.49385             84.984                                        3.38174e+002           3.81739e+001           8.17386e+000           1.73861e-001           7.38614e-002           3.86141e-003           8.61413e-004
                   79.20    338.17570                               10.49385             84.984                                        3.38176e+002           3.81757e+001           8.17570e+000           1.75698e-001           7.56977e-002           5.69769e-003           6.97689e-004
                   79.30    338.17837                               10.49385             84.984                                        3.38178e+002           3.81784e+001           8.17837e+000           1.78369e-001           7.83691e-002           8.36908e-003           3.69082e-004
                   79.40    338.17667                               10.49385             84.984                                        3.38177e+002           3.81767e+001           8.17667e+000           1.76672e-001           7.66724e-002           6.67244e-003           6.72440e-004
                   79.50    338.17382                               10.49385             84.984                                        3.38174e+002           3.81738e+001           8.17382e+000           1.73819e-001           7.38189e-002           3.81889e-003           8.18892e-004
                   79.60    338.17390                               10.49385             84.984                                        3.38174e+002           3.81739e+001           8.17390e+000           1.73902e-001           7.39016e-002           3.90160e-003           9.01605e-004
                   79.70    338.17527                               10.49385             84.984                                        3.38175e+002           3.81753e+001           8.17527e+000           1.75275e-001           7.52745e-002           5.27453e-003           2.74531e-004
                   79.80    338.17384                               10.49385             84.984                                        3.38174e+002           3.81738e+001           8.17384e+000           1.73840e-001           7.38396e-002           3.83957e-003           8.39571e-004
                   79.90    338.17157                               10.49392             84.984                                        3.38172e+002           3.81716e+001           8.17157e+000           1.71574e-001           7.15740e-002           1.57405e-003           5.74046e-004
                   80.00    338.17149                               10.49438             84.984                                        3.38171e+002           3.81715e+001           8.17149e+000           1.71490e-001           7.14903e-002           1.49030e-003           4.90297e-004
                   80.10    338.17391                               10.49489             84.984                                        3.38174e+002           3.81739e+001           8.17391e+000           1.73913e-001           7.39128e-002           3.91280e-003           9.12799e-004
                   80.20    338.17415                               10.49545             84.984                                        3.38174e+002           3.81742e+001           8.17415e+000           1.74154e-001           7.41543e-002           4.15426e-003           1.54264e-004
                   80.30    338.16807                               10.49665             84.984                                        3.38168e+002           3.81681e+001           8.16807e+000           1.68066e-001           6.80656e-002           8.06561e-003           6.56137e-005
                   80.40    338.16327                               10.49880             84.984                                        3.38163e+002           3.81633e+001           8.16327e+000           1.63275e-001           6.32745e-002           3.27454e-003           2.74543e-004
