~VERSION INFORMATION
VERS                    .            2.0                                    :CWLS LOG ASCII STANDARD
WRAP                    .            NO                                     :ONE LINE PER TIME STEP


~WELL INFORMATION
#MNEM                   .UNIT        DATA                                    DESCRIPTION
#________________________________________________________________________________________
STRTTIME                .HH/MM/SS    01:44:52                               :START TIME
STOPTIME                .HH/MM/SS    01:47:47                               :STOP TIME
STRT                    .s           2.10                                   :START DATA
STOP                    .s           173.40                                 :STOP DATA
STEP                    .s           0.10                                   :MEASUREMENT TIME INTERVAL
NULL                    .            -999.25                                :NULL VALUE
COMP                    .            Statoil ASA                            :COMPANY
FLD                     .            Volve                                  :FIELD
WELL                    .            15/9-F-1 C                             :WELL
RUN                     .            4                                      :RUN
LOC                     .                                                   :LOCATION
PROV                    .            na                                     :PROVINCE
SRVC                    .            Baker Hughes INTEQ                     :SERVICE COMPANY
DATE                    .YY/MM/DD    14/03/15                               :LOG DATE
UWI                     .                                                   :UNIQUE WELL ID
DEPTHMD                 .m           3620.2                                 :MEASURED DEPTH
DEPTHTVD                .m           3012.3                                 :TRUE VERTICAL DEPTH


~CURVE INFORMATION
#MNEM                   .UNIT        API CODES                               DESCRIPTION
#________________________________________________________________________________________
TIME                    .s                                                  :01 TIME
DD_PRESS                .bar                                                :02 DRAW DOWN PRESSURE
DD_VOLUME               .cm3                                                :03 INCREMENTAL DRAW DOWN VOLUME
TEMP                    .degC                                               :04 TRANSDUCER TEMPERATURE
DD_PRESS_MOD_1000       .bar                                                :05 DRAW DOWN PRESSURE MOD 1000
DD_PRESS_MOD_100        .bar                                                :06 DRAW DOWN PRESSURE MOD 100
DD_PRESS_MOD_10         .bar                                                :07 DRAW DOWN PRESSURE MOD 10
DD_PRESS_MOD_1          .bar                                                :08 DRAW DOWN PRESSURE MOD 1
DD_PRESS_MOD_01         .bar                                                :09 DRAW DOWN PRESSURE MOD 01
DD_PRESS_MOD_001        .bar                                                :10 DRAW DOWN PRESSURE MOD 001
DD_PRESS_MOD_0001       .bar                                                :11 DRAW DOWN PRESSURE MOD 0001


~PARAMETER INFORMATION
#MNEM                   .UNIT        VALUE                                   DESCRIPTION
#________________________________________________________________________________________
TOOLFACE                .deg         108.7                                  :01 TOOLFACE
PUMP_CAPACITY           .bar         400                                    :02 NOMINAL DRAW DOWN PUMP CAPACITY
PUMP_LIMIT              .bar         240                                    :03 DOWNLINK PUMP LIMIT
TIME_LIMIT              .min         10                                     :04 DOWNLINK MAX TIME
TEST_TYPE               .            REPEAT                                 :05 DOWNLINK
TEST_TYPE               .            HIGH MOBILITY                          :06 DOWNLINK
DD_PIST_A               .cm2         3.1416                                 :07 DRAW DOWN PISTON AREA
V_SYS                   .cm3         131.0000                               :08 SYSTEM VOLUME
PROBE_ID                .cm          1.2700                                 :09 TTK PROBE ID
G0                      .            4.6700                                 :10 GEOMETRY FACTOR


~A                  TIME     DD_PRESS                              DD_VOLUME               TEMP                                   DD_PRESS_MOD_1000       DD_PRESS_MOD_100        DD_PRESS_MOD_10         DD_PRESS_MOD_1        DD_PRESS_MOD_01       DD_PRESS_MOD_001      DD_PRESS_MOD_0001
# ...
                   24.50    419.84834                                1.15289             87.219                                        4.19848e+002           1.98483e+001           9.84834e+000           8.48340e-001           4.83403e-002           8.34028e-003           3.40282e-004
                   24.60    418.34056                                1.17912             87.219                                        4.18341e+002           1.83406e+001           8.34056e+000           3.40564e-001           4.05642e-002           5.64237e-004           5.64237e-004
                   24.70    416.71571                                1.20742             87.219                                        4.16716e+002           1.67157e+001           6.71571e+000           7.15715e-001           1.57150e-002           5.71495e-003           7.14954e-004
                   24.80    414.96662                                1.23765             87.219                                        4.14967e+002           1.49666e+001           4.96662e+000           9.66618e-001           6.66177e-002           6.61770e-003           6.17703e-004
                   24.90    413.07459                                1.26973             87.219                                        4.13075e+002           1.30746e+001           3.07459e+000           7.45901e-002           7.45901e-002           4.59007e-003           5.90074e-004
                   25.00    411.04350                                1.30375             87.219                                        4.11044e+002           1.10435e+001           1.04350e+000           4.35003e-002           4.35003e-002           3.50032e-003           5.00324e-004
                   25.10    408.88101                                1.33959             87.219                                        4.08881e+002           8.88101e+000           8.88101e+000           8.81010e-001           8.10099e-002           1.00988e-003           9.87634e-006
                   25.20    406.58783                                1.37721             87.219                                        4.06588e+002           6.58783e+000           6.58783e+000           5.87830e-001           8.78302e-002           7.83019e-003           8.30194e-004
                   25.30    404.16241                                1.41661             87.219                                        4.04162e+002           4.16241e+000           4.16241e+000           1.62409e-001           6.24094e-002           2.40944e-003           4.09444e-004
                   25.40    401.60205                                1.45787             87.219                                        4.01602e+002           1.60205e+000           1.60205e+000           6.02055e-001           2.05491e-003           2.05491e-003           5.49127e-005
                   25.50    398.90248                                1.50102             87.219                                        3.98902e+002           9.89025e+001           8.90248e+000           9.02480e-001           2.48042e-003           2.48042e-003           4.80417e-004
                   25.60    396.05412                                1.54592             87.219                                        3.96054e+002           9.60541e+001           6.05412e+000           5.41157e-002           5.41157e-002           4.11573e-003           1.15732e-004
                   25.70    393.04306                                1.59252             87.219                                        3.93043e+002           9.30431e+001           3.04306e+000           4.30571e-002           4.30571e-002           3.05706e-003           5.70620e-005
                   25.80    389.88100                                1.64094             87.219                                        3.89881e+002           8.98810e+001           9.88100e+000           8.80997e-001           8.09972e-002           9.97152e-004           9.97152e-004
                   25.90    386.57676                                1.69111             87.219                                        3.86577e+002           8.65768e+001           6.57676e+000           5.76760e-001           7.67605e-002           6.76046e-003           7.60456e-004
                   26.00    383.14420                                1.74290             87.219                                        3.83144e+002           8.31442e+001           3.14420e+000           1.44197e-001           4.41968e-002           4.19684e-003           1.96835e-004
                   26.10    379.57767                                1.79635             87.219                                        3.79578e+002           7.95777e+001           9.57767e+000           5.77674e-001           7.76740e-002           7.67403e-003           6.74034e-004
                   26.20    375.86486                                1.85149             87.219                                        3.75865e+002           7.58649e+001           5.86486e+000           8.64856e-001           6.48559e-002           4.85592e-003           8.55921e-004
                   26.30    372.01391                                1.90822             87.219                                        3.72014e+002           7.20139e+001           2.01391e+000           1.39058e-002           1.39058e-002           3.90576e-003           9.05761e-004
                   26.40    368.04791                                1.96670             87.219                                        3.68048e+002           6.80479e+001           8.04791e+000           4.79085e-002           4.79085e-002           7.90855e-003           9.08548e-004
                   26.50    363.96851                                2.02673             87.216                                        3.63969e+002           6.39685e+001           3.96851e+000           9.68514e-001           6.85142e-002           8.51419e-003           5.14187e-004
                   26.60    359.76827                                2.08820             87.213                                        3.59768e+002           5.97683e+001           9.76827e+000           7.68273e-001           6.82729e-002           8.27287e-003           2.72870e-004
                   26.70    355.46118                                2.15123             87.211                                        3.55461e+002           5.54612e+001           5.46118e+000           4.61181e-001           6.11806e-002           1.18056e-003           1.80562e-004
                   26.80    351.08532                                2.21588             87.211                                        3.51085e+002           5.10853e+001           1.08532e+000           8.53233e-002           8.53233e-002           5.32332e-003           3.23318e-004
                   26.90    347.03771                                2.28202             87.211                                        3.47038e+002           4.70377e+001           7.03771e+000           3.77137e-002           3.77137e-002           7.71371e-003           7.13707e-004
                   27.00    344.63074                                2.34959             87.211                                        3.44631e+002           4.46307e+001           4.63074e+000           6.30743e-001           3.07431e-002           7.43066e-004           7.43066e-004
                   27.10    343.91008                                2.41867             87.211                                        3.43910e+002           4.39101e+001           3.91008e+000           9.10083e-001           1.00830e-002           8.29751e-005           8.29751e-005
                   27.20    343.73507                                2.48919             87.211                                        3.43735e+002           4.37351e+001           3.73507e+000           7.35068e-001           3.50681e-002           5.06806e-003           6.80603e-005
