~VERSION INFORMATION
VERS                    .            2.0                                    :CWLS LOG ASCII STANDARD
WRAP                    .            NO                                     :ONE LINE PER TIME STEP


~WELL INFORMATION
#MNEM                   .UNIT        DATA                                    DESCRIPTION
#________________________________________________________________________________________
STRTTIME                .HH/MM/SS    11:07:04                               :START TIME
STOPTIME                .HH/MM/SS    11:10:49                               :STOP TIME
STRT                    .s           2.10                                   :START DATA
STOP                    .s           223.10                                 :STOP DATA
STEP                    .s           0.10                                   :MEASUREMENT TIME INTERVAL
NULL                    .            -999.25                                :NULL VALUE
COMP                    .            Statoil ASA                            :COMPANY
FLD                     .            Volve                                  :FIELD
WELL                    .            15/9-F-11 A                            :WELL
RUN                     .            8                                      :RUN
LOC                     .            Maersk Inspirer                        :LOCATION
PROV                    .            na                                     :PROVINCE
SRVC                    .            Baker Hughes INTEQ                     :SERVICE COMPANY
DATE                    .YY/MM/DD    13/05/21                               :LOG DATE
UWI                     .                                                   :UNIQUE WELL ID
DEPTHMD                 .m           3632.0                                 :MEASURED DEPTH
DEPTHTVD                .m           3026.9                                 :TRUE VERTICAL DEPTH


~CURVE INFORMATION
#MNEM                   .UNIT        API CODES                               DESCRIPTION
#________________________________________________________________________________________
TIME                    .s                                                  :01 TIME
DD_PRESS                .bar                                                :02 DRAW DOWN PRESSURE
DD_VOLUME               .cm3                                                :03 INCREMENTAL DRAW DOWN VOLUME
TEMP                    .degC                                               :04 TRANSDUCER TEMPERATURE
DD_PRESS_MOD_1000       .bar                                                :05 DRAW DOWN PRESSURE MOD 1000
DD_PRESS_MOD_100        .bar                                                :06 DRAW DOWN PRESSURE MOD 100
DD_PRESS_MOD_10         .bar                                                :07 DRAW DOWN PRESSURE MOD 10
DD_PRESS_MOD_1          .bar                                                :08 DRAW DOWN PRESSURE MOD 1
DD_PRESS_MOD_01         .bar                                                :09 DRAW DOWN PRESSURE MOD 01
DD_PRESS_MOD_001        .bar                                                :10 DRAW DOWN PRESSURE MOD 001
DD_PRESS_MOD_0001       .bar                                                :11 DRAW DOWN PRESSURE MOD 0001


~PARAMETER INFORMATION
#MNEM                   .UNIT        VALUE                                   DESCRIPTION
#________________________________________________________________________________________
TOOLFACE                .deg         66.7                                   :01 TOOLFACE
PUMP_CAPACITY           .bar         400                                    :02 NOMINAL DRAW DOWN PUMP CAPACITY
PUMP_LIMIT              .bar         240                                    :03 DOWNLINK PUMP LIMIT
TIME_LIMIT              .min         10                                     :04 DOWNLINK MAX TIME
TEST_TYPE               .            REPEAT                                 :05 DOWNLINK
TEST_TYPE               .            HIGH MOBILITY                          :06 DOWNLINK
DD_PIST_A               .cm2         3.1416                                 :07 DRAW DOWN PISTON AREA
V_SYS                   .cm3         131.0000                               :08 SYSTEM VOLUME
PROBE_ID                .cm          1.2700                                 :09 TTK PROBE ID
G0                      .            4.6700                                 :10 GEOMETRY FACTOR


~A                  TIME     DD_PRESS                              DD_VOLUME               TEMP                                   DD_PRESS_MOD_1000       DD_PRESS_MOD_100        DD_PRESS_MOD_10         DD_PRESS_MOD_1        DD_PRESS_MOD_01       DD_PRESS_MOD_001      DD_PRESS_MOD_0001
# ...
                  119.70    342.70958                               13.23782             80.594                                        3.42710e+002           4.27096e+001           2.70958e+000           7.09579e-001           9.57851e-003           9.57851e-003           5.78509e-004
                  119.80    342.70060                               13.23782             80.594                                        3.42701e+002           4.27006e+001           2.70060e+000           7.00604e-001           6.04434e-004           6.04434e-004           6.04434e-004
                  119.90    342.70968                               13.23782             80.594                                        3.42710e+002           4.27097e+001           2.70968e+000           7.09676e-001           9.67638e-003           9.67638e-003           6.76382e-004
                  120.00    342.72121                               13.23782             80.594                                        3.42721e+002           4.27212e+001           2.72121e+000           7.21212e-001           2.12117e-002           1.21168e-003           2.11679e-004
                  120.10    342.71335                               13.23782             80.594                                        3.42713e+002           4.27134e+001           2.71335e+000           7.13353e-001           1.33532e-002           3.35325e-003           3.53250e-004
                  120.20    342.70666                               13.23782             80.594                                        3.42707e+002           4.27067e+001           2.70666e+000           7.06655e-001           6.65537e-003           6.65537e-003           6.55368e-004
                  120.30    342.71444                               13.23782             80.594                                        3.42714e+002           4.27144e+001           2.71444e+000           7.14440e-001           1.44398e-002           4.43977e-003           4.39774e-004
                  120.40    342.72351                               13.23782             80.594                                        3.42724e+002           4.27235e+001           2.72351e+000           7.23507e-001           2.35066e-002           3.50665e-003           5.06647e-004
                  120.50    342.71670                               13.23782             80.594                                        3.42717e+002           4.27167e+001           2.71670e+000           7.16697e-001           1.66969e-002           6.69691e-003           6.96908e-004
                  120.60    342.70606                               13.23782             80.594                                        3.42706e+002           4.27061e+001           2.70606e+000           7.06064e-001           6.06353e-003           6.06353e-003           6.35325e-005
                  120.70    342.70779                               13.23782             80.594                                        3.42708e+002           4.27078e+001           2.70779e+000           7.07789e-001           7.78851e-003           7.78851e-003           7.88511e-004
                  120.80    342.71499                               13.23782             80.594                                        3.42715e+002           4.27150e+001           2.71499e+000           7.14992e-001           1.49925e-002           4.99247e-003           9.92473e-004
                  120.90    342.71150                               13.23782             80.594                                        3.42712e+002           4.27115e+001           2.71150e+000           7.11502e-001           1.15015e-002           1.50153e-003           5.01528e-004
                  121.00    342.70498                               13.23782             80.594                                        3.42705e+002           4.27050e+001           2.70498e+000           7.04979e-001           4.97931e-003           4.97931e-003           9.79305e-004
                  121.10    342.70445                               13.23782             80.594                                        3.42704e+002           4.27045e+001           2.70445e+000           7.04450e-001           4.45041e-003           4.45041e-003           4.50413e-004
                  121.20    342.70938                               13.23782             80.594                                        3.42709e+002           4.27094e+001           2.70938e+000           7.09379e-001           9.37886e-003           9.37886e-003           3.78865e-004
                  121.30    342.70760                               13.23782             80.594                                        3.42708e+002           4.27076e+001           2.70760e+000           7.07596e-001           7.59633e-003           7.59633e-003           5.96329e-004
                  121.40    342.70846                               13.23782             80.594                                        3.42708e+002           4.27085e+001           2.70846e+000           7.08458e-001           8.45791e-003           8.45791e-003           4.57908e-004
                  121.50    342.71479                               13.23782             80.594                                        3.42715e+002           4.27148e+001           2.71479e+000           7.14794e-001           1.47939e-002           4.79392e-003           7.93923e-004
                  121.60    342.71943                               13.23782             80.594                                        3.42719e+002           4.27194e+001           2.71943e+000           7.19427e-001           1.94268e-002           9.42676e-003           4.26758e-004
                  121.70    342.71215                               13.23782             80.594                                        3.42712e+002           4.27121e+001           2.71215e+000           7.12147e-001           1.21465e-002           2.14651e-003           1.46509e-004
                  121.80    342.70649                               13.23782             80.594                                        3.42706e+002           4.27065e+001           2.70649e+000           7.06491e-001           6.49141e-003           6.49141e-003           4.91408e-004
                  121.90    342.70944                               13.23782             80.594                                        3.42709e+002           4.27094e+001           2.70944e+000           7.09438e-001           9.43792e-003           9.43792e-003           4.37917e-004
                  122.00    342.71476                               13.23782             80.594                                        3.42715e+002           4.27148e+001           2.71476e+000           7.14757e-001           1.47574e-002           4.75737e-003           7.57368e-004
                  122.10    342.71623                               13.23782             80.594                                        3.42716e+002           4.27162e+001           2.71623e+000           7.16231e-001           1.62306e-002           6.23061e-003           2.30610e-004
                  122.20    342.71645                               13.23782             80.594                                        3.42716e+002           4.27165e+001           2.71645e+000           7.16452e-001           1.64517e-002           6.45170e-003           4.51699e-004
                  122.30    342.71411                               13.23782             80.594                                        3.42714e+002           4.27141e+001           2.71411e+000           7.14111e-001           1.41105e-002           4.11053e-003           1.10527e-004
                  122.40    342.70973                               13.23782             80.594                                        3.42710e+002           4.27097e+001           2.70973e+000           7.09726e-001           9.72575e-003           9.72575e-003           7.25753e-004
