~VERSION INFORMATION
VERS                    .            2.0                                    :CWLS LOG ASCII STANDARD
WRAP                    .            NO                                     :ONE LINE PER TIME STEP


~WELL INFORMATION
#MNEM                   .UNIT        DATA                                    DESCRIPTION
#________________________________________________________________________________________
STRTTIME                .HH/MM/SS    10:02:47                               :START TIME
STOPTIME                .HH/MM/SS    10:07:04                               :STOP TIME
STRT                    .s           2.10                                   :START DATA
STOP                    .s           255.20                                 :STOP DATA
STEP                    .s           0.10                                   :MEASUREMENT TIME INTERVAL
NULL                    .            -999.25                                :NULL VALUE
COMP                    .            Statoil ASA                            :COMPANY
FLD                     .            Volve                                  :FIELD
WELL                    .            15/9-F-11 A                            :WELL
RUN                     .            8                                      :RUN
LOC                     .            Maersk Inspirer                        :LOCATION
PROV                    .            na                                     :PROVINCE
SRVC                    .            Baker Hughes INTEQ                     :SERVICE COMPANY
DATE                    .YY/MM/DD    13/05/21                               :LOG DATE
UWI                     .                                                   :UNIQUE WELL ID
DEPTHMD                 .m           3657.3                                 :MEASURED DEPTH
DEPTHTVD                .m           3046.2                                 :TRUE VERTICAL DEPTH


~CURVE INFORMATION
#MNEM                   .UNIT        API CODES                               DESCRIPTION
#________________________________________________________________________________________
TIME                    .s                                                  :01 TIME
DD_PRESS                .bar                                                :02 DRAW DOWN PRESSURE
DD_VOLUME               .cm3                                                :03 INCREMENTAL DRAW DOWN VOLUME
TEMP                    .degC                                               :04 TRANSDUCER TEMPERATURE
DD_PRESS_MOD_1000       .bar                                                :05 DRAW DOWN PRESSURE MOD 1000
DD_PRESS_MOD_100        .bar                                                :06 DRAW DOWN PRESSURE MOD 100
DD_PRESS_MOD_10         .bar                                                :07 DRAW DOWN PRESSURE MOD 10
DD_PRESS_MOD_1          .bar                                                :08 DRAW DOWN PRESSURE MOD 1
DD_PRESS_MOD_01         .bar                                                :09 DRAW DOWN PRESSURE MOD 01
DD_PRESS_MOD_001        .bar                                                :10 DRAW DOWN PRESSURE MOD 001
DD_PRESS_MOD_0001       .bar                                                :11 DRAW DOWN PRESSURE MOD 0001


~PARAMETER INFORMATION
#MNEM                   .UNIT        VALUE                                   DESCRIPTION
#________________________________________________________________________________________
TOOLFACE                .deg         60.1                                   :01 TOOLFACE
PUMP_CAPACITY           .bar         400                                    :02 NOMINAL DRAW DOWN PUMP CAPACITY
PUMP_LIMIT              .bar         240                                    :03 DOWNLINK PUMP LIMIT
TIME_LIMIT              .min         10                                     :04 DOWNLINK MAX TIME
TEST_TYPE               .            REPEAT                                 :05 DOWNLINK
TEST_TYPE               .            HIGH MOBILITY                          :06 DOWNLINK
DD_PIST_A               .cm2         3.1416                                 :07 DRAW DOWN PISTON AREA
V_SYS                   .cm3         131.0000                               :08 SYSTEM VOLUME
PROBE_ID                .cm          1.2700                                 :09 TTK PROBE ID
G0                      .            4.6700                                 :10 GEOMETRY FACTOR


~A                  TIME     DD_PRESS                              DD_VOLUME               TEMP                                   DD_PRESS_MOD_1000       DD_PRESS_MOD_100        DD_PRESS_MOD_10         DD_PRESS_MOD_1        DD_PRESS_MOD_01       DD_PRESS_MOD_001      DD_PRESS_MOD_0001
# ...
                  150.50    344.38711                               12.37699             82.109                                        3.44387e+002           4.43871e+001           4.38711e+000           3.87111e-001           8.71105e-002           7.11052e-003           1.10521e-004
                  150.60    344.38167                               12.37699             82.109                                        3.44382e+002           4.43817e+001           4.38167e+000           3.81666e-001           8.16665e-002           1.66648e-003           6.66475e-004
                  150.70    344.39038                               12.37699             82.109                                        3.44390e+002           4.43904e+001           4.39038e+000           3.90379e-001           9.03786e-002           3.78630e-004           3.78630e-004
                  150.80    344.40522                               12.37699             82.109                                        3.44405e+002           4.44052e+001           4.40522e+000           4.05225e-001           5.22491e-003           5.22491e-003           2.24908e-004
                  150.90    344.40137                               12.37699             82.109                                        3.44401e+002           4.44014e+001           4.40137e+000           4.01365e-001           1.36540e-003           1.36540e-003           3.65404e-004
                  151.00    344.38428                               12.37699             82.109                                        3.44384e+002           4.43843e+001           4.38428e+000           3.84275e-001           8.42750e-002           4.27502e-003           2.75024e-004
                  151.10    344.38285                               12.37699             82.109                                        3.44383e+002           4.43829e+001           4.38285e+000           3.82854e-001           8.28544e-002           2.85437e-003           8.54372e-004
                  151.20    344.40095                               12.37699             82.109                                        3.44401e+002           4.44009e+001           4.40095e+000           4.00947e-001           9.47420e-004           9.47420e-004           9.47420e-004
                  151.30    344.40406                               12.37699             82.109                                        3.44404e+002           4.44041e+001           4.40406e+000           4.04062e-001           4.06240e-003           4.06240e-003           6.23970e-005
                  151.40    344.38877                               12.37699             82.109                                        3.44389e+002           4.43888e+001           4.38877e+000           3.88773e-001           8.87732e-002           8.77318e-003           7.73183e-004
                  151.50    344.38707                               12.37699             82.109                                        3.44387e+002           4.43871e+001           4.38707e+000           3.87069e-001           8.70694e-002           7.06941e-003           6.94097e-005
                  151.60    344.39775                               12.37699             82.109                                        3.44398e+002           4.43977e+001           4.39775e+000           3.97749e-001           9.77495e-002           7.74947e-003           7.49465e-004
                  151.70    344.39716                               12.37699             82.109                                        3.44397e+002           4.43972e+001           4.39716e+000           3.97160e-001           9.71601e-002           7.16008e-003           1.60084e-004
                  151.80    344.38211                               12.37699             82.109                                        3.44382e+002           4.43821e+001           4.38211e+000           3.82109e-001           8.21087e-002           2.10869e-003           1.08693e-004
                  151.90    344.38147                               12.37699             82.109                                        3.44381e+002           4.43815e+001           4.38147e+000           3.81467e-001           8.14674e-002           1.46736e-003           4.67356e-004
                  152.00    344.39500                               12.37699             82.109                                        3.44395e+002           4.43950e+001           4.39500e+000           3.94998e-001           9.49984e-002           4.99838e-003           9.98381e-004
                  152.10    344.39913                               12.37699             82.112                                        3.44399e+002           4.43991e+001           4.39913e+000           3.99125e-001           9.91254e-002           9.12538e-003           1.25384e-004
                  152.20    344.38805                               12.37699             82.113                                        3.44388e+002           4.43881e+001           4.38805e+000           3.88052e-001           8.80521e-002           8.05215e-003           5.21467e-005
                  152.30    344.38824                               12.37699             82.114                                        3.44388e+002           4.43882e+001           4.38824e+000           3.88241e-001           8.82409e-002           8.24095e-003           2.40947e-004
                  152.40    344.40005                               12.37699             82.115                                        3.44400e+002           4.44001e+001           4.40005e+000           4.00052e-001           5.22096e-005           5.22096e-005           5.22096e-005
                  152.50    344.40175                               12.37699             82.117                                        3.44402e+002           4.44017e+001           4.40175e+000           4.01748e-001           1.74752e-003           1.74752e-003           7.47519e-004
                  152.60    344.39006                               12.37699             82.115                                        3.44390e+002           4.43901e+001           4.39006e+000           3.90061e-001           9.00610e-002           6.09734e-005           6.09734e-005
                  152.70    344.38567                               12.37699             82.111                                        3.44386e+002           4.43857e+001           4.38567e+000           3.85674e-001           8.56740e-002           5.67401e-003           6.74010e-004
                  152.80    344.39643                               12.37699             82.112                                        3.44396e+002           4.43964e+001           4.39643e+000           3.96426e-001           9.64257e-002           6.42572e-003           4.25721e-004
                  152.90    344.40227                               12.37699             82.115                                        3.44402e+002           4.44023e+001           4.40227e+000           4.02267e-001           2.26741e-003           2.26741e-003           2.67410e-004
                  153.00    344.39293                               12.37699             82.117                                        3.44393e+002           4.43929e+001           4.39293e+000           3.92930e-001           9.29299e-002           2.92993e-003           9.29929e-004
                  153.10    344.38902                               12.37699             82.117                                        3.44389e+002           4.43890e+001           4.38902e+000           3.89024e-001           8.90240e-002           9.02404e-003           2.40358e-005
                  153.20    344.39987                               12.37699             82.117                                        3.44400e+002           4.43999e+001           4.39987e+000           3.99870e-001           9.98697e-002           9.86968e-003           8.69678e-004
