~VERSION INFORMATION
VERS                    .            2.0                                    :CWLS LOG ASCII STANDARD
WRAP                    .            NO                                     :ONE LINE PER TIME STEP


~WELL INFORMATION
#MNEM                   .UNIT        DATA                                    DESCRIPTION
#________________________________________________________________________________________
STRTTIME                .HH/MM/SS    19:20:48                               :START TIME
STOPTIME                .HH/MM/SS    19:23:33                               :STOP TIME
STRT                    .s           2.10                                   :START DATA
STOP                    .s           164.00                                 :STOP DATA
STEP                    .s           0.10                                   :MEASUREMENT TIME INTERVAL
NULL                    .            -999.25                                :NULL VALUE
COMP                    .            Statoil ASA                            :COMPANY
FLD                     .            Volve                                  :FIELD
WELL                    .            15/9-F-11 A                            :WELL
RUN                     .            8                                      :RUN
LOC                     .            Maersk Inspirer                        :LOCATION
PROV                    .            na                                     :PROVINCE
SRVC                    .            Baker Hughes INTEQ                     :SERVICE COMPANY
DATE                    .YY/MM/DD    13/05/23                               :LOG DATE
UWI                     .                                                   :UNIQUE WELL ID
DEPTHMD                 .m           3617.0                                 :MEASURED DEPTH
DEPTHTVD                .m           3015.4                                 :TRUE VERTICAL DEPTH


~CURVE INFORMATION
#MNEM                   .UNIT        API CODES                               DESCRIPTION
#________________________________________________________________________________________
TIME                    .s                                                  :01 TIME
DD_PRESS                .bar                                                :02 DRAW DOWN PRESSURE
DD_VOLUME               .cm3                                                :03 INCREMENTAL DRAW DOWN VOLUME
TEMP                    .degC                                               :04 TRANSDUCER TEMPERATURE
DD_PRESS_MOD_1000       .bar                                                :05 DRAW DOWN PRESSURE MOD 1000
DD_PRESS_MOD_100        .bar                                                :06 DRAW DOWN PRESSURE MOD 100
DD_PRESS_MOD_10         .bar                                                :07 DRAW DOWN PRESSURE MOD 10
DD_PRESS_MOD_1          .bar                                                :08 DRAW DOWN PRESSURE MOD 1
DD_PRESS_MOD_01         .bar                                                :09 DRAW DOWN PRESSURE MOD 01
DD_PRESS_MOD_001        .bar                                                :10 DRAW DOWN PRESSURE MOD 001
DD_PRESS_MOD_0001       .bar                                                :11 DRAW DOWN PRESSURE MOD 0001


~PARAMETER INFORMATION
#MNEM                   .UNIT        VALUE                                   DESCRIPTION
#________________________________________________________________________________________
TOOLFACE                .deg         -39.9                                  :01 TOOLFACE
PUMP_CAPACITY           .bar         400                                    :02 NOMINAL DRAW DOWN PUMP CAPACITY
PUMP_LIMIT              .bar         240                                    :03 DOWNLINK PUMP LIMIT
TIME_LIMIT              .min         10                                     :04 DOWNLINK MAX TIME
TEST_TYPE               .            REPEAT                                 :05 DOWNLINK
TEST_TYPE               .            HIGH MOBILITY                          :06 DOWNLINK
DD_PIST_A               .cm2         3.1416                                 :07 DRAW DOWN PISTON AREA
V_SYS                   .cm3         131.0000                               :08 SYSTEM VOLUME
PROBE_ID                .cm          1.2700                                 :09 TTK PROBE ID
G0                      .            4.6700                                 :10 GEOMETRY FACTOR


~A                  TIME     DD_PRESS                              DD_VOLUME               TEMP                                   DD_PRESS_MOD_1000       DD_PRESS_MOD_100        DD_PRESS_MOD_10         DD_PRESS_MOD_1        DD_PRESS_MOD_01       DD_PRESS_MOD_001      DD_PRESS_MOD_0001
# ...
                   66.50    340.85148                               10.72576             72.117                                        3.40851e+002           4.08515e+001           8.51484e-001           8.51484e-001           5.14840e-002           1.48400e-003           4.84002e-004
                   66.60    340.85057                               10.72576             72.117                                        3.40851e+002           4.08506e+001           8.50569e-001           8.50569e-001           5.05692e-002           5.69223e-004           5.69223e-004
                   66.70    340.84651                               10.72576             72.117                                        3.40847e+002           4.08465e+001           8.46512e-001           8.46512e-001           4.65116e-002           6.51159e-003           5.11591e-004
                   66.80    340.84472                               10.72576             72.117                                        3.40845e+002           4.08447e+001           8.44725e-001           8.44725e-001           4.47247e-002           4.72475e-003           7.24747e-004
                   66.90    340.84823                               10.72576             72.117                                        3.40848e+002           4.08482e+001           8.48228e-001           8.48228e-001           4.82277e-002           8.22769e-003           2.27694e-004
                   67.00    340.85106                               10.72576             72.117                                        3.40851e+002           4.08511e+001           8.51059e-001           8.51059e-001           5.10586e-002           1.05861e-003           5.86147e-005
                   67.10    340.84991                               10.72576             72.117                                        3.40850e+002           4.08499e+001           8.49913e-001           8.49913e-001           4.99126e-002           9.91256e-003           9.12556e-004
                   67.20    340.84682                               10.72576             72.117                                        3.40847e+002           4.08468e+001           8.46819e-001           8.46819e-001           4.68194e-002           6.81944e-003           8.19441e-004
                   67.30    340.84861                               10.72576             72.117                                        3.40849e+002           4.08486e+001           8.48611e-001           8.48611e-001           4.86105e-002           8.61054e-003           6.10537e-004
                   67.40    340.85037                               10.72576             72.117                                        3.40850e+002           4.08504e+001           8.50374e-001           8.50374e-001           5.03744e-002           3.74387e-004           3.74387e-004
                   67.50    340.84935                               10.72576             72.117                                        3.40849e+002           4.08493e+001           8.49348e-001           8.49348e-001           4.93479e-002           9.34787e-003           3.47867e-004
                   67.60    340.84685                               10.72576             72.117                                        3.40847e+002           4.08468e+001           8.46847e-001           8.46847e-001           4.68469e-002           6.84686e-003           8.46863e-004
                   67.70    340.84876                               10.72576             72.117                                        3.40849e+002           4.08488e+001           8.48761e-001           8.48761e-001           4.87610e-002           8.76100e-003           7.60999e-004
                   67.80    340.85097                               10.72576             72.117                                        3.40851e+002           4.08510e+001           8.50968e-001           8.50968e-001           5.09681e-002           9.68051e-004           9.68051e-004
                   67.90    340.84907                               10.72576             72.117                                        3.40849e+002           4.08491e+001           8.49074e-001           8.49074e-001           4.90736e-002           9.07362e-003           7.36236e-005
                   68.00    340.84729                               10.72576             72.117                                        3.40847e+002           4.08473e+001           8.47289e-001           8.47289e-001           4.72893e-002           7.28928e-003           2.89280e-004
                   68.10    340.84780                               10.72576             72.117                                        3.40848e+002           4.08478e+001           8.47802e-001           8.47802e-001           4.78021e-002           7.80207e-003           8.02070e-004
                   68.20    340.84865                               10.72576             72.117                                        3.40849e+002           4.08487e+001           8.48650e-001           8.48650e-001           4.86501e-002           8.65011e-003           6.50111e-004
                   68.30    340.84991                               10.72576             72.117                                        3.40850e+002           4.08499e+001           8.49909e-001           8.49909e-001           4.99086e-002           9.90863e-003           9.08629e-004
                   68.40    340.84963                               10.72576             72.115                                        3.40850e+002           4.08496e+001           8.49633e-001           8.49633e-001           4.96326e-002           9.63260e-003           6.32601e-004
                   68.50    340.84748                               10.72576             72.111                                        3.40847e+002           4.08475e+001           8.47481e-001           8.47481e-001           4.74812e-002           7.48122e-003           4.81217e-004
                   68.60    340.84746                               10.72576             72.109                                        3.40847e+002           4.08475e+001           8.47465e-001           8.47465e-001           4.74647e-002           7.46473e-003           4.64729e-004
                   68.70    340.84855                               10.72576             72.109                                        3.40849e+002           4.08486e+001           8.48553e-001           8.48553e-001           4.85526e-002           8.55261e-003           5.52609e-004
                   68.80    340.84636                               10.72576             72.109                                        3.40846e+002           4.08464e+001           8.46357e-001           8.46357e-001           4.63570e-002           6.35698e-003           3.56984e-004
                   68.90    340.84597                               10.72576             72.109                                        3.40846e+002           4.08460e+001           8.45968e-001           8.45968e-001           4.59682e-002           5.96824e-003           9.68236e-004
                   69.00    340.84831                               10.72576             72.109                                        3.40848e+002           4.08483e+001           8.48311e-001           8.48311e-001           4.83109e-002           8.31092e-003           3.10918e-004
                   69.10    340.85093                               10.72576             72.109                                        3.40851e+002           4.08509e+001           8.50926e-001           8.50926e-001           5.09265e-002           9.26465e-004           9.26465e-004
                   69.20    340.85016                               10.72576             72.109                                        3.40850e+002           4.08502e+001           8.50164e-001           8.50164e-001           5.01637e-002           1.63735e-004           1.63735e-004
