~VERSION INFORMATION
VERS                    .            2.0                                    :CWLS LOG ASCII STANDARD
WRAP                    .            NO                                     :ONE LINE PER TIME STEP


~WELL INFORMATION
#MNEM                   .UNIT        DATA                                    DESCRIPTION
#________________________________________________________________________________________
STRTTIME                .HH/MM/SS    09:08:53                               :START TIME
STOPTIME                .HH/MM/SS    09:11:57                               :STOP TIME
STRT                    .s           2.10                                   :START DATA
STOP                    .s           182.80                                 :STOP DATA
STEP                    .s           0.10                                   :MEASUREMENT TIME INTERVAL
NULL                    .            -999.25                                :NULL VALUE
COMP                    .            Statoil ASA                            :COMPANY
FLD                     .            Volve                                  :FIELD
WELL                    .            15/9-F-11 A                            :WELL
RUN                     .            8                                      :RUN
LOC                     .            Maersk Inspirer                        :LOCATION
PROV                    .            na                                     :PROVINCE
SRVC                    .            Baker Hughes INTEQ                     :SERVICE COMPANY
DATE                    .YY/MM/DD    13/05/21                               :LOG DATE
UWI                     .                                                   :UNIQUE WELL ID
DEPTHMD                 .m           3671.1                                 :MEASURED DEPTH
DEPTHTVD                .m           3056.7                                 :TRUE VERTICAL DEPTH


~CURVE INFORMATION
#MNEM                   .UNIT        API CODES                               DESCRIPTION
#________________________________________________________________________________________
TIME                    .s                                                  :01 TIME
DD_PRESS                .bar                                                :02 DRAW DOWN PRESSURE
DD_VOLUME               .cm3                                                :03 INCREMENTAL DRAW DOWN VOLUME
TEMP                    .degC                                               :04 TRANSDUCER TEMPERATURE
DD_PRESS_MOD_1000       .bar                                                :05 DRAW DOWN PRESSURE MOD 1000
DD_PRESS_MOD_100        .bar                                                :06 DRAW DOWN PRESSURE MOD 100
DD_PRESS_MOD_10         .bar                                                :07 DRAW DOWN PRESSURE MOD 10
DD_PRESS_MOD_1          .bar                                                :08 DRAW DOWN PRESSURE MOD 1
DD_PRESS_MOD_01         .bar                                                :09 DRAW DOWN PRESSURE MOD 01
DD_PRESS_MOD_001        .bar                                                :10 DRAW DOWN PRESSURE MOD 001
DD_PRESS_MOD_0001       .bar                                                :11 DRAW DOWN PRESSURE MOD 0001


~PARAMETER INFORMATION
#MNEM                   .UNIT        VALUE                                   DESCRIPTION
#________________________________________________________________________________________
TOOLFACE                .deg         -56.2                                  :01 TOOLFACE
PUMP_CAPACITY           .bar         400                                    :02 NOMINAL DRAW DOWN PUMP CAPACITY
PUMP_LIMIT              .bar         240                                    :03 DOWNLINK PUMP LIMIT
TIME_LIMIT              .min         10                                     :04 DOWNLINK MAX TIME
TEST_TYPE               .            REPEAT                                 :05 DOWNLINK
TEST_TYPE               .            HIGH MOBILITY                          :06 DOWNLINK
DD_PIST_A               .cm2         3.1416                                 :07 DRAW DOWN PISTON AREA
V_SYS                   .cm3         131.0000                               :08 SYSTEM VOLUME
PROBE_ID                .cm          1.2700                                 :09 TTK PROBE ID
G0                      .            4.6700                                 :10 GEOMETRY FACTOR


~A                  TIME     DD_PRESS                              DD_VOLUME               TEMP                                   DD_PRESS_MOD_1000       DD_PRESS_MOD_100        DD_PRESS_MOD_10         DD_PRESS_MOD_1        DD_PRESS_MOD_01       DD_PRESS_MOD_001      DD_PRESS_MOD_0001
# ...
                  108.50    345.05370                               18.89938             82.391                                        3.45054e+002           4.50537e+001           5.05370e+000           5.37002e-002           5.37002e-002           3.70024e-003           7.00237e-004
                  108.60    345.04822                               18.89938             82.391                                        3.45048e+002           4.50482e+001           5.04822e+000           4.82249e-002           4.82249e-002           8.22491e-003           2.24912e-004
                  108.70    345.05593                               18.89938             82.391                                        3.45056e+002           4.50559e+001           5.05593e+000           5.59276e-002           5.59276e-002           5.92758e-003           9.27583e-004
                  108.80    345.05968                               18.89938             82.391                                        3.45060e+002           4.50597e+001           5.05968e+000           5.96829e-002           5.96829e-002           9.68289e-003           6.82885e-004
                  108.90    345.04567                               18.89938             82.391                                        3.45046e+002           4.50457e+001           5.04567e+000           4.56675e-002           4.56675e-002           5.66752e-003           6.67525e-004
                  109.00    345.03265                               18.89938             82.393                                        3.45033e+002           4.50327e+001           5.03265e+000           3.26502e-002           3.26502e-002           2.65022e-003           6.50225e-004
                  109.10    345.04300                               18.89938             82.396                                        3.45043e+002           4.50430e+001           5.04300e+000           4.29952e-002           4.29952e-002           2.99516e-003           9.95157e-004
                  109.20    345.05590                               18.89938             82.396                                        3.45056e+002           4.50559e+001           5.05590e+000           5.58956e-002           5.58956e-002           5.89563e-003           8.95626e-004
                  109.30    345.04995                               18.89938             82.393                                        3.45050e+002           4.50500e+001           5.04995e+000           4.99536e-002           4.99536e-002           9.95359e-003           9.53595e-004
                  109.40    345.04435                               18.89938             82.391                                        3.45044e+002           4.50444e+001           5.04435e+000           4.43517e-002           4.43517e-002           4.35166e-003           3.51660e-004
                  109.50    345.05610                               18.89938             82.391                                        3.45056e+002           4.50561e+001           5.05610e+000           5.60973e-002           5.60973e-002           6.09733e-003           9.73330e-005
                  109.60    345.06322                               18.89938             82.393                                        3.45063e+002           4.50632e+001           5.06322e+000           6.32199e-002           6.32199e-002           3.21992e-003           2.19915e-004
                  109.70    345.04893                               18.89938             82.396                                        3.45049e+002           4.50489e+001           5.04893e+000           4.89287e-002           4.89287e-002           8.92872e-003           9.28719e-004
                  109.80    345.03475                               18.89938             82.398                                        3.45035e+002           4.50348e+001           5.03475e+000           3.47538e-002           3.47538e-002           4.75376e-003           7.53761e-004
                  109.90    345.03724                               18.89938             82.396                                        3.45037e+002           4.50372e+001           5.03724e+000           3.72410e-002           3.72410e-002           7.24100e-003           2.41002e-004
                  110.00    345.04842                               18.89938             82.393                                        3.45048e+002           4.50484e+001           5.04842e+000           4.84200e-002           4.84200e-002           8.41999e-003           4.19994e-004
                  110.10    345.05038                               18.89938             82.393                                        3.45050e+002           4.50504e+001           5.05038e+000           5.03836e-002           5.03836e-002           3.83616e-004           3.83616e-004
                  110.20    345.04656                               18.89938             82.396                                        3.45047e+002           4.50466e+001           5.04656e+000           4.65588e-002           4.65588e-002           6.55882e-003           5.58821e-004
                  110.30    345.04742                               18.89938             82.398                                        3.45047e+002           4.50474e+001           5.04742e+000           4.74185e-002           4.74185e-002           7.41849e-003           4.18488e-004
                  110.40    345.05393                               18.89938             82.398                                        3.45054e+002           4.50539e+001           5.05393e+000           5.39262e-002           5.39262e-002           3.92618e-003           9.26180e-004
                  110.50    345.05534                               18.89938             82.398                                        3.45055e+002           4.50553e+001           5.05534e+000           5.53388e-002           5.53388e-002           5.33883e-003           3.38833e-004
                  110.60    345.04752                               18.89938             82.398                                        3.45048e+002           4.50475e+001           5.04752e+000           4.75193e-002           4.75193e-002           7.51931e-003           5.19312e-004
                  110.70    345.03922                               18.89938             82.398                                        3.45039e+002           4.50392e+001           5.03922e+000           3.92181e-002           3.92181e-002           9.21809e-003           2.18095e-004
                  110.80    345.03835                               18.89938             82.398                                        3.45038e+002           4.50383e+001           5.03835e+000           3.83483e-002           3.83483e-002           8.34832e-003           3.48315e-004
                  110.90    345.04969                               18.89938             82.398                                        3.45050e+002           4.50497e+001           5.04969e+000           4.96934e-002           4.96934e-002           9.69336e-003           6.93356e-004
                  111.00    345.05600                               18.89938             82.398                                        3.45056e+002           4.50560e+001           5.05600e+000           5.60005e-002           5.60005e-002           6.00045e-003           4.50430e-007
                  111.10    345.04989                               18.89938             82.396                                        3.45050e+002           4.50499e+001           5.04989e+000           4.98908e-002           4.98908e-002           9.89084e-003           8.90837e-004
                  111.20    345.04434                               18.89938             82.393                                        3.45044e+002           4.50443e+001           5.04434e+000           4.43405e-002           4.43405e-002           4.34049e-003           3.40487e-004
