~VERSION INFORMATION
VERS                    .            2.0                                    :CWLS LOG ASCII STANDARD
WRAP                    .            NO                                     :ONE LINE PER TIME STEP


~WELL INFORMATION
#MNEM                   .UNIT        DATA                                    DESCRIPTION
#________________________________________________________________________________________
STRTTIME                .HH/MM/SS    15:31:36                               :START TIME
STOPTIME                .HH/MM/SS    15:34:21                               :STOP TIME
STRT                    .s           2.10                                   :START DATA
STOP                    .s           163.50                                 :STOP DATA
STEP                    .s           0.10                                   :MEASUREMENT TIME INTERVAL
NULL                    .            -999.25                                :NULL VALUE
COMP                    .            Statoil ASA                            :COMPANY
FLD                     .            Volve                                  :FIELD
WELL                    .            15/9-F-11 A                            :WELL
RUN                     .            8                                      :RUN
LOC                     .            Maersk Inspirer                        :LOCATION
PROV                    .            na                                     :PROVINCE
SRVC                    .            Baker Hughes INTEQ                     :SERVICE COMPANY
DATE                    .YY/MM/DD    13/05/21                               :LOG DATE
UWI                     .                                                   :UNIQUE WELL ID
DEPTHMD                 .m           3617.2                                 :MEASURED DEPTH
DEPTHTVD                .m           3015.5                                 :TRUE VERTICAL DEPTH


~CURVE INFORMATION
#MNEM                   .UNIT        API CODES                               DESCRIPTION
#________________________________________________________________________________________
TIME                    .s                                                  :01 TIME
DD_PRESS                .bar                                                :02 DRAW DOWN PRESSURE
DD_VOLUME               .cm3                                                :03 INCREMENTAL DRAW DOWN VOLUME
TEMP                    .degC                                               :04 TRANSDUCER TEMPERATURE
DD_PRESS_MOD_1000       .bar                                                :05 DRAW DOWN PRESSURE MOD 1000
DD_PRESS_MOD_100        .bar                                                :06 DRAW DOWN PRESSURE MOD 100
DD_PRESS_MOD_10         .bar                                                :07 DRAW DOWN PRESSURE MOD 10
DD_PRESS_MOD_1          .bar                                                :08 DRAW DOWN PRESSURE MOD 1
DD_PRESS_MOD_01         .bar                                                :09 DRAW DOWN PRESSURE MOD 01
DD_PRESS_MOD_001        .bar                                                :10 DRAW DOWN PRESSURE MOD 001
DD_PRESS_MOD_0001       .bar                                                :11 DRAW DOWN PRESSURE MOD 0001


~PARAMETER INFORMATION
#MNEM                   .UNIT        VALUE                                   DESCRIPTION
#________________________________________________________________________________________
TOOLFACE                .deg         63.0                                   :01 TOOLFACE
PUMP_CAPACITY           .bar         400                                    :02 NOMINAL DRAW DOWN PUMP CAPACITY
PUMP_LIMIT              .bar         240                                    :03 DOWNLINK PUMP LIMIT
TIME_LIMIT              .min         10                                     :04 DOWNLINK MAX TIME
TEST_TYPE               .            HIGH MOBILITY                          :05 DOWNLINK
DD_PIST_A               .cm2         3.1416                                 :06 DRAW DOWN PISTON AREA
V_SYS                   .cm3         131.0000                               :07 SYSTEM VOLUME
PROBE_ID                .cm          1.2700                                 :08 TTK PROBE ID
G0                      .            4.6700                                 :09 GEOMETRY FACTOR


~A                  TIME     DD_PRESS                              DD_VOLUME               TEMP                                   DD_PRESS_MOD_1000       DD_PRESS_MOD_100        DD_PRESS_MOD_10         DD_PRESS_MOD_1        DD_PRESS_MOD_01       DD_PRESS_MOD_001      DD_PRESS_MOD_0001
# ...
                   86.10    341.69185                               19.93262             80.148                                        3.41692e+002           4.16918e+001           1.69185e+000           6.91849e-001           9.18492e-002           1.84924e-003           8.49241e-004
                   86.20    341.69300                               19.93262             80.148                                        3.41693e+002           4.16930e+001           1.69300e+000           6.92997e-001           9.29971e-002           2.99712e-003           9.97118e-004
                   86.30    341.69178                               19.93262             80.148                                        3.41692e+002           4.16918e+001           1.69178e+000           6.91776e-001           9.17761e-002           1.77609e-003           7.76086e-004
                   86.40    341.69390                               19.93262             80.148                                        3.41694e+002           4.16939e+001           1.69390e+000           6.93901e-001           9.39011e-002           3.90112e-003           9.01119e-004
                   86.50    341.69642                               19.93262             80.148                                        3.41696e+002           4.16964e+001           1.69642e+000           6.96425e-001           9.64247e-002           6.42473e-003           4.24727e-004
                   86.60    341.69660                               19.93262             80.148                                        3.41697e+002           4.16966e+001           1.69660e+000           6.96603e-001           9.66026e-002           6.60260e-003           6.02602e-004
                   86.70    341.69464                               19.93262             80.148                                        3.41695e+002           4.16946e+001           1.69464e+000           6.94637e-001           9.46367e-002           4.63668e-003           6.36676e-004
                   86.80    341.69110                               19.93262             80.148                                        3.41691e+002           4.16911e+001           1.69110e+000           6.91096e-001           9.10963e-002           1.09631e-003           9.63121e-005
                   86.90    341.68975                               19.93262             80.148                                        3.41690e+002           4.16897e+001           1.68975e+000           6.89746e-001           8.97462e-002           9.74619e-003           7.46188e-004
                   87.00    341.68880                               19.93262             80.148                                        3.41689e+002           4.16888e+001           1.68880e+000           6.88799e-001           8.87991e-002           8.79911e-003           7.99110e-004
                   87.10    341.68974                               19.93262             80.148                                        3.41690e+002           4.16897e+001           1.68974e+000           6.89743e-001           8.97434e-002           9.74340e-003           7.43402e-004
                   87.20    341.68997                               19.93262             80.148                                        3.41690e+002           4.16900e+001           1.68997e+000           6.89966e-001           8.99660e-002           9.96597e-003           9.65971e-004
                   87.30    341.69157                               19.93262             80.148                                        3.41692e+002           4.16916e+001           1.69157e+000           6.91566e-001           9.15664e-002           1.56644e-003           5.66442e-004
                   87.40    341.69314                               19.93262             80.148                                        3.41693e+002           4.16931e+001           1.69314e+000           6.93143e-001           9.31429e-002           3.14290e-003           1.42904e-004
                   87.50    341.69458                               19.93262             80.151                                        3.41695e+002           4.16946e+001           1.69458e+000           6.94584e-001           9.45839e-002           4.58391e-003           5.83913e-004
                   87.60    341.69258                               19.93262             80.154                                        3.41693e+002           4.16926e+001           1.69258e+000           6.92585e-001           9.25846e-002           2.58463e-003           5.84632e-004
                   87.70    341.69254                               19.93262             80.156                                        3.41693e+002           4.16925e+001           1.69254e+000           6.92542e-001           9.25416e-002           2.54156e-003           5.41564e-004
                   87.80    341.69421                               19.93262             80.156                                        3.41694e+002           4.16942e+001           1.69421e+000           6.94208e-001           9.42082e-002           4.20823e-003           2.08233e-004
                   87.90    341.69125                               19.93262             80.154                                        3.41691e+002           4.16913e+001           1.69125e+000           6.91255e-001           9.12547e-002           1.25469e-003           2.54685e-004
                   88.00    341.68849                               19.93262             80.150                                        3.41688e+002           4.16885e+001           1.68849e+000           6.88488e-001           8.84885e-002           8.48848e-003           4.88481e-004
                   88.10    341.69081                               19.93262             80.151                                        3.41691e+002           4.16908e+001           1.69081e+000           6.90810e-001           9.08104e-002           8.10369e-004           8.10369e-004
                   88.20    341.69282                               19.93262             80.154                                        3.41693e+002           4.16928e+001           1.69282e+000           6.92818e-001           9.28178e-002           2.81780e-003           8.17797e-004
                   88.30    341.69198                               19.93262             80.156                                        3.41692e+002           4.16920e+001           1.69198e+000           6.91982e-001           9.19821e-002           1.98210e-003           9.82105e-004
                   88.40    341.69283                               19.93262             80.156                                        3.41693e+002           4.16928e+001           1.69283e+000           6.92827e-001           9.28265e-002           2.82654e-003           8.26542e-004
                   88.50    341.69314                               19.93262             80.156                                        3.41693e+002           4.16931e+001           1.69314e+000           6.93138e-001           9.31385e-002           3.13847e-003           1.38474e-004
                   88.60    341.69062                               19.93262             80.156                                        3.41691e+002           4.16906e+001           1.69062e+000           6.90624e-001           9.06245e-002           6.24478e-004           6.24478e-004
                   88.70    341.68795                               19.93262             80.156                                        3.41688e+002           4.16879e+001           1.68795e+000           6.87947e-001           8.79472e-002           7.94719e-003           9.47194e-004
                   88.80    341.69067                               19.93262             80.156                                        3.41691e+002           4.16907e+001           1.69067e+000           6.90674e-001           9.06743e-002           6.74326e-004           6.74326e-004
