~VERSION INFORMATION
VERS                    .            2.0                                    :CWLS LOG ASCII STANDARD
WRAP                    .            NO                                     :ONE LINE PER TIME STEP


~WELL INFORMATION
#MNEM                   .UNIT        DATA                                    DESCRIPTION
#________________________________________________________________________________________
STRTTIME                .HH/MM/SS    01:04:55                               :START TIME
STOPTIME                .HH/MM/SS    01:07:44                               :STOP TIME
STRT                    .s           2.10                                   :START DATA
STOP                    .s           167.40                                 :STOP DATA
STEP                    .s           0.10                                   :MEASUREMENT TIME INTERVAL
NULL                    .            -999.25                                :NULL VALUE
COMP                    .            Statoil ASA                            :COMPANY
FLD                     .            Volve                                  :FIELD
WELL                    .            15/9-F-1 C                             :WELL
RUN                     .            4                                      :RUN
LOC                     .                                                   :LOCATION
PROV                    .            na                                     :PROVINCE
SRVC                    .            Baker Hughes INTEQ                     :SERVICE COMPANY
DATE                    .YY/MM/DD    14/03/15                               :LOG DATE
UWI                     .                                                   :UNIQUE WELL ID
DEPTHMD                 .m           3720.1                                 :MEASURED DEPTH
DEPTHTVD                .m           3050.6                                 :TRUE VERTICAL DEPTH


~CURVE INFORMATION
#MNEM                   .UNIT        API CODES                               DESCRIPTION
#________________________________________________________________________________________
TIME                    .s                                                  :01 TIME
DD_PRESS                .bar                                                :02 DRAW DOWN PRESSURE
DD_VOLUME               .cm3                                                :03 INCREMENTAL DRAW DOWN VOLUME
TEMP                    .degC                                               :04 TRANSDUCER TEMPERATURE
DD_PRESS_MOD_1000       .bar                                                :05 DRAW DOWN PRESSURE MOD 1000
DD_PRESS_MOD_100        .bar                                                :06 DRAW DOWN PRESSURE MOD 100
DD_PRESS_MOD_10         .bar                                                :07 DRAW DOWN PRESSURE MOD 10
DD_PRESS_MOD_1          .bar                                                :08 DRAW DOWN PRESSURE MOD 1
DD_PRESS_MOD_01         .bar                                                :09 DRAW DOWN PRESSURE MOD 01
DD_PRESS_MOD_001        .bar                                                :10 DRAW DOWN PRESSURE MOD 001
DD_PRESS_MOD_0001       .bar                                                :11 DRAW DOWN PRESSURE MOD 0001


~PARAMETER INFORMATION
#MNEM                   .UNIT        VALUE                                   DESCRIPTION
#________________________________________________________________________________________
TOOLFACE                .deg         134.6                                  :01 TOOLFACE
PUMP_CAPACITY           .bar         400                                    :02 NOMINAL DRAW DOWN PUMP CAPACITY
PUMP_LIMIT              .bar         240                                    :03 DOWNLINK PUMP LIMIT
TIME_LIMIT              .min         10                                     :04 DOWNLINK MAX TIME
TEST_TYPE               .            REPEAT                                 :05 DOWNLINK
TEST_TYPE               .            HIGH MOBILITY                          :06 DOWNLINK
DD_PIST_A               .cm2         3.1416                                 :07 DRAW DOWN PISTON AREA
V_SYS                   .cm3         131.0000                               :08 SYSTEM VOLUME
PROBE_ID                .cm          1.2700                                 :09 TTK PROBE ID
G0                      .            4.6700                                 :10 GEOMETRY FACTOR


~A                  TIME     DD_PRESS                              DD_VOLUME               TEMP                                   DD_PRESS_MOD_1000       DD_PRESS_MOD_100        DD_PRESS_MOD_10         DD_PRESS_MOD_1        DD_PRESS_MOD_01       DD_PRESS_MOD_001      DD_PRESS_MOD_0001
# ...
                   77.70    348.28137                               10.92852             87.258                                        3.48281e+002           4.82814e+001           8.28137e+000           2.81374e-001           8.13741e-002           1.37412e-003           3.74119e-004
                   77.80    348.28092                               10.92852             87.258                                        3.48281e+002           4.82809e+001           8.28092e+000           2.80924e-001           8.09243e-002           9.24292e-004           9.24292e-004
                   77.90    348.27994                               10.92852             87.258                                        3.48280e+002           4.82799e+001           8.27994e+000           2.79941e-001           7.99406e-002           9.94063e-003           9.40627e-004
                   78.00    348.27853                               10.92860             87.255                                        3.48279e+002           4.82785e+001           8.27853e+000           2.78528e-001           7.85279e-002           8.52794e-003           5.27942e-004
                   78.10    348.27645                               10.92914             87.252                                        3.48276e+002           4.82764e+001           8.27645e+000           2.76448e-001           7.64485e-002           6.44846e-003           4.48456e-004
                   78.20    348.27516                               10.92966             87.250                                        3.48275e+002           4.82752e+001           8.27516e+000           2.75157e-001           7.51568e-002           5.15677e-003           1.56766e-004
                   78.30    348.27857                               10.92973             87.250                                        3.48279e+002           4.82786e+001           8.27857e+000           2.78568e-001           7.85675e-002           8.56751e-003           5.67512e-004
                   78.40    348.27874                               10.93001             87.250                                        3.48279e+002           4.82787e+001           8.27874e+000           2.78741e-001           7.87414e-002           8.74139e-003           7.41387e-004
                   78.50    348.27323                               10.93119             87.250                                        3.48273e+002           4.82732e+001           8.27323e+000           2.73226e-001           7.32259e-002           3.22588e-003           2.25878e-004
                   78.60    348.26003                               10.93369             87.250                                        3.48260e+002           4.82600e+001           8.26003e+000           2.60029e-001           6.00292e-002           2.92145e-005           2.92145e-005
                   78.70    348.23413                               10.93763             87.250                                        3.48234e+002           4.82341e+001           8.23413e+000           2.34128e-001           3.41278e-002           4.12782e-003           1.27823e-004
                   78.80    348.18695                               10.94283             87.250                                        3.48187e+002           4.81870e+001           8.18695e+000           1.86952e-001           8.69521e-002           6.95211e-003           9.52112e-004
                   78.90    348.11573                               10.94892             87.250                                        3.48116e+002           4.81157e+001           8.11573e+000           1.15730e-001           1.57301e-002           5.73011e-003           7.30105e-004
                   79.00    348.02817                               10.95528             87.250                                        3.48028e+002           4.80282e+001           8.02817e+000           2.81691e-002           2.81691e-002           8.16912e-003           1.69116e-004
                   79.10    347.93835                               10.96191             87.250                                        3.47938e+002           4.79384e+001           7.93835e+000           9.38351e-001           3.83514e-002           8.35142e-003           3.51421e-004
                   79.20    347.85542                               10.96902             87.250                                        3.47855e+002           4.78554e+001           7.85542e+000           8.55419e-001           5.54185e-002           5.41851e-003           4.18506e-004
                   79.30    347.77152                               10.97728             87.250                                        3.47772e+002           4.77715e+001           7.77152e+000           7.71523e-001           7.15233e-002           1.52334e-003           5.23335e-004
                   79.40    347.66530                               10.98693             87.250                                        3.47665e+002           4.76653e+001           7.66530e+000           6.65303e-001           6.53026e-002           5.30263e-003           3.02627e-004
                   79.50    347.53146                               10.99780             87.250                                        3.47531e+002           4.75315e+001           7.53146e+000           5.31457e-001           3.14573e-002           1.45731e-003           4.57314e-004
                   79.60    347.39632                               11.00933             87.250                                        3.47396e+002           4.73963e+001           7.39632e+000           3.96317e-001           9.63170e-002           6.31696e-003           3.16963e-004
                   79.70    347.26066                               11.02161             87.250                                        3.47261e+002           4.72607e+001           7.26066e+000           2.60664e-001           6.06636e-002           6.63559e-004           6.63559e-004
                   79.80    347.11224                               11.03472             87.250                                        3.47112e+002           4.71122e+001           7.11224e+000           1.12239e-001           1.22389e-002           2.23888e-003           2.38884e-004
                   79.90    347.00294                               11.04940             87.250                                        3.47003e+002           4.70029e+001           7.00294e+000           2.94220e-003           2.94220e-003           2.94220e-003           9.42204e-004
                   80.00    346.98070                               11.06864             87.250                                        3.46981e+002           4.69807e+001           6.98070e+000           9.80699e-001           8.06987e-002           6.98672e-004           6.98672e-004
                   80.10    346.95606                               11.09479             87.250                                        3.46956e+002           4.69561e+001           6.95606e+000           9.56060e-001           5.60595e-002           6.05952e-003           5.95238e-005
                   80.20    346.85502                               11.12737             87.250                                        3.46855e+002           4.68550e+001           6.85502e+000           8.55019e-001           5.50192e-002           5.01918e-003           1.91814e-005
                   80.30    346.76850                               11.16490             87.250                                        3.46768e+002           4.67685e+001           6.76850e+000           7.68500e-001           6.84997e-002           8.49968e-003           4.99684e-004
                   80.40    346.71783                               11.20990             87.250                                        3.46718e+002           4.67178e+001           6.71783e+000           7.17827e-001           1.78271e-002           7.82706e-003           8.27056e-004
