~VERSION INFORMATION
VERS                    .            2.0                                    :CWLS LOG ASCII STANDARD
WRAP                    .            NO                                     :ONE LINE PER TIME STEP


~WELL INFORMATION
#MNEM                   .UNIT        DATA                                    DESCRIPTION
#________________________________________________________________________________________
STRTTIME                .HH/MM/SS    13:32:32                               :START TIME
STOPTIME                .HH/MM/SS    13:36:23                               :STOP TIME
STRT                    .s           2.10                                   :START DATA
STOP                    .s           229.20                                 :STOP DATA
STEP                    .s           0.10                                   :MEASUREMENT TIME INTERVAL
NULL                    .            -999.25                                :NULL VALUE
COMP                    .            Statoil ASA                            :COMPANY
FLD                     .            Volve                                  :FIELD
WELL                    .            15/9-F-1 B                             :WELL
RUN                     .            7                                      :RUN
LOC                     .            Maersk Inspirer                        :LOCATION
PROV                    .            na                                     :PROVINCE
SRVC                    .            Baker Hughes INTEQ                     :SERVICE COMPANY
DATE                    .YY/MM/DD    13/09/06                               :LOG DATE
UWI                     .                                                   :UNIQUE WELL ID
DEPTHMD                 .m           3301.5                                 :MEASURED DEPTH
DEPTHTVD                .m           3096.9                                 :TRUE VERTICAL DEPTH


~CURVE INFORMATION
#MNEM                   .UNIT        API CODES                               DESCRIPTION
#________________________________________________________________________________________
TIME                    .s                                                  :01 TIME
DD_PRESS                .bar                                                :02 DRAW DOWN PRESSURE
DD_VOLUME               .cm3                                                :03 INCREMENTAL DRAW DOWN VOLUME
TEMP                    .degC                                               :04 TRANSDUCER TEMPERATURE
DD_PRESS_MOD_1000       .bar                                                :05 DRAW DOWN PRESSURE MOD 1000
DD_PRESS_MOD_100        .bar                                                :06 DRAW DOWN PRESSURE MOD 100
DD_PRESS_MOD_10         .bar                                                :07 DRAW DOWN PRESSURE MOD 10
DD_PRESS_MOD_1          .bar                                                :08 DRAW DOWN PRESSURE MOD 1
DD_PRESS_MOD_01         .bar                                                :09 DRAW DOWN PRESSURE MOD 01
DD_PRESS_MOD_001        .bar                                                :10 DRAW DOWN PRESSURE MOD 001
DD_PRESS_MOD_0001       .bar                                                :11 DRAW DOWN PRESSURE MOD 0001


~PARAMETER INFORMATION
#MNEM                   .UNIT        VALUE                                   DESCRIPTION
#________________________________________________________________________________________
TOOLFACE                .deg         na                                     :01 TOOLFACE
PUMP_CAPACITY           .bar         400                                    :02 NOMINAL DRAW DOWN PUMP CAPACITY
PUMP_LIMIT              .bar         400                                    :03 DOWNLINK PUMP LIMIT
TIME_LIMIT              .min         10                                     :04 DOWNLINK MAX TIME
TEST_TYPE               .            LOW MOBILITY                           :05 DOWNLINK
DD_PIST_A               .cm2         3.1416                                 :06 DRAW DOWN PISTON AREA
V_SYS                   .cm3         131.0000                               :07 SYSTEM VOLUME
PROBE_ID                .cm          1.2700                                 :08 TTK PROBE ID
G0                      .            4.6700                                 :09 GEOMETRY FACTOR


~A                  TIME     DD_PRESS                              DD_VOLUME               TEMP                                   DD_PRESS_MOD_1000       DD_PRESS_MOD_100        DD_PRESS_MOD_10         DD_PRESS_MOD_1        DD_PRESS_MOD_01       DD_PRESS_MOD_001      DD_PRESS_MOD_0001
# ...
                  122.50    349.41938                               14.61724             85.359                                        3.49419e+002           4.94194e+001           9.41938e+000           4.19381e-001           1.93805e-002           9.38051e-003           3.80515e-004
                  122.60    349.37922                               14.61724             85.362                                        3.49379e+002           4.93792e+001           9.37922e+000           3.79224e-001           7.92244e-002           9.22438e-003           2.24382e-004
                  122.70    349.38075                               14.61724             85.365                                        3.49381e+002           4.93807e+001           9.38075e+000           3.80749e-001           8.07491e-002           7.49135e-004           7.49135e-004
                  122.80    349.39844                               14.61724             85.367                                        3.49398e+002           4.93984e+001           9.39844e+000           3.98442e-001           9.84415e-002           8.44154e-003           4.41535e-004
                  122.90    349.40608                               14.61724             85.367                                        3.49406e+002           4.94061e+001           9.40608e+000           4.06083e-001           6.08266e-003           6.08266e-003           8.26615e-005
                  123.00    349.41424                               14.61724             85.367                                        3.49414e+002           4.94142e+001           9.41424e+000           4.14240e-001           1.42400e-002           4.23998e-003           2.39982e-004
                  123.10    349.40517                               14.61724             85.367                                        3.49405e+002           4.94052e+001           9.40517e+000           4.05172e-001           5.17223e-003           5.17223e-003           1.72234e-004
                  123.20    349.37544                               14.61724             85.365                                        3.49375e+002           4.93754e+001           9.37544e+000           3.75438e-001           7.54375e-002           5.43753e-003           4.37531e-004
                  123.30    349.37786                               14.61724             85.361                                        3.49378e+002           4.93779e+001           9.37786e+000           3.77860e-001           7.78598e-002           7.85982e-003           8.59823e-004
                  123.40    349.42669                               14.61724             85.359                                        3.49427e+002           4.94267e+001           9.42669e+000           4.26692e-001           2.66922e-002           6.69215e-003           6.92155e-004
                  123.50    349.45119                               14.61724             85.359                                        3.49451e+002           4.94512e+001           9.45119e+000           4.51189e-001           5.11892e-002           1.18919e-003           1.89188e-004
                  123.60    349.42778                               14.61724             85.359                                        3.49428e+002           4.94278e+001           9.42778e+000           4.27785e-001           2.77846e-002           7.78456e-003           7.84565e-004
                  123.70    349.41178                               14.61724             85.359                                        3.49412e+002           4.94118e+001           9.41178e+000           4.11782e-001           1.17819e-002           1.78192e-003           7.81915e-004
                  123.80    349.41212                               14.61724             85.359                                        3.49412e+002           4.94121e+001           9.41212e+000           4.12120e-001           1.21202e-002           2.12016e-003           1.20160e-004
                  123.90    349.39283                               14.61724             85.359                                        3.49393e+002           4.93928e+001           9.39283e+000           3.92832e-001           9.28324e-002           2.83244e-003           8.32444e-004
                  124.00    349.39454                               14.61724             85.359                                        3.49395e+002           4.93945e+001           9.39454e+000           3.94540e-001           9.45405e-002           4.54049e-003           5.40486e-004
                  124.10    349.41985                               14.61724             85.359                                        3.49420e+002           4.94198e+001           9.41985e+000           4.19847e-001           1.98467e-002           9.84668e-003           8.46677e-004
                  124.20    349.41047                               14.61724             85.359                                        3.49410e+002           4.94105e+001           9.41047e+000           4.10468e-001           1.04682e-002           4.68180e-004           4.68180e-004
                  124.30    349.39041                               14.61724             85.359                                        3.49390e+002           4.93904e+001           9.39041e+000           3.90410e-001           9.04100e-002           4.09975e-004           4.09975e-004
                  124.40    349.40698                               14.61724             85.359                                        3.49407e+002           4.94070e+001           9.40698e+000           4.06981e-001           6.98099e-003           6.98099e-003           9.80991e-004
                  124.50    349.40925                               14.61724             85.359                                        3.49409e+002           4.94093e+001           9.40925e+000           4.09253e-001           9.25350e-003           9.25350e-003           2.53500e-004
                  124.60    349.39171                               14.61724             85.359                                        3.49392e+002           4.93917e+001           9.39171e+000           3.91713e-001           9.17129e-002           1.71288e-003           7.12878e-004
                  124.70    349.39836                               14.61724             85.359                                        3.49398e+002           4.93984e+001           9.39836e+000           3.98358e-001           9.83578e-002           8.35778e-003           3.57783e-004
                  124.80    349.42044                               14.61724             85.359                                        3.49420e+002           4.94204e+001           9.42044e+000           4.20438e-001           2.04377e-002           4.37739e-004           4.37739e-004
                  124.90    349.41106                               14.61724             85.359                                        3.49411e+002           4.94111e+001           9.41106e+000           4.11064e-001           1.10640e-002           1.06395e-003           6.39527e-005
                  125.00    349.39894                               14.61724             85.359                                        3.49399e+002           4.93989e+001           9.39894e+000           3.98937e-001           9.89373e-002           8.93728e-003           9.37280e-004
                  125.10    349.39892                               14.61724             85.359                                        3.49399e+002           4.93989e+001           9.39892e+000           3.98922e-001           9.89221e-002           8.92210e-003           9.22099e-004
                  125.20    349.39617                               14.61724             85.359                                        3.49396e+002           4.93962e+001           9.39617e+000           3.96166e-001           9.61656e-002           6.16564e-003           1.65640e-004
