~VERSION INFORMATION
VERS                    .            2.0                                    :CWLS LOG ASCII STANDARD
WRAP                    .            NO                                     :ONE LINE PER TIME STEP


~WELL INFORMATION
#MNEM                   .UNIT        DATA                                    DESCRIPTION
#________________________________________________________________________________________
STRTTIME                .HH/MM/SS    19:52:58                               :START TIME
STOPTIME                .HH/MM/SS    19:58:21                               :STOP TIME
STRT                    .s           2.10                                   :START DATA
STOP                    .s           321.30                                 :STOP DATA
STEP                    .s           0.10                                   :MEASUREMENT TIME INTERVAL
NULL                    .            -999.25                                :NULL VALUE
COMP                    .            Statoil ASA                            :COMPANY
FLD                     .            Volve                                  :FIELD
WELL                    .            15/9-F-11 A                            :WELL
RUN                     .            8                                      :RUN
LOC                     .            Maersk Inspirer                        :LOCATION
PROV                    .            na                                     :PROVINCE
SRVC                    .            Baker Hughes INTEQ                     :SERVICE COMPANY
DATE                    .YY/MM/DD    13/05/23                               :LOG DATE
UWI                     .                                                   :UNIQUE WELL ID
DEPTHMD                 .m           3602.0                                 :MEASURED DEPTH
DEPTHTVD                .m           3003.9                                 :TRUE VERTICAL DEPTH


~CURVE INFORMATION
#MNEM                   .UNIT        API CODES                               DESCRIPTION
#________________________________________________________________________________________
TIME                    .s                                                  :01 TIME
DD_PRESS                .bar                                                :02 DRAW DOWN PRESSURE
DD_VOLUME               .cm3                                                :03 INCREMENTAL DRAW DOWN VOLUME
TEMP                    .degC                                               :04 TRANSDUCER TEMPERATURE
DD_PRESS_MOD_1000       .bar                                                :05 DRAW DOWN PRESSURE MOD 1000
DD_PRESS_MOD_100        .bar                                                :06 DRAW DOWN PRESSURE MOD 100
DD_PRESS_MOD_10         .bar                                                :07 DRAW DOWN PRESSURE MOD 10
DD_PRESS_MOD_1          .bar                                                :08 DRAW DOWN PRESSURE MOD 1
DD_PRESS_MOD_01         .bar                                                :09 DRAW DOWN PRESSURE MOD 01
DD_PRESS_MOD_001        .bar                                                :10 DRAW DOWN PRESSURE MOD 001
DD_PRESS_MOD_0001       .bar                                                :11 DRAW DOWN PRESSURE MOD 0001


~PARAMETER INFORMATION
#MNEM                   .UNIT        VALUE                                   DESCRIPTION
#________________________________________________________________________________________
TOOLFACE                .deg         -40.9                                  :01 TOOLFACE
PUMP_CAPACITY           .bar         400                                    :02 NOMINAL DRAW DOWN PUMP CAPACITY
PUMP_LIMIT              .bar         240                                    :03 DOWNLINK PUMP LIMIT
TIME_LIMIT              .min         10                                     :04 DOWNLINK MAX TIME
TEST_TYPE               .            REPEAT                                 :05 DOWNLINK
TEST_TYPE               .            HIGH MOBILITY                          :06 DOWNLINK
DD_PIST_A               .cm2         3.1416                                 :07 DRAW DOWN PISTON AREA
V_SYS                   .cm3         131.0000                               :08 SYSTEM VOLUME
PROBE_ID                .cm          1.2700                                 :09 TTK PROBE ID
G0                      .            4.6700                                 :10 GEOMETRY FACTOR


~A                  TIME     DD_PRESS                              DD_VOLUME               TEMP                                   DD_PRESS_MOD_1000       DD_PRESS_MOD_100        DD_PRESS_MOD_10         DD_PRESS_MOD_1        DD_PRESS_MOD_01       DD_PRESS_MOD_001      DD_PRESS_MOD_0001
# ...
                  108.50    341.59307                               10.57399             70.984                                        3.41593e+002           4.15931e+001           1.59307e+000           5.93075e-001           9.30749e-002           3.07486e-003           7.48604e-005
                  108.60    341.53044                               10.57399             70.984                                        3.41530e+002           4.15304e+001           1.53044e+000           5.30439e-001           3.04388e-002           4.38822e-004           4.38822e-004
                  108.70    341.58211                               10.57399             70.984                                        3.41582e+002           4.15821e+001           1.58211e+000           5.82105e-001           8.21052e-002           2.10518e-003           1.05178e-004
                  108.80    341.60822                               10.57399             70.984                                        3.41608e+002           4.16082e+001           1.60822e+000           6.08217e-001           8.21677e-003           8.21677e-003           2.16768e-004
                  108.90    341.55087                               10.57399             70.984                                        3.41551e+002           4.15509e+001           1.55087e+000           5.50875e-001           5.08745e-002           8.74549e-004           8.74549e-004
                  109.00    341.51242                               10.57399             70.984                                        3.41512e+002           4.15124e+001           1.51242e+000           5.12420e-001           1.24204e-002           2.42036e-003           4.20361e-004
                  109.10    341.58543                               10.57399             70.984                                        3.41585e+002           4.15854e+001           1.58543e+000           5.85430e-001           8.54296e-002           5.42956e-003           4.29555e-004
                  109.20    341.66949                               10.57399             70.984                                        3.41669e+002           4.16695e+001           1.66949e+000           6.69492e-001           6.94924e-002           9.49242e-003           4.92420e-004
                  109.30    341.64476                               10.57399             70.984                                        3.41645e+002           4.16448e+001           1.64476e+000           6.44760e-001           4.47600e-002           4.76004e-003           7.60044e-004
                  109.40    341.55802                               10.57399             70.984                                        3.41558e+002           4.15580e+001           1.55802e+000           5.58015e-001           5.80154e-002           8.01541e-003           1.54074e-005
                  109.50    341.55665                               10.57399             70.984                                        3.41557e+002           4.15567e+001           1.55665e+000           5.56651e-001           5.66511e-002           6.65110e-003           6.51105e-004
                  109.60    341.64982                               10.57399             70.984                                        3.41650e+002           4.16498e+001           1.64982e+000           6.49820e-001           4.98202e-002           9.82019e-003           8.20194e-004
                  109.70    341.66295                               10.57399             70.984                                        3.41663e+002           4.16629e+001           1.66295e+000           6.62945e-001           6.29454e-002           2.94540e-003           9.45402e-004
                  109.80    341.59452                               10.57399             70.984                                        3.41595e+002           4.15945e+001           1.59452e+000           5.94523e-001           9.45235e-002           4.52347e-003           5.23468e-004
                  109.90    341.61979                               10.57399             70.984                                        3.41620e+002           4.16198e+001           1.61979e+000           6.19792e-001           1.97924e-002           9.79242e-003           7.92421e-004
                  110.00    341.68019                               10.57399             70.984                                        3.41680e+002           4.16802e+001           1.68019e+000           6.80194e-001           8.01941e-002           1.94061e-004           1.94061e-004
                  110.10    341.63653                               10.57399             70.984                                        3.41637e+002           4.16365e+001           1.63653e+000           6.36534e-001           3.65344e-002           6.53435e-003           5.34354e-004
                  110.20    341.57019                               10.57399             70.984                                        3.41570e+002           4.15702e+001           1.57019e+000           5.70192e-001           7.01922e-002           1.92166e-004           1.92166e-004
                  110.30    341.61006                               10.57399             70.984                                        3.41610e+002           4.16101e+001           1.61006e+000           6.10058e-001           1.00584e-002           5.84287e-005           5.84287e-005
                  110.40    341.66876                               10.57399             70.984                                        3.41669e+002           4.16688e+001           1.66876e+000           6.68761e-001           6.87608e-002           8.76082e-003           7.60821e-004
                  110.50    341.63112                               10.57399             70.984                                        3.41631e+002           4.16311e+001           1.63112e+000           6.31119e-001           3.11186e-002           1.11864e-003           1.18637e-004
                  110.60    341.56615                               10.57399             70.984                                        3.41566e+002           4.15662e+001           1.56615e+000           5.66153e-001           6.61534e-002           6.15344e-003           1.53443e-004
                  110.70    341.61878                               10.57399             70.984                                        3.41619e+002           4.16188e+001           1.61878e+000           6.18775e-001           1.87754e-002           8.77539e-003           7.75389e-004
                  110.80    341.68407                               10.57399             70.984                                        3.41684e+002           4.16841e+001           1.68407e+000           6.84068e-001           8.40681e-002           4.06812e-003           6.81178e-005
                  110.90    341.63114                               10.57399             70.984                                        3.41631e+002           4.16311e+001           1.63114e+000           6.31135e-001           3.11352e-002           1.13519e-003           1.35192e-004
                  111.00    341.56338                               10.57399             70.984                                        3.41563e+002           4.15634e+001           1.56338e+000           5.63377e-001           6.33766e-002           3.37656e-003           3.76557e-004
                  111.10    341.61208                               10.57399             70.984                                        3.41612e+002           4.16121e+001           1.61208e+000           6.12083e-001           1.20830e-002           2.08305e-003           8.30499e-005
                  111.20    341.68320                               10.57399             70.984                                        3.41683e+002           4.16832e+001           1.68320e+000           6.83197e-001           8.31970e-002           3.19705e-003           1.97048e-004
