~VERSION INFORMATION
VERS                    .            2.0                                    :CWLS LOG ASCII STANDARD
WRAP                    .            NO                                     :ONE LINE PER TIME STEP


~WELL INFORMATION
#MNEM                   .UNIT        DATA                                    DESCRIPTION
#________________________________________________________________________________________
STRTTIME                .HH/MM/SS    02:14:19                               :START TIME
STOPTIME                .HH/MM/SS    02:17:23                               :STOP TIME
STRT                    .s           2.10                                   :START DATA
STOP                    .s           182.70                                 :STOP DATA
STEP                    .s           0.10                                   :MEASUREMENT TIME INTERVAL
NULL                    .            -999.25                                :NULL VALUE
COMP                    .            Statoil ASA                            :COMPANY
FLD                     .            Volve                                  :FIELD
WELL                    .            15/9-F-1 C                             :WELL
RUN                     .            4                                      :RUN
LOC                     .                                                   :LOCATION
PROV                    .            na                                     :PROVINCE
SRVC                    .            Baker Hughes INTEQ                     :SERVICE COMPANY
DATE                    .YY/MM/DD    14/03/15                               :LOG DATE
UWI                     .                                                   :UNIQUE WELL ID
DEPTHMD                 .m           3603.0                                 :MEASURED DEPTH
DEPTHTVD                .m           3006.7                                 :TRUE VERTICAL DEPTH


~CURVE INFORMATION
#MNEM                   .UNIT        API CODES                               DESCRIPTION
#________________________________________________________________________________________
TIME                    .s                                                  :01 TIME
DD_PRESS                .bar                                                :02 DRAW DOWN PRESSURE
DD_VOLUME               .cm3                                                :03 INCREMENTAL DRAW DOWN VOLUME
TEMP                    .degC                                               :04 TRANSDUCER TEMPERATURE
DD_PRESS_MOD_1000       .bar                                                :05 DRAW DOWN PRESSURE MOD 1000
DD_PRESS_MOD_100        .bar                                                :06 DRAW DOWN PRESSURE MOD 100
DD_PRESS_MOD_10         .bar                                                :07 DRAW DOWN PRESSURE MOD 10
DD_PRESS_MOD_1          .bar                                                :08 DRAW DOWN PRESSURE MOD 1
DD_PRESS_MOD_01         .bar                                                :09 DRAW DOWN PRESSURE MOD 01
DD_PRESS_MOD_001        .bar                                                :10 DRAW DOWN PRESSURE MOD 001
DD_PRESS_MOD_0001       .bar                                                :11 DRAW DOWN PRESSURE MOD 0001


~PARAMETER INFORMATION
#MNEM                   .UNIT        VALUE                                   DESCRIPTION
#________________________________________________________________________________________
TOOLFACE                .deg         109.6                                  :01 TOOLFACE
PUMP_CAPACITY           .bar         400                                    :02 NOMINAL DRAW DOWN PUMP CAPACITY
PUMP_LIMIT              .bar         240                                    :03 DOWNLINK PUMP LIMIT
TIME_LIMIT              .min         10                                     :04 DOWNLINK MAX TIME
TEST_TYPE               .            REPEAT                                 :05 DOWNLINK
TEST_TYPE               .            HIGH MOBILITY                          :06 DOWNLINK
DD_PIST_A               .cm2         3.1416                                 :07 DRAW DOWN PISTON AREA
V_SYS                   .cm3         131.0000                               :08 SYSTEM VOLUME
PROBE_ID                .cm          1.2700                                 :09 TTK PROBE ID
G0                      .            4.6700                                 :10 GEOMETRY FACTOR


~A                  TIME     DD_PRESS                              DD_VOLUME               TEMP                                   DD_PRESS_MOD_1000       DD_PRESS_MOD_100        DD_PRESS_MOD_10         DD_PRESS_MOD_1        DD_PRESS_MOD_01       DD_PRESS_MOD_001      DD_PRESS_MOD_0001
# ...
                   97.30    345.38156                               19.84763             86.086                                        3.45382e+002           4.53816e+001           5.38156e+000           3.81558e-001           8.15583e-002           1.55832e-003           5.58320e-004
                   97.40    345.37709                               19.84763             86.086                                        3.45377e+002           4.53771e+001           5.37709e+000           3.77089e-001           7.70895e-002           7.08949e-003           8.94895e-005
                   97.50    345.38074                               19.84763             86.086                                        3.45381e+002           4.53807e+001           5.38074e+000           3.80743e-001           8.07426e-002           7.42629e-004           7.42629e-004
                   97.60    345.38345                               19.84763             86.086                                        3.45383e+002           4.53834e+001           5.38345e+000           3.83449e-001           8.34490e-002           3.44898e-003           4.48982e-004
                   97.70    345.37893                               19.84763             86.086                                        3.45379e+002           4.53789e+001           5.37893e+000           3.78931e-001           7.89313e-002           8.93133e-003           9.31327e-004
                   97.80    345.37436                               19.84763             86.086                                        3.45374e+002           4.53744e+001           5.37436e+000           3.74360e-001           7.43595e-002           4.35952e-003           3.59524e-004
                   97.90    345.37584                               19.84763             86.086                                        3.45376e+002           4.53758e+001           5.37584e+000           3.75836e-001           7.58364e-002           5.83638e-003           8.36376e-004
                   98.00    345.38211                               19.84763             86.086                                        3.45382e+002           4.53821e+001           5.38211e+000           3.82107e-001           8.21075e-002           2.10747e-003           1.07466e-004
                   98.10    345.38469                               19.84763             86.086                                        3.45385e+002           4.53847e+001           5.38469e+000           3.84692e-001           8.46922e-002           4.69223e-003           6.92228e-004
                   98.20    345.38303                               19.84763             86.086                                        3.45383e+002           4.53830e+001           5.38303e+000           3.83025e-001           8.30255e-002           3.02547e-003           2.54730e-005
                   98.30    345.37998                               19.84763             86.086                                        3.45380e+002           4.53800e+001           5.37998e+000           3.79984e-001           7.99836e-002           9.98365e-003           9.83649e-004
                   98.40    345.37816                               19.84763             86.086                                        3.45378e+002           4.53782e+001           5.37816e+000           3.78163e-001           7.81627e-002           8.16266e-003           1.62656e-004
                   98.50    345.38133                               19.84763             86.086                                        3.45381e+002           4.53813e+001           5.38133e+000           3.81328e-001           8.13281e-002           1.32814e-003           3.28136e-004
                   98.60    345.38370                               19.84763             86.086                                        3.45384e+002           4.53837e+001           5.38370e+000           3.83699e-001           8.36995e-002           3.69948e-003           6.99480e-004
                   98.70    345.38274                               19.84763             86.086                                        3.45383e+002           4.53827e+001           5.38274e+000           3.82740e-001           8.27399e-002           2.73988e-003           7.39879e-004
                   98.80    345.38496                               19.84763             86.086                                        3.45385e+002           4.53850e+001           5.38496e+000           3.84957e-001           8.49573e-002           4.95727e-003           9.57275e-004
                   98.90    345.38344                               19.84763             86.086                                        3.45383e+002           4.53834e+001           5.38344e+000           3.83439e-001           8.34391e-002           3.43910e-003           4.39099e-004
                   99.00    345.37794                               19.84763             86.086                                        3.45378e+002           4.53779e+001           5.37794e+000           3.77939e-001           7.79394e-002           7.93940e-003           9.39398e-004
                   99.10    345.37591                               19.84763             86.084                                        3.45376e+002           4.53759e+001           5.37591e+000           3.75912e-001           7.59119e-002           5.91187e-003           9.11866e-004
                   99.20    345.37918                               19.84763             86.080                                        3.45379e+002           4.53792e+001           5.37918e+000           3.79182e-001           7.91821e-002           9.18206e-003           1.82060e-004
                   99.30    345.38408                               19.84763             86.078                                        3.45384e+002           4.53841e+001           5.38408e+000           3.84084e-001           8.40840e-002           4.08396e-003           8.39623e-005
                   99.40    345.38841                               19.84763             86.078                                        3.45388e+002           4.53884e+001           5.38841e+000           3.88407e-001           8.84068e-002           8.40684e-003           4.06838e-004
                   99.50    345.38582                               19.84763             86.078                                        3.45386e+002           4.53858e+001           5.38582e+000           3.85819e-001           8.58187e-002           5.81869e-003           8.18693e-004
                   99.60    345.37948                               19.84763             86.078                                        3.45379e+002           4.53795e+001           5.37948e+000           3.79478e-001           7.94780e-002           9.47799e-003           4.77992e-004
                   99.70    345.37816                               19.84763             86.078                                        3.45378e+002           4.53782e+001           5.37816e+000           3.78165e-001           7.81646e-002           8.16461e-003           1.64606e-004
                   99.80    345.38074                               19.84763             86.078                                        3.45381e+002           4.53807e+001           5.38074e+000           3.80739e-001           8.07390e-002           7.38973e-004           7.38973e-004
                   99.90    345.38116                               19.84763             86.078                                        3.45381e+002           4.53812e+001           5.38116e+000           3.81158e-001           8.11583e-002           1.15829e-003           1.58290e-004
                  100.00    345.38076                               19.84763             86.078                                        3.45381e+002           4.53808e+001           5.38076e+000           3.80762e-001           8.07621e-002           7.62131e-004           7.62131e-004
