~VERSION INFORMATION
VERS                    .            2.0                                    :CWLS LOG ASCII STANDARD
WRAP                    .            NO                                     :ONE LINE PER TIME STEP


~WELL INFORMATION
#MNEM                   .UNIT        DATA                                    DESCRIPTION
#________________________________________________________________________________________
STRTTIME                .HH/MM/SS    09:08:53                               :START TIME
STOPTIME                .HH/MM/SS    09:11:57                               :STOP TIME
STRT                    .s           2.10                                   :START DATA
STOP                    .s           182.80                                 :STOP DATA
STEP                    .s           0.10                                   :MEASUREMENT TIME INTERVAL
NULL                    .            -999.25                                :NULL VALUE
COMP                    .            Statoil ASA                            :COMPANY
FLD                     .            Volve                                  :FIELD
WELL                    .            15/9-F-11 A                            :WELL
RUN                     .            8                                      :RUN
LOC                     .            Maersk Inspirer                        :LOCATION
PROV                    .            na                                     :PROVINCE
SRVC                    .            Baker Hughes INTEQ                     :SERVICE COMPANY
DATE                    .YY/MM/DD    13/05/21                               :LOG DATE
UWI                     .                                                   :UNIQUE WELL ID
DEPTHMD                 .m           3671.1                                 :MEASURED DEPTH
DEPTHTVD                .m           3056.7                                 :TRUE VERTICAL DEPTH


~CURVE INFORMATION
#MNEM                   .UNIT        API CODES                               DESCRIPTION
#________________________________________________________________________________________
TIME                    .s                                                  :01 TIME
DD_PRESS                .bar                                                :02 DRAW DOWN PRESSURE
DD_VOLUME               .cm3                                                :03 INCREMENTAL DRAW DOWN VOLUME
TEMP                    .degC                                               :04 TRANSDUCER TEMPERATURE
DD_PRESS_MOD_1000       .bar                                                :05 DRAW DOWN PRESSURE MOD 1000
DD_PRESS_MOD_100        .bar                                                :06 DRAW DOWN PRESSURE MOD 100
DD_PRESS_MOD_10         .bar                                                :07 DRAW DOWN PRESSURE MOD 10
DD_PRESS_MOD_1          .bar                                                :08 DRAW DOWN PRESSURE MOD 1
DD_PRESS_MOD_01         .bar                                                :09 DRAW DOWN PRESSURE MOD 01
DD_PRESS_MOD_001        .bar                                                :10 DRAW DOWN PRESSURE MOD 001
DD_PRESS_MOD_0001       .bar                                                :11 DRAW DOWN PRESSURE MOD 0001


~PARAMETER INFORMATION
#MNEM                   .UNIT        VALUE                                   DESCRIPTION
#________________________________________________________________________________________
TOOLFACE                .deg         -56.2                                  :01 TOOLFACE
PUMP_CAPACITY           .bar         400                                    :02 NOMINAL DRAW DOWN PUMP CAPACITY
PUMP_LIMIT              .bar         240                                    :03 DOWNLINK PUMP LIMIT
TIME_LIMIT              .min         10                                     :04 DOWNLINK MAX TIME
TEST_TYPE               .            REPEAT                                 :05 DOWNLINK
TEST_TYPE               .            HIGH MOBILITY                          :06 DOWNLINK
DD_PIST_A               .cm2         3.1416                                 :07 DRAW DOWN PISTON AREA
V_SYS                   .cm3         131.0000                               :08 SYSTEM VOLUME
PROBE_ID                .cm          1.2700                                 :09 TTK PROBE ID
G0                      .            4.6700                                 :10 GEOMETRY FACTOR


~A                  TIME     DD_PRESS                              DD_VOLUME               TEMP                                   DD_PRESS_MOD_1000       DD_PRESS_MOD_100        DD_PRESS_MOD_10         DD_PRESS_MOD_1        DD_PRESS_MOD_01       DD_PRESS_MOD_001      DD_PRESS_MOD_0001
# ...
                   74.90    345.05467                               10.66164             82.383                                        3.45055e+002           4.50547e+001           5.05467e+000           5.46677e-002           5.46677e-002           4.66773e-003           6.67734e-004
                   75.00    345.05860                               10.66185             82.383                                        3.45059e+002           4.50586e+001           5.05860e+000           5.86034e-002           5.86034e-002           8.60340e-003           6.03396e-004
                   75.10    345.05199                               10.66181             82.383                                        3.45052e+002           4.50520e+001           5.05199e+000           5.19853e-002           5.19853e-002           1.98529e-003           9.85294e-004
                   75.20    345.04507                               10.66155             82.383                                        3.45045e+002           4.50451e+001           5.04507e+000           4.50709e-002           4.50709e-002           5.07088e-003           7.08750e-005
                   75.30    345.04032                               10.66198             82.383                                        3.45040e+002           4.50403e+001           5.04032e+000           4.03190e-002           4.03190e-002           3.19000e-004           3.19000e-004
                   75.40    344.99386                               10.66325             82.383                                        3.44994e+002           4.49939e+001           4.99386e+000           9.93856e-001           9.38559e-002           3.85589e-003           8.55887e-004
                   75.50    344.93489                               10.66451             82.383                                        3.44935e+002           4.49349e+001           4.93489e+000           9.34890e-001           3.48902e-002           4.89019e-003           8.90192e-004
                   75.60    344.88963                               10.66602             82.383                                        3.44890e+002           4.48896e+001           4.88963e+000           8.89632e-001           8.96321e-002           9.63211e-003           6.32114e-004
                   75.70    344.82818                               10.66824             82.383                                        3.44828e+002           4.48282e+001           4.82818e+000           8.28180e-001           2.81803e-002           8.18027e-003           1.80269e-004
                   75.80    344.74754                               10.67074             82.383                                        3.44748e+002           4.47475e+001           4.74754e+000           7.47536e-001           4.75356e-002           7.53560e-003           5.35597e-004
                   75.90    344.66050                               10.67343             82.383                                        3.44661e+002           4.46605e+001           4.66050e+000           6.60503e-001           6.05027e-002           5.02697e-004           5.02697e-004
                   76.00    344.56664                               10.67673             82.383                                        3.44567e+002           4.45666e+001           4.56664e+000           5.66639e-001           6.66393e-002           6.63927e-003           6.39270e-004
                   76.10    344.47362                               10.68077             82.383                                        3.44474e+002           4.44736e+001           4.47362e+000           4.73624e-001           7.36235e-002           3.62352e-003           6.23519e-004
                   76.20    344.37377                               10.68550             82.383                                        3.44374e+002           4.43738e+001           4.37377e+000           3.73775e-001           7.37748e-002           3.77481e-003           7.74809e-004
                   76.30    344.25266                               10.69094             82.383                                        3.44253e+002           4.42527e+001           4.25266e+000           2.52657e-001           5.26570e-002           2.65696e-003           6.56963e-004
                   76.40    344.11799                               10.69713             82.383                                        3.44118e+002           4.41180e+001           4.11799e+000           1.17989e-001           1.79890e-002           7.98904e-003           9.89043e-004
                   76.50    343.98522                               10.70418             82.383                                        3.43985e+002           4.39852e+001           3.98522e+000           9.85223e-001           8.52234e-002           5.22340e-003           2.23396e-004
                   76.60    343.83426                               10.71233             82.383                                        3.43834e+002           4.38343e+001           3.83426e+000           8.34263e-001           3.42628e-002           4.26279e-003           2.62788e-004
                   76.70    343.67198                               10.72124             82.383                                        3.43672e+002           4.36720e+001           3.67198e+000           6.71980e-001           7.19798e-002           1.97979e-003           9.79792e-004
                   76.80    343.51490                               10.73069             82.383                                        3.43515e+002           4.35149e+001           3.51490e+000           5.14900e-001           1.49004e-002           4.90042e-003           9.00423e-004
                   76.90    343.35997                               10.74152             82.383                                        3.43360e+002           4.33600e+001           3.35997e+000           3.59970e-001           5.99699e-002           9.96989e-003           9.69885e-004
                   77.00    343.18357                               10.75371             82.383                                        3.43184e+002           4.31836e+001           3.18357e+000           1.83568e-001           8.35684e-002           3.56844e-003           5.68442e-004
                   77.10    342.98550                               10.76661             82.383                                        3.42986e+002           4.29855e+001           2.98550e+000           9.85503e-001           8.55030e-002           5.50296e-003           5.02957e-004
                   77.20    342.79916                               10.78044             82.383                                        3.42799e+002           4.27992e+001           2.79916e+000           7.99157e-001           9.91573e-002           9.15728e-003           1.57282e-004
                   77.30    342.61167                               10.79593             82.383                                        3.42612e+002           4.26117e+001           2.61167e+000           6.11666e-001           1.16660e-002           1.66600e-003           6.66000e-004
                   77.40    342.39774                               10.81286             82.383                                        3.42398e+002           4.23977e+001           2.39774e+000           3.97740e-001           9.77404e-002           7.74039e-003           7.40387e-004
                   77.50    342.17414                               10.83056             82.383                                        3.42174e+002           4.21741e+001           2.17414e+000           1.74142e-001           7.41419e-002           4.14188e-003           1.41877e-004
                   77.60    341.95783                               10.84961             82.383                                        3.41958e+002           4.19578e+001           1.95783e+000           9.57832e-001           5.78317e-002           7.83171e-003           8.31709e-004
