~VERSION INFORMATION
VERS                    .            2.0                                    :CWLS LOG ASCII STANDARD
WRAP                    .            NO                                     :ONE LINE PER TIME STEP


~WELL INFORMATION
#MNEM                   .UNIT        DATA                                    DESCRIPTION
#________________________________________________________________________________________
STRTTIME                .HH/MM/SS    14:50:05                               :START TIME
STOPTIME                .HH/MM/SS    14:53:18                               :STOP TIME
STRT                    .s           2.10                                   :START DATA
STOP                    .s           191.60                                 :STOP DATA
STEP                    .s           0.10                                   :MEASUREMENT TIME INTERVAL
NULL                    .            -999.25                                :NULL VALUE
COMP                    .            Statoil ASA                            :COMPANY
FLD                     .            Volve                                  :FIELD
WELL                    .            15/9-F-1 B                             :WELL
RUN                     .            7                                      :RUN
LOC                     .            Maersk Inspirer                        :LOCATION
PROV                    .            na                                     :PROVINCE
SRVC                    .            Baker Hughes INTEQ                     :SERVICE COMPANY
DATE                    .YY/MM/DD    13/09/06                               :LOG DATE
UWI                     .                                                   :UNIQUE WELL ID
DEPTHMD                 .m           3280.5                                 :MEASURED DEPTH
DEPTHTVD                .m           3076.1                                 :TRUE VERTICAL DEPTH


~CURVE INFORMATION
#MNEM                   .UNIT        API CODES                               DESCRIPTION
#________________________________________________________________________________________
TIME                    .s                                                  :01 TIME
DD_PRESS                .bar                                                :02 DRAW DOWN PRESSURE
DD_VOLUME               .cm3                                                :03 INCREMENTAL DRAW DOWN VOLUME
TEMP                    .degC                                               :04 TRANSDUCER TEMPERATURE
DD_PRESS_MOD_1000       .bar                                                :05 DRAW DOWN PRESSURE MOD 1000
DD_PRESS_MOD_100        .bar                                                :06 DRAW DOWN PRESSURE MOD 100
DD_PRESS_MOD_10         .bar                                                :07 DRAW DOWN PRESSURE MOD 10
DD_PRESS_MOD_1          .bar                                                :08 DRAW DOWN PRESSURE MOD 1
DD_PRESS_MOD_01         .bar                                                :09 DRAW DOWN PRESSURE MOD 01
DD_PRESS_MOD_001        .bar                                                :10 DRAW DOWN PRESSURE MOD 001
DD_PRESS_MOD_0001       .bar                                                :11 DRAW DOWN PRESSURE MOD 0001


~PARAMETER INFORMATION
#MNEM                   .UNIT        VALUE                                   DESCRIPTION
#________________________________________________________________________________________
TOOLFACE                .deg         na                                     :01 TOOLFACE
PUMP_CAPACITY           .bar         400                                    :02 NOMINAL DRAW DOWN PUMP CAPACITY
PUMP_LIMIT              .bar         400                                    :03 DOWNLINK PUMP LIMIT
TIME_LIMIT              .min         10                                     :04 DOWNLINK MAX TIME
TEST_TYPE               .            LOW MOBILITY                           :05 DOWNLINK
DD_PIST_A               .cm2         3.1416                                 :06 DRAW DOWN PISTON AREA
V_SYS                   .cm3         131.0000                               :07 SYSTEM VOLUME
PROBE_ID                .cm          1.2700                                 :08 TTK PROBE ID
G0                      .            4.6700                                 :09 GEOMETRY FACTOR


~A                  TIME     DD_PRESS                              DD_VOLUME               TEMP                                   DD_PRESS_MOD_1000       DD_PRESS_MOD_100        DD_PRESS_MOD_10         DD_PRESS_MOD_1        DD_PRESS_MOD_01       DD_PRESS_MOD_001      DD_PRESS_MOD_0001
# ...
                  178.50    440.14501                                0.00000             82.477                                        4.40145e+002           4.01450e+001           1.45010e-001           1.45010e-001           4.50102e-002           5.01018e-003           1.01841e-005
                  178.60    440.14400                                0.00000             82.477                                        4.40144e+002           4.01440e+001           1.44001e-001           1.44001e-001           4.40007e-002           4.00074e-003           7.38741e-007
                  178.70    440.07951                                0.00000             82.477                                        4.40080e+002           4.00795e+001           7.95087e-002           7.95087e-002           7.95087e-002           9.50870e-003           5.08699e-004
                  178.80    440.08269                                0.00000             82.477                                        4.40083e+002           4.00827e+001           8.26865e-002           8.26865e-002           8.26865e-002           2.68651e-003           6.86510e-004
                  178.90    440.14061                                0.00000             82.477                                        4.40141e+002           4.01406e+001           1.40606e-001           1.40606e-001           4.06057e-002           6.05658e-004           6.05658e-004
                  179.00    440.13980                                0.00000             82.477                                        4.40140e+002           4.01398e+001           1.39795e-001           1.39795e-001           3.97954e-002           9.79540e-003           7.95397e-004
                  179.10    440.08719                                0.00000             82.477                                        4.40087e+002           4.00872e+001           8.71946e-002           8.71946e-002           8.71946e-002           7.19461e-003           1.94611e-004
                  179.20    440.09387                                0.00000             82.477                                        4.40094e+002           4.00939e+001           9.38678e-002           9.38678e-002           9.38678e-002           3.86780e-003           8.67797e-004
                  179.30    440.14709                                0.00000             82.477                                        4.40147e+002           4.01471e+001           1.47091e-001           1.47091e-001           4.70912e-002           7.09124e-003           9.12407e-005
                  179.40    440.13313                                0.00000             82.477                                        4.40133e+002           4.01331e+001           1.33129e-001           1.33129e-001           3.31288e-002           3.12877e-003           1.28765e-004
                  179.50    440.07107                                0.00000             82.477                                        4.40071e+002           4.00711e+001           7.10710e-002           7.10710e-002           7.10710e-002           1.07105e-003           7.10463e-005
                  179.60    440.07842                                0.00000             82.477                                        4.40078e+002           4.00784e+001           7.84210e-002           7.84210e-002           7.84210e-002           8.42096e-003           4.20960e-004
                  179.70    440.14568                                0.00000             82.477                                        4.40146e+002           4.01457e+001           1.45678e-001           1.45678e-001           4.56776e-002           5.67760e-003           6.77605e-004
                  179.80    440.14800                                0.00000             82.477                                        4.40148e+002           4.01480e+001           1.47999e-001           1.47999e-001           4.79990e-002           7.99900e-003           9.99002e-004
                  179.90    440.08037                                0.00000             82.477                                        4.40080e+002           4.00804e+001           8.03659e-002           8.03659e-002           8.03659e-002           3.65938e-004           3.65938e-004
                  180.00    440.09240                                0.00000             82.477                                        4.40092e+002           4.00924e+001           9.24034e-002           9.24034e-002           9.24034e-002           2.40342e-003           4.03422e-004
                  180.10    440.16887                                0.00000             82.477                                        4.40169e+002           4.01689e+001           1.68865e-001           1.68865e-001           6.88650e-002           8.86502e-003           8.65023e-004
                  180.20    440.15947                                0.00000             82.477                                        4.40159e+002           4.01595e+001           1.59466e-001           1.59466e-001           5.94657e-002           9.46573e-003           4.65735e-004
                  180.30    440.07915                                0.00000             82.477                                        4.40079e+002           4.00792e+001           7.91532e-002           7.91532e-002           7.91532e-002           9.15321e-003           1.53205e-004
                  180.40    440.07282                                0.00000             82.477                                        4.40073e+002           4.00728e+001           7.28193e-002           7.28193e-002           7.28193e-002           2.81929e-003           8.19292e-004
                  180.50    440.13370                                0.00000             82.477                                        4.40134e+002           4.01337e+001           1.33695e-001           1.33695e-001           3.36950e-002           3.69503e-003           6.95030e-004
                  180.60    440.13646                                0.00000             82.477                                        4.40136e+002           4.01365e+001           1.36463e-001           1.36463e-001           3.64631e-002           6.46306e-003           4.63056e-004
                  180.70    440.07242                                0.00000             82.477                                        4.40072e+002           4.00724e+001           7.24158e-002           7.24158e-002           7.24158e-002           2.41578e-003           4.15784e-004
                  180.80    440.07129                                0.00000             82.477                                        4.40071e+002           4.00713e+001           7.12895e-002           7.12895e-002           7.12895e-002           1.28950e-003           2.89502e-004
                  180.90    440.13035                                0.00000             82.477                                        4.40130e+002           4.01303e+001           1.30348e-001           1.30348e-001           3.03484e-002           3.48414e-004           3.48414e-004
                  181.00    440.12710                                0.00000             82.477                                        4.40127e+002           4.01271e+001           1.27099e-001           1.27099e-001           2.70985e-002           7.09854e-003           9.85386e-005
                  181.10    440.06560                                0.00000             82.477                                        4.40066e+002           4.00656e+001           6.55954e-002           6.55954e-002           6.55954e-002           5.59538e-003           5.95384e-004
                  181.20    440.07733                                0.00000             82.477                                        4.40077e+002           4.00773e+001           7.73343e-002           7.73343e-002           7.73343e-002           7.33432e-003           3.34320e-004
