~VERSION INFORMATION
VERS                    .            2.0                                    :CWLS LOG ASCII STANDARD
WRAP                    .            NO                                     :ONE LINE PER TIME STEP


~WELL INFORMATION
#MNEM                   .UNIT        DATA                                    DESCRIPTION
#________________________________________________________________________________________
STRTTIME                .HH/MM/SS    03:28:02                               :START TIME
STOPTIME                .HH/MM/SS    03:30:44                               :STOP TIME
STRT                    .s           2.10                                   :START DATA
STOP                    .s           160.80                                 :STOP DATA
STEP                    .s           0.10                                   :MEASUREMENT TIME INTERVAL
NULL                    .            -999.25                                :NULL VALUE
COMP                    .            Statoil ASA                            :COMPANY
FLD                     .            Volve                                  :FIELD
WELL                    .            15/9-F-1 C                             :WELL
RUN                     .            4                                      :RUN
LOC                     .                                                   :LOCATION
PROV                    .            na                                     :PROVINCE
SRVC                    .            Baker Hughes INTEQ                     :SERVICE COMPANY
DATE                    .YY/MM/DD    14/03/15                               :LOG DATE
UWI                     .                                                   :UNIQUE WELL ID
DEPTHMD                 .m           3493.0                                 :MEASURED DEPTH
DEPTHTVD                .m           2980.2                                 :TRUE VERTICAL DEPTH


~CURVE INFORMATION
#MNEM                   .UNIT        API CODES                               DESCRIPTION
#________________________________________________________________________________________
TIME                    .s                                                  :01 TIME
DD_PRESS                .bar                                                :02 DRAW DOWN PRESSURE
DD_VOLUME               .cm3                                                :03 INCREMENTAL DRAW DOWN VOLUME
TEMP                    .degC                                               :04 TRANSDUCER TEMPERATURE
DD_PRESS_MOD_1000       .bar                                                :05 DRAW DOWN PRESSURE MOD 1000
DD_PRESS_MOD_100        .bar                                                :06 DRAW DOWN PRESSURE MOD 100
DD_PRESS_MOD_10         .bar                                                :07 DRAW DOWN PRESSURE MOD 10
DD_PRESS_MOD_1          .bar                                                :08 DRAW DOWN PRESSURE MOD 1
DD_PRESS_MOD_01         .bar                                                :09 DRAW DOWN PRESSURE MOD 01
DD_PRESS_MOD_001        .bar                                                :10 DRAW DOWN PRESSURE MOD 001
DD_PRESS_MOD_0001       .bar                                                :11 DRAW DOWN PRESSURE MOD 0001


~PARAMETER INFORMATION
#MNEM                   .UNIT        VALUE                                   DESCRIPTION
#________________________________________________________________________________________
TOOLFACE                .deg         89.6                                   :01 TOOLFACE
PUMP_CAPACITY           .bar         400                                    :02 NOMINAL DRAW DOWN PUMP CAPACITY
PUMP_LIMIT              .bar         240                                    :03 DOWNLINK PUMP LIMIT
TIME_LIMIT              .min         10                                     :04 DOWNLINK MAX TIME
TEST_TYPE               .            REPEAT                                 :05 DOWNLINK
TEST_TYPE               .            HIGH MOBILITY                          :06 DOWNLINK
DD_PIST_A               .cm2         3.1416                                 :07 DRAW DOWN PISTON AREA
V_SYS                   .cm3         131.0000                               :08 SYSTEM VOLUME
PROBE_ID                .cm          1.2700                                 :09 TTK PROBE ID
G0                      .            4.6700                                 :10 GEOMETRY FACTOR


~A                  TIME     DD_PRESS                              DD_VOLUME               TEMP                                   DD_PRESS_MOD_1000       DD_PRESS_MOD_100        DD_PRESS_MOD_10         DD_PRESS_MOD_1        DD_PRESS_MOD_01       DD_PRESS_MOD_001      DD_PRESS_MOD_0001
# ...
                   32.90    339.51444                                6.17843             83.781                                        3.39514e+002           3.95144e+001           9.51444e+000           5.14438e-001           1.44384e-002           4.43838e-003           4.38384e-004
                   33.00    339.51352                                6.27796             83.781                                        3.39514e+002           3.95135e+001           9.51352e+000           5.13525e-001           1.35247e-002           3.52467e-003           5.24668e-004
                   33.10    339.51302                                6.37745             83.781                                        3.39513e+002           3.95130e+001           9.51302e+000           5.13022e-001           1.30222e-002           3.02215e-003           2.21502e-005
                   33.20    339.51564                                6.47672             83.781                                        3.39516e+002           3.95156e+001           9.51564e+000           5.15645e-001           1.56450e-002           5.64499e-003           6.44994e-004
                   33.30    339.51833                                6.57590             83.781                                        3.39518e+002           3.95183e+001           9.51833e+000           5.18329e-001           1.83288e-002           8.32884e-003           3.28837e-004
                   33.40    339.51742                                6.67494             83.781                                        3.39517e+002           3.95174e+001           9.51742e+000           5.17421e-001           1.74212e-002           7.42117e-003           4.21165e-004
                   33.50    339.51687                                6.77370             83.781                                        3.39517e+002           3.95169e+001           9.51687e+000           5.16865e-001           1.68655e-002           6.86549e-003           8.65491e-004
                   33.60    339.51906                                6.87216             83.781                                        3.39519e+002           3.95191e+001           9.51906e+000           5.19061e-001           1.90609e-002           9.06094e-003           6.09412e-005
                   33.70    339.52544                                6.97012             83.781                                        3.39525e+002           3.95254e+001           9.52544e+000           5.25436e-001           2.54357e-002           5.43569e-003           4.35690e-004
                   33.80    339.52782                                7.06781             83.781                                        3.39528e+002           3.95278e+001           9.52782e+000           5.27822e-001           2.78220e-002           7.82200e-003           8.22001e-004
                   33.90    339.52732                                7.16505             83.779                                        3.39527e+002           3.95273e+001           9.52732e+000           5.27320e-001           2.73203e-002           7.32032e-003           3.20315e-004
                   34.00    339.53154                                7.26190             83.775                                        3.39532e+002           3.95315e+001           9.53154e+000           5.31540e-001           3.15398e-002           1.53980e-003           5.39796e-004
                   34.10    339.53676                                7.35834             83.773                                        3.39537e+002           3.95368e+001           9.53676e+000           5.36763e-001           3.67632e-002           6.76316e-003           7.63158e-004
                   34.20    339.54173                                7.45431             83.773                                        3.39542e+002           3.95417e+001           9.54173e+000           5.41729e-001           4.17289e-002           1.72893e-003           7.28926e-004
                   34.30    339.54578                                7.54962             83.773                                        3.39546e+002           3.95458e+001           9.54578e+000           5.45782e-001           4.57818e-002           5.78176e-003           7.81761e-004
                   34.40    339.54899                                7.64431             83.773                                        3.39549e+002           3.95490e+001           9.54899e+000           5.48991e-001           4.89909e-002           8.99086e-003           9.90858e-004
                   34.50    339.55595                                7.73835             83.773                                        3.39556e+002           3.95559e+001           9.55595e+000           5.55948e-001           5.59479e-002           5.94793e-003           9.47927e-004
                   34.60    339.56311                                7.83173             83.773                                        3.39563e+002           3.95631e+001           9.56311e+000           5.63112e-001           6.31121e-002           3.11213e-003           1.12126e-004
                   34.70    339.56838                                7.92441             83.773                                        3.39568e+002           3.95684e+001           9.56838e+000           5.68376e-001           6.83760e-002           8.37595e-003           3.75953e-004
                   34.80    339.57550                                8.01630             83.773                                        3.39576e+002           3.95755e+001           9.57550e+000           5.75505e-001           7.55048e-002           5.50480e-003           5.04798e-004
                   34.90    339.58374                                8.10738             83.773                                        3.39584e+002           3.95837e+001           9.58374e+000           5.83743e-001           8.37435e-002           3.74348e-003           7.43476e-004
                   35.00    339.59084                                8.19768             83.773                                        3.39591e+002           3.95908e+001           9.59084e+000           5.90839e-001           9.08389e-002           8.38856e-004           8.38856e-004
                   35.10    339.59732                                8.28710             83.773                                        3.39597e+002           3.95973e+001           9.59732e+000           5.97322e-001           9.73216e-002           7.32160e-003           3.21602e-004
                   35.20    339.60491                                8.37555             83.773                                        3.39605e+002           3.96049e+001           9.60491e+000           6.04907e-001           4.90681e-003           4.90681e-003           9.06810e-004
                   35.30    339.61316                                8.46310             83.773                                        3.39613e+002           3.96132e+001           9.61316e+000           6.13160e-001           1.31600e-002           3.16001e-003           1.60011e-004
                   35.40    339.62249                                8.54967             83.773                                        3.39622e+002           3.96225e+001           9.62249e+000           6.22487e-001           2.24871e-002           2.48708e-003           4.87082e-004
                   35.50    339.63260                                8.63526             83.773                                        3.39633e+002           3.96326e+001           9.63260e+000           6.32603e-001           3.26033e-002           2.60330e-003           6.03302e-004
                   35.60    339.64325                                8.71994             83.773                                        3.39643e+002           3.96433e+001           9.64325e+000           6.43253e-001           4.32531e-002           3.25310e-003           2.53102e-004
