~VERSION INFORMATION
VERS                    .            2.0                                    :CWLS LOG ASCII STANDARD
WRAP                    .            NO                                     :ONE LINE PER TIME STEP


~WELL INFORMATION
#MNEM                   .UNIT        DATA                                    DESCRIPTION
#________________________________________________________________________________________
STRTTIME                .HH/MM/SS    23:39:21                               :START TIME
STOPTIME                .HH/MM/SS    23:43:19                               :STOP TIME
STRT                    .s           2.10                                   :START DATA
STOP                    .s           236.60                                 :STOP DATA
STEP                    .s           0.10                                   :MEASUREMENT TIME INTERVAL
NULL                    .            -999.25                                :NULL VALUE
COMP                    .            Statoil                                :COMPANY
FLD                     .            Volve                                  :FIELD
WELL                    .            15/9-F-11 T2                           :WELL
RUN                     .            7                                      :RUN
LOC                     .            Maersk Inspirer                        :LOCATION
PROV                    .            na                                     :PROVINCE
SRVC                    .            Baker Hughes INTEQ                     :SERVICE COMPANY
DATE                    .YY/MM/DD    13/05/04                               :LOG DATE
UWI                     .                                                   :UNIQUE WELL ID
DEPTHMD                 .m           4417.0                                 :MEASURED DEPTH
DEPTHTVD                .m           3257.6                                 :TRUE VERTICAL DEPTH


~CURVE INFORMATION
#MNEM                   .UNIT        API CODES                               DESCRIPTION
#________________________________________________________________________________________
TIME                    .s                                                  :01 TIME
DD_PRESS                .bar                                                :02 DRAW DOWN PRESSURE
DD_VOLUME               .cm3                                                :03 INCREMENTAL DRAW DOWN VOLUME
TEMP                    .degC                                               :04 TRANSDUCER TEMPERATURE
DD_PRESS_MOD_1000       .bar                                                :05 DRAW DOWN PRESSURE MOD 1000
DD_PRESS_MOD_100        .bar                                                :06 DRAW DOWN PRESSURE MOD 100
DD_PRESS_MOD_10         .bar                                                :07 DRAW DOWN PRESSURE MOD 10
DD_PRESS_MOD_1          .bar                                                :08 DRAW DOWN PRESSURE MOD 1
DD_PRESS_MOD_01         .bar                                                :09 DRAW DOWN PRESSURE MOD 01
DD_PRESS_MOD_001        .bar                                                :10 DRAW DOWN PRESSURE MOD 001
DD_PRESS_MOD_0001       .bar                                                :11 DRAW DOWN PRESSURE MOD 0001


~PARAMETER INFORMATION
#MNEM                   .UNIT        VALUE                                   DESCRIPTION
#________________________________________________________________________________________
TOOLFACE                .deg         na                                     :01 TOOLFACE
PUMP_CAPACITY           .bar         400                                    :02 NOMINAL DRAW DOWN PUMP CAPACITY
PUMP_LIMIT              .bar         240                                    :03 DOWNLINK PUMP LIMIT
TIME_LIMIT              .min         10                                     :04 DOWNLINK MAX TIME
TEST_TYPE               .            REPEAT                                 :05 DOWNLINK
TEST_TYPE               .            HIGH MOBILITY                          :06 DOWNLINK
DD_PIST_A               .cm2         3.1416                                 :07 DRAW DOWN PISTON AREA
V_SYS                   .cm3         131.0000                               :08 SYSTEM VOLUME
PROBE_ID                .cm          1.2700                                 :09 TTK PROBE ID
G0                      .            4.6700                                 :10 GEOMETRY FACTOR


~A                  TIME     DD_PRESS                              DD_VOLUME               TEMP                                   DD_PRESS_MOD_1000       DD_PRESS_MOD_100        DD_PRESS_MOD_10         DD_PRESS_MOD_1        DD_PRESS_MOD_01       DD_PRESS_MOD_001      DD_PRESS_MOD_0001
                    2.10    456.28054                                0.00000             96.164                                        4.56281e+002           5.62805e+001           6.28054e+000           2.80536e-001           8.05357e-002           5.35662e-004           5.35662e-004
                    2.20    456.30736                                0.00000             96.164                                        4.56307e+002           5.63074e+001           6.30736e+000           3.07359e-001           7.35867e-003           7.35867e-003           3.58670e-004
                    2.30    456.31088                                0.00000             96.164                                        4.56311e+002           5.63109e+001           6.31088e+000           3.10876e-001           1.08758e-002           8.75808e-004           8.75808e-004
                    2.40    456.26210                                0.00000             96.164                                        4.56262e+002           5.62621e+001           6.26210e+000           2.62099e-001           6.20993e-002           2.09932e-003           9.93188e-005
                    2.50    456.24632                                0.00000             96.164                                        4.56246e+002           5.62463e+001           6.24632e+000           2.46318e-001           4.63185e-002           6.31846e-003           3.18457e-004
                    2.60    456.28800                                0.00000             96.164                                        4.56288e+002           5.62880e+001           6.28800e+000           2.87996e-001           8.79957e-002           7.99566e-003           9.95656e-004
                    2.70    456.31015                                0.00000             96.164                                        4.56310e+002           5.63102e+001           6.31015e+000           3.10150e-001           1.01503e-002           1.50277e-004           1.50277e-004
                    2.80    456.29446                                0.00000             96.164                                        4.56294e+002           5.62945e+001           6.29446e+000           2.94457e-001           9.44571e-002           4.45714e-003           4.57141e-004
                    2.90    456.31974                                0.00000             96.164                                        4.56320e+002           5.63197e+001           6.31974e+000           3.19745e-001           1.97446e-002           9.74458e-003           7.44580e-004
                    3.00    456.38181                                0.00000             96.164                                        4.56382e+002           5.63818e+001           6.38181e+000           3.81810e-001           8.18101e-002           1.81013e-003           8.10129e-004
                    3.10    456.39690                                0.00000             96.164                                        4.56397e+002           5.63969e+001           6.39690e+000           3.96903e-001           9.69030e-002           6.90300e-003           9.03004e-004
                    3.20    456.36387                                0.00000             96.164                                        4.56364e+002           5.63639e+001           6.36387e+000           3.63872e-001           6.38717e-002           3.87168e-003           8.71684e-004
                    3.30    456.38212                                0.00000             96.164                                        4.56382e+002           5.63821e+001           6.38212e+000           3.82121e-001           8.21210e-002           2.12100e-003           1.21000e-004
                    3.40    456.43713                                0.00000             96.164                                        4.56437e+002           5.64371e+001           6.43713e+000           4.37132e-001           3.71322e-002           7.13224e-003           1.32235e-004
                    3.50    456.44017                                0.00000             96.164                                        4.56440e+002           5.64402e+001           6.44017e+000           4.40169e-001           4.01688e-002           1.68787e-004           1.68787e-004
                    3.60    456.40439                                0.00000             96.164                                        4.56404e+002           5.64044e+001           6.40439e+000           4.04391e-001           4.39142e-003           4.39142e-003           3.91423e-004
                    3.70    456.40859                                0.00000             96.162                                        4.56409e+002           5.64086e+001           6.40859e+000           4.08592e-001           8.59172e-003           8.59172e-003           5.91719e-004
                    3.80    456.42262                                0.00000             96.158                                        4.56423e+002           5.64226e+001           6.42262e+000           4.22620e-001           2.26201e-002           2.62007e-003           6.20066e-004
                    3.90    456.38212                                0.00000             96.156                                        4.56382e+002           5.63821e+001           6.38212e+000           3.82122e-001           8.21216e-002           2.12163e-003           1.21627e-004
                    4.00    456.35123                                0.00000             96.156                                        4.56351e+002           5.63512e+001           6.35123e+000           3.51228e-001           5.12278e-002           1.22777e-003           2.27765e-004
                    4.10    456.40390                                0.00000             96.156                                        4.56404e+002           5.64039e+001           6.40390e+000           4.03903e-001           3.90294e-003           3.90294e-003           9.02943e-004
                    4.20    456.45745                                0.00000             96.156                                        4.56457e+002           5.64575e+001           6.45745e+000           4.57454e-001           5.74541e-002           7.45415e-003           4.54147e-004
                    4.30    456.42654                                0.00000             96.156                                        4.56427e+002           5.64265e+001           6.42654e+000           4.26540e-001           2.65399e-002           6.53993e-003           5.39925e-004
                    4.40    456.40661                                0.00000             96.156                                        4.56407e+002           5.64066e+001           6.40661e+000           4.06606e-001           6.60633e-003           6.60633e-003           6.06333e-004
                    4.50    456.47024                                0.00000             96.156                                        4.56470e+002           5.64702e+001           6.47024e+000           4.70239e-001           7.02390e-002           2.39020e-004           2.39020e-004
                    4.60    456.52206                                0.00000             96.156                                        4.56522e+002           5.65221e+001           6.52206e+000           5.22057e-001           2.20570e-002           2.05701e-003           5.70105e-005
                    4.70    456.49727                                0.00000             96.156                                        4.56497e+002           5.64973e+001           6.49727e+000           4.97274e-001           9.72737e-002           7.27372e-003           2.73721e-004
                    4.80    456.50036                                0.00000             96.156                                        4.56500e+002           5.65004e+001           6.50036e+000           5.00356e-001           3.56482e-004           3.56482e-004           3.56482e-004
