~VERSION INFORMATION
VERS                    .            2.0                                    :CWLS LOG ASCII STANDARD
WRAP                    .            NO                                     :ONE LINE PER TIME STEP


~WELL INFORMATION
#MNEM                   .UNIT        DATA                                    DESCRIPTION
#________________________________________________________________________________________
STRTTIME                .HH/MM/SS    09:43:23                               :START TIME
STOPTIME                .HH/MM/SS    09:46:50                               :STOP TIME
STRT                    .s           2.10                                   :START DATA
STOP                    .s           205.20                                 :STOP DATA
STEP                    .s           0.10                                   :MEASUREMENT TIME INTERVAL
NULL                    .            -999.25                                :NULL VALUE
COMP                    .            Statoil ASA                            :COMPANY
FLD                     .            Volve                                  :FIELD
WELL                    .            15/9-F-11 A                            :WELL
RUN                     .            8                                      :RUN
LOC                     .            Maersk Inspirer                        :LOCATION
PROV                    .            na                                     :PROVINCE
SRVC                    .            Baker Hughes INTEQ                     :SERVICE COMPANY
DATE                    .YY/MM/DD    13/05/21                               :LOG DATE
UWI                     .                                                   :UNIQUE WELL ID
DEPTHMD                 .m           3665.9                                 :MEASURED DEPTH
DEPTHTVD                .m           3052.8                                 :TRUE VERTICAL DEPTH


~CURVE INFORMATION
#MNEM                   .UNIT        API CODES                               DESCRIPTION
#________________________________________________________________________________________
TIME                    .s                                                  :01 TIME
DD_PRESS                .bar                                                :02 DRAW DOWN PRESSURE
DD_VOLUME               .cm3                                                :03 INCREMENTAL DRAW DOWN VOLUME
TEMP                    .degC                                               :04 TRANSDUCER TEMPERATURE
DD_PRESS_MOD_1000       .bar                                                :05 DRAW DOWN PRESSURE MOD 1000
DD_PRESS_MOD_100        .bar                                                :06 DRAW DOWN PRESSURE MOD 100
DD_PRESS_MOD_10         .bar                                                :07 DRAW DOWN PRESSURE MOD 10
DD_PRESS_MOD_1          .bar                                                :08 DRAW DOWN PRESSURE MOD 1
DD_PRESS_MOD_01         .bar                                                :09 DRAW DOWN PRESSURE MOD 01
DD_PRESS_MOD_001        .bar                                                :10 DRAW DOWN PRESSURE MOD 001
DD_PRESS_MOD_0001       .bar                                                :11 DRAW DOWN PRESSURE MOD 0001


~PARAMETER INFORMATION
#MNEM                   .UNIT        VALUE                                   DESCRIPTION
#________________________________________________________________________________________
TOOLFACE                .deg         60.0                                   :01 TOOLFACE
PUMP_CAPACITY           .bar         400                                    :02 NOMINAL DRAW DOWN PUMP CAPACITY
PUMP_LIMIT              .bar         240                                    :03 DOWNLINK PUMP LIMIT
TIME_LIMIT              .min         10                                     :04 DOWNLINK MAX TIME
TEST_TYPE               .            REPEAT                                 :05 DOWNLINK
TEST_TYPE               .            HIGH MOBILITY                          :06 DOWNLINK
DD_PIST_A               .cm2         3.1416                                 :07 DRAW DOWN PISTON AREA
V_SYS                   .cm3         131.0000                               :08 SYSTEM VOLUME
PROBE_ID                .cm          1.2700                                 :09 TTK PROBE ID
G0                      .            4.6700                                 :10 GEOMETRY FACTOR


~A                  TIME     DD_PRESS                              DD_VOLUME               TEMP                                   DD_PRESS_MOD_1000       DD_PRESS_MOD_100        DD_PRESS_MOD_10         DD_PRESS_MOD_1        DD_PRESS_MOD_01       DD_PRESS_MOD_001      DD_PRESS_MOD_0001
# ...
                  150.50    344.67492                               14.54546             83.133                                        3.44675e+002           4.46749e+001           4.67492e+000           6.74921e-001           7.49212e-002           4.92117e-003           9.21170e-004
                  150.60    344.67518                               14.54546             83.133                                        3.44675e+002           4.46752e+001           4.67518e+000           6.75182e-001           7.51821e-002           5.18212e-003           1.82123e-004
                  150.70    344.68143                               14.54546             83.133                                        3.44681e+002           4.46814e+001           4.68143e+000           6.81432e-001           8.14316e-002           1.43156e-003           4.31556e-004
                  150.80    344.69021                               14.54546             83.133                                        3.44690e+002           4.46902e+001           4.69021e+000           6.90210e-001           9.02105e-002           2.10489e-004           2.10489e-004
                  150.90    344.68773                               14.54546             83.133                                        3.44688e+002           4.46877e+001           4.68773e+000           6.87731e-001           8.77307e-002           7.73067e-003           7.30668e-004
                  151.00    344.68319                               14.54546             83.133                                        3.44683e+002           4.46832e+001           4.68319e+000           6.83190e-001           8.31900e-002           3.19000e-003           1.90002e-004
                  151.10    344.68718                               14.54546             83.133                                        3.44687e+002           4.46872e+001           4.68718e+000           6.87183e-001           8.71834e-002           7.18336e-003           1.83357e-004
                  151.20    344.69501                               14.54546             83.133                                        3.44695e+002           4.46950e+001           4.69501e+000           6.95015e-001           9.50147e-002           5.01466e-003           1.46637e-005
                  151.30    344.68878                               14.54546             83.133                                        3.44689e+002           4.46888e+001           4.68878e+000           6.88781e-001           8.87814e-002           8.78139e-003           7.81393e-004
                  151.40    344.68289                               14.54546             83.133                                        3.44683e+002           4.46829e+001           4.68289e+000           6.82887e-001           8.28866e-002           2.88656e-003           8.86564e-004
                  151.50    344.69095                               14.54546             83.133                                        3.44691e+002           4.46910e+001           4.69095e+000           6.90953e-001           9.09528e-002           9.52822e-004           9.52822e-004
                  151.60    344.69657                               14.54546             83.133                                        3.44697e+002           4.46966e+001           4.69657e+000           6.96571e-001           9.65709e-002           6.57090e-003           5.70897e-004
                  151.70    344.68665                               14.54546             83.133                                        3.44687e+002           4.46866e+001           4.68665e+000           6.86648e-001           8.66478e-002           6.64784e-003           6.47842e-004
                  151.80    344.67691                               14.54546             83.133                                        3.44677e+002           4.46769e+001           4.67691e+000           6.76912e-001           7.69124e-002           6.91243e-003           9.12434e-004
                  151.90    344.68892                               14.54546             83.133                                        3.44689e+002           4.46889e+001           4.68892e+000           6.88919e-001           8.89189e-002           8.91892e-003           9.18919e-004
                  152.00    344.69755                               14.54546             83.133                                        3.44698e+002           4.46975e+001           4.69755e+000           6.97549e-001           9.75493e-002           7.54927e-003           5.49274e-004
                  152.10    344.69340                               14.54546             83.133                                        3.44693e+002           4.46934e+001           4.69340e+000           6.93403e-001           9.34027e-002           3.40274e-003           4.02741e-004
                  152.20    344.69230                               14.54546             83.133                                        3.44692e+002           4.46923e+001           4.69230e+000           6.92296e-001           9.22955e-002           2.29553e-003           2.95533e-004
                  152.30    344.69592                               14.54546             83.133                                        3.44696e+002           4.46959e+001           4.69592e+000           6.95922e-001           9.59220e-002           5.92204e-003           9.22042e-004
                  152.40    344.69450                               14.54546             83.133                                        3.44694e+002           4.46945e+001           4.69450e+000           6.94497e-001           9.44972e-002           4.49716e-003           4.97157e-004
                  152.50    344.69143                               14.54546             83.133                                        3.44691e+002           4.46914e+001           4.69143e+000           6.91427e-001           9.14270e-002           1.42702e-003           4.27025e-004
                  152.60    344.69377                               14.54546             83.133                                        3.44694e+002           4.46938e+001           4.69377e+000           6.93774e-001           9.37744e-002           3.77437e-003           7.74369e-004
                  152.70    344.69647                               14.54546             83.133                                        3.44696e+002           4.46965e+001           4.69647e+000           6.96474e-001           9.64738e-002           6.47381e-003           4.73815e-004
                  152.80    344.69398                               14.54546             83.133                                        3.44694e+002           4.46940e+001           4.69398e+000           6.93982e-001           9.39824e-002           3.98242e-003           9.82419e-004
                  152.90    344.69669                               14.54546             83.133                                        3.44697e+002           4.46967e+001           4.69669e+000           6.96691e-001           9.66908e-002           6.69083e-003           6.90828e-004
                  153.00    344.70105                               14.54546             83.133                                        3.44701e+002           4.47010e+001           4.70105e+000           7.01046e-001           1.04612e-003           1.04612e-003           4.61241e-005
                  153.10    344.70458                               14.54546             83.133                                        3.44705e+002           4.47046e+001           4.70458e+000           7.04580e-001           4.57992e-003           4.57992e-003           5.79918e-004
                  153.20    344.70315                               14.54546             83.133                                        3.44703e+002           4.47031e+001           4.70315e+000           7.03147e-001           3.14727e-003           3.14727e-003           1.47274e-004
