~VERSION INFORMATION
VERS                    .            2.0                                    :CWLS LOG ASCII STANDARD
WRAP                    .            NO                                     :ONE LINE PER TIME STEP


~WELL INFORMATION
#MNEM                   .UNIT        DATA                                    DESCRIPTION
#________________________________________________________________________________________
STRTTIME                .HH/MM/SS    15:44:09                               :START TIME
STOPTIME                .HH/MM/SS    15:46:59                               :STOP TIME
STRT                    .s           2.10                                   :START DATA
STOP                    .s           168.10                                 :STOP DATA
STEP                    .s           0.10                                   :MEASUREMENT TIME INTERVAL
NULL                    .            -999.25                                :NULL VALUE
COMP                    .            Statoil ASA                            :COMPANY
FLD                     .            Volve                                  :FIELD
WELL                    .            15/9-F-1 B                             :WELL
RUN                     .            7                                      :RUN
LOC                     .            Maersk Inspirer                        :LOCATION
PROV                    .            na                                     :PROVINCE
SRVC                    .            Baker Hughes INTEQ                     :SERVICE COMPANY
DATE                    .YY/MM/DD    13/09/06                               :LOG DATE
UWI                     .                                                   :UNIQUE WELL ID
DEPTHMD                 .m           3266.5                                 :MEASURED DEPTH
DEPTHTVD                .m           3062.4                                 :TRUE VERTICAL DEPTH


~CURVE INFORMATION
#MNEM                   .UNIT        API CODES                               DESCRIPTION
#________________________________________________________________________________________
TIME                    .s                                                  :01 TIME
DD_PRESS                .bar                                                :02 DRAW DOWN PRESSURE
DD_VOLUME               .cm3                                                :03 INCREMENTAL DRAW DOWN VOLUME
TEMP                    .degC                                               :04 TRANSDUCER TEMPERATURE
DD_PRESS_MOD_1000       .bar                                                :05 DRAW DOWN PRESSURE MOD 1000
DD_PRESS_MOD_100        .bar                                                :06 DRAW DOWN PRESSURE MOD 100
DD_PRESS_MOD_10         .bar                                                :07 DRAW DOWN PRESSURE MOD 10
DD_PRESS_MOD_1          .bar                                                :08 DRAW DOWN PRESSURE MOD 1
DD_PRESS_MOD_01         .bar                                                :09 DRAW DOWN PRESSURE MOD 01
DD_PRESS_MOD_001        .bar                                                :10 DRAW DOWN PRESSURE MOD 001
DD_PRESS_MOD_0001       .bar                                                :11 DRAW DOWN PRESSURE MOD 0001


~PARAMETER INFORMATION
#MNEM                   .UNIT        VALUE                                   DESCRIPTION
#________________________________________________________________________________________
TOOLFACE                .deg         na                                     :01 TOOLFACE
PUMP_CAPACITY           .bar         400                                    :02 NOMINAL DRAW DOWN PUMP CAPACITY
PUMP_LIMIT              .bar         400                                    :03 DOWNLINK PUMP LIMIT
TIME_LIMIT              .min         10                                     :04 DOWNLINK MAX TIME
TEST_TYPE               .            LOW MOBILITY                           :05 DOWNLINK
DD_PIST_A               .cm2         3.1416                                 :06 DRAW DOWN PISTON AREA
V_SYS                   .cm3         131.0000                               :07 SYSTEM VOLUME
PROBE_ID                .cm          1.2700                                 :08 TTK PROBE ID
G0                      .            4.6700                                 :09 GEOMETRY FACTOR


~A                  TIME     DD_PRESS                              DD_VOLUME               TEMP                                   DD_PRESS_MOD_1000       DD_PRESS_MOD_100        DD_PRESS_MOD_10         DD_PRESS_MOD_1        DD_PRESS_MOD_01       DD_PRESS_MOD_001      DD_PRESS_MOD_0001
# ...
                   13.30    437.30637                                0.00000             82.586                                        4.37306e+002           3.73064e+001           7.30637e+000           3.06373e-001           6.37280e-003           6.37280e-003           3.72799e-004
                   13.40    437.31057                                0.00000             82.586                                        4.37311e+002           3.73106e+001           7.31057e+000           3.10572e-001           1.05723e-002           5.72252e-004           5.72252e-004
                   13.50    437.34621                                0.00000             82.586                                        4.37346e+002           3.73462e+001           7.34621e+000           3.46206e-001           4.62055e-002           6.20555e-003           2.05546e-004
                   13.60    437.34555                                0.00000             82.586                                        4.37346e+002           3.73456e+001           7.34555e+000           3.45553e-001           4.55525e-002           5.55251e-003           5.52510e-004
                   13.70    437.32072                                0.00000             82.586                                        4.37321e+002           3.73207e+001           7.32072e+000           3.20718e-001           2.07178e-002           7.17771e-004           7.17771e-004
                   13.80    437.31555                                0.00000             82.586                                        4.37316e+002           3.73156e+001           7.31555e+000           3.15555e-001           1.55547e-002           5.55470e-003           5.54698e-004
                   13.90    437.35114                                0.00000             82.586                                        4.37351e+002           3.73511e+001           7.35114e+000           3.51143e-001           5.11432e-002           1.14324e-003           1.43240e-004
                   14.00    437.35450                                0.00000             82.586                                        4.37354e+002           3.73545e+001           7.35450e+000           3.54499e-001           5.44993e-002           4.49931e-003           4.99313e-004
                   14.10    437.34901                                0.00000             82.586                                        4.37349e+002           3.73490e+001           7.34901e+000           3.49010e-001           4.90098e-002           9.00984e-003           9.83825e-006
                   14.20    437.35568                                0.00000             82.586                                        4.37356e+002           3.73557e+001           7.35568e+000           3.55681e-001           5.56808e-002           5.68084e-003           6.80835e-004
                   14.30    437.37844                                0.00000             82.586                                        4.37378e+002           3.73784e+001           7.37844e+000           3.78444e-001           7.84444e-002           8.44443e-003           4.44429e-004
                   14.40    437.37107                                0.00000             82.586                                        4.37371e+002           3.73711e+001           7.37107e+000           3.71068e-001           7.10685e-002           1.06848e-003           6.84762e-005
                   14.50    437.36270                                0.00000             82.586                                        4.37363e+002           3.73627e+001           7.36270e+000           3.62704e-001           6.27044e-002           2.70437e-003           7.04375e-004
                   14.60    437.37208                                0.00000             82.586                                        4.37372e+002           3.73721e+001           7.37208e+000           3.72078e-001           7.20783e-002           2.07828e-003           7.82811e-005
                   14.70    437.40264                                0.00000             82.586                                        4.37403e+002           3.74026e+001           7.40264e+000           4.02643e-001           2.64275e-003           2.64275e-003           6.42755e-004
                   14.80    437.40067                                0.00000             82.586                                        4.37401e+002           3.74007e+001           7.40067e+000           4.00669e-001           6.69175e-004           6.69175e-004           6.69175e-004
                   14.90    437.38531                                0.00000             82.586                                        4.37385e+002           3.73853e+001           7.38531e+000           3.85307e-001           8.53067e-002           5.30674e-003           3.06742e-004
                   15.00    437.39842                                0.00000             82.586                                        4.37398e+002           3.73984e+001           7.39842e+000           3.98421e-001           9.84211e-002           8.42114e-003           4.21145e-004
                   15.10    437.43052                                0.00000             82.586                                        4.37431e+002           3.74305e+001           7.43052e+000           4.30516e-001           3.05157e-002           5.15657e-004           5.15657e-004
                   15.20    437.42095                                0.00000             82.586                                        4.37421e+002           3.74209e+001           7.42095e+000           4.20948e-001           2.09483e-002           9.48273e-004           9.48273e-004
                   15.30    437.41251                                0.00000             82.586                                        4.37413e+002           3.74125e+001           7.41251e+000           4.12513e-001           1.25131e-002           2.51314e-003           5.13139e-004
                   15.40    437.44430                                0.00000             82.586                                        4.37444e+002           3.74443e+001           7.44430e+000           4.44295e-001           4.42955e-002           4.29549e-003           2.95486e-004
                   15.50    437.47343                                0.00000             82.586                                        4.37473e+002           3.74734e+001           7.47343e+000           4.73426e-001           7.34259e-002           3.42585e-003           4.25855e-004
                   15.60    437.45114                                0.00000             82.586                                        4.37451e+002           3.74511e+001           7.45114e+000           4.51139e-001           5.11389e-002           1.13891e-003           1.38906e-004
                   15.70    437.43410                                0.00000             82.586                                        4.37434e+002           3.74341e+001           7.43410e+000           4.34103e-001           3.41030e-002           4.10300e-003           1.03000e-004
                   15.80    437.44518                                0.00000             82.586                                        4.37445e+002           3.74452e+001           7.44518e+000           4.45182e-001           4.51825e-002           5.18247e-003           1.82474e-004
                   15.90    437.46348                                0.00000             82.586                                        4.37463e+002           3.74635e+001           7.46348e+000           4.63485e-001           6.34850e-002           3.48499e-003           4.84987e-004
                   16.00    437.44707                                0.00000             82.586                                        4.37447e+002           3.74471e+001           7.44707e+000           4.47068e-001           4.70678e-002           7.06777e-003           6.77678e-005
