~VERSION INFORMATION
VERS                    .            2.0                                    :CWLS LOG ASCII STANDARD
WRAP                    .            NO                                     :ONE LINE PER TIME STEP


~WELL INFORMATION
#MNEM                   .UNIT        DATA                                    DESCRIPTION
#________________________________________________________________________________________
STRTTIME                .HH/MM/SS    08:48:41                               :START TIME
STOPTIME                .HH/MM/SS    08:51:35                               :STOP TIME
STRT                    .s           2.10                                   :START DATA
STOP                    .s           172.50                                 :STOP DATA
STEP                    .s           0.10                                   :MEASUREMENT TIME INTERVAL
NULL                    .            -999.25                                :NULL VALUE
COMP                    .            Statoil ASA                            :COMPANY
FLD                     .            Volve                                  :FIELD
WELL                    .            15/9-F-11 A                            :WELL
RUN                     .            8                                      :RUN
LOC                     .            Maersk Inspirer                        :LOCATION
PROV                    .            na                                     :PROVINCE
SRVC                    .            Baker Hughes INTEQ                     :SERVICE COMPANY
DATE                    .YY/MM/DD    13/05/21                               :LOG DATE
UWI                     .                                                   :UNIQUE WELL ID
DEPTHMD                 .m           3681.0                                 :MEASURED DEPTH
DEPTHTVD                .m           3064.4                                 :TRUE VERTICAL DEPTH


~CURVE INFORMATION
#MNEM                   .UNIT        API CODES                               DESCRIPTION
#________________________________________________________________________________________
TIME                    .s                                                  :01 TIME
DD_PRESS                .bar                                                :02 DRAW DOWN PRESSURE
DD_VOLUME               .cm3                                                :03 INCREMENTAL DRAW DOWN VOLUME
TEMP                    .degC                                               :04 TRANSDUCER TEMPERATURE
DD_PRESS_MOD_1000       .bar                                                :05 DRAW DOWN PRESSURE MOD 1000
DD_PRESS_MOD_100        .bar                                                :06 DRAW DOWN PRESSURE MOD 100
DD_PRESS_MOD_10         .bar                                                :07 DRAW DOWN PRESSURE MOD 10
DD_PRESS_MOD_1          .bar                                                :08 DRAW DOWN PRESSURE MOD 1
DD_PRESS_MOD_01         .bar                                                :09 DRAW DOWN PRESSURE MOD 01
DD_PRESS_MOD_001        .bar                                                :10 DRAW DOWN PRESSURE MOD 001
DD_PRESS_MOD_0001       .bar                                                :11 DRAW DOWN PRESSURE MOD 0001


~PARAMETER INFORMATION
#MNEM                   .UNIT        VALUE                                   DESCRIPTION
#________________________________________________________________________________________
TOOLFACE                .deg         -59.5                                  :01 TOOLFACE
PUMP_CAPACITY           .bar         400                                    :02 NOMINAL DRAW DOWN PUMP CAPACITY
PUMP_LIMIT              .bar         240                                    :03 DOWNLINK PUMP LIMIT
TIME_LIMIT              .min         10                                     :04 DOWNLINK MAX TIME
TEST_TYPE               .            REPEAT                                 :05 DOWNLINK
TEST_TYPE               .            HIGH MOBILITY                          :06 DOWNLINK
DD_PIST_A               .cm2         3.1416                                 :07 DRAW DOWN PISTON AREA
V_SYS                   .cm3         131.0000                               :08 SYSTEM VOLUME
PROBE_ID                .cm          1.2700                                 :09 TTK PROBE ID
G0                      .            4.6700                                 :10 GEOMETRY FACTOR


~A                  TIME     DD_PRESS                              DD_VOLUME               TEMP                                   DD_PRESS_MOD_1000       DD_PRESS_MOD_100        DD_PRESS_MOD_10         DD_PRESS_MOD_1        DD_PRESS_MOD_01       DD_PRESS_MOD_001      DD_PRESS_MOD_0001
# ...
                   69.30    345.54943                               10.79132             82.586                                        3.45549e+002           4.55494e+001           5.54943e+000           5.49426e-001           4.94258e-002           9.42583e-003           4.25826e-004
                   69.40    345.55675                               10.79132             82.586                                        3.45557e+002           4.55567e+001           5.55675e+000           5.56747e-001           5.67474e-002           6.74736e-003           7.47360e-004
                   69.50    345.56150                               10.79132             82.586                                        3.45562e+002           4.55615e+001           5.56150e+000           5.61503e-001           6.15035e-002           1.50348e-003           5.03479e-004
                   69.60    345.56168                               10.79132             82.586                                        3.45562e+002           4.55617e+001           5.56168e+000           5.61680e-001           6.16797e-002           1.67967e-003           6.79668e-004
                   69.70    345.55598                               10.79132             82.586                                        3.45556e+002           4.55560e+001           5.55598e+000           5.55982e-001           5.59824e-002           5.98245e-003           9.82445e-004
                   69.80    345.55042                               10.79132             82.586                                        3.45550e+002           4.55504e+001           5.55042e+000           5.50419e-001           5.04190e-002           4.18952e-004           4.18952e-004
                   69.90    345.55447                               10.79132             82.586                                        3.45554e+002           4.55545e+001           5.55447e+000           5.54472e-001           5.44724e-002           4.47239e-003           4.72387e-004
                   70.00    345.55433                               10.79132             82.586                                        3.45554e+002           4.55543e+001           5.55433e+000           5.54333e-001           5.43335e-002           4.33346e-003           3.33458e-004
                   70.10    345.54834                               10.79132             82.586                                        3.45548e+002           4.55483e+001           5.54834e+000           5.48344e-001           4.83435e-002           8.34354e-003           3.43542e-004
                   70.20    345.53992                               10.79152             82.586                                        3.45540e+002           4.55399e+001           5.53992e+000           5.39916e-001           3.99157e-002           9.91568e-003           9.15675e-004
                   70.30    345.54616                               10.79212             82.586                                        3.45546e+002           4.55462e+001           5.54616e+000           5.46165e-001           4.61648e-002           6.16480e-003           1.64804e-004
                   70.40    345.55937                               10.79293             82.586                                        3.45559e+002           4.55594e+001           5.55937e+000           5.59371e-001           5.93710e-002           9.37101e-003           3.71006e-004
                   70.50    345.55375                               10.79361             82.586                                        3.45554e+002           4.55537e+001           5.55375e+000           5.53749e-001           5.37495e-002           3.74948e-003           7.49477e-004
                   70.60    345.52248                               10.79462             82.586                                        3.45522e+002           4.55225e+001           5.52248e+000           5.22476e-001           2.24756e-002           2.47561e-003           4.75606e-004
                   70.70    345.49786                               10.79582             82.586                                        3.45498e+002           4.54979e+001           5.49786e+000           4.97863e-001           9.78632e-002           7.86320e-003           8.63204e-004
                   70.80    345.47504                               10.79755             82.586                                        3.45475e+002           4.54750e+001           5.47504e+000           4.75036e-001           7.50364e-002           5.03638e-003           3.63775e-005
                   70.90    345.44052                               10.80015             82.586                                        3.45441e+002           4.54405e+001           5.44052e+000           4.40518e-001           4.05181e-002           5.18054e-004           5.18054e-004
                   71.00    345.40127                               10.80343             82.586                                        3.45401e+002           4.54013e+001           5.40127e+000           4.01272e-001           1.27156e-003           1.27156e-003           2.71559e-004
                   71.10    345.35548                               10.80765             82.586                                        3.45355e+002           4.53555e+001           5.35548e+000           3.55482e-001           5.54820e-002           5.48204e-003           4.82037e-004
                   71.20    345.29821                               10.81316             82.586                                        3.45298e+002           4.52982e+001           5.29821e+000           2.98212e-001           9.82119e-002           8.21185e-003           2.11854e-004
                   71.30    345.22973                               10.81990             82.586                                        3.45230e+002           4.52297e+001           5.22973e+000           2.29727e-001           2.97273e-002           9.72733e-003           7.27326e-004
                   71.40    345.15126                               10.82815             82.586                                        3.45151e+002           4.51513e+001           5.15126e+000           1.51263e-001           5.12627e-002           1.26273e-003           2.62726e-004
                   71.50    345.06564                               10.83809             82.586                                        3.45066e+002           4.50656e+001           5.06564e+000           6.56438e-002           6.56438e-002           5.64380e-003           6.43796e-004
                   71.60    344.97589                               10.84983             82.586                                        3.44976e+002           4.49759e+001           4.97589e+000           9.75893e-001           7.58935e-002           5.89348e-003           8.93480e-004
                   71.70    344.88154                               10.86361             82.586                                        3.44882e+002           4.48815e+001           4.88154e+000           8.81538e-001           8.15383e-002           1.53834e-003           5.38340e-004
                   71.80    344.78196                               10.87955             82.586                                        3.44782e+002           4.47820e+001           4.78196e+000           7.81964e-001           8.19638e-002           1.96381e-003           9.63811e-004
                   71.90    344.67033                               10.89788             82.586                                        3.44670e+002           4.46703e+001           4.67033e+000           6.70334e-001           7.03341e-002           3.34111e-004           3.34111e-004
                   72.00    344.54572                               10.91878             82.586                                        3.44546e+002           4.45457e+001           4.54572e+000           5.45724e-001           4.57239e-002           5.72394e-003           7.23936e-004
