~VERSION INFORMATION
VERS                    .            2.0                                    :CWLS LOG ASCII STANDARD
WRAP                    .            NO                                     :ONE LINE PER TIME STEP


~WELL INFORMATION
#MNEM                   .UNIT        DATA                                    DESCRIPTION
#________________________________________________________________________________________
STRTTIME                .HH/MM/SS    10:02:47                               :START TIME
STOPTIME                .HH/MM/SS    10:07:04                               :STOP TIME
STRT                    .s           2.10                                   :START DATA
STOP                    .s           255.20                                 :STOP DATA
STEP                    .s           0.10                                   :MEASUREMENT TIME INTERVAL
NULL                    .            -999.25                                :NULL VALUE
COMP                    .            Statoil ASA                            :COMPANY
FLD                     .            Volve                                  :FIELD
WELL                    .            15/9-F-11 A                            :WELL
RUN                     .            8                                      :RUN
LOC                     .            Maersk Inspirer                        :LOCATION
PROV                    .            na                                     :PROVINCE
SRVC                    .            Baker Hughes INTEQ                     :SERVICE COMPANY
DATE                    .YY/MM/DD    13/05/21                               :LOG DATE
UWI                     .                                                   :UNIQUE WELL ID
DEPTHMD                 .m           3657.3                                 :MEASURED DEPTH
DEPTHTVD                .m           3046.2                                 :TRUE VERTICAL DEPTH


~CURVE INFORMATION
#MNEM                   .UNIT        API CODES                               DESCRIPTION
#________________________________________________________________________________________
TIME                    .s                                                  :01 TIME
DD_PRESS                .bar                                                :02 DRAW DOWN PRESSURE
DD_VOLUME               .cm3                                                :03 INCREMENTAL DRAW DOWN VOLUME
TEMP                    .degC                                               :04 TRANSDUCER TEMPERATURE
DD_PRESS_MOD_1000       .bar                                                :05 DRAW DOWN PRESSURE MOD 1000
DD_PRESS_MOD_100        .bar                                                :06 DRAW DOWN PRESSURE MOD 100
DD_PRESS_MOD_10         .bar                                                :07 DRAW DOWN PRESSURE MOD 10
DD_PRESS_MOD_1          .bar                                                :08 DRAW DOWN PRESSURE MOD 1
DD_PRESS_MOD_01         .bar                                                :09 DRAW DOWN PRESSURE MOD 01
DD_PRESS_MOD_001        .bar                                                :10 DRAW DOWN PRESSURE MOD 001
DD_PRESS_MOD_0001       .bar                                                :11 DRAW DOWN PRESSURE MOD 0001


~PARAMETER INFORMATION
#MNEM                   .UNIT        VALUE                                   DESCRIPTION
#________________________________________________________________________________________
TOOLFACE                .deg         60.1                                   :01 TOOLFACE
PUMP_CAPACITY           .bar         400                                    :02 NOMINAL DRAW DOWN PUMP CAPACITY
PUMP_LIMIT              .bar         240                                    :03 DOWNLINK PUMP LIMIT
TIME_LIMIT              .min         10                                     :04 DOWNLINK MAX TIME
TEST_TYPE               .            REPEAT                                 :05 DOWNLINK
TEST_TYPE               .            HIGH MOBILITY                          :06 DOWNLINK
DD_PIST_A               .cm2         3.1416                                 :07 DRAW DOWN PISTON AREA
V_SYS                   .cm3         131.0000                               :08 SYSTEM VOLUME
PROBE_ID                .cm          1.2700                                 :09 TTK PROBE ID
G0                      .            4.6700                                 :10 GEOMETRY FACTOR


~A                  TIME     DD_PRESS                              DD_VOLUME               TEMP                                   DD_PRESS_MOD_1000       DD_PRESS_MOD_100        DD_PRESS_MOD_10         DD_PRESS_MOD_1        DD_PRESS_MOD_01       DD_PRESS_MOD_001      DD_PRESS_MOD_0001
# ...
                  200.90    344.38747                               13.65670             82.107                                        3.44387e+002           4.43875e+001           4.38747e+000           3.87475e-001           8.74750e-002           7.47500e-003           4.75000e-004
                  201.00    344.38390                               13.65670             82.104                                        3.44384e+002           4.43839e+001           4.38390e+000           3.83896e-001           8.38959e-002           3.89586e-003           8.95860e-004
                  201.10    344.39198                               13.65670             82.104                                        3.44392e+002           4.43920e+001           4.39198e+000           3.91977e-001           9.19770e-002           1.97701e-003           9.77009e-004
                  201.20    344.38943                               13.65670             82.107                                        3.44389e+002           4.43894e+001           4.38943e+000           3.89428e-001           8.94275e-002           9.42752e-003           4.27517e-004
                  201.30    344.38210                               13.65670             82.109                                        3.44382e+002           4.43821e+001           4.38210e+000           3.82099e-001           8.20993e-002           2.09927e-003           9.92716e-005
                  201.40    344.38251                               13.65670             82.109                                        3.44383e+002           4.43825e+001           4.38251e+000           3.82512e-001           8.25116e-002           2.51155e-003           5.11554e-004
                  201.50    344.38877                               13.65670             82.109                                        3.44389e+002           4.43888e+001           4.38877e+000           3.88766e-001           8.87660e-002           8.76603e-003           7.66033e-004
                  201.60    344.39544                               13.65670             82.109                                        3.44395e+002           4.43954e+001           4.39544e+000           3.95442e-001           9.54421e-002           5.44211e-003           4.42111e-004
                  201.70    344.39539                               13.65670             82.107                                        3.44395e+002           4.43954e+001           4.39539e+000           3.95387e-001           9.53871e-002           5.38712e-003           3.87123e-004
                  201.80    344.39213                               13.65670             82.104                                        3.44392e+002           4.43921e+001           4.39213e+000           3.92130e-001           9.21298e-002           2.12976e-003           1.29764e-004
                  201.90    344.39148                               13.65670             82.102                                        3.44391e+002           4.43915e+001           4.39148e+000           3.91484e-001           9.14845e-002           1.48450e-003           4.84496e-004
                  202.00    344.38709                               13.65670             82.102                                        3.44387e+002           4.43871e+001           4.38709e+000           3.87089e-001           8.70891e-002           7.08910e-003           8.91030e-005
                  202.10    344.38271                               13.65670             82.104                                        3.44383e+002           4.43827e+001           4.38271e+000           3.82713e-001           8.27126e-002           2.71261e-003           7.12615e-004
                  202.20    344.38524                               13.65670             82.107                                        3.44385e+002           4.43852e+001           4.38524e+000           3.85241e-001           8.52410e-002           5.24101e-003           2.41009e-004
                  202.30    344.38297                               13.65670             82.109                                        3.44383e+002           4.43830e+001           4.38297e+000           3.82970e-001           8.29703e-002           2.97025e-003           9.70251e-004
                  202.40    344.37570                               13.65670             82.107                                        3.44376e+002           4.43757e+001           4.37570e+000           3.75698e-001           7.56981e-002           5.69806e-003           6.98058e-004
                  202.50    344.37534                               13.65670             82.104                                        3.44375e+002           4.43753e+001           4.37534e+000           3.75338e-001           7.53375e-002           5.33754e-003           3.37543e-004
                  202.60    344.38299                               13.65670             82.102                                        3.44383e+002           4.43830e+001           4.38299e+000           3.82989e-001           8.29893e-002           2.98927e-003           9.89267e-004
                  202.70    344.38203                               13.65670             82.102                                        3.44382e+002           4.43820e+001           4.38203e+000           3.82032e-001           8.20323e-002           2.03230e-003           3.23021e-005
                  202.80    344.37648                               13.65670             82.104                                        3.44376e+002           4.43765e+001           4.37648e+000           3.76480e-001           7.64797e-002           6.47967e-003           4.79671e-004
                  202.90    344.38306                               13.65670             82.107                                        3.44383e+002           4.43831e+001           4.38306e+000           3.83058e-001           8.30577e-002           3.05770e-003           5.76986e-005
                  203.00    344.39450                               13.65670             82.109                                        3.44394e+002           4.43945e+001           4.39450e+000           3.94496e-001           9.44957e-002           4.49574e-003           4.95737e-004
                  203.10    344.39374                               13.65670             82.107                                        3.44394e+002           4.43937e+001           4.39374e+000           3.93743e-001           9.37426e-002           3.74256e-003           7.42555e-004
                  203.20    344.38701                               13.65670             82.104                                        3.44387e+002           4.43870e+001           4.38701e+000           3.87010e-001           8.70098e-002           7.00977e-003           9.76589e-006
                  203.30    344.38609                               13.65670             82.102                                        3.44386e+002           4.43861e+001           4.38609e+000           3.86091e-001           8.60914e-002           6.09141e-003           9.14090e-005
                  203.40    344.38929                               13.65670             82.102                                        3.44389e+002           4.43893e+001           4.38929e+000           3.89288e-001           8.92884e-002           9.28837e-003           2.88365e-004
                  203.50    344.39172                               13.65670             82.104                                        3.44392e+002           4.43917e+001           4.39172e+000           3.91721e-001           9.17214e-002           1.72140e-003           7.21396e-004
                  203.60    344.39031                               13.65670             82.105                                        3.44390e+002           4.43903e+001           4.39031e+000           3.90305e-001           9.03054e-002           3.05446e-004           3.05446e-004
