~VERSION INFORMATION
VERS                    .            2.0                                    :CWLS LOG ASCII STANDARD
WRAP                    .            NO                                     :ONE LINE PER TIME STEP


~WELL INFORMATION
#MNEM                   .UNIT        DATA                                    DESCRIPTION
#________________________________________________________________________________________
STRTTIME                .HH/MM/SS    01:44:52                               :START TIME
STOPTIME                .HH/MM/SS    01:47:47                               :STOP TIME
STRT                    .s           2.10                                   :START DATA
STOP                    .s           173.40                                 :STOP DATA
STEP                    .s           0.10                                   :MEASUREMENT TIME INTERVAL
NULL                    .            -999.25                                :NULL VALUE
COMP                    .            Statoil ASA                            :COMPANY
FLD                     .            Volve                                  :FIELD
WELL                    .            15/9-F-1 C                             :WELL
RUN                     .            4                                      :RUN
LOC                     .                                                   :LOCATION
PROV                    .            na                                     :PROVINCE
SRVC                    .            Baker Hughes INTEQ                     :SERVICE COMPANY
DATE                    .YY/MM/DD    14/03/15                               :LOG DATE
UWI                     .                                                   :UNIQUE WELL ID
DEPTHMD                 .m           3620.2                                 :MEASURED DEPTH
DEPTHTVD                .m           3012.3                                 :TRUE VERTICAL DEPTH


~CURVE INFORMATION
#MNEM                   .UNIT        API CODES                               DESCRIPTION
#________________________________________________________________________________________
TIME                    .s                                                  :01 TIME
DD_PRESS                .bar                                                :02 DRAW DOWN PRESSURE
DD_VOLUME               .cm3                                                :03 INCREMENTAL DRAW DOWN VOLUME
TEMP                    .degC                                               :04 TRANSDUCER TEMPERATURE
DD_PRESS_MOD_1000       .bar                                                :05 DRAW DOWN PRESSURE MOD 1000
DD_PRESS_MOD_100        .bar                                                :06 DRAW DOWN PRESSURE MOD 100
DD_PRESS_MOD_10         .bar                                                :07 DRAW DOWN PRESSURE MOD 10
DD_PRESS_MOD_1          .bar                                                :08 DRAW DOWN PRESSURE MOD 1
DD_PRESS_MOD_01         .bar                                                :09 DRAW DOWN PRESSURE MOD 01
DD_PRESS_MOD_001        .bar                                                :10 DRAW DOWN PRESSURE MOD 001
DD_PRESS_MOD_0001       .bar                                                :11 DRAW DOWN PRESSURE MOD 0001


~PARAMETER INFORMATION
#MNEM                   .UNIT        VALUE                                   DESCRIPTION
#________________________________________________________________________________________
TOOLFACE                .deg         108.7                                  :01 TOOLFACE
PUMP_CAPACITY           .bar         400                                    :02 NOMINAL DRAW DOWN PUMP CAPACITY
PUMP_LIMIT              .bar         240                                    :03 DOWNLINK PUMP LIMIT
TIME_LIMIT              .min         10                                     :04 DOWNLINK MAX TIME
TEST_TYPE               .            REPEAT                                 :05 DOWNLINK
TEST_TYPE               .            HIGH MOBILITY                          :06 DOWNLINK
DD_PIST_A               .cm2         3.1416                                 :07 DRAW DOWN PISTON AREA
V_SYS                   .cm3         131.0000                               :08 SYSTEM VOLUME
PROBE_ID                .cm          1.2700                                 :09 TTK PROBE ID
G0                      .            4.6700                                 :10 GEOMETRY FACTOR


~A                  TIME     DD_PRESS                              DD_VOLUME               TEMP                                   DD_PRESS_MOD_1000       DD_PRESS_MOD_100        DD_PRESS_MOD_10         DD_PRESS_MOD_1        DD_PRESS_MOD_01       DD_PRESS_MOD_001      DD_PRESS_MOD_0001
# ...
                   46.90    344.34632                               10.69069             87.164                                        3.44346e+002           4.43463e+001           4.34632e+000           3.46315e-001           4.63154e-002           6.31543e-003           3.15425e-004
                   47.00    344.34755                               10.69069             87.164                                        3.44348e+002           4.43475e+001           4.34755e+000           3.47549e-001           4.75493e-002           7.54932e-003           5.49317e-004
                   47.10    344.35040                               10.69069             87.164                                        3.44350e+002           4.43504e+001           4.35040e+000           3.50397e-001           5.03966e-002           3.96557e-004           3.96557e-004
                   47.20    344.35010                               10.69069             87.164                                        3.44350e+002           4.43501e+001           4.35010e+000           3.50098e-001           5.00976e-002           9.75935e-005           9.75935e-005
                   47.30    344.34824                               10.69069             87.164                                        3.44348e+002           4.43482e+001           4.34824e+000           3.48244e-001           4.82443e-002           8.24426e-003           2.44258e-004
                   47.40    344.34902                               10.69069             87.164                                        3.44349e+002           4.43490e+001           4.34902e+000           3.49023e-001           4.90230e-002           9.02301e-003           2.30119e-005
                   47.50    344.34940                               10.69069             87.164                                        3.44349e+002           4.43494e+001           4.34940e+000           3.49396e-001           4.93958e-002           9.39578e-003           3.95776e-004
                   47.60    344.34923                               10.69069             87.164                                        3.44349e+002           4.43492e+001           4.34923e+000           3.49231e-001           4.92310e-002           9.23096e-003           2.30958e-004
                   47.70    344.35126                               10.69069             87.164                                        3.44351e+002           4.43513e+001           4.35126e+000           3.51257e-001           5.12569e-002           1.25692e-003           2.56917e-004
                   47.80    344.34980                               10.69069             87.164                                        3.44350e+002           4.43498e+001           4.34980e+000           3.49796e-001           4.97959e-002           9.79587e-003           7.95871e-004
                   47.90    344.34698                               10.69069             87.164                                        3.44347e+002           4.43470e+001           4.34698e+000           3.46980e-001           4.69802e-002           6.98021e-003           9.80213e-004
                   48.00    344.34815                               10.69069             87.164                                        3.44348e+002           4.43481e+001           4.34815e+000           3.48150e-001           4.81497e-002           8.14969e-003           1.49693e-004
                   48.10    344.35093                               10.69069             87.164                                        3.44351e+002           4.43509e+001           4.35093e+000           3.50926e-001           5.09259e-002           9.25858e-004           9.25858e-004
                   48.20    344.35210                               10.69069             87.164                                        3.44352e+002           4.43521e+001           4.35210e+000           3.52100e-001           5.21005e-002           2.10045e-003           1.00453e-004
                   48.30    344.35085                               10.69069             87.164                                        3.44351e+002           4.43509e+001           4.35085e+000           3.50853e-001           5.08528e-002           8.52760e-004           8.52760e-004
                   48.40    344.34873                               10.69069             87.164                                        3.44349e+002           4.43487e+001           4.34873e+000           3.48726e-001           4.87258e-002           8.72584e-003           7.25842e-004
                   48.50    344.34895                               10.69069             87.164                                        3.44349e+002           4.43489e+001           4.34895e+000           3.48946e-001           4.89455e-002           8.94554e-003           9.45535e-004
                   48.60    344.34922                               10.69069             87.164                                        3.44349e+002           4.43492e+001           4.34922e+000           3.49223e-001           4.92226e-002           9.22260e-003           2.22599e-004
                   48.70    344.34845                               10.69069             87.164                                        3.44348e+002           4.43484e+001           4.34845e+000           3.48449e-001           4.84489e-002           8.44887e-003           4.48870e-004
                   48.80    344.34710                               10.69069             87.164                                        3.44347e+002           4.43471e+001           4.34710e+000           3.47103e-001           4.71031e-002           7.10308e-003           1.03083e-004
                   48.90    344.34718                               10.69069             87.164                                        3.44347e+002           4.43472e+001           4.34718e+000           3.47184e-001           4.71836e-002           7.18365e-003           1.83648e-004
                   49.00    344.34902                               10.69069             87.164                                        3.44349e+002           4.43490e+001           4.34902e+000           3.49022e-001           4.90221e-002           9.02214e-003           2.21365e-005
                   49.10    344.34900                               10.69069             87.164                                        3.44349e+002           4.43490e+001           4.34900e+000           3.48996e-001           4.89956e-002           8.99558e-003           9.95576e-004
                   49.20    344.34750                               10.69069             87.164                                        3.44348e+002           4.43475e+001           4.34750e+000           3.47504e-001           4.75042e-002           7.50419e-003           5.04189e-004
                   49.30    344.34697                               10.69069             87.164                                        3.44347e+002           4.43470e+001           4.34697e+000           3.46966e-001           4.69659e-002           6.96588e-003           9.65883e-004
                   49.40    344.34698                               10.69069             87.164                                        3.44347e+002           4.43470e+001           4.34698e+000           3.46975e-001           4.69750e-002           6.97501e-003           9.75007e-004
                   49.50    344.34922                               10.69069             87.164                                        3.44349e+002           4.43492e+001           4.34922e+000           3.49215e-001           4.92150e-002           9.21503e-003           2.15027e-004
                   49.60    344.35131                               10.69069             87.164                                        3.44351e+002           4.43513e+001           4.35131e+000           3.51308e-001           5.13077e-002           1.30767e-003           3.07671e-004
