~VERSION INFORMATION
VERS                    .            2.0                                    :CWLS LOG ASCII STANDARD
WRAP                    .            NO                                     :ONE LINE PER TIME STEP


~WELL INFORMATION
#MNEM                   .UNIT        DATA                                    DESCRIPTION
#________________________________________________________________________________________
STRTTIME                .HH/MM/SS    19:52:58                               :START TIME
STOPTIME                .HH/MM/SS    19:58:21                               :STOP TIME
STRT                    .s           2.10                                   :START DATA
STOP                    .s           321.30                                 :STOP DATA
STEP                    .s           0.10                                   :MEASUREMENT TIME INTERVAL
NULL                    .            -999.25                                :NULL VALUE
COMP                    .            Statoil ASA                            :COMPANY
FLD                     .            Volve                                  :FIELD
WELL                    .            15/9-F-11 A                            :WELL
RUN                     .            8                                      :RUN
LOC                     .            Maersk Inspirer                        :LOCATION
PROV                    .            na                                     :PROVINCE
SRVC                    .            Baker Hughes INTEQ                     :SERVICE COMPANY
DATE                    .YY/MM/DD    13/05/23                               :LOG DATE
UWI                     .                                                   :UNIQUE WELL ID
DEPTHMD                 .m           3602.0                                 :MEASURED DEPTH
DEPTHTVD                .m           3003.9                                 :TRUE VERTICAL DEPTH


~CURVE INFORMATION
#MNEM                   .UNIT        API CODES                               DESCRIPTION
#________________________________________________________________________________________
TIME                    .s                                                  :01 TIME
DD_PRESS                .bar                                                :02 DRAW DOWN PRESSURE
DD_VOLUME               .cm3                                                :03 INCREMENTAL DRAW DOWN VOLUME
TEMP                    .degC                                               :04 TRANSDUCER TEMPERATURE
DD_PRESS_MOD_1000       .bar                                                :05 DRAW DOWN PRESSURE MOD 1000
DD_PRESS_MOD_100        .bar                                                :06 DRAW DOWN PRESSURE MOD 100
DD_PRESS_MOD_10         .bar                                                :07 DRAW DOWN PRESSURE MOD 10
DD_PRESS_MOD_1          .bar                                                :08 DRAW DOWN PRESSURE MOD 1
DD_PRESS_MOD_01         .bar                                                :09 DRAW DOWN PRESSURE MOD 01
DD_PRESS_MOD_001        .bar                                                :10 DRAW DOWN PRESSURE MOD 001
DD_PRESS_MOD_0001       .bar                                                :11 DRAW DOWN PRESSURE MOD 0001


~PARAMETER INFORMATION
#MNEM                   .UNIT        VALUE                                   DESCRIPTION
#________________________________________________________________________________________
TOOLFACE                .deg         -40.9                                  :01 TOOLFACE
PUMP_CAPACITY           .bar         400                                    :02 NOMINAL DRAW DOWN PUMP CAPACITY
PUMP_LIMIT              .bar         240                                    :03 DOWNLINK PUMP LIMIT
TIME_LIMIT              .min         10                                     :04 DOWNLINK MAX TIME
TEST_TYPE               .            REPEAT                                 :05 DOWNLINK
TEST_TYPE               .            HIGH MOBILITY                          :06 DOWNLINK
DD_PIST_A               .cm2         3.1416                                 :07 DRAW DOWN PISTON AREA
V_SYS                   .cm3         131.0000                               :08 SYSTEM VOLUME
PROBE_ID                .cm          1.2700                                 :09 TTK PROBE ID
G0                      .            4.6700                                 :10 GEOMETRY FACTOR


~A                  TIME     DD_PRESS                              DD_VOLUME               TEMP                                   DD_PRESS_MOD_1000       DD_PRESS_MOD_100        DD_PRESS_MOD_10         DD_PRESS_MOD_1        DD_PRESS_MOD_01       DD_PRESS_MOD_001      DD_PRESS_MOD_0001
# ...
                  192.50    341.58937                               12.03703             71.025                                        3.41589e+002           4.15894e+001           1.58937e+000           5.89373e-001           8.93732e-002           9.37315e-003           3.73150e-004
                  192.60    341.65883                               12.03703             71.023                                        3.41659e+002           4.16588e+001           1.65883e+000           6.58826e-001           5.88258e-002           8.82579e-003           8.25787e-004
                  192.70    341.62848                               12.03703             71.026                                        3.41628e+002           4.16285e+001           1.62848e+000           6.28477e-001           2.84766e-002           8.47663e-003           4.76629e-004
                  192.80    341.61820                               12.03703             71.029                                        3.41618e+002           4.16182e+001           1.61820e+000           6.18201e-001           1.82014e-002           8.20143e-003           2.01434e-004
                  192.90    341.69645                               12.03703             71.031                                        3.41696e+002           4.16964e+001           1.69645e+000           6.96446e-001           9.64464e-002           6.44642e-003           4.46416e-004
                  193.00    341.70029                               12.03703             71.029                                        3.41700e+002           4.17003e+001           1.70029e+000           7.00288e-001           2.87817e-004           2.87817e-004           2.87817e-004
                  193.10    341.59112                               12.03703             71.025                                        3.41591e+002           4.15911e+001           1.59112e+000           5.91120e-001           9.11204e-002           1.12036e-003           1.20361e-004
                  193.20    341.54846                               12.03703             71.023                                        3.41548e+002           4.15485e+001           1.54846e+000           5.48458e-001           4.84578e-002           8.45776e-003           4.57757e-004
                  193.30    341.60536                               12.03703             71.026                                        3.41605e+002           4.16054e+001           1.60536e+000           6.05355e-001           5.35544e-003           5.35544e-003           3.55442e-004
                  193.40    341.62284                               12.03703             71.029                                        3.41623e+002           4.16228e+001           1.62284e+000           6.22837e-001           2.28368e-002           2.83684e-003           8.36844e-004
                  193.50    341.59048                               12.03703             71.031                                        3.41590e+002           4.15905e+001           1.59048e+000           5.90483e-001           9.04834e-002           4.83382e-004           4.83382e-004
                  193.60    341.57916                               12.03703             71.031                                        3.41579e+002           4.15792e+001           1.57916e+000           5.79163e-001           7.91632e-002           9.16319e-003           1.63190e-004
                  193.70    341.64275                               12.03703             71.031                                        3.41643e+002           4.16427e+001           1.64275e+000           6.42747e-001           4.27471e-002           2.74710e-003           7.47104e-004
                  193.80    341.68975                               12.03703             71.031                                        3.41690e+002           4.16898e+001           1.68975e+000           6.89754e-001           8.97543e-002           9.75427e-003           7.54269e-004
                  193.90    341.64573                               12.03703             71.031                                        3.41646e+002           4.16457e+001           1.64573e+000           6.45734e-001           4.57339e-002           5.73387e-003           7.33875e-004
                  194.00    341.59740                               12.03703             71.031                                        3.41597e+002           4.15974e+001           1.59740e+000           5.97396e-001           9.73964e-002           7.39639e-003           3.96385e-004
                  194.10    341.59578                               12.03703             71.031                                        3.41596e+002           4.15958e+001           1.59578e+000           5.95782e-001           9.57819e-002           5.78193e-003           7.81933e-004
                  194.20    341.60141                               12.03703             71.031                                        3.41601e+002           4.16014e+001           1.60141e+000           6.01410e-001           1.41046e-003           1.41046e-003           4.10461e-004
                  194.30    341.68391                               12.03703             71.031                                        3.41684e+002           4.16839e+001           1.68391e+000           6.83911e-001           8.39110e-002           3.91103e-003           9.11026e-004
                  194.40    341.69600                               12.03703             71.031                                        3.41696e+002           4.16960e+001           1.69600e+000           6.96003e-001           9.60028e-002           6.00284e-003           2.84415e-006
                  194.50    341.62786                               12.03703             71.031                                        3.41628e+002           4.16279e+001           1.62786e+000           6.27865e-001           2.78650e-002           7.86495e-003           8.64955e-004
                  194.60    341.62874                               12.03703             71.031                                        3.41629e+002           4.16287e+001           1.62874e+000           6.28740e-001           2.87401e-002           8.74009e-003           7.40090e-004
                  194.70    341.67142                               12.03703             71.031                                        3.41671e+002           4.16714e+001           1.67142e+000           6.71419e-001           7.14189e-002           1.41888e-003           4.18875e-004
                  194.80    341.63898                               12.03703             71.031                                        3.41639e+002           4.16390e+001           1.63898e+000           6.38976e-001           3.89758e-002           8.97579e-003           9.75794e-004
                  194.90    341.59098                               12.03703             71.029                                        3.41591e+002           4.15910e+001           1.59098e+000           5.90979e-001           9.09787e-002           9.78727e-004           9.78727e-004
                  195.00    341.61833                               12.03703             71.025                                        3.41618e+002           4.16183e+001           1.61833e+000           6.18335e-001           1.83345e-002           8.33452e-003           3.34519e-004
                  195.10    341.68361                               12.03703             71.026                                        3.41684e+002           4.16836e+001           1.68361e+000           6.83607e-001           8.36066e-002           3.60662e-003           6.06621e-004
                  195.20    341.65739                               12.03703             71.029                                        3.41657e+002           4.16574e+001           1.65739e+000           6.57393e-001           5.73930e-002           7.39305e-003           3.93048e-004
