~VERSION INFORMATION
VERS                    .            2.0                                    :CWLS LOG ASCII STANDARD
WRAP                    .            NO                                     :ONE LINE PER TIME STEP


~WELL INFORMATION
#MNEM                   .UNIT        DATA                                    DESCRIPTION
#________________________________________________________________________________________
STRTTIME                .HH/MM/SS    03:09:23                               :START TIME
STOPTIME                .HH/MM/SS    03:12:09                               :STOP TIME
STRT                    .s           2.10                                   :START DATA
STOP                    .s           164.80                                 :STOP DATA
STEP                    .s           0.10                                   :MEASUREMENT TIME INTERVAL
NULL                    .            -999.25                                :NULL VALUE
COMP                    .            Statoil ASA                            :COMPANY
FLD                     .            Volve                                  :FIELD
WELL                    .            15/9-F-1 C                             :WELL
RUN                     .            4                                      :RUN
LOC                     .                                                   :LOCATION
PROV                    .            na                                     :PROVINCE
SRVC                    .            Baker Hughes INTEQ                     :SERVICE COMPANY
DATE                    .YY/MM/DD    14/03/15                               :LOG DATE
UWI                     .                                                   :UNIQUE WELL ID
DEPTHMD                 .m           3523.2                                 :MEASURED DEPTH
DEPTHTVD                .m           2986.7                                 :TRUE VERTICAL DEPTH


~CURVE INFORMATION
#MNEM                   .UNIT        API CODES                               DESCRIPTION
#________________________________________________________________________________________
TIME                    .s                                                  :01 TIME
DD_PRESS                .bar                                                :02 DRAW DOWN PRESSURE
DD_VOLUME               .cm3                                                :03 INCREMENTAL DRAW DOWN VOLUME
TEMP                    .degC                                               :04 TRANSDUCER TEMPERATURE
DD_PRESS_MOD_1000       .bar                                                :05 DRAW DOWN PRESSURE MOD 1000
DD_PRESS_MOD_100        .bar                                                :06 DRAW DOWN PRESSURE MOD 100
DD_PRESS_MOD_10         .bar                                                :07 DRAW DOWN PRESSURE MOD 10
DD_PRESS_MOD_1          .bar                                                :08 DRAW DOWN PRESSURE MOD 1
DD_PRESS_MOD_01         .bar                                                :09 DRAW DOWN PRESSURE MOD 01
DD_PRESS_MOD_001        .bar                                                :10 DRAW DOWN PRESSURE MOD 001
DD_PRESS_MOD_0001       .bar                                                :11 DRAW DOWN PRESSURE MOD 0001


~PARAMETER INFORMATION
#MNEM                   .UNIT        VALUE                                   DESCRIPTION
#________________________________________________________________________________________
TOOLFACE                .deg         104.9                                  :01 TOOLFACE
PUMP_CAPACITY           .bar         400                                    :02 NOMINAL DRAW DOWN PUMP CAPACITY
PUMP_LIMIT              .bar         240                                    :03 DOWNLINK PUMP LIMIT
TIME_LIMIT              .min         10                                     :04 DOWNLINK MAX TIME
TEST_TYPE               .            REPEAT                                 :05 DOWNLINK
TEST_TYPE               .            HIGH MOBILITY                          :06 DOWNLINK
DD_PIST_A               .cm2         3.1416                                 :07 DRAW DOWN PISTON AREA
V_SYS                   .cm3         131.0000                               :08 SYSTEM VOLUME
PROBE_ID                .cm          1.2700                                 :09 TTK PROBE ID
G0                      .            4.6700                                 :10 GEOMETRY FACTOR


~A                  TIME     DD_PRESS                              DD_VOLUME               TEMP                                   DD_PRESS_MOD_1000       DD_PRESS_MOD_100        DD_PRESS_MOD_10         DD_PRESS_MOD_1        DD_PRESS_MOD_01       DD_PRESS_MOD_001      DD_PRESS_MOD_0001
# ...
                   86.10    340.98967                               19.84884             84.500                                        3.40990e+002           4.09897e+001           9.89665e-001           9.89665e-001           8.96654e-002           9.66542e-003           6.65420e-004
                   86.20    340.98795                               19.84884             84.500                                        3.40988e+002           4.09880e+001           9.87952e-001           9.87952e-001           8.79519e-002           7.95185e-003           9.51854e-004
                   86.30    340.98743                               19.84884             84.500                                        3.40987e+002           4.09874e+001           9.87434e-001           9.87434e-001           8.74339e-002           7.43393e-003           4.33933e-004
                   86.40    340.98979                               19.84884             84.500                                        3.40990e+002           4.09898e+001           9.89787e-001           9.89787e-001           8.97873e-002           9.78730e-003           7.87305e-004
                   86.50    340.98612                               19.84884             84.500                                        3.40986e+002           4.09861e+001           9.86118e-001           9.86118e-001           8.61181e-002           6.11810e-003           1.18096e-004
                   86.60    340.98409                               19.84884             84.500                                        3.40984e+002           4.09841e+001           9.84088e-001           9.84088e-001           8.40883e-002           4.08827e-003           8.82658e-005
                   86.70    340.98751                               19.84884             84.500                                        3.40988e+002           4.09875e+001           9.87508e-001           9.87508e-001           8.75076e-002           7.50760e-003           5.07601e-004
                   86.80    340.99196                               19.84884             84.500                                        3.40992e+002           4.09920e+001           9.91965e-001           9.91965e-001           9.19648e-002           1.96482e-003           9.64824e-004
                   86.90    340.98862                               19.84884             84.500                                        3.40989e+002           4.09886e+001           9.88619e-001           9.88619e-001           8.86189e-002           8.61892e-003           6.18919e-004
                   87.00    340.98787                               19.84884             84.500                                        3.40988e+002           4.09879e+001           9.87871e-001           9.87871e-001           8.78705e-002           7.87051e-003           8.70508e-004
                   87.10    340.98896                               19.84884             84.498                                        3.40989e+002           4.09890e+001           9.88961e-001           9.88961e-001           8.89615e-002           8.96146e-003           9.61459e-004
                   87.20    340.98701                               19.84884             84.494                                        3.40987e+002           4.09870e+001           9.87011e-001           9.87011e-001           8.70108e-002           7.01084e-003           1.08428e-005
                   87.30    340.98183                               19.84884             84.492                                        3.40982e+002           4.09818e+001           9.81829e-001           9.81829e-001           8.18287e-002           1.82874e-003           8.28744e-004
                   87.40    340.98746                               19.84884             84.492                                        3.40987e+002           4.09875e+001           9.87462e-001           9.87462e-001           8.74615e-002           7.46153e-003           4.61527e-004
                   87.50    340.99568                               19.84884             84.492                                        3.40996e+002           4.09957e+001           9.95677e-001           9.95677e-001           9.56772e-002           5.67718e-003           6.77182e-004
                   87.60    340.98998                               19.84884             84.492                                        3.40990e+002           4.09900e+001           9.89985e-001           9.89985e-001           8.99848e-002           9.98481e-003           9.84806e-004
                   87.70    340.97976                               19.84884             84.492                                        3.40980e+002           4.09798e+001           9.79756e-001           9.79756e-001           7.97562e-002           9.75618e-003           7.56180e-004
                   87.80    340.98647                               19.84884             84.492                                        3.40986e+002           4.09865e+001           9.86473e-001           9.86473e-001           8.64731e-002           6.47310e-003           4.73105e-004
                   87.90    340.99669                               19.84884             84.492                                        3.40997e+002           4.09967e+001           9.96686e-001           9.96686e-001           9.66859e-002           6.68591e-003           6.85909e-004
                   88.00    340.99340                               19.84884             84.492                                        3.40993e+002           4.09934e+001           9.93398e-001           9.93398e-001           9.33981e-002           3.39806e-003           3.98061e-004
                   88.10    340.98214                               19.84884             84.492                                        3.40982e+002           4.09821e+001           9.82137e-001           9.82137e-001           8.21370e-002           2.13700e-003           1.37000e-004
                   88.20    340.98336                               19.84884             84.492                                        3.40983e+002           4.09834e+001           9.83358e-001           9.83358e-001           8.33579e-002           3.35789e-003           3.57890e-004
                   88.30    340.99219                               19.84884             84.492                                        3.40992e+002           4.09922e+001           9.92188e-001           9.92188e-001           9.21877e-002           2.18768e-003           1.87676e-004
                   88.40    340.99387                               19.84884             84.492                                        3.40994e+002           4.09939e+001           9.93869e-001           9.93869e-001           9.38692e-002           3.86924e-003           8.69240e-004
                   88.50    340.98680                               19.84884             84.492                                        3.40987e+002           4.09868e+001           9.86801e-001           9.86801e-001           8.68005e-002           6.80051e-003           8.00507e-004
                   88.60    340.98013                               19.84884             84.492                                        3.40980e+002           4.09801e+001           9.80133e-001           9.80133e-001           8.01330e-002           1.33044e-004           1.33044e-004
                   88.70    340.98077                               19.84884             84.492                                        3.40981e+002           4.09808e+001           9.80767e-001           9.80767e-001           8.07669e-002           7.66917e-004           7.66917e-004
                   88.80    340.98578                               19.84884             84.492                                        3.40986e+002           4.09858e+001           9.85783e-001           9.85783e-001           8.57831e-002           5.78312e-003           7.83116e-004
