~VERSION INFORMATION
VERS                    .            2.0                                    :CWLS LOG ASCII STANDARD
WRAP                    .            NO                                     :ONE LINE PER TIME STEP


~WELL INFORMATION
#MNEM                   .UNIT        DATA                                    DESCRIPTION
#________________________________________________________________________________________
STRTTIME                .HH/MM/SS    11:07:04                               :START TIME
STOPTIME                .HH/MM/SS    11:10:49                               :STOP TIME
STRT                    .s           2.10                                   :START DATA
STOP                    .s           223.10                                 :STOP DATA
STEP                    .s           0.10                                   :MEASUREMENT TIME INTERVAL
NULL                    .            -999.25                                :NULL VALUE
COMP                    .            Statoil ASA                            :COMPANY
FLD                     .            Volve                                  :FIELD
WELL                    .            15/9-F-11 A                            :WELL
RUN                     .            8                                      :RUN
LOC                     .            Maersk Inspirer                        :LOCATION
PROV                    .            na                                     :PROVINCE
SRVC                    .            Baker Hughes INTEQ                     :SERVICE COMPANY
DATE                    .YY/MM/DD    13/05/21                               :LOG DATE
UWI                     .                                                   :UNIQUE WELL ID
DEPTHMD                 .m           3632.0                                 :MEASURED DEPTH
DEPTHTVD                .m           3026.9                                 :TRUE VERTICAL DEPTH


~CURVE INFORMATION
#MNEM                   .UNIT        API CODES                               DESCRIPTION
#________________________________________________________________________________________
TIME                    .s                                                  :01 TIME
DD_PRESS                .bar                                                :02 DRAW DOWN PRESSURE
DD_VOLUME               .cm3                                                :03 INCREMENTAL DRAW DOWN VOLUME
TEMP                    .degC                                               :04 TRANSDUCER TEMPERATURE
DD_PRESS_MOD_1000       .bar                                                :05 DRAW DOWN PRESSURE MOD 1000
DD_PRESS_MOD_100        .bar                                                :06 DRAW DOWN PRESSURE MOD 100
DD_PRESS_MOD_10         .bar                                                :07 DRAW DOWN PRESSURE MOD 10
DD_PRESS_MOD_1          .bar                                                :08 DRAW DOWN PRESSURE MOD 1
DD_PRESS_MOD_01         .bar                                                :09 DRAW DOWN PRESSURE MOD 01
DD_PRESS_MOD_001        .bar                                                :10 DRAW DOWN PRESSURE MOD 001
DD_PRESS_MOD_0001       .bar                                                :11 DRAW DOWN PRESSURE MOD 0001


~PARAMETER INFORMATION
#MNEM                   .UNIT        VALUE                                   DESCRIPTION
#________________________________________________________________________________________
TOOLFACE                .deg         66.7                                   :01 TOOLFACE
PUMP_CAPACITY           .bar         400                                    :02 NOMINAL DRAW DOWN PUMP CAPACITY
PUMP_LIMIT              .bar         240                                    :03 DOWNLINK PUMP LIMIT
TIME_LIMIT              .min         10                                     :04 DOWNLINK MAX TIME
TEST_TYPE               .            REPEAT                                 :05 DOWNLINK
TEST_TYPE               .            HIGH MOBILITY                          :06 DOWNLINK
DD_PIST_A               .cm2         3.1416                                 :07 DRAW DOWN PISTON AREA
V_SYS                   .cm3         131.0000                               :08 SYSTEM VOLUME
PROBE_ID                .cm          1.2700                                 :09 TTK PROBE ID
G0                      .            4.6700                                 :10 GEOMETRY FACTOR


~A                  TIME     DD_PRESS                              DD_VOLUME               TEMP                                   DD_PRESS_MOD_1000       DD_PRESS_MOD_100        DD_PRESS_MOD_10         DD_PRESS_MOD_1        DD_PRESS_MOD_01       DD_PRESS_MOD_001      DD_PRESS_MOD_0001
# ...
                  147.70    342.72339                               13.23782             80.594                                        3.42723e+002           4.27234e+001           2.72339e+000           7.23390e-001           2.33899e-002           3.38987e-003           3.89870e-004
                  147.80    342.72253                               13.23782             80.594                                        3.42723e+002           4.27225e+001           2.72253e+000           7.22528e-001           2.25281e-002           2.52807e-003           5.28073e-004
                  147.90    342.72443                               13.23782             80.594                                        3.42724e+002           4.27244e+001           2.72443e+000           7.24432e-001           2.44315e-002           4.43151e-003           4.31511e-004
                  148.00    342.72340                               13.23782             80.594                                        3.42723e+002           4.27234e+001           2.72340e+000           7.23397e-001           2.33970e-002           3.39696e-003           3.96961e-004
                  148.10    342.71647                               13.23782             80.594                                        3.42716e+002           4.27165e+001           2.71647e+000           7.16471e-001           1.64713e-002           6.47127e-003           4.71274e-004
                  148.20    342.71429                               13.23782             80.594                                        3.42714e+002           4.27143e+001           2.71429e+000           7.14294e-001           1.42937e-002           4.29370e-003           2.93704e-004
                  148.30    342.71806                               13.23782             80.594                                        3.42718e+002           4.27181e+001           2.71806e+000           7.18059e-001           1.80587e-002           8.05866e-003           5.86615e-005
                  148.40    342.71378                               13.23782             80.594                                        3.42714e+002           4.27138e+001           2.71378e+000           7.13775e-001           1.37753e-002           3.77531e-003           7.75306e-004
                  148.50    342.70758                               13.23782             80.594                                        3.42708e+002           4.27076e+001           2.70758e+000           7.07580e-001           7.58037e-003           7.58037e-003           5.80371e-004
                  148.60    342.71052                               13.23782             80.594                                        3.42711e+002           4.27105e+001           2.71052e+000           7.10523e-001           1.05225e-002           5.22550e-004           5.22550e-004
                  148.70    342.71838                               13.23782             80.594                                        3.42718e+002           4.27184e+001           2.71838e+000           7.18377e-001           1.83770e-002           8.37695e-003           3.76950e-004
                  148.80    342.72223                               13.23782             80.594                                        3.42722e+002           4.27222e+001           2.72223e+000           7.22233e-001           2.22327e-002           2.23270e-003           2.32702e-004
                  148.90    342.72333                               13.23782             80.594                                        3.42723e+002           4.27233e+001           2.72333e+000           7.23326e-001           2.33258e-002           3.32584e-003           3.25843e-004
                  149.00    342.72857                               13.23782             80.594                                        3.42729e+002           4.27286e+001           2.72857e+000           7.28565e-001           2.85653e-002           8.56532e-003           5.65321e-004
                  149.10    342.73374                               13.23782             80.594                                        3.42734e+002           4.27337e+001           2.73374e+000           7.33735e-001           3.37351e-002           3.73514e-003           7.35139e-004
                  149.20    342.72945                               13.23782             80.594                                        3.42729e+002           4.27295e+001           2.72945e+000           7.29453e-001           2.94533e-002           9.45332e-003           4.53318e-004
                  149.30    342.71679                               13.23782             80.594                                        3.42717e+002           4.27168e+001           2.71679e+000           7.16792e-001           1.67921e-002           6.79214e-003           7.92144e-004
                  149.40    342.71012                               13.23782             80.594                                        3.42710e+002           4.27101e+001           2.71012e+000           7.10121e-001           1.01205e-002           1.20515e-004           1.20515e-004
                  149.50    342.71067                               13.23782             80.594                                        3.42711e+002           4.27107e+001           2.71067e+000           7.10672e-001           1.06717e-002           6.71709e-004           6.71709e-004
                  149.60    342.71143                               13.23782             80.594                                        3.42711e+002           4.27114e+001           2.71143e+000           7.11430e-001           1.14297e-002           1.42972e-003           4.29720e-004
                  149.70    342.71192                               13.23782             80.594                                        3.42712e+002           4.27119e+001           2.71192e+000           7.11924e-001           1.19236e-002           1.92359e-003           9.23595e-004
                  149.80    342.71296                               13.23782             80.594                                        3.42713e+002           4.27130e+001           2.71296e+000           7.12965e-001           1.29650e-002           2.96495e-003           9.64951e-004
                  149.90    342.71832                               13.23782             80.594                                        3.42718e+002           4.27183e+001           2.71832e+000           7.18324e-001           1.83242e-002           8.32419e-003           3.24193e-004
                  150.00    342.71901                               13.23782             80.594                                        3.42719e+002           4.27190e+001           2.71901e+000           7.19007e-001           1.90073e-002           9.00732e-003           7.32238e-006
                  150.10    342.71499                               13.23782             80.594                                        3.42715e+002           4.27150e+001           2.71499e+000           7.14993e-001           1.49929e-002           4.99287e-003           9.92875e-004
                  150.20    342.71444                               13.23782             80.594                                        3.42714e+002           4.27144e+001           2.71444e+000           7.14436e-001           1.44358e-002           4.43582e-003           4.35822e-004
                  150.30    342.72347                               13.23782             80.594                                        3.42723e+002           4.27235e+001           2.72347e+000           7.23475e-001           2.34745e-002           3.47453e-003           4.74529e-004
                  150.40    342.72173                               13.23782             80.594                                        3.42722e+002           4.27217e+001           2.72173e+000           7.21730e-001           2.17300e-002           1.73002e-003           7.30016e-004
