~VERSION INFORMATION
VERS                    .            2.0                                    :CWLS LOG ASCII STANDARD
WRAP                    .            NO                                     :ONE LINE PER TIME STEP


~WELL INFORMATION
#MNEM                   .UNIT        DATA                                    DESCRIPTION
#________________________________________________________________________________________
STRTTIME                .HH/MM/SS    23:13:04                               :START TIME
STOPTIME                .HH/MM/SS    23:16:31                               :STOP TIME
STRT                    .s           2.10                                   :START DATA
STOP                    .s           205.60                                 :STOP DATA
STEP                    .s           0.10                                   :MEASUREMENT TIME INTERVAL
NULL                    .            -999.25                                :NULL VALUE
COMP                    .            Statoil ASA                            :COMPANY
FLD                     .            Volve                                  :FIELD
WELL                    .            15/9-F-1 C                             :WELL
RUN                     .            4                                      :RUN
LOC                     .                                                   :LOCATION
PROV                    .            na                                     :PROVINCE
SRVC                    .            Baker Hughes INTEQ                     :SERVICE COMPANY
DATE                    .YY/MM/DD    14/03/14                               :LOG DATE
UWI                     .                                                   :UNIQUE WELL ID
DEPTHMD                 .m           3858.0                                 :MEASURED DEPTH
DEPTHTVD                .m           3096.5                                 :TRUE VERTICAL DEPTH


~CURVE INFORMATION
#MNEM                   .UNIT        API CODES                               DESCRIPTION
#________________________________________________________________________________________
TIME                    .s                                                  :01 TIME
DD_PRESS                .bar                                                :02 DRAW DOWN PRESSURE
DD_VOLUME               .cm3                                                :03 INCREMENTAL DRAW DOWN VOLUME
TEMP                    .degC                                               :04 TRANSDUCER TEMPERATURE
DD_PRESS_MOD_1000       .bar                                                :05 DRAW DOWN PRESSURE MOD 1000
DD_PRESS_MOD_100        .bar                                                :06 DRAW DOWN PRESSURE MOD 100
DD_PRESS_MOD_10         .bar                                                :07 DRAW DOWN PRESSURE MOD 10
DD_PRESS_MOD_1          .bar                                                :08 DRAW DOWN PRESSURE MOD 1
DD_PRESS_MOD_01         .bar                                                :09 DRAW DOWN PRESSURE MOD 01
DD_PRESS_MOD_001        .bar                                                :10 DRAW DOWN PRESSURE MOD 001
DD_PRESS_MOD_0001       .bar                                                :11 DRAW DOWN PRESSURE MOD 0001


~PARAMETER INFORMATION
#MNEM                   .UNIT        VALUE                                   DESCRIPTION
#________________________________________________________________________________________
TOOLFACE                .deg         88.6                                   :01 TOOLFACE
PUMP_CAPACITY           .bar         400                                    :02 NOMINAL DRAW DOWN PUMP CAPACITY
PUMP_LIMIT              .bar         240                                    :03 DOWNLINK PUMP LIMIT
TIME_LIMIT              .min         10                                     :04 DOWNLINK MAX TIME
TEST_TYPE               .            HIGH MOBILITY                          :05 DOWNLINK
DD_PIST_A               .cm2         3.1416                                 :06 DRAW DOWN PISTON AREA
V_SYS                   .cm3         131.0000                               :07 SYSTEM VOLUME
PROBE_ID                .cm          1.2700                                 :08 TTK PROBE ID
G0                      .            4.6700                                 :09 GEOMETRY FACTOR


~A                  TIME     DD_PRESS                              DD_VOLUME               TEMP                                   DD_PRESS_MOD_1000       DD_PRESS_MOD_100        DD_PRESS_MOD_10         DD_PRESS_MOD_1        DD_PRESS_MOD_01       DD_PRESS_MOD_001      DD_PRESS_MOD_0001
# ...
                   97.30    352.19215                               19.73593             90.047                                        3.52192e+002           5.21921e+001           2.19215e+000           1.92148e-001           9.21479e-002           2.14787e-003           1.47872e-004
                   97.40    352.19064                               19.73593             90.047                                        3.52191e+002           5.21906e+001           2.19064e+000           1.90645e-001           9.06446e-002           6.44649e-004           6.44649e-004
                   97.50    352.19309                               19.73593             90.047                                        3.52193e+002           5.21931e+001           2.19309e+000           1.93090e-001           9.30904e-002           3.09042e-003           9.04168e-005
                   97.60    352.19753                               19.73593             90.047                                        3.52198e+002           5.21975e+001           2.19753e+000           1.97527e-001           9.75274e-002           7.52742e-003           5.27423e-004
                   97.70    352.19652                               19.73593             90.047                                        3.52197e+002           5.21965e+001           2.19652e+000           1.96521e-001           9.65206e-002           6.52058e-003           5.20583e-004
                   97.80    352.19781                               19.73593             90.047                                        3.52198e+002           5.21978e+001           2.19781e+000           1.97814e-001           9.78141e-002           7.81409e-003           8.14088e-004
                   97.90    352.20097                               19.73593             90.047                                        3.52201e+002           5.22010e+001           2.20097e+000           2.00967e-001           9.67110e-004           9.67110e-004           9.67110e-004
                   98.00    352.20009                               19.73593             90.047                                        3.52200e+002           5.22001e+001           2.20009e+000           2.00086e-001           8.58281e-005           8.58281e-005           8.58281e-005
                   98.10    352.19777                               19.73593             90.047                                        3.52198e+002           5.21978e+001           2.19777e+000           1.97766e-001           9.77664e-002           7.76641e-003           7.66406e-004
                   98.20    352.19774                               19.73593             90.047                                        3.52198e+002           5.21977e+001           2.19774e+000           1.97741e-001           9.77409e-002           7.74094e-003           7.40937e-004
                   98.30    352.20042                               19.73593             90.047                                        3.52200e+002           5.22004e+001           2.20042e+000           2.00424e-001           4.23947e-004           4.23947e-004           4.23947e-004
                   98.40    352.20201                               19.73593             90.047                                        3.52202e+002           5.22020e+001           2.20201e+000           2.02010e-001           2.00972e-003           2.00972e-003           9.71800e-006
                   98.50    352.20143                               19.73593             90.047                                        3.52201e+002           5.22014e+001           2.20143e+000           2.01430e-001           1.43032e-003           1.43032e-003           4.30320e-004
                   98.60    352.20036                               19.73593             90.047                                        3.52200e+002           5.22004e+001           2.20036e+000           2.00357e-001           3.57427e-004           3.57427e-004           3.57427e-004
                   98.70    352.19963                               19.73593             90.047                                        3.52200e+002           5.21996e+001           2.19963e+000           1.99627e-001           9.96271e-002           9.62710e-003           6.27105e-004
                   98.80    352.19804                               19.73593             90.047                                        3.52198e+002           5.21980e+001           2.19804e+000           1.98036e-001           9.80360e-002           8.03604e-003           3.60406e-005
                   98.90    352.19851                               19.73593             90.047                                        3.52199e+002           5.21985e+001           2.19851e+000           1.98514e-001           9.85136e-002           8.51365e-003           5.13649e-004
                   99.00    352.19898                               19.73593             90.047                                        3.52199e+002           5.21990e+001           2.19898e+000           1.98979e-001           9.89793e-002           8.97932e-003           9.79324e-004
                   99.10    352.20125                               19.73593             90.047                                        3.52201e+002           5.22013e+001           2.20125e+000           2.01254e-001           1.25395e-003           1.25395e-003           2.53951e-004
                   99.20    352.20559                               19.73593             90.047                                        3.52206e+002           5.22056e+001           2.20559e+000           2.05592e-001           5.59193e-003           5.59193e-003           5.91931e-004
                   99.30    352.20514                               19.73593             90.047                                        3.52205e+002           5.22051e+001           2.20514e+000           2.05141e-001           5.14110e-003           5.14110e-003           1.41101e-004
                   99.40    352.20164                               19.73593             90.047                                        3.52202e+002           5.22016e+001           2.20164e+000           2.01640e-001           1.63952e-003           1.63952e-003           6.39521e-004
                   99.50    352.19779                               19.73593             90.047                                        3.52198e+002           5.21978e+001           2.19779e+000           1.97791e-001           9.77906e-002           7.79057e-003           7.90567e-004
                   99.60    352.20085                               19.73593             90.047                                        3.52201e+002           5.22008e+001           2.20085e+000           2.00846e-001           8.45842e-004           8.45842e-004           8.45842e-004
                   99.70    352.20358                               19.73593             90.047                                        3.52204e+002           5.22036e+001           2.20358e+000           2.03577e-001           3.57675e-003           3.57675e-003           5.76749e-004
                   99.80    352.20340                               19.73593             90.047                                        3.52203e+002           5.22034e+001           2.20340e+000           2.03397e-001           3.39657e-003           3.39657e-003           3.96572e-004
                   99.90    352.20405                               19.73593             90.047                                        3.52204e+002           5.22040e+001           2.20405e+000           2.04049e-001           4.04932e-003           4.04932e-003           4.93246e-005
                  100.00    352.20512                               19.73593             90.047                                        3.52205e+002           5.22051e+001           2.20512e+000           2.05121e-001           5.12052e-003           5.12052e-003           1.20517e-004
