~VERSION INFORMATION
VERS                    .            2.0                                    :CWLS LOG ASCII STANDARD
WRAP                    .            NO                                     :ONE LINE PER TIME STEP


~WELL INFORMATION
#MNEM                   .UNIT        DATA                                    DESCRIPTION
#________________________________________________________________________________________
STRTTIME                .HH/MM/SS    19:52:58                               :START TIME
STOPTIME                .HH/MM/SS    19:58:21                               :STOP TIME
STRT                    .s           2.10                                   :START DATA
STOP                    .s           321.30                                 :STOP DATA
STEP                    .s           0.10                                   :MEASUREMENT TIME INTERVAL
NULL                    .            -999.25                                :NULL VALUE
COMP                    .            Statoil ASA                            :COMPANY
FLD                     .            Volve                                  :FIELD
WELL                    .            15/9-F-11 A                            :WELL
RUN                     .            8                                      :RUN
LOC                     .            Maersk Inspirer                        :LOCATION
PROV                    .            na                                     :PROVINCE
SRVC                    .            Baker Hughes INTEQ                     :SERVICE COMPANY
DATE                    .YY/MM/DD    13/05/23                               :LOG DATE
UWI                     .                                                   :UNIQUE WELL ID
DEPTHMD                 .m           3602.0                                 :MEASURED DEPTH
DEPTHTVD                .m           3003.9                                 :TRUE VERTICAL DEPTH


~CURVE INFORMATION
#MNEM                   .UNIT        API CODES                               DESCRIPTION
#________________________________________________________________________________________
TIME                    .s                                                  :01 TIME
DD_PRESS                .bar                                                :02 DRAW DOWN PRESSURE
DD_VOLUME               .cm3                                                :03 INCREMENTAL DRAW DOWN VOLUME
TEMP                    .degC                                               :04 TRANSDUCER TEMPERATURE
DD_PRESS_MOD_1000       .bar                                                :05 DRAW DOWN PRESSURE MOD 1000
DD_PRESS_MOD_100        .bar                                                :06 DRAW DOWN PRESSURE MOD 100
DD_PRESS_MOD_10         .bar                                                :07 DRAW DOWN PRESSURE MOD 10
DD_PRESS_MOD_1          .bar                                                :08 DRAW DOWN PRESSURE MOD 1
DD_PRESS_MOD_01         .bar                                                :09 DRAW DOWN PRESSURE MOD 01
DD_PRESS_MOD_001        .bar                                                :10 DRAW DOWN PRESSURE MOD 001
DD_PRESS_MOD_0001       .bar                                                :11 DRAW DOWN PRESSURE MOD 0001


~PARAMETER INFORMATION
#MNEM                   .UNIT        VALUE                                   DESCRIPTION
#________________________________________________________________________________________
TOOLFACE                .deg         -40.9                                  :01 TOOLFACE
PUMP_CAPACITY           .bar         400                                    :02 NOMINAL DRAW DOWN PUMP CAPACITY
PUMP_LIMIT              .bar         240                                    :03 DOWNLINK PUMP LIMIT
TIME_LIMIT              .min         10                                     :04 DOWNLINK MAX TIME
TEST_TYPE               .            REPEAT                                 :05 DOWNLINK
TEST_TYPE               .            HIGH MOBILITY                          :06 DOWNLINK
DD_PIST_A               .cm2         3.1416                                 :07 DRAW DOWN PISTON AREA
V_SYS                   .cm3         131.0000                               :08 SYSTEM VOLUME
PROBE_ID                .cm          1.2700                                 :09 TTK PROBE ID
G0                      .            4.6700                                 :10 GEOMETRY FACTOR


~A                  TIME     DD_PRESS                              DD_VOLUME               TEMP                                   DD_PRESS_MOD_1000       DD_PRESS_MOD_100        DD_PRESS_MOD_10         DD_PRESS_MOD_1        DD_PRESS_MOD_01       DD_PRESS_MOD_001      DD_PRESS_MOD_0001
# ...
                  170.10    341.42608                               12.03703             71.010                                        3.41426e+002           4.14261e+001           1.42608e+000           4.26082e-001           2.60821e-002           6.08215e-003           8.21469e-005
                  170.20    341.36313                               12.03703             71.011                                        3.41363e+002           4.13631e+001           1.36313e+000           3.63126e-001           6.31264e-002           3.12637e-003           1.26373e-004
                  170.30    341.45684                               12.03703             71.010                                        3.41457e+002           4.14568e+001           1.45684e+000           4.56844e-001           5.68444e-002           6.84445e-003           8.44447e-004
                  170.40    341.53469                               12.03703             71.008                                        3.41535e+002           4.15347e+001           1.53469e+000           5.34694e-001           3.46942e-002           4.69418e-003           6.94182e-004
                  170.50    341.48032                               12.03703             71.010                                        3.41480e+002           4.14803e+001           1.48032e+000           4.80322e-001           8.03222e-002           3.22225e-004           3.22225e-004
                  170.60    341.41884                               12.03703             71.014                                        3.41419e+002           4.14188e+001           1.41884e+000           4.18843e-001           1.88432e-002           8.84324e-003           8.43236e-004
                  170.70    341.49610                               12.03703             71.016                                        3.41496e+002           4.14961e+001           1.49610e+000           4.96100e-001           9.61000e-002           6.09998e-003           9.99792e-005
                  170.80    341.55591                               12.03703             71.016                                        3.41556e+002           4.15559e+001           1.55591e+000           5.55907e-001           5.59071e-002           5.90712e-003           9.07118e-004
                  170.90    341.49682                               12.03703             71.016                                        3.41497e+002           4.14968e+001           1.49682e+000           4.96821e-001           9.68207e-002           6.82067e-003           8.20670e-004
                  171.00    341.48944                               12.03703             71.016                                        3.41489e+002           4.14894e+001           1.48944e+000           4.89438e-001           8.94378e-002           9.43781e-003           4.37805e-004
                  171.10    341.54337                               12.03703             71.016                                        3.41543e+002           4.15434e+001           1.54337e+000           5.43365e-001           4.33651e-002           3.36510e-003           3.65105e-004
                  171.20    341.51612                               12.03703             71.016                                        3.41516e+002           4.15161e+001           1.51612e+000           5.16119e-001           1.61193e-002           6.11932e-003           1.19318e-004
                  171.30    341.45837                               12.03703             71.016                                        3.41458e+002           4.14584e+001           1.45837e+000           4.58374e-001           5.83739e-002           8.37386e-003           3.73858e-004
                  171.40    341.46129                               12.03703             71.016                                        3.41461e+002           4.14613e+001           1.46129e+000           4.61292e-001           6.12923e-002           1.29234e-003           2.92343e-004
                  171.50    341.51658                               12.03703             71.016                                        3.41517e+002           4.15166e+001           1.51658e+000           5.16577e-001           1.65769e-002           6.57688e-003           5.76876e-004
                  171.60    341.52292                               12.03703             71.016                                        3.41523e+002           4.15229e+001           1.52292e+000           5.22921e-001           2.29212e-002           2.92123e-003           9.21231e-004
                  171.70    341.47114                               12.03703             71.016                                        3.41471e+002           4.14711e+001           1.47114e+000           4.71142e-001           7.11424e-002           1.14239e-003           1.42393e-004
                  171.80    341.48267                               12.03703             71.016                                        3.41483e+002           4.14827e+001           1.48267e+000           4.82665e-001           8.26651e-002           2.66513e-003           6.65133e-004
                  171.90    341.60246                               12.03703             71.016                                        3.41602e+002           4.16025e+001           1.60246e+000           6.02456e-001           2.45644e-003           2.45644e-003           4.56444e-004
                  172.00    341.59115                               12.03703             71.016                                        3.41591e+002           4.15912e+001           1.59115e+000           5.91155e-001           9.11549e-002           1.15488e-003           1.54879e-004
                  172.10    341.51613                               12.03703             71.016                                        3.41516e+002           4.15161e+001           1.51613e+000           5.16127e-001           1.61274e-002           6.12744e-003           1.27437e-004
                  172.20    341.50181                               12.03703             71.016                                        3.41502e+002           4.15018e+001           1.50181e+000           5.01808e-001           1.80759e-003           1.80759e-003           8.07592e-004
                  172.30    341.50165                               12.03703             71.016                                        3.41502e+002           4.15016e+001           1.50165e+000           5.01648e-001           1.64800e-003           1.64800e-003           6.48000e-004
                  172.40    341.51405                               12.03703             71.016                                        3.41514e+002           4.15140e+001           1.51405e+000           5.14046e-001           1.40456e-002           4.04559e-003           4.55916e-005
                  172.50    341.54354                               12.03703             71.016                                        3.41544e+002           4.15435e+001           1.54354e+000           5.43543e-001           4.35431e-002           3.54309e-003           5.43091e-004
                  172.60    341.51010                               12.03703             71.016                                        3.41510e+002           4.15101e+001           1.51010e+000           5.10102e-001           1.01016e-002           1.01598e-004           1.01598e-004
                  172.70    341.48917                               12.03703             71.016                                        3.41489e+002           4.14892e+001           1.48917e+000           4.89170e-001           8.91702e-002           9.17024e-003           1.70238e-004
                  172.80    341.55673                               12.03703             71.016                                        3.41557e+002           4.15567e+001           1.55673e+000           5.56729e-001           5.67291e-002           6.72914e-003           7.29136e-004
