~VERSION INFORMATION
VERS                    .            2.0                                    :CWLS LOG ASCII STANDARD
WRAP                    .            NO                                     :ONE LINE PER TIME STEP


~WELL INFORMATION
#MNEM                   .UNIT        DATA                                    DESCRIPTION
#________________________________________________________________________________________
STRTTIME                .HH/MM/SS    23:13:04                               :START TIME
STOPTIME                .HH/MM/SS    23:16:31                               :STOP TIME
STRT                    .s           2.10                                   :START DATA
STOP                    .s           205.60                                 :STOP DATA
STEP                    .s           0.10                                   :MEASUREMENT TIME INTERVAL
NULL                    .            -999.25                                :NULL VALUE
COMP                    .            Statoil ASA                            :COMPANY
FLD                     .            Volve                                  :FIELD
WELL                    .            15/9-F-1 C                             :WELL
RUN                     .            4                                      :RUN
LOC                     .                                                   :LOCATION
PROV                    .            na                                     :PROVINCE
SRVC                    .            Baker Hughes INTEQ                     :SERVICE COMPANY
DATE                    .YY/MM/DD    14/03/14                               :LOG DATE
UWI                     .                                                   :UNIQUE WELL ID
DEPTHMD                 .m           3858.0                                 :MEASURED DEPTH
DEPTHTVD                .m           3096.5                                 :TRUE VERTICAL DEPTH


~CURVE INFORMATION
#MNEM                   .UNIT        API CODES                               DESCRIPTION
#________________________________________________________________________________________
TIME                    .s                                                  :01 TIME
DD_PRESS                .bar                                                :02 DRAW DOWN PRESSURE
DD_VOLUME               .cm3                                                :03 INCREMENTAL DRAW DOWN VOLUME
TEMP                    .degC                                               :04 TRANSDUCER TEMPERATURE
DD_PRESS_MOD_1000       .bar                                                :05 DRAW DOWN PRESSURE MOD 1000
DD_PRESS_MOD_100        .bar                                                :06 DRAW DOWN PRESSURE MOD 100
DD_PRESS_MOD_10         .bar                                                :07 DRAW DOWN PRESSURE MOD 10
DD_PRESS_MOD_1          .bar                                                :08 DRAW DOWN PRESSURE MOD 1
DD_PRESS_MOD_01         .bar                                                :09 DRAW DOWN PRESSURE MOD 01
DD_PRESS_MOD_001        .bar                                                :10 DRAW DOWN PRESSURE MOD 001
DD_PRESS_MOD_0001       .bar                                                :11 DRAW DOWN PRESSURE MOD 0001


~PARAMETER INFORMATION
#MNEM                   .UNIT        VALUE                                   DESCRIPTION
#________________________________________________________________________________________
TOOLFACE                .deg         88.6                                   :01 TOOLFACE
PUMP_CAPACITY           .bar         400                                    :02 NOMINAL DRAW DOWN PUMP CAPACITY
PUMP_LIMIT              .bar         240                                    :03 DOWNLINK PUMP LIMIT
TIME_LIMIT              .min         10                                     :04 DOWNLINK MAX TIME
TEST_TYPE               .            HIGH MOBILITY                          :05 DOWNLINK
DD_PIST_A               .cm2         3.1416                                 :06 DRAW DOWN PISTON AREA
V_SYS                   .cm3         131.0000                               :07 SYSTEM VOLUME
PROBE_ID                .cm          1.2700                                 :08 TTK PROBE ID
G0                      .            4.6700                                 :09 GEOMETRY FACTOR


~A                  TIME     DD_PRESS                              DD_VOLUME               TEMP                                   DD_PRESS_MOD_1000       DD_PRESS_MOD_100        DD_PRESS_MOD_10         DD_PRESS_MOD_1        DD_PRESS_MOD_01       DD_PRESS_MOD_001      DD_PRESS_MOD_0001
# ...
                  164.50    352.20832                               29.35196             89.984                                        3.52208e+002           5.22083e+001           2.20832e+000           2.08324e-001           8.32362e-003           8.32362e-003           3.23620e-004
                  164.60    352.20954                               29.35196             89.984                                        3.52210e+002           5.22095e+001           2.20954e+000           2.09537e-001           9.53712e-003           9.53712e-003           5.37123e-004
                  164.70    352.20894                               29.35196             89.984                                        3.52209e+002           5.22089e+001           2.20894e+000           2.08944e-001           8.94389e-003           8.94389e-003           9.43889e-004
                  164.80    352.20789                               29.35196             89.984                                        3.52208e+002           5.22079e+001           2.20789e+000           2.07885e-001           7.88516e-003           7.88516e-003           8.85162e-004
                  164.90    352.20840                               29.35196             89.984                                        3.52208e+002           5.22084e+001           2.20840e+000           2.08400e-001           8.39973e-003           8.39973e-003           3.99729e-004
                  165.00    352.20937                               29.35196             89.984                                        3.52209e+002           5.22094e+001           2.20937e+000           2.09374e-001           9.37433e-003           9.37433e-003           3.74326e-004
                  165.10    352.20951                               29.35196             89.984                                        3.52210e+002           5.22095e+001           2.20951e+000           2.09507e-001           9.50748e-003           9.50748e-003           5.07484e-004
                  165.20    352.20991                               29.35196             89.984                                        3.52210e+002           5.22099e+001           2.20991e+000           2.09909e-001           9.90915e-003           9.90915e-003           9.09146e-004
                  165.30    352.20991                               29.35196             89.984                                        3.52210e+002           5.22099e+001           2.20991e+000           2.09905e-001           9.90504e-003           9.90504e-003           9.05042e-004
                  165.40    352.20943                               29.35196             89.984                                        3.52209e+002           5.22094e+001           2.20943e+000           2.09425e-001           9.42535e-003           9.42535e-003           4.25351e-004
                  165.50    352.20921                               29.35196             89.984                                        3.52209e+002           5.22092e+001           2.20921e+000           2.09215e-001           9.21488e-003           9.21488e-003           2.14879e-004
                  165.60    352.21097                               29.35196             89.984                                        3.52211e+002           5.22110e+001           2.21097e+000           2.10969e-001           1.09687e-002           9.68650e-004           9.68650e-004
                  165.70    352.21010                               29.35196             89.984                                        3.52210e+002           5.22101e+001           2.21010e+000           2.10099e-001           1.00993e-002           9.92872e-005           9.92872e-005
                  165.80    352.20712                               29.35196             89.984                                        3.52207e+002           5.22071e+001           2.20712e+000           2.07119e-001           7.11932e-003           7.11932e-003           1.19324e-004
                  165.90    352.20669                               29.35196             89.984                                        3.52207e+002           5.22067e+001           2.20669e+000           2.06695e-001           6.69451e-003           6.69451e-003           6.94506e-004
                  166.00    352.20918                               29.35196             89.984                                        3.52209e+002           5.22092e+001           2.20918e+000           2.09176e-001           9.17626e-003           9.17626e-003           1.76260e-004
                  166.10    352.21043                               29.35196             89.984                                        3.52210e+002           5.22104e+001           2.21043e+000           2.10427e-001           1.04269e-002           4.26916e-004           4.26916e-004
                  166.20    352.21093                               29.35196             89.984                                        3.52211e+002           5.22109e+001           2.21093e+000           2.10935e-001           1.09345e-002           9.34527e-004           9.34527e-004
                  166.30    352.21081                               29.35196             89.984                                        3.52211e+002           5.22108e+001           2.21081e+000           2.10813e-001           1.08131e-002           8.13132e-004           8.13132e-004
                  166.40    352.21092                               29.35196             89.984                                        3.52211e+002           5.22109e+001           2.21092e+000           2.10922e-001           1.09223e-002           9.22337e-004           9.22337e-004
                  166.50    352.21058                               29.35196             89.984                                        3.52211e+002           5.22106e+001           2.21058e+000           2.10577e-001           1.05767e-002           5.76688e-004           5.76688e-004
                  166.60    352.20881                               29.35196             89.984                                        3.52209e+002           5.22088e+001           2.20881e+000           2.08813e-001           8.81272e-003           8.81272e-003           8.12720e-004
                  166.70    352.20889                               29.35196             89.984                                        3.52209e+002           5.22089e+001           2.20889e+000           2.08892e-001           8.89156e-003           8.89156e-003           8.91557e-004
                  166.80    352.21070                               29.35196             89.984                                        3.52211e+002           5.22107e+001           2.21070e+000           2.10702e-001           1.07019e-002           7.01932e-004           7.01932e-004
                  166.90    352.21154                               29.35196             89.984                                        3.52212e+002           5.22115e+001           2.21154e+000           2.11542e-001           1.15417e-002           1.54170e-003           5.41703e-004
                  167.00    352.20948                               29.35196             89.984                                        3.52209e+002           5.22095e+001           2.20948e+000           2.09476e-001           9.47615e-003           9.47615e-003           4.76151e-004
                  167.10    352.20732                               29.35196             89.984                                        3.52207e+002           5.22073e+001           2.20732e+000           2.07315e-001           7.31503e-003           7.31503e-003           3.15025e-004
                  167.20    352.20849                               29.35196             89.984                                        3.52208e+002           5.22085e+001           2.20849e+000           2.08493e-001           8.49309e-003           8.49309e-003           4.93087e-004
