~VERSION INFORMATION
VERS                    .            2.0                                    :CWLS LOG ASCII STANDARD
WRAP                    .            NO                                     :ONE LINE PER TIME STEP


~WELL INFORMATION
#MNEM                   .UNIT        DATA                                    DESCRIPTION
#________________________________________________________________________________________
STRTTIME                .HH/MM/SS    09:08:53                               :START TIME
STOPTIME                .HH/MM/SS    09:11:57                               :STOP TIME
STRT                    .s           2.10                                   :START DATA
STOP                    .s           182.80                                 :STOP DATA
STEP                    .s           0.10                                   :MEASUREMENT TIME INTERVAL
NULL                    .            -999.25                                :NULL VALUE
COMP                    .            Statoil ASA                            :COMPANY
FLD                     .            Volve                                  :FIELD
WELL                    .            15/9-F-11 A                            :WELL
RUN                     .            8                                      :RUN
LOC                     .            Maersk Inspirer                        :LOCATION
PROV                    .            na                                     :PROVINCE
SRVC                    .            Baker Hughes INTEQ                     :SERVICE COMPANY
DATE                    .YY/MM/DD    13/05/21                               :LOG DATE
UWI                     .                                                   :UNIQUE WELL ID
DEPTHMD                 .m           3671.1                                 :MEASURED DEPTH
DEPTHTVD                .m           3056.7                                 :TRUE VERTICAL DEPTH


~CURVE INFORMATION
#MNEM                   .UNIT        API CODES                               DESCRIPTION
#________________________________________________________________________________________
TIME                    .s                                                  :01 TIME
DD_PRESS                .bar                                                :02 DRAW DOWN PRESSURE
DD_VOLUME               .cm3                                                :03 INCREMENTAL DRAW DOWN VOLUME
TEMP                    .degC                                               :04 TRANSDUCER TEMPERATURE
DD_PRESS_MOD_1000       .bar                                                :05 DRAW DOWN PRESSURE MOD 1000
DD_PRESS_MOD_100        .bar                                                :06 DRAW DOWN PRESSURE MOD 100
DD_PRESS_MOD_10         .bar                                                :07 DRAW DOWN PRESSURE MOD 10
DD_PRESS_MOD_1          .bar                                                :08 DRAW DOWN PRESSURE MOD 1
DD_PRESS_MOD_01         .bar                                                :09 DRAW DOWN PRESSURE MOD 01
DD_PRESS_MOD_001        .bar                                                :10 DRAW DOWN PRESSURE MOD 001
DD_PRESS_MOD_0001       .bar                                                :11 DRAW DOWN PRESSURE MOD 0001


~PARAMETER INFORMATION
#MNEM                   .UNIT        VALUE                                   DESCRIPTION
#________________________________________________________________________________________
TOOLFACE                .deg         -56.2                                  :01 TOOLFACE
PUMP_CAPACITY           .bar         400                                    :02 NOMINAL DRAW DOWN PUMP CAPACITY
PUMP_LIMIT              .bar         240                                    :03 DOWNLINK PUMP LIMIT
TIME_LIMIT              .min         10                                     :04 DOWNLINK MAX TIME
TEST_TYPE               .            REPEAT                                 :05 DOWNLINK
TEST_TYPE               .            HIGH MOBILITY                          :06 DOWNLINK
DD_PIST_A               .cm2         3.1416                                 :07 DRAW DOWN PISTON AREA
V_SYS                   .cm3         131.0000                               :08 SYSTEM VOLUME
PROBE_ID                .cm          1.2700                                 :09 TTK PROBE ID
G0                      .            4.6700                                 :10 GEOMETRY FACTOR


~A                  TIME     DD_PRESS                              DD_VOLUME               TEMP                                   DD_PRESS_MOD_1000       DD_PRESS_MOD_100        DD_PRESS_MOD_10         DD_PRESS_MOD_1        DD_PRESS_MOD_01       DD_PRESS_MOD_001      DD_PRESS_MOD_0001
# ...
                   49.70    345.05253                               10.66141             82.375                                        3.45053e+002           4.50525e+001           5.05253e+000           5.25262e-002           5.25262e-002           2.52616e-003           5.26160e-004
                   49.80    345.04762                               10.66141             82.375                                        3.45048e+002           4.50476e+001           5.04762e+000           4.76218e-002           4.76218e-002           7.62180e-003           6.21799e-004
                   49.90    345.03739                               10.66141             82.375                                        3.45037e+002           4.50374e+001           5.03739e+000           3.73896e-002           3.73896e-002           7.38959e-003           3.89585e-004
                   50.00    345.04584                               10.66141             82.375                                        3.45046e+002           4.50458e+001           5.04584e+000           4.58363e-002           4.58363e-002           5.83625e-003           8.36252e-004
                   50.10    345.06400                               10.66141             82.375                                        3.45064e+002           4.50640e+001           5.06400e+000           6.40005e-002           6.40005e-002           4.00049e-003           4.93323e-007
                   50.20    345.06293                               10.66141             82.375                                        3.45063e+002           4.50629e+001           5.06293e+000           6.29275e-002           6.29275e-002           2.92753e-003           9.27530e-004
                   50.30    345.05095                               10.66141             82.375                                        3.45051e+002           4.50509e+001           5.05095e+000           5.09478e-002           5.09478e-002           9.47799e-004           9.47799e-004
                   50.40    345.06131                               10.66141             82.375                                        3.45061e+002           4.50613e+001           5.06131e+000           6.13083e-002           6.13083e-002           1.30828e-003           3.08281e-004
                   50.50    345.07082                               10.66141             82.375                                        3.45071e+002           4.50708e+001           5.07082e+000           7.08213e-002           7.08213e-002           8.21263e-004           8.21263e-004
                   50.60    345.06171                               10.66141             82.375                                        3.45062e+002           4.50617e+001           5.06171e+000           6.17062e-002           6.17062e-002           1.70623e-003           7.06234e-004
                   50.70    345.06856                               10.66141             82.375                                        3.45069e+002           4.50686e+001           5.06856e+000           6.85600e-002           6.85600e-002           8.55995e-003           5.59955e-004
                   50.80    345.09831                               10.66141             82.375                                        3.45098e+002           4.50983e+001           5.09831e+000           9.83128e-002           9.83128e-002           8.31283e-003           3.12831e-004
                   50.90    345.09034                               10.66141             82.375                                        3.45090e+002           4.50903e+001           5.09034e+000           9.03402e-002           9.03402e-002           3.40177e-004           3.40177e-004
                   51.00    345.05448                               10.66141             82.375                                        3.45054e+002           4.50545e+001           5.05448e+000           5.44769e-002           5.44769e-002           4.47687e-003           4.76868e-004
                   51.10    345.04432                               10.66141             82.375                                        3.45044e+002           4.50443e+001           5.04432e+000           4.43192e-002           4.43192e-002           4.31918e-003           3.19182e-004
                   51.20    345.07622                               10.66141             82.375                                        3.45076e+002           4.50762e+001           5.07622e+000           7.62180e-002           7.62180e-002           6.21796e-003           2.17956e-004
                   51.30    345.09323                               10.66141             82.375                                        3.45093e+002           4.50932e+001           5.09323e+000           9.32346e-002           9.32346e-002           3.23457e-003           2.34570e-004
                   51.40    345.08474                               10.66141             82.375                                        3.45085e+002           4.50847e+001           5.08474e+000           8.47433e-002           8.47433e-002           4.74330e-003           7.43299e-004
                   51.50    345.07128                               10.66141             82.375                                        3.45071e+002           4.50713e+001           5.07128e+000           7.12834e-002           7.12834e-002           1.28337e-003           2.83373e-004
                   51.60    345.06256                               10.66141             82.375                                        3.45063e+002           4.50626e+001           5.06256e+000           6.25641e-002           6.25641e-002           2.56408e-003           5.64079e-004
                   51.70    345.06545                               10.66141             82.375                                        3.45065e+002           4.50654e+001           5.06545e+000           6.54458e-002           6.54458e-002           5.44578e-003           4.45780e-004
                   51.80    345.07422                               10.66141             82.375                                        3.45074e+002           4.50742e+001           5.07422e+000           7.42202e-002           7.42202e-002           4.22015e-003           2.20154e-004
                   51.90    345.06128                               10.66141             82.375                                        3.45061e+002           4.50613e+001           5.06128e+000           6.12775e-002           6.12775e-002           1.27755e-003           2.77547e-004
                   52.00    345.04435                               10.66141             82.375                                        3.45044e+002           4.50444e+001           5.04435e+000           4.43525e-002           4.43525e-002           4.35247e-003           3.52471e-004
                   52.10    345.05623                               10.66141             82.375                                        3.45056e+002           4.50562e+001           5.05623e+000           5.62336e-002           5.62336e-002           6.23360e-003           2.33605e-004
                   52.20    345.06111                               10.66141             82.375                                        3.45061e+002           4.50611e+001           5.06111e+000           6.11136e-002           6.11136e-002           1.11358e-003           1.13577e-004
                   52.30    345.03808                               10.66141             82.375                                        3.45038e+002           4.50381e+001           5.03808e+000           3.80818e-002           3.80818e-002           8.08182e-003           8.18160e-005
                   52.40    345.03590                               10.66141             82.377                                        3.45036e+002           4.50359e+001           5.03590e+000           3.58986e-002           3.58986e-002           5.89858e-003           8.98575e-004
