~VERSION INFORMATION
VERS                    .            2.0                                    :CWLS LOG ASCII STANDARD
WRAP                    .            NO                                     :ONE LINE PER TIME STEP


~WELL INFORMATION
#MNEM                   .UNIT        DATA                                    DESCRIPTION
#________________________________________________________________________________________
STRTTIME                .HH/MM/SS    08:48:41                               :START TIME
STOPTIME                .HH/MM/SS    08:51:35                               :STOP TIME
STRT                    .s           2.10                                   :START DATA
STOP                    .s           172.50                                 :STOP DATA
STEP                    .s           0.10                                   :MEASUREMENT TIME INTERVAL
NULL                    .            -999.25                                :NULL VALUE
COMP                    .            Statoil ASA                            :COMPANY
FLD                     .            Volve                                  :FIELD
WELL                    .            15/9-F-11 A                            :WELL
RUN                     .            8                                      :RUN
LOC                     .            Maersk Inspirer                        :LOCATION
PROV                    .            na                                     :PROVINCE
SRVC                    .            Baker Hughes INTEQ                     :SERVICE COMPANY
DATE                    .YY/MM/DD    13/05/21                               :LOG DATE
UWI                     .                                                   :UNIQUE WELL ID
DEPTHMD                 .m           3681.0                                 :MEASURED DEPTH
DEPTHTVD                .m           3064.4                                 :TRUE VERTICAL DEPTH


~CURVE INFORMATION
#MNEM                   .UNIT        API CODES                               DESCRIPTION
#________________________________________________________________________________________
TIME                    .s                                                  :01 TIME
DD_PRESS                .bar                                                :02 DRAW DOWN PRESSURE
DD_VOLUME               .cm3                                                :03 INCREMENTAL DRAW DOWN VOLUME
TEMP                    .degC                                               :04 TRANSDUCER TEMPERATURE
DD_PRESS_MOD_1000       .bar                                                :05 DRAW DOWN PRESSURE MOD 1000
DD_PRESS_MOD_100        .bar                                                :06 DRAW DOWN PRESSURE MOD 100
DD_PRESS_MOD_10         .bar                                                :07 DRAW DOWN PRESSURE MOD 10
DD_PRESS_MOD_1          .bar                                                :08 DRAW DOWN PRESSURE MOD 1
DD_PRESS_MOD_01         .bar                                                :09 DRAW DOWN PRESSURE MOD 01
DD_PRESS_MOD_001        .bar                                                :10 DRAW DOWN PRESSURE MOD 001
DD_PRESS_MOD_0001       .bar                                                :11 DRAW DOWN PRESSURE MOD 0001


~PARAMETER INFORMATION
#MNEM                   .UNIT        VALUE                                   DESCRIPTION
#________________________________________________________________________________________
TOOLFACE                .deg         -59.5                                  :01 TOOLFACE
PUMP_CAPACITY           .bar         400                                    :02 NOMINAL DRAW DOWN PUMP CAPACITY
PUMP_LIMIT              .bar         240                                    :03 DOWNLINK PUMP LIMIT
TIME_LIMIT              .min         10                                     :04 DOWNLINK MAX TIME
TEST_TYPE               .            REPEAT                                 :05 DOWNLINK
TEST_TYPE               .            HIGH MOBILITY                          :06 DOWNLINK
DD_PIST_A               .cm2         3.1416                                 :07 DRAW DOWN PISTON AREA
V_SYS                   .cm3         131.0000                               :08 SYSTEM VOLUME
PROBE_ID                .cm          1.2700                                 :09 TTK PROBE ID
G0                      .            4.6700                                 :10 GEOMETRY FACTOR


~A                  TIME     DD_PRESS                              DD_VOLUME               TEMP                                   DD_PRESS_MOD_1000       DD_PRESS_MOD_100        DD_PRESS_MOD_10         DD_PRESS_MOD_1        DD_PRESS_MOD_01       DD_PRESS_MOD_001      DD_PRESS_MOD_0001
# ...
                   58.10    345.55755                               10.79132             82.594                                        3.45558e+002           4.55575e+001           5.55755e+000           5.57548e-001           5.75476e-002           7.54756e-003           5.47560e-004
                   58.20    345.55289                               10.79132             82.594                                        3.45553e+002           4.55529e+001           5.55289e+000           5.52894e-001           5.28936e-002           2.89360e-003           8.93597e-004
                   58.30    345.55167                               10.79132             82.594                                        3.45552e+002           4.55517e+001           5.55167e+000           5.51675e-001           5.16749e-002           1.67491e-003           6.74912e-004
                   58.40    345.55603                               10.79132             82.594                                        3.45556e+002           4.55560e+001           5.55603e+000           5.56029e-001           5.60292e-002           6.02918e-003           2.91840e-005
                   58.50    345.55670                               10.79132             82.594                                        3.45557e+002           4.55567e+001           5.55670e+000           5.56698e-001           5.66976e-002           6.69764e-003           6.97642e-004
                   58.60    345.55032                               10.79132             82.594                                        3.45550e+002           4.55503e+001           5.55032e+000           5.50319e-001           5.03191e-002           3.19073e-004           3.19073e-004
                   58.70    345.55115                               10.79132             82.594                                        3.45551e+002           4.55511e+001           5.55115e+000           5.51147e-001           5.11466e-002           1.14661e-003           1.46613e-004
                   58.80    345.55115                               10.79132             82.594                                        3.45551e+002           4.55512e+001           5.55115e+000           5.51151e-001           5.11513e-002           1.15133e-003           1.51329e-004
                   58.90    345.54585                               10.79132             82.594                                        3.45546e+002           4.55458e+001           5.54585e+000           5.45847e-001           4.58474e-002           5.84740e-003           8.47396e-004
                   59.00    345.55079                               10.79132             82.594                                        3.45551e+002           4.55508e+001           5.55079e+000           5.50789e-001           5.07885e-002           7.88532e-004           7.88532e-004
                   59.10    345.55968                               10.79132             82.594                                        3.45560e+002           4.55597e+001           5.55968e+000           5.59678e-001           5.96785e-002           9.67847e-003           6.78472e-004
                   59.20    345.56362                               10.79132             82.594                                        3.45564e+002           4.55636e+001           5.56362e+000           5.63623e-001           6.36230e-002           3.62301e-003           6.23007e-004
                   59.30    345.55832                               10.79132             82.594                                        3.45558e+002           4.55583e+001           5.55832e+000           5.58317e-001           5.83167e-002           8.31674e-003           3.16741e-004
                   59.40    345.54907                               10.79132             82.594                                        3.45549e+002           4.55491e+001           5.54907e+000           5.49071e-001           4.90706e-002           9.07059e-003           7.05875e-005
                   59.50    345.54990                               10.79132             82.594                                        3.45550e+002           4.55499e+001           5.54990e+000           5.49896e-001           4.98960e-002           9.89604e-003           8.96043e-004
                   59.60    345.55465                               10.79132             82.594                                        3.45555e+002           4.55547e+001           5.55465e+000           5.54650e-001           5.46503e-002           4.65028e-003           6.50278e-004
                   59.70    345.55037                               10.79132             82.594                                        3.45550e+002           4.55504e+001           5.55037e+000           5.50368e-001           5.03682e-002           3.68152e-004           3.68152e-004
                   59.80    345.54219                               10.79132             82.594                                        3.45542e+002           4.55422e+001           5.54219e+000           5.42192e-001           4.21918e-002           2.19178e-003           1.91785e-004
                   59.90    345.54421                               10.79132             82.594                                        3.45544e+002           4.55442e+001           5.54421e+000           5.44210e-001           4.42097e-002           4.20975e-003           2.09747e-004
                   60.00    345.55861                               10.79132             82.594                                        3.45559e+002           4.55586e+001           5.55861e+000           5.58605e-001           5.86055e-002           8.60550e-003           6.05497e-004
                   60.10    345.56580                               10.79132             82.594                                        3.45566e+002           4.55658e+001           5.56580e+000           5.65799e-001           6.57988e-002           5.79884e-003           7.98839e-004
                   60.20    345.55635                               10.79132             82.594                                        3.45556e+002           4.55564e+001           5.55635e+000           5.56350e-001           5.63502e-002           6.35022e-003           3.50218e-004
                   60.30    345.55317                               10.79132             82.594                                        3.45553e+002           4.55532e+001           5.55317e+000           5.53171e-001           5.31710e-002           3.17098e-003           1.70975e-004
                   60.40    345.55740                               10.79132             82.594                                        3.45557e+002           4.55574e+001           5.55740e+000           5.57403e-001           5.74035e-002           7.40347e-003           4.03474e-004
                   60.50    345.55310                               10.79132             82.594                                        3.45553e+002           4.55531e+001           5.55310e+000           5.53098e-001           5.30980e-002           3.09802e-003           9.80219e-005
                   60.60    345.54669                               10.79132             82.594                                        3.45547e+002           4.55467e+001           5.54669e+000           5.46693e-001           4.66934e-002           6.69342e-003           6.93421e-004
                   60.70    345.55130                               10.79132             82.594                                        3.45551e+002           4.55513e+001           5.55130e+000           5.51299e-001           5.12991e-002           1.29914e-003           2.99139e-004
                   60.80    345.55016                               10.79132             82.594                                        3.45550e+002           4.55502e+001           5.55016e+000           5.50164e-001           5.01639e-002           1.63892e-004           1.63892e-004
