~VERSION INFORMATION
VERS                    .            2.0                                    :CWLS LOG ASCII STANDARD
WRAP                    .            NO                                     :ONE LINE PER TIME STEP


~WELL INFORMATION
#MNEM                   .UNIT        DATA                                    DESCRIPTION
#________________________________________________________________________________________
STRTTIME                .HH/MM/SS    00:10:18                               :START TIME
STOPTIME                .HH/MM/SS    00:13:47                               :STOP TIME
STRT                    .s           2.10                                   :START DATA
STOP                    .s           207.40                                 :STOP DATA
STEP                    .s           0.10                                   :MEASUREMENT TIME INTERVAL
NULL                    .            -999.25                                :NULL VALUE
COMP                    .            Statoil ASA                            :COMPANY
FLD                     .            Volve                                  :FIELD
WELL                    .            15/9-F-1                               :WELL
RUN                     .            4                                      :RUN
LOC                     .            Maersk Inspirer                        :LOCATION
PROV                    .            na                                     :PROVINCE
SRVC                    .            Baker Hughes INTEQ                     :SERVICE COMPANY
DATE                    .YY/MM/DD    13/08/19                               :LOG DATE
UWI                     .                                                   :UNIQUE WELL ID
DEPTHMD                 .m           3332.4                                 :MEASURED DEPTH
DEPTHTVD                .m           3056.0                                 :TRUE VERTICAL DEPTH


~CURVE INFORMATION
#MNEM                   .UNIT        API CODES                               DESCRIPTION
#________________________________________________________________________________________
TIME                    .s                                                  :01 TIME
DD_PRESS                .bar                                                :02 DRAW DOWN PRESSURE
DD_VOLUME               .cm3                                                :03 INCREMENTAL DRAW DOWN VOLUME
TEMP                    .degC                                               :04 TRANSDUCER TEMPERATURE
DD_PRESS_MOD_1000       .bar                                                :05 DRAW DOWN PRESSURE MOD 1000
DD_PRESS_MOD_100        .bar                                                :06 DRAW DOWN PRESSURE MOD 100
DD_PRESS_MOD_10         .bar                                                :07 DRAW DOWN PRESSURE MOD 10
DD_PRESS_MOD_1          .bar                                                :08 DRAW DOWN PRESSURE MOD 1
DD_PRESS_MOD_01         .bar                                                :09 DRAW DOWN PRESSURE MOD 01
DD_PRESS_MOD_001        .bar                                                :10 DRAW DOWN PRESSURE MOD 001
DD_PRESS_MOD_0001       .bar                                                :11 DRAW DOWN PRESSURE MOD 0001


~PARAMETER INFORMATION
#MNEM                   .UNIT        VALUE                                   DESCRIPTION
#________________________________________________________________________________________
TOOLFACE                .deg         78.2                                   :01 TOOLFACE
PUMP_CAPACITY           .bar         400                                    :02 NOMINAL DRAW DOWN PUMP CAPACITY
PUMP_LIMIT              .bar         240                                    :03 DOWNLINK PUMP LIMIT
TIME_LIMIT              .min         10                                     :04 DOWNLINK MAX TIME
TEST_TYPE               .            LOW MOBILITY                           :05 DOWNLINK
DD_PIST_A               .cm2         3.1416                                 :06 DRAW DOWN PISTON AREA
V_SYS                   .cm3         131.0000                               :07 SYSTEM VOLUME
PROBE_ID                .cm          1.2700                                 :08 TTK PROBE ID
G0                      .            4.6700                                 :09 GEOMETRY FACTOR


~A                  TIME     DD_PRESS                              DD_VOLUME               TEMP                                   DD_PRESS_MOD_1000       DD_PRESS_MOD_100        DD_PRESS_MOD_10         DD_PRESS_MOD_1        DD_PRESS_MOD_01       DD_PRESS_MOD_001      DD_PRESS_MOD_0001
# ...
                  150.50    340.63084                               29.23324             74.719                                        3.40631e+002           4.06308e+001           6.30840e-001           6.30840e-001           3.08398e-002           8.39829e-004           8.39829e-004
                  150.60    340.62947                               29.23324             74.719                                        3.40629e+002           4.06295e+001           6.29468e-001           6.29468e-001           2.94680e-002           9.46802e-003           4.68024e-004
                  150.70    340.62951                               29.23324             74.719                                        3.40630e+002           4.06295e+001           6.29508e-001           6.29508e-001           2.95076e-002           9.50763e-003           5.07628e-004
                  150.80    340.63244                               29.23324             74.719                                        3.40632e+002           4.06324e+001           6.32443e-001           6.32443e-001           3.24427e-002           2.44269e-003           4.42695e-004
                  150.90    340.63502                               29.23324             74.719                                        3.40635e+002           4.06350e+001           6.35017e-001           6.35017e-001           3.50167e-002           5.01669e-003           1.66904e-005
                  151.00    340.63222                               29.23324             74.719                                        3.40632e+002           4.06322e+001           6.32222e-001           6.32222e-001           3.22216e-002           2.22158e-003           2.21578e-004
                  151.10    340.62897                               29.23324             74.719                                        3.40629e+002           4.06290e+001           6.28972e-001           6.28972e-001           2.89716e-002           8.97156e-003           9.71563e-004
                  151.20    340.62825                               29.23324             74.719                                        3.40628e+002           4.06283e+001           6.28252e-001           6.28252e-001           2.82524e-002           8.25240e-003           2.52399e-004
                  151.30    340.62845                               29.23324             74.719                                        3.40628e+002           4.06285e+001           6.28453e-001           6.28453e-001           2.84533e-002           8.45333e-003           4.53332e-004
                  151.40    340.63038                               29.23324             74.719                                        3.40630e+002           4.06304e+001           6.30381e-001           6.30381e-001           3.03808e-002           3.80821e-004           3.80821e-004
                  151.50    340.63171                               29.23324             74.719                                        3.40632e+002           4.06317e+001           6.31712e-001           6.31712e-001           3.17121e-002           1.71208e-003           7.12085e-004
                  151.60    340.63278                               29.23324             74.719                                        3.40633e+002           4.06328e+001           6.32779e-001           6.32779e-001           3.27795e-002           2.77949e-003           7.79488e-004
                  151.70    340.63407                               29.23324             74.719                                        3.40634e+002           4.06341e+001           6.34067e-001           6.34067e-001           3.40669e-002           4.06693e-003           6.69322e-005
                  151.80    340.63171                               29.23324             74.719                                        3.40632e+002           4.06317e+001           6.31708e-001           6.31708e-001           3.17080e-002           1.70799e-003           7.07986e-004
                  151.90    340.63096                               29.23324             74.719                                        3.40631e+002           4.06310e+001           6.30963e-001           6.30963e-001           3.09629e-002           9.62859e-004           9.62859e-004
                  152.00    340.63249                               29.23324             74.719                                        3.40632e+002           4.06325e+001           6.32490e-001           6.32490e-001           3.24902e-002           2.49018e-003           4.90180e-004
                  152.10    340.63326                               29.23324             74.719                                        3.40633e+002           4.06333e+001           6.33256e-001           6.33256e-001           3.32560e-002           3.25599e-003           2.55987e-004
                  152.20    340.63202                               29.23324             74.719                                        3.40632e+002           4.06320e+001           6.32016e-001           6.32016e-001           3.20162e-002           2.01623e-003           1.62344e-005
                  152.30    340.63050                               29.23324             74.719                                        3.40630e+002           4.06305e+001           6.30498e-001           6.30498e-001           3.04978e-002           4.97780e-004           4.97780e-004
                  152.40    340.62929                               29.23324             74.719                                        3.40629e+002           4.06293e+001           6.29289e-001           6.29289e-001           2.92889e-002           9.28889e-003           2.88888e-004
                  152.50    340.62899                               29.23324             74.719                                        3.40629e+002           4.06290e+001           6.28987e-001           6.28987e-001           2.89872e-002           8.98723e-003           9.87229e-004
                  152.60    340.62939                               29.23324             74.719                                        3.40629e+002           4.06294e+001           6.29393e-001           6.29393e-001           2.93934e-002           9.39337e-003           3.93365e-004
                  152.70    340.63328                               29.23324             74.719                                        3.40633e+002           4.06333e+001           6.33278e-001           6.33278e-001           3.32779e-002           3.27786e-003           2.77859e-004
                  152.80    340.63854                               29.23324             74.719                                        3.40639e+002           4.06385e+001           6.38541e-001           6.38541e-001           3.85414e-002           8.54141e-003           5.41411e-004
                  152.90    340.63729                               29.23324             74.719                                        3.40637e+002           4.06373e+001           6.37293e-001           6.37293e-001           3.72930e-002           7.29298e-003           2.92978e-004
                  153.00    340.63395                               29.23324             74.719                                        3.40634e+002           4.06339e+001           6.33948e-001           6.33948e-001           3.39479e-002           3.94792e-003           9.47919e-004
                  153.10    340.63425                               29.23324             74.719                                        3.40634e+002           4.06343e+001           6.34251e-001           6.34251e-001           3.42512e-002           4.25115e-003           2.51152e-004
                  153.20    340.63309                               29.23324             74.719                                        3.40633e+002           4.06331e+001           6.33087e-001           6.33087e-001           3.30867e-002           3.08666e-003           8.66619e-005
