~VERSION INFORMATION
VERS                    .            2.0                                    :CWLS LOG ASCII STANDARD
WRAP                    .            NO                                     :ONE LINE PER TIME STEP


~WELL INFORMATION
#MNEM                   .UNIT        DATA                                    DESCRIPTION
#________________________________________________________________________________________
STRTTIME                .HH/MM/SS    19:37:02                               :START TIME
STOPTIME                .HH/MM/SS    19:40:38                               :STOP TIME
STRT                    .s           2.10                                   :START DATA
STOP                    .s           214.10                                 :STOP DATA
STEP                    .s           0.10                                   :MEASUREMENT TIME INTERVAL
NULL                    .            -999.25                                :NULL VALUE
COMP                    .            Statoil ASA                            :COMPANY
FLD                     .            Volve                                  :FIELD
WELL                    .            15/9-F-11 A                            :WELL
RUN                     .            8                                      :RUN
LOC                     .            Maersk Inspirer                        :LOCATION
PROV                    .            na                                     :PROVINCE
SRVC                    .            Baker Hughes INTEQ                     :SERVICE COMPANY
DATE                    .YY/MM/DD    13/05/23                               :LOG DATE
UWI                     .                                                   :UNIQUE WELL ID
DEPTHMD                 .m           3607.9                                 :MEASURED DEPTH
DEPTHTVD                .m           3008.4                                 :TRUE VERTICAL DEPTH


~CURVE INFORMATION
#MNEM                   .UNIT        API CODES                               DESCRIPTION
#________________________________________________________________________________________
TIME                    .s                                                  :01 TIME
DD_PRESS                .bar                                                :02 DRAW DOWN PRESSURE
DD_VOLUME               .cm3                                                :03 INCREMENTAL DRAW DOWN VOLUME
TEMP                    .degC                                               :04 TRANSDUCER TEMPERATURE
DD_PRESS_MOD_1000       .bar                                                :05 DRAW DOWN PRESSURE MOD 1000
DD_PRESS_MOD_100        .bar                                                :06 DRAW DOWN PRESSURE MOD 100
DD_PRESS_MOD_10         .bar                                                :07 DRAW DOWN PRESSURE MOD 10
DD_PRESS_MOD_1          .bar                                                :08 DRAW DOWN PRESSURE MOD 1
DD_PRESS_MOD_01         .bar                                                :09 DRAW DOWN PRESSURE MOD 01
DD_PRESS_MOD_001        .bar                                                :10 DRAW DOWN PRESSURE MOD 001
DD_PRESS_MOD_0001       .bar                                                :11 DRAW DOWN PRESSURE MOD 0001


~PARAMETER INFORMATION
#MNEM                   .UNIT        VALUE                                   DESCRIPTION
#________________________________________________________________________________________
TOOLFACE                .deg         -38.9                                  :01 TOOLFACE
PUMP_CAPACITY           .bar         400                                    :02 NOMINAL DRAW DOWN PUMP CAPACITY
PUMP_LIMIT              .bar         240                                    :03 DOWNLINK PUMP LIMIT
TIME_LIMIT              .min         10                                     :04 DOWNLINK MAX TIME
TEST_TYPE               .            REPEAT                                 :05 DOWNLINK
TEST_TYPE               .            HIGH MOBILITY                          :06 DOWNLINK
DD_PIST_A               .cm2         3.1416                                 :07 DRAW DOWN PISTON AREA
V_SYS                   .cm3         131.0000                               :08 SYSTEM VOLUME
PROBE_ID                .cm          1.2700                                 :09 TTK PROBE ID
G0                      .            4.6700                                 :10 GEOMETRY FACTOR


~A                  TIME     DD_PRESS                              DD_VOLUME               TEMP                                   DD_PRESS_MOD_1000       DD_PRESS_MOD_100        DD_PRESS_MOD_10         DD_PRESS_MOD_1        DD_PRESS_MOD_01       DD_PRESS_MOD_001      DD_PRESS_MOD_0001
# ...
                   16.10    418.71143                                0.00000             71.297                                        4.18711e+002           1.87114e+001           8.71143e+000           7.11425e-001           1.14252e-002           1.42515e-003           4.25152e-004
                   16.20    418.71290                                0.00000             71.297                                        4.18713e+002           1.87129e+001           8.71290e+000           7.12897e-001           1.28967e-002           2.89673e-003           8.96734e-004
                   16.30    418.74916                                0.00000             71.297                                        4.18749e+002           1.87492e+001           8.74916e+000           7.49158e-001           4.91578e-002           9.15782e-003           1.57816e-004
                   16.40    418.76186                                0.00000             71.297                                        4.18762e+002           1.87619e+001           8.76186e+000           7.61863e-001           6.18634e-002           1.86341e-003           8.63411e-004
                   16.50    418.73453                                0.00000             71.297                                        4.18735e+002           1.87345e+001           8.73453e+000           7.34526e-001           3.45259e-002           4.52590e-003           5.25900e-004
                   16.60    418.73423                                0.00000             71.297                                        4.18734e+002           1.87342e+001           8.73423e+000           7.34233e-001           3.42327e-002           4.23268e-003           2.32681e-004
                   16.70    418.77936                                0.00000             71.297                                        4.18779e+002           1.87794e+001           8.77936e+000           7.79361e-001           7.93607e-002           9.36068e-003           3.60676e-004
                   16.80    418.77977                                0.00000             71.297                                        4.18780e+002           1.87798e+001           8.77977e+000           7.79767e-001           7.97673e-002           9.76730e-003           7.67304e-004
                   16.90    418.74098                                0.00000             71.297                                        4.18741e+002           1.87410e+001           8.74098e+000           7.40981e-001           4.09805e-002           9.80505e-004           9.80505e-004
                   17.00    418.74093                                0.00000             71.297                                        4.18741e+002           1.87409e+001           8.74093e+000           7.40931e-001           4.09310e-002           9.30979e-004           9.30979e-004
                   17.10    418.76742                                0.00000             71.297                                        4.18767e+002           1.87674e+001           8.76742e+000           7.67418e-001           6.74176e-002           7.41756e-003           4.17562e-004
                   17.20    418.75017                                0.00000             71.297                                        4.18750e+002           1.87502e+001           8.75017e+000           7.50168e-001           5.01683e-002           1.68251e-004           1.68251e-004
                   17.30    418.71472                                0.00000             71.297                                        4.18715e+002           1.87147e+001           8.71472e+000           7.14725e-001           1.47250e-002           4.72499e-003           7.24985e-004
                   17.40    418.73116                                0.00000             71.297                                        4.18731e+002           1.87312e+001           8.73116e+000           7.31165e-001           3.11646e-002           1.16458e-003           1.64576e-004
                   17.50    418.74969                                0.00000             71.297                                        4.18750e+002           1.87497e+001           8.74969e+000           7.49689e-001           4.96887e-002           9.68869e-003           6.88687e-004
                   17.60    418.71056                                0.00000             71.297                                        4.18711e+002           1.87106e+001           8.71056e+000           7.10558e-001           1.05584e-002           5.58354e-004           5.58354e-004
                   17.70    418.66409                                0.00000             71.297                                        4.18664e+002           1.86641e+001           8.66409e+000           6.64093e-001           6.40932e-002           4.09320e-003           9.32042e-005
                   17.80    418.68671                                0.00000             71.297                                        4.18687e+002           1.86867e+001           8.68671e+000           6.86710e-001           8.67103e-002           6.71028e-003           7.10284e-004
                   17.90    418.70674                                0.00000             71.297                                        4.18707e+002           1.87067e+001           8.70674e+000           7.06738e-001           6.73762e-003           6.73762e-003           7.37620e-004
                   18.00    418.67538                                0.00000             71.297                                        4.18675e+002           1.86754e+001           8.67538e+000           6.75381e-001           7.53806e-002           5.38058e-003           3.80580e-004
                   18.10    418.64202                                0.00000             71.297                                        4.18642e+002           1.86420e+001           8.64202e+000           6.42021e-001           4.20214e-002           2.02139e-003           2.13920e-005
                   18.20    418.67926                                0.00000             71.295                                        4.18679e+002           1.86793e+001           8.67926e+000           6.79261e-001           7.92606e-002           9.26055e-003           2.60552e-004
                   18.30    418.70275                                0.00000             71.291                                        4.18703e+002           1.87028e+001           8.70275e+000           7.02753e-001           2.75331e-003           2.75331e-003           7.53311e-004
                   18.40    418.67405                                0.00000             71.291                                        4.18674e+002           1.86741e+001           8.67405e+000           6.74051e-001           7.40512e-002           4.05121e-003           5.12092e-005
                   18.50    418.65749                                0.00000             71.295                                        4.18657e+002           1.86575e+001           8.65749e+000           6.57486e-001           5.74857e-002           7.48571e-003           4.85711e-004
                   18.60    418.68777                                0.00000             71.295                                        4.18688e+002           1.86878e+001           8.68777e+000           6.87766e-001           8.77662e-002           7.76623e-003           7.66230e-004
                   18.70    418.69450                                0.00000             71.291                                        4.18695e+002           1.86945e+001           8.69450e+000           6.94501e-001           9.45006e-002           4.50056e-003           5.00564e-004
                   18.80    418.66079                                0.00000             71.289                                        4.18661e+002           1.86608e+001           8.66079e+000           6.60792e-001           6.07922e-002           7.92177e-004           7.92177e-004
