~VERSION INFORMATION
VERS                    .            2.0                                    :CWLS LOG ASCII STANDARD
WRAP                    .            NO                                     :ONE LINE PER TIME STEP


~WELL INFORMATION
#MNEM                   .UNIT        DATA                                    DESCRIPTION
#________________________________________________________________________________________
STRTTIME                .HH/MM/SS    08:31:17                               :START TIME
STOPTIME                .HH/MM/SS    08:34:03                               :STOP TIME
STRT                    .s           2.10                                   :START DATA
STOP                    .s           164.70                                 :STOP DATA
STEP                    .s           0.10                                   :MEASUREMENT TIME INTERVAL
NULL                    .            -999.25                                :NULL VALUE
COMP                    .            Statoil ASA                            :COMPANY
FLD                     .            Volve                                  :FIELD
WELL                    .            15/9-F-11 A                            :WELL
RUN                     .            8                                      :RUN
LOC                     .            Maersk Inspirer                        :LOCATION
PROV                    .            na                                     :PROVINCE
SRVC                    .            Baker Hughes INTEQ                     :SERVICE COMPANY
DATE                    .YY/MM/DD    13/05/21                               :LOG DATE
UWI                     .                                                   :UNIQUE WELL ID
DEPTHMD                 .m           3688.1                                 :MEASURED DEPTH
DEPTHTVD                .m           3069.8                                 :TRUE VERTICAL DEPTH


~CURVE INFORMATION
#MNEM                   .UNIT        API CODES                               DESCRIPTION
#________________________________________________________________________________________
TIME                    .s                                                  :01 TIME
DD_PRESS                .bar                                                :02 DRAW DOWN PRESSURE
DD_VOLUME               .cm3                                                :03 INCREMENTAL DRAW DOWN VOLUME
TEMP                    .degC                                               :04 TRANSDUCER TEMPERATURE
DD_PRESS_MOD_1000       .bar                                                :05 DRAW DOWN PRESSURE MOD 1000
DD_PRESS_MOD_100        .bar                                                :06 DRAW DOWN PRESSURE MOD 100
DD_PRESS_MOD_10         .bar                                                :07 DRAW DOWN PRESSURE MOD 10
DD_PRESS_MOD_1          .bar                                                :08 DRAW DOWN PRESSURE MOD 1
DD_PRESS_MOD_01         .bar                                                :09 DRAW DOWN PRESSURE MOD 01
DD_PRESS_MOD_001        .bar                                                :10 DRAW DOWN PRESSURE MOD 001
DD_PRESS_MOD_0001       .bar                                                :11 DRAW DOWN PRESSURE MOD 0001


~PARAMETER INFORMATION
#MNEM                   .UNIT        VALUE                                   DESCRIPTION
#________________________________________________________________________________________
TOOLFACE                .deg         -78.9                                  :01 TOOLFACE
PUMP_CAPACITY           .bar         400                                    :02 NOMINAL DRAW DOWN PUMP CAPACITY
PUMP_LIMIT              .bar         240                                    :03 DOWNLINK PUMP LIMIT
TIME_LIMIT              .min         10                                     :04 DOWNLINK MAX TIME
TEST_TYPE               .            REPEAT                                 :05 DOWNLINK
TEST_TYPE               .            HIGH MOBILITY                          :06 DOWNLINK
DD_PIST_A               .cm2         3.1416                                 :07 DRAW DOWN PISTON AREA
V_SYS                   .cm3         131.0000                               :08 SYSTEM VOLUME
PROBE_ID                .cm          1.2700                                 :09 TTK PROBE ID
G0                      .            4.6700                                 :10 GEOMETRY FACTOR


~A                  TIME     DD_PRESS                              DD_VOLUME               TEMP                                   DD_PRESS_MOD_1000       DD_PRESS_MOD_100        DD_PRESS_MOD_10         DD_PRESS_MOD_1        DD_PRESS_MOD_01       DD_PRESS_MOD_001      DD_PRESS_MOD_0001
# ...
                  139.30    346.43343                                0.00000             83.242                                        3.46433e+002           4.64334e+001           6.43343e+000           4.33427e-001           3.34273e-002           3.42727e-003           4.27274e-004
                  139.40    348.61662                                0.00000             83.242                                        3.48617e+002           4.86166e+001           8.61662e+000           6.16615e-001           1.66154e-002           6.61544e-003           6.15444e-004
                  139.50    351.48608                                0.00000             83.242                                        3.51486e+002           5.14861e+001           1.48608e+000           4.86081e-001           8.60809e-002           6.08090e-003           8.09043e-005
                  139.60    353.03950                                0.00000             83.242                                        3.53039e+002           5.30395e+001           3.03950e+000           3.94962e-002           3.94962e-002           9.49616e-003           4.96156e-004
                  139.70    353.65491                                0.00000             83.242                                        3.53655e+002           5.36549e+001           3.65491e+000           6.54908e-001           5.49083e-002           4.90835e-003           9.08347e-004
                  139.80    353.98152                                0.00000             83.242                                        3.53982e+002           5.39815e+001           3.98152e+000           9.81525e-001           8.15246e-002           1.52461e-003           5.24611e-004
                  139.90    354.16954                                0.00000             83.242                                        3.54170e+002           5.41695e+001           4.16954e+000           1.69539e-001           6.95386e-002           9.53864e-003           5.38640e-004
                  140.00    354.26167                                0.00000             83.242                                        3.54262e+002           5.42617e+001           4.26167e+000           2.61666e-001           6.16656e-002           1.66560e-003           6.65598e-004
                  140.10    354.38982                                0.00000             83.242                                        3.54390e+002           5.43898e+001           4.38982e+000           3.89820e-001           8.98199e-002           9.81992e-003           8.19920e-004
                  140.20    354.59556                                0.00000             83.242                                        3.54596e+002           5.45956e+001           4.59556e+000           5.95560e-001           9.55604e-002           5.56036e-003           5.60355e-004
                  140.30    354.83251                                0.00000             83.242                                        3.54833e+002           5.48325e+001           4.83251e+000           8.32508e-001           3.25083e-002           2.50833e-003           5.08329e-004
                  140.40    355.08868                                0.00000             83.242                                        3.55089e+002           5.50887e+001           5.08868e+000           8.86811e-002           8.86811e-002           8.68108e-003           6.81078e-004
                  140.50    355.34888                                0.00000             83.242                                        3.55349e+002           5.53489e+001           5.34888e+000           3.48880e-001           4.88800e-002           8.88001e-003           8.80005e-004
                  140.60    355.61702                                0.00000             83.242                                        3.55617e+002           5.56170e+001           5.61702e+000           6.17024e-001           1.70245e-002           7.02448e-003           2.44788e-005
                  140.70    355.94977                                0.00000             83.242                                        3.55950e+002           5.59498e+001           5.94977e+000           9.49774e-001           4.97735e-002           9.77354e-003           7.73537e-004
                  140.80    356.37863                                0.00000             83.242                                        3.56379e+002           5.63786e+001           6.37863e+000           3.78630e-001           7.86304e-002           8.63041e-003           6.30415e-004
                  140.90    356.89450                                0.00000             83.242                                        3.56894e+002           5.68945e+001           6.89450e+000           8.94497e-001           9.44967e-002           4.49667e-003           4.96674e-004
                  141.00    357.42576                                0.00000             83.242                                        3.57426e+002           5.74258e+001           7.42576e+000           4.25758e-001           2.57578e-002           5.75784e-003           7.57838e-004
                  141.10    357.85343                                0.00000             83.242                                        3.57853e+002           5.78534e+001           7.85343e+000           8.53434e-001           5.34343e-002           3.43434e-003           4.34336e-004
                  141.20    358.22668                                0.00000             83.242                                        3.58227e+002           5.82267e+001           8.22668e+000           2.26680e-001           2.66803e-002           6.68026e-003           6.80259e-004
                  141.30    359.37798                                0.00000             83.242                                        3.59378e+002           5.93780e+001           9.37798e+000           3.77976e-001           7.79756e-002           7.97555e-003           9.75550e-004
                  141.40    377.53505                                0.00000             83.242                                        3.77535e+002           7.75351e+001           7.53505e+000           5.35053e-001           3.50528e-002           5.05284e-003           5.28442e-005
                  141.50    406.70654                                0.00000             83.242                                        4.06707e+002           6.70654e+000           6.70654e+000           7.06544e-001           6.54440e-003           6.54440e-003           5.44397e-004
                  141.60    424.44528                                0.00000             83.242                                        4.24445e+002           2.44453e+001           4.44528e+000           4.45280e-001           4.52804e-002           5.28037e-003           2.80366e-004
                  141.70    424.70685                                0.00000             83.242                                        4.24707e+002           2.47069e+001           4.70685e+000           7.06853e-001           6.85327e-003           6.85327e-003           8.53274e-004
                  141.80    424.70922                                0.00000             83.242                                        4.24709e+002           2.47092e+001           4.70922e+000           7.09215e-001           9.21537e-003           9.21537e-003           2.15374e-004
                  141.90    424.70685                                0.00000             83.242                                        4.24707e+002           2.47069e+001           4.70685e+000           7.06854e-001           6.85402e-003           6.85402e-003           8.54020e-004
                  142.00    424.70655                                0.00000             83.242                                        4.24707e+002           2.47065e+001           4.70655e+000           7.06550e-001           6.54992e-003           6.54992e-003           5.49920e-004
