~VERSION INFORMATION
VERS                    .            2.0                                    :CWLS LOG ASCII STANDARD
WRAP                    .            NO                                     :ONE LINE PER TIME STEP


~WELL INFORMATION
#MNEM                   .UNIT        DATA                                    DESCRIPTION
#________________________________________________________________________________________
STRTTIME                .HH/MM/SS    16:02:11                               :START TIME
STOPTIME                .HH/MM/SS    16:05:47                               :STOP TIME
STRT                    .s           2.10                                   :START DATA
STOP                    .s           214.40                                 :STOP DATA
STEP                    .s           0.10                                   :MEASUREMENT TIME INTERVAL
NULL                    .            -999.25                                :NULL VALUE
COMP                    .            Statoil ASA                            :COMPANY
FLD                     .            Volve                                  :FIELD
WELL                    .            15/9-F-1 B                             :WELL
RUN                     .            7                                      :RUN
LOC                     .            Maersk Inspirer                        :LOCATION
PROV                    .            na                                     :PROVINCE
SRVC                    .            Baker Hughes INTEQ                     :SERVICE COMPANY
DATE                    .YY/MM/DD    13/09/06                               :LOG DATE
UWI                     .                                                   :UNIQUE WELL ID
DEPTHMD                 .m           3261.0                                 :MEASURED DEPTH
DEPTHTVD                .m           3057.0                                 :TRUE VERTICAL DEPTH


~CURVE INFORMATION
#MNEM                   .UNIT        API CODES                               DESCRIPTION
#________________________________________________________________________________________
TIME                    .s                                                  :01 TIME
DD_PRESS                .bar                                                :02 DRAW DOWN PRESSURE
DD_VOLUME               .cm3                                                :03 INCREMENTAL DRAW DOWN VOLUME
TEMP                    .degC                                               :04 TRANSDUCER TEMPERATURE
DD_PRESS_MOD_1000       .bar                                                :05 DRAW DOWN PRESSURE MOD 1000
DD_PRESS_MOD_100        .bar                                                :06 DRAW DOWN PRESSURE MOD 100
DD_PRESS_MOD_10         .bar                                                :07 DRAW DOWN PRESSURE MOD 10
DD_PRESS_MOD_1          .bar                                                :08 DRAW DOWN PRESSURE MOD 1
DD_PRESS_MOD_01         .bar                                                :09 DRAW DOWN PRESSURE MOD 01
DD_PRESS_MOD_001        .bar                                                :10 DRAW DOWN PRESSURE MOD 001
DD_PRESS_MOD_0001       .bar                                                :11 DRAW DOWN PRESSURE MOD 0001


~PARAMETER INFORMATION
#MNEM                   .UNIT        VALUE                                   DESCRIPTION
#________________________________________________________________________________________
TOOLFACE                .deg         na                                     :01 TOOLFACE
PUMP_CAPACITY           .bar         400                                    :02 NOMINAL DRAW DOWN PUMP CAPACITY
PUMP_LIMIT              .bar         400                                    :03 DOWNLINK PUMP LIMIT
TIME_LIMIT              .min         10                                     :04 DOWNLINK MAX TIME
TEST_TYPE               .            LOW MOBILITY                           :05 DOWNLINK
DD_PIST_A               .cm2         3.1416                                 :06 DRAW DOWN PISTON AREA
V_SYS                   .cm3         131.0000                               :07 SYSTEM VOLUME
PROBE_ID                .cm          1.2700                                 :08 TTK PROBE ID
G0                      .            4.6700                                 :09 GEOMETRY FACTOR


~A                  TIME     DD_PRESS                              DD_VOLUME               TEMP                                   DD_PRESS_MOD_1000       DD_PRESS_MOD_100        DD_PRESS_MOD_10         DD_PRESS_MOD_1        DD_PRESS_MOD_01       DD_PRESS_MOD_001      DD_PRESS_MOD_0001
# ...
                  156.10    345.59299                               29.22690             82.039                                        3.45593e+002           4.55930e+001           5.59299e+000           5.92987e-001           9.29875e-002           2.98747e-003           9.87469e-004
                  156.20    345.58308                               29.22690             82.039                                        3.45583e+002           4.55831e+001           5.58308e+000           5.83075e-001           8.30751e-002           3.07509e-003           7.50862e-005
                  156.30    345.57915                               29.22690             82.039                                        3.45579e+002           4.55791e+001           5.57915e+000           5.79147e-001           7.91468e-002           9.14677e-003           1.46774e-004
                  156.40    345.59548                               29.22690             82.039                                        3.45595e+002           4.55955e+001           5.59548e+000           5.95483e-001           9.54828e-002           5.48285e-003           4.82847e-004
                  156.50    345.60532                               29.22690             82.039                                        3.45605e+002           4.56053e+001           5.60532e+000           6.05325e-001           5.32491e-003           5.32491e-003           3.24906e-004
                  156.60    345.59453                               29.22690             82.039                                        3.45595e+002           4.55945e+001           5.59453e+000           5.94526e-001           9.45261e-002           4.52614e-003           5.26141e-004
                  156.70    345.58568                               29.22690             82.039                                        3.45586e+002           4.55857e+001           5.58568e+000           5.85685e-001           8.56848e-002           5.68479e-003           6.84788e-004
                  156.80    345.59358                               29.22690             82.039                                        3.45594e+002           4.55936e+001           5.59358e+000           5.93581e-001           9.35810e-002           3.58096e-003           5.80956e-004
                  156.90    345.59972                               29.22690             82.039                                        3.45600e+002           4.55997e+001           5.59972e+000           5.99720e-001           9.97204e-002           9.72044e-003           7.20435e-004
                  157.00    345.59368                               29.22690             82.039                                        3.45594e+002           4.55937e+001           5.59368e+000           5.93680e-001           9.36797e-002           3.67966e-003           6.79661e-004
                  157.10    345.58769                               29.22690             82.039                                        3.45588e+002           4.55877e+001           5.58769e+000           5.87693e-001           8.76931e-002           7.69309e-003           6.93091e-004
                  157.20    345.59384                               29.22690             82.039                                        3.45594e+002           4.55938e+001           5.59384e+000           5.93841e-001           9.38406e-002           3.84063e-003           8.40626e-004
                  157.30    345.59759                               29.22690             82.039                                        3.45598e+002           4.55976e+001           5.59759e+000           5.97594e-001           9.75939e-002           7.59393e-003           5.93931e-004
                  157.40    345.58721                               29.22690             82.039                                        3.45587e+002           4.55872e+001           5.58721e+000           5.87213e-001           8.72131e-002           7.21305e-003           2.13054e-004
                  157.50    345.58455                               29.22690             82.039                                        3.45585e+002           4.55845e+001           5.58455e+000           5.84549e-001           8.45487e-002           4.54869e-003           5.48689e-004
                  157.60    345.59724                               29.22690             82.039                                        3.45597e+002           4.55972e+001           5.59724e+000           5.97236e-001           9.72361e-002           7.23609e-003           2.36088e-004
                  157.70    345.60196                               29.22690             82.039                                        3.45602e+002           4.56020e+001           5.60196e+000           6.01957e-001           1.95741e-003           1.95741e-003           9.57408e-004
                  157.80    345.59152                               29.22690             82.039                                        3.45592e+002           4.55915e+001           5.59152e+000           5.91515e-001           9.15151e-002           1.51515e-003           5.15147e-004
                  157.90    345.58675                               29.22690             82.039                                        3.45587e+002           4.55868e+001           5.58675e+000           5.86753e-001           8.67529e-002           6.75294e-003           7.52945e-004
                  158.00    345.59746                               29.22690             82.039                                        3.45597e+002           4.55975e+001           5.59746e+000           5.97458e-001           9.74582e-002           7.45815e-003           4.58152e-004
                  158.10    345.60666                               29.22690             82.039                                        3.45607e+002           4.56067e+001           5.60666e+000           6.06663e-001           6.66325e-003           6.66325e-003           6.63253e-004
                  158.20    345.59926                               29.22690             82.039                                        3.45599e+002           4.55993e+001           5.59926e+000           5.99264e-001           9.92635e-002           9.26352e-003           2.63521e-004
                  158.30    345.58568                               29.22690             82.039                                        3.45586e+002           4.55857e+001           5.58568e+000           5.85685e-001           8.56849e-002           5.68486e-003           6.84857e-004
                  158.40    345.59309                               29.22690             82.039                                        3.45593e+002           4.55931e+001           5.59309e+000           5.93093e-001           9.30934e-002           3.09335e-003           9.33517e-005
                  158.50    345.60188                               29.22690             82.039                                        3.45602e+002           4.56019e+001           5.60188e+000           6.01881e-001           1.88074e-003           1.88074e-003           8.80736e-004
                  158.60    345.59329                               29.22690             82.039                                        3.45593e+002           4.55933e+001           5.59329e+000           5.93293e-001           9.32928e-002           3.29279e-003           2.92788e-004
                  158.70    345.58742                               29.22690             82.039                                        3.45587e+002           4.55874e+001           5.58742e+000           5.87424e-001           8.74237e-002           7.42373e-003           4.23729e-004
                  158.80    345.60007                               29.22690             82.039                                        3.45600e+002           4.56001e+001           5.60007e+000           6.00072e-001           7.20130e-005           7.20130e-005           7.20130e-005
