~VERSION INFORMATION
VERS                    .            2.0                                    :CWLS LOG ASCII STANDARD
WRAP                    .            NO                                     :ONE LINE PER TIME STEP


~WELL INFORMATION
#MNEM                   .UNIT        DATA                                    DESCRIPTION
#________________________________________________________________________________________
STRTTIME                .HH/MM/SS    16:37:30                               :START TIME
STOPTIME                .HH/MM/SS    16:40:36                               :STOP TIME
STRT                    .s           2.10                                   :START DATA
STOP                    .s           184.70                                 :STOP DATA
STEP                    .s           0.10                                   :MEASUREMENT TIME INTERVAL
NULL                    .            -999.25                                :NULL VALUE
COMP                    .            Statoil ASA                            :COMPANY
FLD                     .            Volve                                  :FIELD
WELL                    .            15/9-F-1 B                             :WELL
RUN                     .            7                                      :RUN
LOC                     .            Maersk Inspirer                        :LOCATION
PROV                    .            na                                     :PROVINCE
SRVC                    .            Baker Hughes INTEQ                     :SERVICE COMPANY
DATE                    .YY/MM/DD    13/09/06                               :LOG DATE
UWI                     .                                                   :UNIQUE WELL ID
DEPTHMD                 .m           3247.0                                 :MEASURED DEPTH
DEPTHTVD                .m           3043.3                                 :TRUE VERTICAL DEPTH


~CURVE INFORMATION
#MNEM                   .UNIT        API CODES                               DESCRIPTION
#________________________________________________________________________________________
TIME                    .s                                                  :01 TIME
DD_PRESS                .bar                                                :02 DRAW DOWN PRESSURE
DD_VOLUME               .cm3                                                :03 INCREMENTAL DRAW DOWN VOLUME
TEMP                    .degC                                               :04 TRANSDUCER TEMPERATURE
DD_PRESS_MOD_1000       .bar                                                :05 DRAW DOWN PRESSURE MOD 1000
DD_PRESS_MOD_100        .bar                                                :06 DRAW DOWN PRESSURE MOD 100
DD_PRESS_MOD_10         .bar                                                :07 DRAW DOWN PRESSURE MOD 10
DD_PRESS_MOD_1          .bar                                                :08 DRAW DOWN PRESSURE MOD 1
DD_PRESS_MOD_01         .bar                                                :09 DRAW DOWN PRESSURE MOD 01
DD_PRESS_MOD_001        .bar                                                :10 DRAW DOWN PRESSURE MOD 001
DD_PRESS_MOD_0001       .bar                                                :11 DRAW DOWN PRESSURE MOD 0001


~PARAMETER INFORMATION
#MNEM                   .UNIT        VALUE                                   DESCRIPTION
#________________________________________________________________________________________
TOOLFACE                .deg         na                                     :01 TOOLFACE
PUMP_CAPACITY           .bar         400                                    :02 NOMINAL DRAW DOWN PUMP CAPACITY
PUMP_LIMIT              .bar         400                                    :03 DOWNLINK PUMP LIMIT
TIME_LIMIT              .min         10                                     :04 DOWNLINK MAX TIME
TEST_TYPE               .            LOW MOBILITY                           :05 DOWNLINK
DD_PIST_A               .cm2         3.1416                                 :06 DRAW DOWN PISTON AREA
V_SYS                   .cm3         131.0000                               :07 SYSTEM VOLUME
PROBE_ID                .cm          1.2700                                 :08 TTK PROBE ID
G0                      .            4.6700                                 :09 GEOMETRY FACTOR


~A                  TIME     DD_PRESS                              DD_VOLUME               TEMP                                   DD_PRESS_MOD_1000       DD_PRESS_MOD_100        DD_PRESS_MOD_10         DD_PRESS_MOD_1        DD_PRESS_MOD_01       DD_PRESS_MOD_001      DD_PRESS_MOD_0001
                    2.10    432.97121                                0.00000             81.607                                        4.32971e+002           3.29712e+001           2.97121e+000           9.71210e-001           7.12104e-002           1.21036e-003           2.10358e-004
                    2.20    433.01515                                0.00000             81.604                                        4.33015e+002           3.30151e+001           3.01515e+000           1.51463e-002           1.51463e-002           5.14633e-003           1.46329e-004
                    2.30    433.06194                                0.00000             81.602                                        4.33062e+002           3.30619e+001           3.06194e+000           6.19405e-002           6.19405e-002           1.94045e-003           9.40453e-004
                    2.40    433.00425                                0.00000             81.602                                        4.33004e+002           3.30042e+001           3.00425e+000           4.24665e-003           4.24665e-003           4.24665e-003           2.46650e-004
                    2.50    432.90427                                0.00000             81.602                                        4.32904e+002           3.29043e+001           2.90427e+000           9.04267e-001           4.26670e-003           4.26670e-003           2.66701e-004
                    2.60    432.88557                                0.00000             81.602                                        4.32886e+002           3.28856e+001           2.88557e+000           8.85570e-001           8.55701e-002           5.57014e-003           5.70143e-004
                    2.70    432.93537                                0.00000             81.602                                        4.32935e+002           3.29354e+001           2.93537e+000           9.35374e-001           3.53737e-002           5.37372e-003           3.73724e-004
                    2.80    432.95343                                0.00000             81.604                                        4.32953e+002           3.29534e+001           2.95343e+000           9.53426e-001           5.34257e-002           3.42566e-003           4.25661e-004
                    2.90    432.94270                                0.00000             81.607                                        4.32943e+002           3.29427e+001           2.94270e+000           9.42703e-001           4.27033e-002           2.70328e-003           7.03284e-004
                    3.00    432.98198                                0.00000             81.609                                        4.32982e+002           3.29820e+001           2.98198e+000           9.81983e-001           8.19834e-002           1.98341e-003           9.83413e-004
                    3.10    433.06196                                0.00000             81.607                                        4.33062e+002           3.30620e+001           3.06196e+000           6.19585e-002           6.19585e-002           1.95851e-003           9.58512e-004
                    3.20    433.09915                                0.00000             81.604                                        4.33099e+002           3.30992e+001           3.09915e+000           9.91544e-002           9.91544e-002           9.15444e-003           1.54443e-004
                    3.30    433.11190                                0.00000             81.602                                        4.33112e+002           3.31119e+001           3.11190e+000           1.11904e-001           1.19042e-002           1.90417e-003           9.04171e-004
                    3.40    433.19412                                0.00000             81.602                                        4.33194e+002           3.31941e+001           3.19412e+000           1.94117e-001           9.41175e-002           4.11745e-003           1.17454e-004
                    3.50    433.32904                                0.00000             81.602                                        4.33329e+002           3.33290e+001           3.32904e+000           3.29042e-001           2.90422e-002           9.04223e-003           4.22315e-005
                    3.60    433.39901                                0.00000             81.602                                        4.33399e+002           3.33990e+001           3.39901e+000           3.99006e-001           9.90061e-002           9.00609e-003           6.08574e-006
                    3.70    433.39333                                0.00000             81.602                                        4.33393e+002           3.33933e+001           3.39333e+000           3.93335e-001           9.33346e-002           3.33463e-003           3.34631e-004
                    3.80    433.39154                                0.00000             81.604                                        4.33392e+002           3.33915e+001           3.39154e+000           3.91544e-001           9.15443e-002           1.54433e-003           5.44326e-004
                    3.90    433.40189                                0.00000             81.605                                        4.33402e+002           3.34019e+001           3.40189e+000           4.01888e-001           1.88843e-003           1.88843e-003           8.88427e-004
                    4.00    433.36890                                0.00000             81.604                                        4.33369e+002           3.33689e+001           3.36890e+000           3.68896e-001           6.88957e-002           8.89566e-003           8.95665e-004
                    4.10    433.29763                                0.00000             81.602                                        4.33298e+002           3.32976e+001           3.29763e+000           2.97628e-001           9.76279e-002           7.62785e-003           6.27854e-004
                    4.20    433.28281                                0.00000             81.602                                        4.33283e+002           3.32828e+001           3.28281e+000           2.82812e-001           8.28121e-002           2.81211e-003           8.12109e-004
                    4.30    433.32814                                0.00000             81.602                                        4.33328e+002           3.33281e+001           3.32814e+000           3.28141e-001           2.81411e-002           8.14114e-003           1.41139e-004
                    4.40    433.32086                                0.00000             81.602                                        4.33321e+002           3.33209e+001           3.32086e+000           3.20860e-001           2.08603e-002           8.60297e-004           8.60297e-004
                    4.50    433.25801                                0.00000             81.602                                        4.33258e+002           3.32580e+001           3.25801e+000           2.58015e-001           5.80150e-002           8.01497e-003           1.49745e-005
                    4.60    433.29008                                0.00000             81.602                                        4.33290e+002           3.32901e+001           3.29008e+000           2.90078e-001           9.00778e-002           7.78325e-005           7.78325e-005
                    4.70    433.40023                                0.00000             81.602                                        4.33400e+002           3.34002e+001           3.40023e+000           4.00233e-001           2.32661e-004           2.32661e-004           2.32661e-004
                    4.80    433.40782                                0.00000             81.602                                        4.33408e+002           3.34078e+001           3.40782e+000           4.07824e-001           7.82412e-003           7.82412e-003           8.24115e-004
