~VERSION INFORMATION
VERS                    .            2.0                                    :CWLS LOG ASCII STANDARD
WRAP                    .            NO                                     :ONE LINE PER TIME STEP


~WELL INFORMATION
#MNEM                   .UNIT        DATA                                    DESCRIPTION
#________________________________________________________________________________________
STRTTIME                .HH/MM/SS    18:50:18                               :START TIME
STOPTIME                .HH/MM/SS    18:53:14                               :STOP TIME
STRT                    .s           2.10                                   :START DATA
STOP                    .s           174.80                                 :STOP DATA
STEP                    .s           0.10                                   :MEASUREMENT TIME INTERVAL
NULL                    .            -999.25                                :NULL VALUE
COMP                    .            Statoil ASA                            :COMPANY
FLD                     .            Volve                                  :FIELD
WELL                    .            15/9-F-11 A                            :WELL
RUN                     .            8                                      :RUN
LOC                     .            Maersk Inspirer                        :LOCATION
PROV                    .            na                                     :PROVINCE
SRVC                    .            Baker Hughes INTEQ                     :SERVICE COMPANY
DATE                    .YY/MM/DD    13/05/23                               :LOG DATE
UWI                     .                                                   :UNIQUE WELL ID
DEPTHMD                 .m           3651.0                                 :MEASURED DEPTH
DEPTHTVD                .m           3041.4                                 :TRUE VERTICAL DEPTH


~CURVE INFORMATION
#MNEM                   .UNIT        API CODES                               DESCRIPTION
#________________________________________________________________________________________
TIME                    .s                                                  :01 TIME
DD_PRESS                .bar                                                :02 DRAW DOWN PRESSURE
DD_VOLUME               .cm3                                                :03 INCREMENTAL DRAW DOWN VOLUME
TEMP                    .degC                                               :04 TRANSDUCER TEMPERATURE
DD_PRESS_MOD_1000       .bar                                                :05 DRAW DOWN PRESSURE MOD 1000
DD_PRESS_MOD_100        .bar                                                :06 DRAW DOWN PRESSURE MOD 100
DD_PRESS_MOD_10         .bar                                                :07 DRAW DOWN PRESSURE MOD 10
DD_PRESS_MOD_1          .bar                                                :08 DRAW DOWN PRESSURE MOD 1
DD_PRESS_MOD_01         .bar                                                :09 DRAW DOWN PRESSURE MOD 01
DD_PRESS_MOD_001        .bar                                                :10 DRAW DOWN PRESSURE MOD 001
DD_PRESS_MOD_0001       .bar                                                :11 DRAW DOWN PRESSURE MOD 0001


~PARAMETER INFORMATION
#MNEM                   .UNIT        VALUE                                   DESCRIPTION
#________________________________________________________________________________________
TOOLFACE                .deg         -39.7                                  :01 TOOLFACE
PUMP_CAPACITY           .bar         400                                    :02 NOMINAL DRAW DOWN PUMP CAPACITY
PUMP_LIMIT              .bar         240                                    :03 DOWNLINK PUMP LIMIT
TIME_LIMIT              .min         10                                     :04 DOWNLINK MAX TIME
TEST_TYPE               .            REPEAT                                 :05 DOWNLINK
TEST_TYPE               .            HIGH MOBILITY                          :06 DOWNLINK
DD_PIST_A               .cm2         3.1416                                 :07 DRAW DOWN PISTON AREA
V_SYS                   .cm3         131.0000                               :08 SYSTEM VOLUME
PROBE_ID                .cm          1.2700                                 :09 TTK PROBE ID
G0                      .            4.6700                                 :10 GEOMETRY FACTOR


~A                  TIME     DD_PRESS                              DD_VOLUME               TEMP                                   DD_PRESS_MOD_1000       DD_PRESS_MOD_100        DD_PRESS_MOD_10         DD_PRESS_MOD_1        DD_PRESS_MOD_01       DD_PRESS_MOD_001      DD_PRESS_MOD_0001
# ...
                   69.30    343.39430                               10.67962             73.422                                        3.43394e+002           4.33943e+001           3.39430e+000           3.94299e-001           9.42988e-002           4.29878e-003           2.98781e-004
                   69.40    343.39433                               10.67962             73.422                                        3.43394e+002           4.33943e+001           3.39433e+000           3.94334e-001           9.43344e-002           4.33444e-003           3.34440e-004
                   69.50    343.39413                               10.67962             73.422                                        3.43394e+002           4.33941e+001           3.39413e+000           3.94128e-001           9.41280e-002           4.12803e-003           1.28033e-004
                   69.60    343.39398                               10.67962             73.422                                        3.43394e+002           4.33940e+001           3.39398e+000           3.93981e-001           9.39806e-002           3.98059e-003           9.80590e-004
                   69.70    343.39404                               10.67962             73.422                                        3.43394e+002           4.33940e+001           3.39404e+000           3.94045e-001           9.40447e-002           4.04468e-003           4.46798e-005
                   69.80    343.39419                               10.67962             73.422                                        3.43394e+002           4.33942e+001           3.39419e+000           3.94194e-001           9.41938e-002           4.19376e-003           1.93761e-004
                   69.90    343.39372                               10.67962             73.422                                        3.43394e+002           4.33937e+001           3.39372e+000           3.93718e-001           9.37185e-002           3.71850e-003           7.18498e-004
                   70.00    343.39324                               10.67962             73.422                                        3.43393e+002           4.33932e+001           3.39324e+000           3.93238e-001           9.32384e-002           3.23838e-003           2.38385e-004
                   70.10    343.39353                               10.67962             73.422                                        3.43394e+002           4.33935e+001           3.39353e+000           3.93530e-001           9.35303e-002           3.53028e-003           5.30277e-004
                   70.20    343.39410                               10.67962             73.422                                        3.43394e+002           4.33941e+001           3.39410e+000           3.94102e-001           9.41022e-002           4.10217e-003           1.02173e-004
                   70.30    343.39375                               10.67962             73.422                                        3.43394e+002           4.33938e+001           3.39375e+000           3.93751e-001           9.37512e-002           3.75121e-003           7.51210e-004
                   70.40    343.39350                               10.67962             73.422                                        3.43394e+002           4.33935e+001           3.39350e+000           3.93505e-001           9.35045e-002           3.50455e-003           5.04549e-004
                   70.50    343.39379                               10.67962             73.422                                        3.43394e+002           4.33938e+001           3.39379e+000           3.93788e-001           9.37884e-002           3.78844e-003           7.88440e-004
                   70.60    343.39384                               10.67962             73.422                                        3.43394e+002           4.33938e+001           3.39384e+000           3.93844e-001           9.38436e-002           3.84361e-003           8.43611e-004
                   70.70    343.39382                               10.67962             73.422                                        3.43394e+002           4.33938e+001           3.39382e+000           3.93819e-001           9.38189e-002           3.81894e-003           8.18941e-004
                   70.80    343.39411                               10.67962             73.422                                        3.43394e+002           4.33941e+001           3.39411e+000           3.94115e-001           9.41146e-002           4.11461e-003           1.14611e-004
                   70.90    343.39441                               10.67962             73.422                                        3.43394e+002           4.33944e+001           3.39441e+000           3.94408e-001           9.44075e-002           4.40754e-003           4.07542e-004
                   71.00    343.39446                               10.67962             73.422                                        3.43394e+002           4.33945e+001           3.39446e+000           3.94457e-001           9.44568e-002           4.45682e-003           4.56820e-004
                   71.10    343.39393                               10.67962             73.420                                        3.43394e+002           4.33939e+001           3.39393e+000           3.93930e-001           9.39303e-002           3.93035e-003           9.30349e-004
                   71.20    343.39374                               10.67962             73.416                                        3.43394e+002           4.33937e+001           3.39374e+000           3.93740e-001           9.37403e-002           3.74031e-003           7.40308e-004
                   71.30    343.39415                               10.67962             73.414                                        3.43394e+002           4.33941e+001           3.39415e+000           3.94147e-001           9.41466e-002           4.14660e-003           1.46596e-004
                   71.40    343.39436                               10.67962             73.414                                        3.43394e+002           4.33944e+001           3.39436e+000           3.94358e-001           9.43578e-002           4.35783e-003           3.57835e-004
                   71.50    343.39375                               10.67962             73.414                                        3.43394e+002           4.33938e+001           3.39375e+000           3.93754e-001           9.37538e-002           3.75375e-003           7.53754e-004
                   71.60    343.39338                               10.67962             73.414                                        3.43393e+002           4.33934e+001           3.39338e+000           3.93385e-001           9.33846e-002           3.38462e-003           3.84622e-004
                   71.70    343.39372                               10.67962             73.414                                        3.43394e+002           4.33937e+001           3.39372e+000           3.93723e-001           9.37233e-002           3.72334e-003           7.23343e-004
                   71.80    343.39445                               10.67962             73.414                                        3.43394e+002           4.33944e+001           3.39445e+000           3.94447e-001           9.44467e-002           4.44672e-003           4.46719e-004
                   71.90    343.39316                               10.67962             73.414                                        3.43393e+002           4.33932e+001           3.39316e+000           3.93156e-001           9.31561e-002           3.15611e-003           1.56106e-004
                   72.00    343.39254                               10.67962             73.414                                        3.43393e+002           4.33925e+001           3.39254e+000           3.92537e-001           9.25372e-002           2.53721e-003           5.37211e-004
