~VERSION INFORMATION
VERS                    .            2.0                                    :CWLS LOG ASCII STANDARD
WRAP                    .            NO                                     :ONE LINE PER TIME STEP


~WELL INFORMATION
#MNEM                   .UNIT        DATA                                    DESCRIPTION
#________________________________________________________________________________________
STRTTIME                .HH/MM/SS    08:31:17                               :START TIME
STOPTIME                .HH/MM/SS    08:34:03                               :STOP TIME
STRT                    .s           2.10                                   :START DATA
STOP                    .s           164.70                                 :STOP DATA
STEP                    .s           0.10                                   :MEASUREMENT TIME INTERVAL
NULL                    .            -999.25                                :NULL VALUE
COMP                    .            Statoil ASA                            :COMPANY
FLD                     .            Volve                                  :FIELD
WELL                    .            15/9-F-11 A                            :WELL
RUN                     .            8                                      :RUN
LOC                     .            Maersk Inspirer                        :LOCATION
PROV                    .            na                                     :PROVINCE
SRVC                    .            Baker Hughes INTEQ                     :SERVICE COMPANY
DATE                    .YY/MM/DD    13/05/21                               :LOG DATE
UWI                     .                                                   :UNIQUE WELL ID
DEPTHMD                 .m           3688.1                                 :MEASURED DEPTH
DEPTHTVD                .m           3069.8                                 :TRUE VERTICAL DEPTH


~CURVE INFORMATION
#MNEM                   .UNIT        API CODES                               DESCRIPTION
#________________________________________________________________________________________
TIME                    .s                                                  :01 TIME
DD_PRESS                .bar                                                :02 DRAW DOWN PRESSURE
DD_VOLUME               .cm3                                                :03 INCREMENTAL DRAW DOWN VOLUME
TEMP                    .degC                                               :04 TRANSDUCER TEMPERATURE
DD_PRESS_MOD_1000       .bar                                                :05 DRAW DOWN PRESSURE MOD 1000
DD_PRESS_MOD_100        .bar                                                :06 DRAW DOWN PRESSURE MOD 100
DD_PRESS_MOD_10         .bar                                                :07 DRAW DOWN PRESSURE MOD 10
DD_PRESS_MOD_1          .bar                                                :08 DRAW DOWN PRESSURE MOD 1
DD_PRESS_MOD_01         .bar                                                :09 DRAW DOWN PRESSURE MOD 01
DD_PRESS_MOD_001        .bar                                                :10 DRAW DOWN PRESSURE MOD 001
DD_PRESS_MOD_0001       .bar                                                :11 DRAW DOWN PRESSURE MOD 0001


~PARAMETER INFORMATION
#MNEM                   .UNIT        VALUE                                   DESCRIPTION
#________________________________________________________________________________________
TOOLFACE                .deg         -78.9                                  :01 TOOLFACE
PUMP_CAPACITY           .bar         400                                    :02 NOMINAL DRAW DOWN PUMP CAPACITY
PUMP_LIMIT              .bar         240                                    :03 DOWNLINK PUMP LIMIT
TIME_LIMIT              .min         10                                     :04 DOWNLINK MAX TIME
TEST_TYPE               .            REPEAT                                 :05 DOWNLINK
TEST_TYPE               .            HIGH MOBILITY                          :06 DOWNLINK
DD_PIST_A               .cm2         3.1416                                 :07 DRAW DOWN PISTON AREA
V_SYS                   .cm3         131.0000                               :08 SYSTEM VOLUME
PROBE_ID                .cm          1.2700                                 :09 TTK PROBE ID
G0                      .            4.6700                                 :10 GEOMETRY FACTOR


~A                  TIME     DD_PRESS                              DD_VOLUME               TEMP                                   DD_PRESS_MOD_1000       DD_PRESS_MOD_100        DD_PRESS_MOD_10         DD_PRESS_MOD_1        DD_PRESS_MOD_01       DD_PRESS_MOD_001      DD_PRESS_MOD_0001
# ...
                   97.30    346.06632                               19.72743             83.266                                        3.46066e+002           4.60663e+001           6.06632e+000           6.63242e-002           6.63242e-002           6.32424e-003           3.24240e-004
                   97.40    346.05390                               19.72743             83.266                                        3.46054e+002           4.60539e+001           6.05390e+000           5.38966e-002           5.38966e-002           3.89661e-003           8.96609e-004
                   97.50    346.04245                               19.72743             83.266                                        3.46042e+002           4.60424e+001           6.04245e+000           4.24460e-002           4.24460e-002           2.44599e-003           4.45992e-004
                   97.60    346.04888                               19.72743             83.266                                        3.46049e+002           4.60489e+001           6.04888e+000           4.88794e-002           4.88794e-002           8.87942e-003           8.79416e-004
                   97.70    346.06703                               19.72743             83.266                                        3.46067e+002           4.60670e+001           6.06703e+000           6.70275e-002           6.70275e-002           7.02753e-003           2.75292e-005
                   97.80    346.06830                               19.72743             83.266                                        3.46068e+002           4.60683e+001           6.06830e+000           6.82959e-002           6.82959e-002           8.29595e-003           2.95949e-004
                   97.90    346.05910                               19.72743             83.266                                        3.46059e+002           4.60591e+001           6.05910e+000           5.90966e-002           5.90966e-002           9.09660e-003           9.66037e-005
                   98.00    346.05897                               19.72743             83.266                                        3.46059e+002           4.60590e+001           6.05897e+000           5.89726e-002           5.89726e-002           8.97259e-003           9.72586e-004
                   98.10    346.06661                               19.72743             83.266                                        3.46067e+002           4.60666e+001           6.06661e+000           6.66105e-002           6.66105e-002           6.61046e-003           6.10456e-004
                   98.20    346.06342                               19.72743             83.266                                        3.46063e+002           4.60634e+001           6.06342e+000           6.34238e-002           6.34238e-002           3.42381e-003           4.23810e-004
                   98.30    346.04953                               19.72743             83.266                                        3.46050e+002           4.60495e+001           6.04953e+000           4.95332e-002           4.95332e-002           9.53320e-003           5.33203e-004
                   98.40    346.05409                               19.72743             83.266                                        3.46054e+002           4.60541e+001           6.05409e+000           5.40913e-002           5.40913e-002           4.09125e-003           9.12532e-005
                   98.50    346.07230                               19.72743             83.263                                        3.46072e+002           4.60723e+001           6.07230e+000           7.23037e-002           7.23037e-002           2.30374e-003           3.03744e-004
                   98.60    346.06393                               19.72743             83.262                                        3.46064e+002           4.60639e+001           6.06393e+000           6.39346e-002           6.39346e-002           3.93460e-003           9.34596e-004
                   98.70    346.04592                               19.72743             83.264                                        3.46046e+002           4.60459e+001           6.04592e+000           4.59239e-002           4.59239e-002           5.92388e-003           9.23876e-004
                   98.80    346.04644                               19.72743             83.266                                        3.46046e+002           4.60464e+001           6.04644e+000           4.64409e-002           4.64409e-002           6.44094e-003           4.40936e-004
                   98.90    346.06053                               19.72743             83.266                                        3.46061e+002           4.60605e+001           6.06053e+000           6.05297e-002           6.05297e-002           5.29680e-004           5.29680e-004
                   99.00    346.06284                               19.72743             83.266                                        3.46063e+002           4.60628e+001           6.06284e+000           6.28387e-002           6.28387e-002           2.83869e-003           8.38694e-004
                   99.10    346.05561                               19.72743             83.263                                        3.46056e+002           4.60556e+001           6.05561e+000           5.56103e-002           5.56103e-002           5.61028e-003           6.10278e-004
                   99.20    346.04806                               19.72743             83.260                                        3.46048e+002           4.60481e+001           6.04806e+000           4.80602e-002           4.80602e-002           8.06022e-003           6.02239e-005
                   99.30    346.05621                               19.72743             83.258                                        3.46056e+002           4.60562e+001           6.05621e+000           5.62148e-002           5.62148e-002           6.21483e-003           2.14828e-004
                   99.40    346.06318                               19.72743             83.258                                        3.46063e+002           4.60632e+001           6.06318e+000           6.31785e-002           6.31785e-002           3.17852e-003           1.78516e-004
                   99.50    346.05567                               19.72743             83.258                                        3.46056e+002           4.60557e+001           6.05567e+000           5.56653e-002           5.56653e-002           5.66532e-003           6.65320e-004
                   99.60    346.04846                               19.72743             83.258                                        3.46048e+002           4.60485e+001           6.04846e+000           4.84647e-002           4.84647e-002           8.46467e-003           4.64672e-004
                   99.70    346.05564                               19.72743             83.258                                        3.46056e+002           4.60556e+001           6.05564e+000           5.56427e-002           5.56427e-002           5.64271e-003           6.42709e-004
                   99.80    346.06484                               19.72743             83.258                                        3.46065e+002           4.60648e+001           6.06484e+000           6.48450e-002           6.48450e-002           4.84495e-003           8.44951e-004
                   99.90    346.06307                               19.72743             83.258                                        3.46063e+002           4.60631e+001           6.06307e+000           6.30741e-002           6.30741e-002           3.07410e-003           7.40974e-005
                  100.00    346.05437                               19.72743             83.258                                        3.46054e+002           4.60544e+001           6.05437e+000           5.43658e-002           5.43658e-002           4.36577e-003           3.65769e-004
