~VERSION INFORMATION
VERS                    .            2.0                                    :CWLS LOG ASCII STANDARD
WRAP                    .            NO                                     :ONE LINE PER TIME STEP


~WELL INFORMATION
#MNEM                   .UNIT        DATA                                    DESCRIPTION
#________________________________________________________________________________________
STRTTIME                .HH/MM/SS    02:42:03                               :START TIME
STOPTIME                .HH/MM/SS    02:44:56                               :STOP TIME
STRT                    .s           2.10                                   :START DATA
STOP                    .s           171.40                                 :STOP DATA
STEP                    .s           0.10                                   :MEASUREMENT TIME INTERVAL
NULL                    .            -999.25                                :NULL VALUE
COMP                    .            Statoil ASA                            :COMPANY
FLD                     .            Volve                                  :FIELD
WELL                    .            15/9-F-1 C                             :WELL
RUN                     .            4                                      :RUN
LOC                     .                                                   :LOCATION
PROV                    .            na                                     :PROVINCE
SRVC                    .            Baker Hughes INTEQ                     :SERVICE COMPANY
DATE                    .YY/MM/DD    14/03/15                               :LOG DATE
UWI                     .                                                   :UNIQUE WELL ID
DEPTHMD                 .m           3551.1                                 :MEASURED DEPTH
DEPTHTVD                .m           2992.9                                 :TRUE VERTICAL DEPTH


~CURVE INFORMATION
#MNEM                   .UNIT        API CODES                               DESCRIPTION
#________________________________________________________________________________________
TIME                    .s                                                  :01 TIME
DD_PRESS                .bar                                                :02 DRAW DOWN PRESSURE
DD_VOLUME               .cm3                                                :03 INCREMENTAL DRAW DOWN VOLUME
TEMP                    .degC                                               :04 TRANSDUCER TEMPERATURE
DD_PRESS_MOD_1000       .bar                                                :05 DRAW DOWN PRESSURE MOD 1000
DD_PRESS_MOD_100        .bar                                                :06 DRAW DOWN PRESSURE MOD 100
DD_PRESS_MOD_10         .bar                                                :07 DRAW DOWN PRESSURE MOD 10
DD_PRESS_MOD_1          .bar                                                :08 DRAW DOWN PRESSURE MOD 1
DD_PRESS_MOD_01         .bar                                                :09 DRAW DOWN PRESSURE MOD 01
DD_PRESS_MOD_001        .bar                                                :10 DRAW DOWN PRESSURE MOD 001
DD_PRESS_MOD_0001       .bar                                                :11 DRAW DOWN PRESSURE MOD 0001


~PARAMETER INFORMATION
#MNEM                   .UNIT        VALUE                                   DESCRIPTION
#________________________________________________________________________________________
TOOLFACE                .deg         84.6                                   :01 TOOLFACE
PUMP_CAPACITY           .bar         400                                    :02 NOMINAL DRAW DOWN PUMP CAPACITY
PUMP_LIMIT              .bar         240                                    :03 DOWNLINK PUMP LIMIT
TIME_LIMIT              .min         10                                     :04 DOWNLINK MAX TIME
TEST_TYPE               .            REPEAT                                 :05 DOWNLINK
TEST_TYPE               .            HIGH MOBILITY                          :06 DOWNLINK
DD_PIST_A               .cm2         3.1416                                 :07 DRAW DOWN PISTON AREA
V_SYS                   .cm3         131.0000                               :08 SYSTEM VOLUME
PROBE_ID                .cm          1.2700                                 :09 TTK PROBE ID
G0                      .            4.6700                                 :10 GEOMETRY FACTOR


~A                  TIME     DD_PRESS                              DD_VOLUME               TEMP                                   DD_PRESS_MOD_1000       DD_PRESS_MOD_100        DD_PRESS_MOD_10         DD_PRESS_MOD_1        DD_PRESS_MOD_01       DD_PRESS_MOD_001      DD_PRESS_MOD_0001
# ...
                  158.90    423.10469                                0.00000             85.141                                        4.23105e+002           2.31047e+001           3.10469e+000           1.04687e-001           4.68683e-003           4.68683e-003           6.86832e-004
                  159.00    423.11379                                0.00000             85.141                                        4.23114e+002           2.31138e+001           3.11379e+000           1.13789e-001           1.37895e-002           3.78947e-003           7.89470e-004
                  159.10    423.11881                                0.00000             85.141                                        4.23119e+002           2.31188e+001           3.11881e+000           1.18814e-001           1.88138e-002           8.81381e-003           8.13808e-004
                  159.20    423.11447                                0.00000             85.141                                        4.23114e+002           2.31145e+001           3.11447e+000           1.14468e-001           1.44679e-002           4.46790e-003           4.67896e-004
                  159.30    423.10790                                0.00000             85.141                                        4.23108e+002           2.31079e+001           3.10790e+000           1.07904e-001           7.90413e-003           7.90413e-003           9.04134e-004
                  159.40    423.10933                                0.00000             85.141                                        4.23109e+002           2.31093e+001           3.10933e+000           1.09334e-001           9.33365e-003           9.33365e-003           3.33650e-004
                  159.50    423.11226                                0.00000             85.141                                        4.23112e+002           2.31123e+001           3.11226e+000           1.12256e-001           1.22557e-002           2.25571e-003           2.55715e-004
                  159.60    423.10724                                0.00000             85.141                                        4.23107e+002           2.31072e+001           3.10724e+000           1.07235e-001           7.23505e-003           7.23505e-003           2.35045e-004
                  159.70    423.08983                                0.00000             85.141                                        4.23090e+002           2.30898e+001           3.08983e+000           8.98278e-002           8.98278e-002           9.82777e-003           8.27775e-004
                  159.80    423.08492                                0.00000             85.141                                        4.23085e+002           2.30849e+001           3.08492e+000           8.49231e-002           8.49231e-002           4.92312e-003           9.23118e-004
                  159.90    423.10361                                0.00000             85.141                                        4.23104e+002           2.31036e+001           3.10361e+000           1.03615e-001           3.61456e-003           3.61456e-003           6.14557e-004
                  160.00    423.12769                                0.00000             85.141                                        4.23128e+002           2.31277e+001           3.12769e+000           1.27693e-001           2.76930e-002           7.69298e-003           6.92976e-004
                  160.10    423.11926                                0.00000             85.141                                        4.23119e+002           2.31193e+001           3.11926e+000           1.19262e-001           1.92617e-002           9.26170e-003           2.61696e-004
                  160.20    423.09194                                0.00000             85.141                                        4.23092e+002           2.30919e+001           3.09194e+000           9.19409e-002           9.19409e-002           1.94092e-003           9.40925e-004
                  160.30    423.08457                                0.00000             85.141                                        4.23085e+002           2.30846e+001           3.08457e+000           8.45653e-002           8.45653e-002           4.56534e-003           5.65345e-004
                  160.40    423.10131                                0.00000             85.141                                        4.23101e+002           2.31013e+001           3.10131e+000           1.01311e-001           1.31061e-003           1.31061e-003           3.10610e-004
                  160.50    423.11092                                0.00000             85.141                                        4.23111e+002           2.31109e+001           3.11092e+000           1.10919e-001           1.09190e-002           9.19024e-004           9.19024e-004
                  160.60    423.10644                                0.00000             85.141                                        4.23106e+002           2.31064e+001           3.10644e+000           1.06437e-001           6.43663e-003           6.43663e-003           4.36625e-004
                  160.70    423.10284                                0.00000             85.141                                        4.23103e+002           2.31028e+001           3.10284e+000           1.02840e-001           2.84016e-003           2.84016e-003           8.40163e-004
                  160.80    423.10909                                0.00000             85.141                                        4.23109e+002           2.31091e+001           3.10909e+000           1.09087e-001           9.08700e-003           9.08700e-003           8.70013e-005
                  160.90    423.11038                                0.00000             85.141                                        4.23110e+002           2.31104e+001           3.11038e+000           1.10381e-001           1.03813e-002           3.81285e-004           3.81285e-004
                  161.00    423.10229                                0.00000             85.141                                        4.23102e+002           2.31023e+001           3.10229e+000           1.02289e-001           2.28905e-003           2.28905e-003           2.89047e-004
                  161.10    423.09939                                0.00000             85.141                                        4.23099e+002           2.30994e+001           3.09939e+000           9.93915e-002           9.93915e-002           9.39150e-003           3.91501e-004
                  161.20    423.10601                                0.00000             85.141                                        4.23106e+002           2.31060e+001           3.10601e+000           1.06013e-001           6.01271e-003           6.01271e-003           1.27081e-005
                  161.30    423.11471                                0.00000             85.141                                        4.23115e+002           2.31147e+001           3.11471e+000           1.14713e-001           1.47131e-002           4.71310e-003           7.13103e-004
                  161.40    423.11176                                0.00000             85.141                                        4.23112e+002           2.31118e+001           3.11176e+000           1.11756e-001           1.17561e-002           1.75609e-003           7.56087e-004
                  161.50    423.09767                                0.00000             85.141                                        4.23098e+002           2.30977e+001           3.09767e+000           9.76662e-002           9.76662e-002           7.66619e-003           6.66190e-004
                  161.60    423.09599                                0.00000             85.141                                        4.23096e+002           2.30960e+001           3.09599e+000           9.59943e-002           9.59943e-002           5.99427e-003           9.94273e-004
