~VERSION INFORMATION
VERS                    .            2.0                                    :CWLS LOG ASCII STANDARD
WRAP                    .            NO                                     :ONE LINE PER TIME STEP


~WELL INFORMATION
#MNEM                   .UNIT        DATA                                    DESCRIPTION
#________________________________________________________________________________________
STRTTIME                .HH/MM/SS    04:27:44                               :START TIME
STOPTIME                .HH/MM/SS    04:30:31                               :STOP TIME
STRT                    .s           2.10                                   :START DATA
STOP                    .s           165.30                                 :STOP DATA
STEP                    .s           0.10                                   :MEASUREMENT TIME INTERVAL
NULL                    .            -999.25                                :NULL VALUE
COMP                    .            Statoil ASA                            :COMPANY
FLD                     .            Volve                                  :FIELD
WELL                    .            15/9-F-1 C                             :WELL
RUN                     .            4                                      :RUN
LOC                     .                                                   :LOCATION
PROV                    .            na                                     :PROVINCE
SRVC                    .            Baker Hughes INTEQ                     :SERVICE COMPANY
DATE                    .YY/MM/DD    14/03/15                               :LOG DATE
UWI                     .                                                   :UNIQUE WELL ID
DEPTHMD                 .m           3273.1                                 :MEASURED DEPTH
DEPTHTVD                .m           2948.3                                 :TRUE VERTICAL DEPTH


~CURVE INFORMATION
#MNEM                   .UNIT        API CODES                               DESCRIPTION
#________________________________________________________________________________________
TIME                    .s                                                  :01 TIME
DD_PRESS                .bar                                                :02 DRAW DOWN PRESSURE
DD_VOLUME               .cm3                                                :03 INCREMENTAL DRAW DOWN VOLUME
TEMP                    .degC                                               :04 TRANSDUCER TEMPERATURE
DD_PRESS_MOD_1000       .bar                                                :05 DRAW DOWN PRESSURE MOD 1000
DD_PRESS_MOD_100        .bar                                                :06 DRAW DOWN PRESSURE MOD 100
DD_PRESS_MOD_10         .bar                                                :07 DRAW DOWN PRESSURE MOD 10
DD_PRESS_MOD_1          .bar                                                :08 DRAW DOWN PRESSURE MOD 1
DD_PRESS_MOD_01         .bar                                                :09 DRAW DOWN PRESSURE MOD 01
DD_PRESS_MOD_001        .bar                                                :10 DRAW DOWN PRESSURE MOD 001
DD_PRESS_MOD_0001       .bar                                                :11 DRAW DOWN PRESSURE MOD 0001


~PARAMETER INFORMATION
#MNEM                   .UNIT        VALUE                                   DESCRIPTION
#________________________________________________________________________________________
TOOLFACE                .deg         76.8                                   :01 TOOLFACE
PUMP_CAPACITY           .bar         400                                    :02 NOMINAL DRAW DOWN PUMP CAPACITY
PUMP_LIMIT              .bar         240                                    :03 DOWNLINK PUMP LIMIT
TIME_LIMIT              .min         10                                     :04 DOWNLINK MAX TIME
TEST_TYPE               .            REPEAT                                 :05 DOWNLINK
TEST_TYPE               .            HIGH MOBILITY                          :06 DOWNLINK
DD_PIST_A               .cm2         3.1416                                 :07 DRAW DOWN PISTON AREA
V_SYS                   .cm3         131.0000                               :08 SYSTEM VOLUME
PROBE_ID                .cm          1.2700                                 :09 TTK PROBE ID
G0                      .            4.6700                                 :10 GEOMETRY FACTOR


~A                  TIME     DD_PRESS                              DD_VOLUME               TEMP                                   DD_PRESS_MOD_1000       DD_PRESS_MOD_100        DD_PRESS_MOD_10         DD_PRESS_MOD_1        DD_PRESS_MOD_01       DD_PRESS_MOD_001      DD_PRESS_MOD_0001
# ...
                   86.10    338.16201                               19.70796             84.977                                        3.38162e+002           3.81620e+001           8.16201e+000           1.62014e-001           6.20137e-002           2.01365e-003           1.36527e-005
                   86.20    338.16455                               19.70800             84.974                                        3.38165e+002           3.81645e+001           8.16455e+000           1.64545e-001           6.45451e-002           4.54506e-003           5.45062e-004
                   86.30    338.16534                               19.70800             84.971                                        3.38165e+002           3.81653e+001           8.16534e+000           1.65338e-001           6.53375e-002           5.33753e-003           3.37534e-004
                   86.40    338.16641                               19.70800             84.969                                        3.38166e+002           3.81664e+001           8.16641e+000           1.66412e-001           6.64115e-002           6.41153e-003           4.11529e-004
                   86.50    338.16777                               19.70800             84.969                                        3.38168e+002           3.81678e+001           8.16777e+000           1.67770e-001           6.77700e-002           7.76997e-003           7.69969e-004
                   86.60    338.16798                               19.70800             84.969                                        3.38168e+002           3.81680e+001           8.16798e+000           1.67979e-001           6.79786e-002           7.97864e-003           9.78641e-004
                   86.70    338.16633                               19.70800             84.969                                        3.38166e+002           3.81663e+001           8.16633e+000           1.66328e-001           6.63279e-002           6.32790e-003           3.27898e-004
                   86.80    338.16613                               19.70800             84.969                                        3.38166e+002           3.81661e+001           8.16613e+000           1.66132e-001           6.61317e-002           6.13168e-003           1.31682e-004
                   86.90    338.16698                               19.70800             84.969                                        3.38167e+002           3.81670e+001           8.16698e+000           1.66985e-001           6.69848e-002           6.98482e-003           9.84816e-004
                   87.00    338.16634                               19.70800             84.969                                        3.38166e+002           3.81663e+001           8.16634e+000           1.66335e-001           6.63355e-002           6.33547e-003           3.35467e-004
                   87.10    338.16485                               19.70800             84.969                                        3.38165e+002           3.81648e+001           8.16485e+000           1.64846e-001           6.48459e-002           4.84592e-003           8.45923e-004
                   87.20    338.16481                               19.70800             84.969                                        3.38165e+002           3.81648e+001           8.16481e+000           1.64811e-001           6.48106e-002           4.81060e-003           8.10600e-004
                   87.30    338.16551                               19.70800             84.969                                        3.38166e+002           3.81655e+001           8.16551e+000           1.65512e-001           6.55123e-002           5.51230e-003           5.12302e-004
                   87.40    338.16529                               19.70800             84.969                                        3.38165e+002           3.81653e+001           8.16529e+000           1.65289e-001           6.52889e-002           5.28886e-003           2.88860e-004
                   87.50    338.16626                               19.70800             84.969                                        3.38166e+002           3.81663e+001           8.16626e+000           1.66256e-001           6.62556e-002           6.25562e-003           2.55617e-004
                   87.60    338.16970                               19.70800             84.969                                        3.38170e+002           3.81697e+001           8.16970e+000           1.69697e-001           6.96967e-002           9.69666e-003           6.96657e-004
                   87.70    338.17315                               19.70800             84.969                                        3.38173e+002           3.81732e+001           8.17315e+000           1.73152e-001           7.31524e-002           3.15237e-003           1.52369e-004
                   87.80    338.17116                               19.70800             84.969                                        3.38171e+002           3.81712e+001           8.17116e+000           1.71158e-001           7.11579e-002           1.15795e-003           1.57946e-004
                   87.90    338.16988                               19.70800             84.969                                        3.38170e+002           3.81699e+001           8.16988e+000           1.69875e-001           6.98753e-002           9.87530e-003           8.75295e-004
                   88.00    338.17027                               19.70800             84.969                                        3.38170e+002           3.81703e+001           8.17027e+000           1.70274e-001           7.02735e-002           2.73546e-004           2.73546e-004
                   88.10    338.16981                               19.70800             84.969                                        3.38170e+002           3.81698e+001           8.16981e+000           1.69806e-001           6.98061e-002           9.80608e-003           8.06077e-004
                   88.20    338.16920                               19.70800             84.969                                        3.38169e+002           3.81692e+001           8.16920e+000           1.69198e-001           6.91976e-002           9.19760e-003           1.97604e-004
                   88.30    338.16775                               19.70800             84.969                                        3.38168e+002           3.81678e+001           8.16775e+000           1.67753e-001           6.77535e-002           7.75349e-003           7.53491e-004
                   88.40    338.16801                               19.70800             84.969                                        3.38168e+002           3.81680e+001           8.16801e+000           1.68008e-001           6.80082e-002           8.00817e-003           8.16863e-006
                   88.50    338.16764                               19.70800             84.969                                        3.38168e+002           3.81676e+001           8.16764e+000           1.67635e-001           6.76355e-002           7.63545e-003           6.35451e-004
                   88.60    338.16828                               19.70800             84.969                                        3.38168e+002           3.81683e+001           8.16828e+000           1.68282e-001           6.82820e-002           8.28196e-003           2.81963e-004
                   88.70    338.16970                               19.70800             84.969                                        3.38170e+002           3.81697e+001           8.16970e+000           1.69699e-001           6.96986e-002           9.69857e-003           6.98567e-004
                   88.80    338.17004                               19.70800             84.969                                        3.38170e+002           3.81700e+001           8.17004e+000           1.70038e-001           7.00381e-002           3.80536e-005           3.80536e-005
