~VERSION INFORMATION
VERS                    .            2.0                                    :CWLS LOG ASCII STANDARD
WRAP                    .            NO                                     :ONE LINE PER TIME STEP


~WELL INFORMATION
#MNEM                   .UNIT        DATA                                    DESCRIPTION
#________________________________________________________________________________________
STRTTIME                .HH/MM/SS    18:24:11                               :START TIME
STOPTIME                .HH/MM/SS    18:26:54                               :STOP TIME
STRT                    .s           2.10                                   :START DATA
STOP                    .s           161.30                                 :STOP DATA
STEP                    .s           0.10                                   :MEASUREMENT TIME INTERVAL
NULL                    .            -999.25                                :NULL VALUE
COMP                    .            Statoil ASA                            :COMPANY
FLD                     .            Volve                                  :FIELD
WELL                    .            15/9-F-11 A                            :WELL
RUN                     .            8                                      :RUN
LOC                     .            Maersk Inspirer                        :LOCATION
PROV                    .            na                                     :PROVINCE
SRVC                    .            Baker Hughes INTEQ                     :SERVICE COMPANY
DATE                    .YY/MM/DD    13/05/23                               :LOG DATE
UWI                     .                                                   :UNIQUE WELL ID
DEPTHMD                 .m           3681.0                                 :MEASURED DEPTH
DEPTHTVD                .m           3064.4                                 :TRUE VERTICAL DEPTH


~CURVE INFORMATION
#MNEM                   .UNIT        API CODES                               DESCRIPTION
#________________________________________________________________________________________
TIME                    .s                                                  :01 TIME
DD_PRESS                .bar                                                :02 DRAW DOWN PRESSURE
DD_VOLUME               .cm3                                                :03 INCREMENTAL DRAW DOWN VOLUME
TEMP                    .degC                                               :04 TRANSDUCER TEMPERATURE
DD_PRESS_MOD_1000       .bar                                                :05 DRAW DOWN PRESSURE MOD 1000
DD_PRESS_MOD_100        .bar                                                :06 DRAW DOWN PRESSURE MOD 100
DD_PRESS_MOD_10         .bar                                                :07 DRAW DOWN PRESSURE MOD 10
DD_PRESS_MOD_1          .bar                                                :08 DRAW DOWN PRESSURE MOD 1
DD_PRESS_MOD_01         .bar                                                :09 DRAW DOWN PRESSURE MOD 01
DD_PRESS_MOD_001        .bar                                                :10 DRAW DOWN PRESSURE MOD 001
DD_PRESS_MOD_0001       .bar                                                :11 DRAW DOWN PRESSURE MOD 0001


~PARAMETER INFORMATION
#MNEM                   .UNIT        VALUE                                   DESCRIPTION
#________________________________________________________________________________________
TOOLFACE                .deg         -38.1                                  :01 TOOLFACE
PUMP_CAPACITY           .bar         400                                    :02 NOMINAL DRAW DOWN PUMP CAPACITY
PUMP_LIMIT              .bar         240                                    :03 DOWNLINK PUMP LIMIT
TIME_LIMIT              .min         10                                     :04 DOWNLINK MAX TIME
TEST_TYPE               .            HIGH MOBILITY                          :05 DOWNLINK
DD_PIST_A               .cm2         3.1416                                 :06 DRAW DOWN PISTON AREA
V_SYS                   .cm3         131.0000                               :07 SYSTEM VOLUME
PROBE_ID                .cm          1.2700                                 :08 TTK PROBE ID
G0                      .            4.6700                                 :09 GEOMETRY FACTOR


~A                  TIME     DD_PRESS                              DD_VOLUME               TEMP                                   DD_PRESS_MOD_1000       DD_PRESS_MOD_100        DD_PRESS_MOD_10         DD_PRESS_MOD_1        DD_PRESS_MOD_01       DD_PRESS_MOD_001      DD_PRESS_MOD_0001
# ...
                   55.30    345.16731                               10.69783             75.203                                        3.45167e+002           4.51673e+001           5.16731e+000           1.67308e-001           6.73080e-002           7.30802e-003           3.08017e-004
                   55.40    345.16530                               10.69783             75.203                                        3.45165e+002           4.51653e+001           5.16530e+000           1.65299e-001           6.52991e-002           5.29908e-003           2.99076e-004
                   55.50    345.15905                               10.69783             75.203                                        3.45159e+002           4.51590e+001           5.15905e+000           1.59045e-001           5.90452e-002           9.04523e-003           4.52331e-005
                   55.60    345.15919                               10.69783             75.203                                        3.45159e+002           4.51592e+001           5.15919e+000           1.59195e-001           5.91946e-002           9.19459e-003           1.94592e-004
                   55.70    345.16563                               10.69783             75.203                                        3.45166e+002           4.51656e+001           5.16563e+000           1.65631e-001           6.56313e-002           5.63130e-003           6.31301e-004
                   55.80    345.16431                               10.69783             75.203                                        3.45164e+002           4.51643e+001           5.16431e+000           1.64308e-001           6.43079e-002           4.30792e-003           3.07920e-004
                   55.90    345.15944                               10.69783             75.203                                        3.45159e+002           4.51594e+001           5.15944e+000           1.59438e-001           5.94382e-002           9.43823e-003           4.38234e-004
                   56.00    345.15794                               10.69783             75.203                                        3.45158e+002           4.51579e+001           5.15794e+000           1.57938e-001           5.79377e-002           7.93767e-003           9.37672e-004
                   56.10    345.16193                               10.69783             75.203                                        3.45162e+002           4.51619e+001           5.16193e+000           1.61929e-001           6.19294e-002           1.92941e-003           9.29412e-004
                   56.20    345.16111                               10.69783             75.203                                        3.45161e+002           4.51611e+001           5.16111e+000           1.61105e-001           6.11052e-002           1.10522e-003           1.05222e-004
                   56.30    345.15819                               10.69783             75.203                                        3.45158e+002           4.51582e+001           5.15819e+000           1.58192e-001           5.81916e-002           8.19158e-003           1.91583e-004
                   56.40    345.15776                               10.69783             75.203                                        3.45158e+002           4.51578e+001           5.15776e+000           1.57762e-001           5.77618e-002           7.76177e-003           7.61767e-004
                   56.50    345.16180                               10.69783             75.203                                        3.45162e+002           4.51618e+001           5.16180e+000           1.61798e-001           6.17975e-002           1.79754e-003           7.97539e-004
                   56.60    345.16651                               10.69783             75.203                                        3.45167e+002           4.51665e+001           5.16651e+000           1.66509e-001           6.65094e-002           6.50941e-003           5.09412e-004
                   56.70    345.16406                               10.69783             75.203                                        3.45164e+002           4.51641e+001           5.16406e+000           1.64058e-001           6.40581e-002           4.05810e-003           5.81026e-005
                   56.80    345.15773                               10.69783             75.203                                        3.45158e+002           4.51577e+001           5.15773e+000           1.57726e-001           5.77263e-002           7.72629e-003           7.26289e-004
                   56.90    345.15874                               10.69783             75.203                                        3.45159e+002           4.51587e+001           5.15874e+000           1.58737e-001           5.87374e-002           8.73744e-003           7.37435e-004
                   57.00    345.16445                               10.69783             75.203                                        3.45164e+002           4.51645e+001           5.16445e+000           1.64453e-001           6.44532e-002           4.45321e-003           4.53208e-004
                   57.10    345.16445                               10.69783             75.203                                        3.45164e+002           4.51645e+001           5.16445e+000           1.64450e-001           6.44502e-002           4.45024e-003           4.50238e-004
                   57.20    345.16062                               10.69783             75.203                                        3.45161e+002           4.51606e+001           5.16062e+000           1.60621e-001           6.06212e-002           6.21197e-004           6.21197e-004
                   57.30    345.15810                               10.69783             75.203                                        3.45158e+002           4.51581e+001           5.15810e+000           1.58099e-001           5.80987e-002           8.09871e-003           9.87065e-005
                   57.40    345.15719                               10.69783             75.203                                        3.45157e+002           4.51572e+001           5.15719e+000           1.57189e-001           5.71890e-002           7.18900e-003           1.89000e-004
                   57.50    345.15881                               10.69783             75.203                                        3.45159e+002           4.51588e+001           5.15881e+000           1.58815e-001           5.88148e-002           8.81479e-003           8.14792e-004
                   57.60    345.16463                               10.69783             75.203                                        3.45165e+002           4.51646e+001           5.16463e+000           1.64632e-001           6.46324e-002           4.63244e-003           6.32439e-004
                   57.70    345.16626                               10.69783             75.203                                        3.45166e+002           4.51663e+001           5.16626e+000           1.66259e-001           6.62591e-002           6.25912e-003           2.59117e-004
                   57.80    345.16117                               10.69783             75.203                                        3.45161e+002           4.51612e+001           5.16117e+000           1.61166e-001           6.11657e-002           1.16573e-003           1.65729e-004
                   57.90    345.15788                               10.69783             75.203                                        3.45158e+002           4.51579e+001           5.15788e+000           1.57884e-001           5.78838e-002           7.88375e-003           8.83754e-004
                   58.00    345.15792                               10.69783             75.203                                        3.45158e+002           4.51579e+001           5.15792e+000           1.57925e-001           5.79246e-002           7.92459e-003           9.24590e-004
