~VERSION INFORMATION
VERS                    .            2.0                                    :CWLS LOG ASCII STANDARD
WRAP                    .            NO                                     :ONE LINE PER TIME STEP


~WELL INFORMATION
#MNEM                   .UNIT        DATA                                    DESCRIPTION
#________________________________________________________________________________________
STRTTIME                .HH/MM/SS    04:27:44                               :START TIME
STOPTIME                .HH/MM/SS    04:30:31                               :STOP TIME
STRT                    .s           2.10                                   :START DATA
STOP                    .s           165.30                                 :STOP DATA
STEP                    .s           0.10                                   :MEASUREMENT TIME INTERVAL
NULL                    .            -999.25                                :NULL VALUE
COMP                    .            Statoil ASA                            :COMPANY
FLD                     .            Volve                                  :FIELD
WELL                    .            15/9-F-1 C                             :WELL
RUN                     .            4                                      :RUN
LOC                     .                                                   :LOCATION
PROV                    .            na                                     :PROVINCE
SRVC                    .            Baker Hughes INTEQ                     :SERVICE COMPANY
DATE                    .YY/MM/DD    14/03/15                               :LOG DATE
UWI                     .                                                   :UNIQUE WELL ID
DEPTHMD                 .m           3273.1                                 :MEASURED DEPTH
DEPTHTVD                .m           2948.3                                 :TRUE VERTICAL DEPTH


~CURVE INFORMATION
#MNEM                   .UNIT        API CODES                               DESCRIPTION
#________________________________________________________________________________________
TIME                    .s                                                  :01 TIME
DD_PRESS                .bar                                                :02 DRAW DOWN PRESSURE
DD_VOLUME               .cm3                                                :03 INCREMENTAL DRAW DOWN VOLUME
TEMP                    .degC                                               :04 TRANSDUCER TEMPERATURE
DD_PRESS_MOD_1000       .bar                                                :05 DRAW DOWN PRESSURE MOD 1000
DD_PRESS_MOD_100        .bar                                                :06 DRAW DOWN PRESSURE MOD 100
DD_PRESS_MOD_10         .bar                                                :07 DRAW DOWN PRESSURE MOD 10
DD_PRESS_MOD_1          .bar                                                :08 DRAW DOWN PRESSURE MOD 1
DD_PRESS_MOD_01         .bar                                                :09 DRAW DOWN PRESSURE MOD 01
DD_PRESS_MOD_001        .bar                                                :10 DRAW DOWN PRESSURE MOD 001
DD_PRESS_MOD_0001       .bar                                                :11 DRAW DOWN PRESSURE MOD 0001


~PARAMETER INFORMATION
#MNEM                   .UNIT        VALUE                                   DESCRIPTION
#________________________________________________________________________________________
TOOLFACE                .deg         76.8                                   :01 TOOLFACE
PUMP_CAPACITY           .bar         400                                    :02 NOMINAL DRAW DOWN PUMP CAPACITY
PUMP_LIMIT              .bar         240                                    :03 DOWNLINK PUMP LIMIT
TIME_LIMIT              .min         10                                     :04 DOWNLINK MAX TIME
TEST_TYPE               .            REPEAT                                 :05 DOWNLINK
TEST_TYPE               .            HIGH MOBILITY                          :06 DOWNLINK
DD_PIST_A               .cm2         3.1416                                 :07 DRAW DOWN PISTON AREA
V_SYS                   .cm3         131.0000                               :08 SYSTEM VOLUME
PROBE_ID                .cm          1.2700                                 :09 TTK PROBE ID
G0                      .            4.6700                                 :10 GEOMETRY FACTOR


~A                  TIME     DD_PRESS                              DD_VOLUME               TEMP                                   DD_PRESS_MOD_1000       DD_PRESS_MOD_100        DD_PRESS_MOD_10         DD_PRESS_MOD_1        DD_PRESS_MOD_01       DD_PRESS_MOD_001      DD_PRESS_MOD_0001
# ...
                  130.90    338.17379                               29.44302             84.898                                        3.38174e+002           3.81738e+001           8.17379e+000           1.73794e-001           7.37944e-002           3.79442e-003           7.94423e-004
                  131.00    338.17467                               29.44302             84.898                                        3.38175e+002           3.81747e+001           8.17467e+000           1.74670e-001           7.46697e-002           4.66972e-003           6.69717e-004
                  131.10    338.17428                               29.44302             84.898                                        3.38174e+002           3.81743e+001           8.17428e+000           1.74282e-001           7.42824e-002           4.28241e-003           2.82407e-004
                  131.20    338.17487                               29.44302             84.898                                        3.38175e+002           3.81749e+001           8.17487e+000           1.74868e-001           7.48682e-002           4.86825e-003           8.68249e-004
                  131.30    338.17195                               29.44302             84.898                                        3.38172e+002           3.81719e+001           8.17195e+000           1.71949e-001           7.19487e-002           1.94873e-003           9.48726e-004
                  131.40    338.16949                               29.44302             84.898                                        3.38169e+002           3.81695e+001           8.16949e+000           1.69485e-001           6.94853e-002           9.48531e-003           4.85308e-004
                  131.50    338.16875                               29.44302             84.898                                        3.38169e+002           3.81688e+001           8.16875e+000           1.68750e-001           6.87502e-002           8.75021e-003           7.50206e-004
                  131.60    338.17028                               29.44302             84.898                                        3.38170e+002           3.81703e+001           8.17028e+000           1.70281e-001           7.02812e-002           2.81224e-004           2.81224e-004
                  131.70    338.17394                               29.44302             84.898                                        3.38174e+002           3.81739e+001           8.17394e+000           1.73936e-001           7.39364e-002           3.93642e-003           9.36417e-004
                  131.80    338.17315                               29.44302             84.898                                        3.38173e+002           3.81732e+001           8.17315e+000           1.73154e-001           7.31544e-002           3.15437e-003           1.54369e-004
                  131.90    338.16860                               29.44302             84.898                                        3.38169e+002           3.81686e+001           8.16860e+000           1.68603e-001           6.86033e-002           8.60333e-003           6.03325e-004
                  132.00    338.16871                               29.44302             84.898                                        3.38169e+002           3.81687e+001           8.16871e+000           1.68713e-001           6.87134e-002           8.71343e-003           7.13428e-004
                  132.10    338.17242                               29.44302             84.898                                        3.38172e+002           3.81724e+001           8.17242e+000           1.72420e-001           7.24201e-002           2.42012e-003           4.20120e-004
                  132.20    338.17211                               29.44302             84.898                                        3.38172e+002           3.81721e+001           8.17211e+000           1.72106e-001           7.21056e-002           2.10563e-003           1.05625e-004
                  132.30    338.16935                               29.44302             84.898                                        3.38169e+002           3.81694e+001           8.16935e+000           1.69351e-001           6.93514e-002           9.35143e-003           3.51426e-004
                  132.40    338.17005                               29.44302             84.898                                        3.38170e+002           3.81700e+001           8.17005e+000           1.70049e-001           7.00492e-002           4.92285e-005           4.92285e-005
                  132.50    338.17255                               29.44302             84.898                                        3.38173e+002           3.81725e+001           8.17255e+000           1.72549e-001           7.25495e-002           2.54948e-003           5.49475e-004
                  132.60    338.17268                               29.44302             84.898                                        3.38173e+002           3.81727e+001           8.17268e+000           1.72685e-001           7.26846e-002           2.68458e-003           6.84577e-004
                  132.70    338.17220                               29.44302             84.898                                        3.38172e+002           3.81722e+001           8.17220e+000           1.72200e-001           7.22000e-002           2.20004e-003           2.00045e-004
                  132.80    338.17057                               29.44302             84.898                                        3.38171e+002           3.81706e+001           8.17057e+000           1.70569e-001           7.05691e-002           5.69148e-004           5.69148e-004
                  132.90    338.17209                               29.44302             84.898                                        3.38172e+002           3.81721e+001           8.17209e+000           1.72093e-001           7.20928e-002           2.09281e-003           9.28106e-005
                  133.00    338.17383                               29.44302             84.898                                        3.38174e+002           3.81738e+001           8.17383e+000           1.73829e-001           7.38286e-002           3.82863e-003           8.28625e-004
                  133.10    338.17343                               29.44302             84.898                                        3.38173e+002           3.81734e+001           8.17343e+000           1.73429e-001           7.34288e-002           3.42882e-003           4.28817e-004
                  133.20    338.17273                               29.44302             84.898                                        3.38173e+002           3.81727e+001           8.17273e+000           1.72731e-001           7.27309e-002           2.73089e-003           7.30887e-004
                  133.30    338.17170                               29.44302             84.898                                        3.38172e+002           3.81717e+001           8.17170e+000           1.71699e-001           7.16990e-002           1.69900e-003           6.99001e-004
                  133.40    338.16893                               29.44302             84.898                                        3.38169e+002           3.81689e+001           8.16893e+000           1.68935e-001           6.89350e-002           8.93498e-003           9.34975e-004
                  133.50    338.17087                               29.44302             84.898                                        3.38171e+002           3.81709e+001           8.17087e+000           1.70874e-001           7.08735e-002           8.73524e-004           8.73524e-004
                  133.60    338.17435                               29.44302             84.898                                        3.38174e+002           3.81743e+001           8.17435e+000           1.74347e-001           7.43466e-002           4.34662e-003           3.46623e-004
