~VERSION INFORMATION
VERS                    .            2.0                                    :CWLS LOG ASCII STANDARD
WRAP                    .            NO                                     :ONE LINE PER TIME STEP


~WELL INFORMATION
#MNEM                   .UNIT        DATA                                    DESCRIPTION
#________________________________________________________________________________________
STRTTIME                .HH/MM/SS    22:39:37                               :START TIME
STOPTIME                .HH/MM/SS    22:43:03                               :STOP TIME
STRT                    .s           2.10                                   :START DATA
STOP                    .s           204.10                                 :STOP DATA
STEP                    .s           0.10                                   :MEASUREMENT TIME INTERVAL
NULL                    .            -999.25                                :NULL VALUE
COMP                    .            Statoil ASA                            :COMPANY
FLD                     .            Volve                                  :FIELD
WELL                    .            15/9-F-1 C                             :WELL
RUN                     .            4                                      :RUN
LOC                     .                                                   :LOCATION
PROV                    .            na                                     :PROVINCE
SRVC                    .            Baker Hughes INTEQ                     :SERVICE COMPANY
DATE                    .YY/MM/DD    14/03/14                               :LOG DATE
UWI                     .                                                   :UNIQUE WELL ID
DEPTHMD                 .m           3925.1                                 :MEASURED DEPTH
DEPTHTVD                .m           3120.2                                 :TRUE VERTICAL DEPTH


~CURVE INFORMATION
#MNEM                   .UNIT        API CODES                               DESCRIPTION
#________________________________________________________________________________________
TIME                    .s                                                  :01 TIME
DD_PRESS                .bar                                                :02 DRAW DOWN PRESSURE
DD_VOLUME               .cm3                                                :03 INCREMENTAL DRAW DOWN VOLUME
TEMP                    .degC                                               :04 TRANSDUCER TEMPERATURE
DD_PRESS_MOD_1000       .bar                                                :05 DRAW DOWN PRESSURE MOD 1000
DD_PRESS_MOD_100        .bar                                                :06 DRAW DOWN PRESSURE MOD 100
DD_PRESS_MOD_10         .bar                                                :07 DRAW DOWN PRESSURE MOD 10
DD_PRESS_MOD_1          .bar                                                :08 DRAW DOWN PRESSURE MOD 1
DD_PRESS_MOD_01         .bar                                                :09 DRAW DOWN PRESSURE MOD 01
DD_PRESS_MOD_001        .bar                                                :10 DRAW DOWN PRESSURE MOD 001
DD_PRESS_MOD_0001       .bar                                                :11 DRAW DOWN PRESSURE MOD 0001


~PARAMETER INFORMATION
#MNEM                   .UNIT        VALUE                                   DESCRIPTION
#________________________________________________________________________________________
TOOLFACE                .deg         -7.4                                   :01 TOOLFACE
PUMP_CAPACITY           .bar         400                                    :02 NOMINAL DRAW DOWN PUMP CAPACITY
PUMP_LIMIT              .bar         240                                    :03 DOWNLINK PUMP LIMIT
TIME_LIMIT              .min         10                                     :04 DOWNLINK MAX TIME
TEST_TYPE               .            HIGH MOBILITY                          :05 DOWNLINK
DD_PIST_A               .cm2         3.1416                                 :06 DRAW DOWN PISTON AREA
V_SYS                   .cm3         131.0000                               :07 SYSTEM VOLUME
PROBE_ID                .cm          1.2700                                 :08 TTK PROBE ID
G0                      .            4.6700                                 :09 GEOMETRY FACTOR


~A                  TIME     DD_PRESS                              DD_VOLUME               TEMP                                   DD_PRESS_MOD_1000       DD_PRESS_MOD_100        DD_PRESS_MOD_10         DD_PRESS_MOD_1        DD_PRESS_MOD_01       DD_PRESS_MOD_001      DD_PRESS_MOD_0001
# ...
                  133.70    353.16853                               19.86705             91.336                                        3.53169e+002           5.31685e+001           3.16853e+000           1.68531e-001           6.85312e-002           8.53121e-003           5.31208e-004
                  133.80    353.17000                               19.86705             91.336                                        3.53170e+002           5.31700e+001           3.17000e+000           1.70000e-001           7.00002e-002           1.53090e-007           1.53090e-007
                  133.90    353.08224                               19.86839             91.336                                        3.53082e+002           5.30822e+001           3.08224e+000           8.22399e-002           8.22399e-002           2.23990e-003           2.39901e-004
                  134.00    351.09632                               19.91480             91.336                                        3.51096e+002           5.10963e+001           1.09632e+000           9.63202e-002           9.63202e-002           6.32024e-003           3.20244e-004
                  134.10    346.67721                               20.07604             91.336                                        3.46677e+002           4.66772e+001           6.67721e+000           6.77212e-001           7.72120e-002           7.21203e-003           2.12035e-004
                  134.20    342.75724                               20.34087             91.336                                        3.42757e+002           4.27572e+001           2.75724e+000           7.57235e-001           5.72351e-002           7.23511e-003           2.35114e-004
                  134.30    341.43331                               20.63412             91.336                                        3.41433e+002           4.14333e+001           1.43331e+000           4.33307e-001           3.33067e-002           3.30672e-003           3.06717e-004
                  134.40    341.17013                               20.92864             91.336                                        3.41170e+002           4.11701e+001           1.17013e+000           1.70125e-001           7.01253e-002           1.25273e-004           1.25273e-004
                  134.50    341.11966                               21.22352             91.336                                        3.41120e+002           4.11197e+001           1.11966e+000           1.19658e-001           1.96582e-002           9.65819e-003           6.58189e-004
                  134.60    341.11806                               21.51839             91.336                                        3.41118e+002           4.11181e+001           1.11806e+000           1.18060e-001           1.80605e-002           8.06046e-003           6.04562e-005
                  134.70    341.12695                               21.81325             91.336                                        3.41127e+002           4.11270e+001           1.12695e+000           1.26950e-001           2.69505e-002           6.95049e-003           9.50490e-004
                  134.80    341.13645                               22.10818             91.336                                        3.41136e+002           4.11364e+001           1.13645e+000           1.36446e-001           3.64461e-002           6.44607e-003           4.46070e-004
                  134.90    341.14005                               22.40323             91.336                                        3.41140e+002           4.11400e+001           1.14005e+000           1.40048e-001           4.00475e-002           4.75230e-005           4.75230e-005
                  135.00    341.14054                               22.69829             91.336                                        3.41141e+002           4.11405e+001           1.14054e+000           1.40540e-001           4.05404e-002           5.40392e-004           5.40392e-004
                  135.10    341.14431                               22.99316             91.336                                        3.41144e+002           4.11443e+001           1.14431e+000           1.44315e-001           4.43146e-002           4.31456e-003           3.14563e-004
                  135.20    341.14505                               23.28809             91.336                                        3.41145e+002           4.11451e+001           1.14505e+000           1.45055e-001           4.50547e-002           5.05474e-003           5.47408e-005
                  135.30    341.15287                               23.58306             91.336                                        3.41153e+002           4.11529e+001           1.15287e+000           1.52866e-001           5.28662e-002           2.86623e-003           8.66231e-004
                  135.40    341.15789                               23.87797             91.336                                        3.41158e+002           4.11579e+001           1.15789e+000           1.57893e-001           5.78926e-002           7.89261e-003           8.92608e-004
                  135.50    341.15276                               24.17282             91.336                                        3.41153e+002           4.11528e+001           1.15276e+000           1.52758e-001           5.27576e-002           2.75756e-003           7.57559e-004
                  135.60    341.14871                               24.46776             91.336                                        3.41149e+002           4.11487e+001           1.14871e+000           1.48705e-001           4.87052e-002           8.70518e-003           7.05176e-004
                  135.70    341.15627                               24.76281             91.336                                        3.41156e+002           4.11563e+001           1.15627e+000           1.56271e-001           5.62707e-002           6.27072e-003           2.70719e-004
                  135.80    341.16199                               25.05780             91.336                                        3.41162e+002           4.11620e+001           1.16199e+000           1.61994e-001           6.19936e-002           1.99357e-003           9.93569e-004
                  135.90    341.15815                               25.35267             91.336                                        3.41158e+002           4.11581e+001           1.15815e+000           1.58146e-001           5.81456e-002           8.14562e-003           1.45623e-004
                  136.00    341.15532                               25.64765             91.336                                        3.41155e+002           4.11553e+001           1.15532e+000           1.55321e-001           5.53207e-002           5.32066e-003           3.20664e-004
                  136.10    341.16131                               25.94272             91.336                                        3.41161e+002           4.11613e+001           1.16131e+000           1.61313e-001           6.13133e-002           1.31331e-003           3.13311e-004
                  136.20    341.17083                               26.23764             91.336                                        3.41171e+002           4.11708e+001           1.17083e+000           1.70826e-001           7.08255e-002           8.25534e-004           8.25534e-004
                  136.30    341.17312                               26.53256             91.336                                        3.41173e+002           4.11731e+001           1.17312e+000           1.73124e-001           7.31241e-002           3.12413e-003           1.24128e-004
                  136.40    341.17186                               26.82749             91.336                                        3.41172e+002           4.11719e+001           1.17186e+000           1.71860e-001           7.18602e-002           1.86021e-003           8.60214e-004
