~VERSION INFORMATION
VERS                    .            2.0                                    :CWLS LOG ASCII STANDARD
WRAP                    .            NO                                     :ONE LINE PER TIME STEP


~WELL INFORMATION
#MNEM                   .UNIT        DATA                                    DESCRIPTION
#________________________________________________________________________________________
STRTTIME                .HH/MM/SS    01:44:52                               :START TIME
STOPTIME                .HH/MM/SS    01:47:47                               :STOP TIME
STRT                    .s           2.10                                   :START DATA
STOP                    .s           173.40                                 :STOP DATA
STEP                    .s           0.10                                   :MEASUREMENT TIME INTERVAL
NULL                    .            -999.25                                :NULL VALUE
COMP                    .            Statoil ASA                            :COMPANY
FLD                     .            Volve                                  :FIELD
WELL                    .            15/9-F-1 C                             :WELL
RUN                     .            4                                      :RUN
LOC                     .                                                   :LOCATION
PROV                    .            na                                     :PROVINCE
SRVC                    .            Baker Hughes INTEQ                     :SERVICE COMPANY
DATE                    .YY/MM/DD    14/03/15                               :LOG DATE
UWI                     .                                                   :UNIQUE WELL ID
DEPTHMD                 .m           3620.2                                 :MEASURED DEPTH
DEPTHTVD                .m           3012.3                                 :TRUE VERTICAL DEPTH


~CURVE INFORMATION
#MNEM                   .UNIT        API CODES                               DESCRIPTION
#________________________________________________________________________________________
TIME                    .s                                                  :01 TIME
DD_PRESS                .bar                                                :02 DRAW DOWN PRESSURE
DD_VOLUME               .cm3                                                :03 INCREMENTAL DRAW DOWN VOLUME
TEMP                    .degC                                               :04 TRANSDUCER TEMPERATURE
DD_PRESS_MOD_1000       .bar                                                :05 DRAW DOWN PRESSURE MOD 1000
DD_PRESS_MOD_100        .bar                                                :06 DRAW DOWN PRESSURE MOD 100
DD_PRESS_MOD_10         .bar                                                :07 DRAW DOWN PRESSURE MOD 10
DD_PRESS_MOD_1          .bar                                                :08 DRAW DOWN PRESSURE MOD 1
DD_PRESS_MOD_01         .bar                                                :09 DRAW DOWN PRESSURE MOD 01
DD_PRESS_MOD_001        .bar                                                :10 DRAW DOWN PRESSURE MOD 001
DD_PRESS_MOD_0001       .bar                                                :11 DRAW DOWN PRESSURE MOD 0001


~PARAMETER INFORMATION
#MNEM                   .UNIT        VALUE                                   DESCRIPTION
#________________________________________________________________________________________
TOOLFACE                .deg         108.7                                  :01 TOOLFACE
PUMP_CAPACITY           .bar         400                                    :02 NOMINAL DRAW DOWN PUMP CAPACITY
PUMP_LIMIT              .bar         240                                    :03 DOWNLINK PUMP LIMIT
TIME_LIMIT              .min         10                                     :04 DOWNLINK MAX TIME
TEST_TYPE               .            REPEAT                                 :05 DOWNLINK
TEST_TYPE               .            HIGH MOBILITY                          :06 DOWNLINK
DD_PIST_A               .cm2         3.1416                                 :07 DRAW DOWN PISTON AREA
V_SYS                   .cm3         131.0000                               :08 SYSTEM VOLUME
PROBE_ID                .cm          1.2700                                 :09 TTK PROBE ID
G0                      .            4.6700                                 :10 GEOMETRY FACTOR


~A                  TIME     DD_PRESS                              DD_VOLUME               TEMP                                   DD_PRESS_MOD_1000       DD_PRESS_MOD_100        DD_PRESS_MOD_10         DD_PRESS_MOD_1        DD_PRESS_MOD_01       DD_PRESS_MOD_001      DD_PRESS_MOD_0001
# ...
                  114.10    343.69202                               19.97210             87.104                                        3.43692e+002           4.36920e+001           3.69202e+000           6.92016e-001           9.20161e-002           2.01613e-003           1.61287e-005
                  114.20    343.20716                               20.22171             87.102                                        3.43207e+002           4.32072e+001           3.20716e+000           2.07162e-001           7.16228e-003           7.16228e-003           1.62278e-004
                  114.30    342.99421                               20.51405             87.102                                        3.42994e+002           4.29942e+001           2.99421e+000           9.94206e-001           9.42064e-002           4.20639e-003           2.06388e-004
                  114.40    342.89293                               20.80854             87.102                                        3.42893e+002           4.28929e+001           2.89293e+000           8.92928e-001           9.29279e-002           2.92790e-003           9.27901e-004
                  114.50    342.81894                               21.10339             87.102                                        3.42819e+002           4.28189e+001           2.81894e+000           8.18936e-001           1.89364e-002           8.93641e-003           9.36408e-004
                  114.60    342.76439                               21.39836             87.102                                        3.42764e+002           4.27644e+001           2.76439e+000           7.64393e-001           6.43926e-002           4.39265e-003           3.92648e-004
                  114.70    342.71998                               21.69337             87.102                                        3.42720e+002           4.27200e+001           2.71998e+000           7.19978e-001           1.99776e-002           9.97758e-003           9.77579e-004
                  114.80    342.68115                               21.98835             87.102                                        3.42681e+002           4.26811e+001           2.68115e+000           6.81145e-001           8.11454e-002           1.14542e-003           1.45422e-004
                  114.90    342.65145                               22.28326             87.102                                        3.42651e+002           4.26514e+001           2.65145e+000           6.51448e-001           5.14477e-002           1.44766e-003           4.47659e-004
                  115.00    342.62830                               22.57816             87.102                                        3.42628e+002           4.26283e+001           2.62830e+000           6.28301e-001           2.83006e-002           8.30061e-003           3.00609e-004
                  115.10    342.60401                               22.87310             87.102                                        3.42604e+002           4.26040e+001           2.60401e+000           6.04013e-001           4.01324e-003           4.01324e-003           1.32396e-005
                  115.20    342.57837                               23.16804             87.102                                        3.42578e+002           4.25784e+001           2.57837e+000           5.78369e-001           7.83689e-002           8.36886e-003           3.68864e-004
                  115.30    342.55901                               23.46303             87.102                                        3.42559e+002           4.25590e+001           2.55901e+000           5.59006e-001           5.90061e-002           9.00612e-003           6.11939e-006
                  115.40    342.53898                               23.75791             87.102                                        3.42539e+002           4.25390e+001           2.53898e+000           5.38978e-001           3.89784e-002           8.97843e-003           9.78434e-004
                  115.50    342.51454                               24.05285             87.102                                        3.42515e+002           4.25145e+001           2.51454e+000           5.14542e-001           1.45419e-002           4.54193e-003           5.41927e-004
                  115.60    342.49569                               24.34780             87.102                                        3.42496e+002           4.24957e+001           2.49569e+000           4.95691e-001           9.56907e-002           5.69066e-003           6.90656e-004
                  115.70    342.49530                               24.64274             87.102                                        3.42495e+002           4.24953e+001           2.49530e+000           4.95305e-001           9.53049e-002           5.30493e-003           3.04932e-004
                  115.80    342.49689                               24.93764             87.102                                        3.42497e+002           4.24969e+001           2.49689e+000           4.96886e-001           9.68859e-002           6.88593e-003           8.85933e-004
                  115.90    342.48870                               25.23254             87.102                                        3.42489e+002           4.24887e+001           2.48870e+000           4.88701e-001           8.87010e-002           8.70097e-003           7.00974e-004
                  116.00    342.47554                               25.52747             87.102                                        3.42476e+002           4.24755e+001           2.47554e+000           4.75536e-001           7.55361e-002           5.53610e-003           5.36097e-004
                  116.10    342.46673                               25.82252             87.102                                        3.42467e+002           4.24667e+001           2.46673e+000           4.66733e-001           6.67333e-002           6.73326e-003           7.33262e-004
                  116.20    342.45518                               26.11755             87.102                                        3.42455e+002           4.24552e+001           2.45518e+000           4.55180e-001           5.51802e-002           5.18022e-003           1.80220e-004
                  116.30    342.47786                               26.41241             87.102                                        3.42478e+002           4.24779e+001           2.47786e+000           4.77863e-001           7.78635e-002           7.86346e-003           8.63460e-004
                  116.40    342.52438                               26.70732             87.102                                        3.42524e+002           4.25244e+001           2.52438e+000           5.24376e-001           2.43759e-002           4.37586e-003           3.75855e-004
                  116.50    342.55066                               27.00229             87.102                                        3.42551e+002           4.25507e+001           2.55066e+000           5.50658e-001           5.06582e-002           6.58245e-004           6.58245e-004
                  116.60    342.54671                               27.29729             87.102                                        3.42547e+002           4.25467e+001           2.54671e+000           5.46714e-001           4.67142e-002           6.71418e-003           7.14177e-004
                  116.70    342.53963                               27.59222             87.102                                        3.42540e+002           4.25396e+001           2.53963e+000           5.39627e-001           3.96268e-002           9.62682e-003           6.26825e-004
                  116.80    342.52745                               27.88716             87.102                                        3.42527e+002           4.25274e+001           2.52745e+000           5.27448e-001           2.74478e-002           7.44776e-003           4.47759e-004
