~VERSION INFORMATION
VERS                    .            2.0                                    :CWLS LOG ASCII STANDARD
WRAP                    .            NO                                     :ONE LINE PER TIME STEP


~WELL INFORMATION
#MNEM                   .UNIT        DATA                                    DESCRIPTION
#________________________________________________________________________________________
STRTTIME                .HH/MM/SS    22:05:32                               :START TIME
STOPTIME                .HH/MM/SS    22:09:32                               :STOP TIME
STRT                    .s           2.10                                   :START DATA
STOP                    .s           238.90                                 :STOP DATA
STEP                    .s           0.10                                   :MEASUREMENT TIME INTERVAL
NULL                    .            -999.25                                :NULL VALUE
COMP                    .            Statoil                                :COMPANY
FLD                     .            Volve                                  :FIELD
WELL                    .            15/9-F-11 T2                           :WELL
RUN                     .            7                                      :RUN
LOC                     .            Maersk Inspirer                        :LOCATION
PROV                    .            na                                     :PROVINCE
SRVC                    .            Baker Hughes INTEQ                     :SERVICE COMPANY
DATE                    .YY/MM/DD    13/05/04                               :LOG DATE
UWI                     .                                                   :UNIQUE WELL ID
DEPTHMD                 .m           4490.1                                 :MEASURED DEPTH
DEPTHTVD                .m           3328.5                                 :TRUE VERTICAL DEPTH


~CURVE INFORMATION
#MNEM                   .UNIT        API CODES                               DESCRIPTION
#________________________________________________________________________________________
TIME                    .s                                                  :01 TIME
DD_PRESS                .bar                                                :02 DRAW DOWN PRESSURE
DD_VOLUME               .cm3                                                :03 INCREMENTAL DRAW DOWN VOLUME
TEMP                    .degC                                               :04 TRANSDUCER TEMPERATURE
DD_PRESS_MOD_1000       .bar                                                :05 DRAW DOWN PRESSURE MOD 1000
DD_PRESS_MOD_100        .bar                                                :06 DRAW DOWN PRESSURE MOD 100
DD_PRESS_MOD_10         .bar                                                :07 DRAW DOWN PRESSURE MOD 10
DD_PRESS_MOD_1          .bar                                                :08 DRAW DOWN PRESSURE MOD 1
DD_PRESS_MOD_01         .bar                                                :09 DRAW DOWN PRESSURE MOD 01
DD_PRESS_MOD_001        .bar                                                :10 DRAW DOWN PRESSURE MOD 001
DD_PRESS_MOD_0001       .bar                                                :11 DRAW DOWN PRESSURE MOD 0001


~PARAMETER INFORMATION
#MNEM                   .UNIT        VALUE                                   DESCRIPTION
#________________________________________________________________________________________
TOOLFACE                .deg         na                                     :01 TOOLFACE
PUMP_CAPACITY           .bar         400                                    :02 NOMINAL DRAW DOWN PUMP CAPACITY
PUMP_LIMIT              .bar         240                                    :03 DOWNLINK PUMP LIMIT
TIME_LIMIT              .min         10                                     :04 DOWNLINK MAX TIME
TEST_TYPE               .            HIGH MOBILITY                          :05 DOWNLINK
DD_PIST_A               .cm2         3.1416                                 :06 DRAW DOWN PISTON AREA
V_SYS                   .cm3         131.0000                               :07 SYSTEM VOLUME
PROBE_ID                .cm          1.2700                                 :08 TTK PROBE ID
G0                      .            4.6700                                 :09 GEOMETRY FACTOR


~A                  TIME     DD_PRESS                              DD_VOLUME               TEMP                                   DD_PRESS_MOD_1000       DD_PRESS_MOD_100        DD_PRESS_MOD_10         DD_PRESS_MOD_1        DD_PRESS_MOD_01       DD_PRESS_MOD_001      DD_PRESS_MOD_0001
# ...
                  206.50    367.50549                               23.59084             97.250                                        3.67505e+002           6.75055e+001           7.50549e+000           5.05487e-001           5.48717e-003           5.48717e-003           4.87165e-004
                  206.60    367.43554                               23.59084             97.250                                        3.67436e+002           6.74355e+001           7.43554e+000           4.35542e-001           3.55415e-002           5.54153e-003           5.41527e-004
                  206.70    367.45873                               23.59084             97.250                                        3.67459e+002           6.74587e+001           7.45873e+000           4.58734e-001           5.87339e-002           8.73393e-003           7.33933e-004
                  206.80    367.51843                               23.59084             97.250                                        3.67518e+002           6.75184e+001           7.51843e+000           5.18430e-001           1.84299e-002           8.42989e-003           4.29891e-004
                  206.90    367.53608                               23.59084             97.250                                        3.67536e+002           6.75361e+001           7.53608e+000           5.36085e-001           3.60849e-002           6.08492e-003           8.49226e-005
                  207.00    367.51007                               23.59084             97.250                                        3.67510e+002           6.75101e+001           7.51007e+000           5.10071e-001           1.00712e-002           7.11894e-005           7.11894e-005
                  207.10    367.50218                               23.59084             97.250                                        3.67502e+002           6.75022e+001           7.50218e+000           5.02183e-001           2.18270e-003           2.18270e-003           1.82703e-004
                  207.20    367.51554                               23.59084             97.250                                        3.67516e+002           6.75155e+001           7.51554e+000           5.15541e-001           1.55408e-002           5.54085e-003           5.40845e-004
                  207.30    367.50732                               23.59084             97.250                                        3.67507e+002           6.75073e+001           7.50732e+000           5.07315e-001           7.31547e-003           7.31547e-003           3.15473e-004
                  207.40    367.49889                               23.59084             97.250                                        3.67499e+002           6.74989e+001           7.49889e+000           4.98895e-001           9.88949e-002           8.89491e-003           8.94915e-004
                  207.50    367.50229                               23.59084             97.250                                        3.67502e+002           6.75023e+001           7.50229e+000           5.02293e-001           2.29334e-003           2.29334e-003           2.93339e-004
                  207.60    367.50305                               23.59084             97.250                                        3.67503e+002           6.75031e+001           7.50305e+000           5.03053e-001           3.05340e-003           3.05340e-003           5.34042e-005
                  207.70    367.50864                               23.59084             97.250                                        3.67509e+002           6.75086e+001           7.50864e+000           5.08641e-001           8.64130e-003           8.64130e-003           6.41303e-004
                  207.80    367.50082                               23.59084             97.250                                        3.67501e+002           6.75008e+001           7.50082e+000           5.00819e-001           8.19284e-004           8.19284e-004           8.19284e-004
                  207.90    367.48149                               23.59084             97.250                                        3.67481e+002           6.74815e+001           7.48149e+000           4.81495e-001           8.14949e-002           1.49494e-003           4.94943e-004
                  208.00    367.48394                               23.59084             97.250                                        3.67484e+002           6.74839e+001           7.48394e+000           4.83939e-001           8.39390e-002           3.93896e-003           9.38962e-004
                  208.10    367.51450                               23.59084             97.250                                        3.67515e+002           6.75145e+001           7.51450e+000           5.14503e-001           1.45025e-002           4.50252e-003           5.02519e-004
                  208.20    367.53265                               23.59084             97.250                                        3.67533e+002           6.75327e+001           7.53265e+000           5.32654e-001           3.26542e-002           2.65415e-003           6.54154e-004
                  208.30    367.51161                               23.59084             97.250                                        3.67512e+002           6.75116e+001           7.51161e+000           5.11614e-001           1.16139e-002           1.61394e-003           6.13938e-004
                  208.40    367.48855                               23.59084             97.250                                        3.67489e+002           6.74885e+001           7.48855e+000           4.88548e-001           8.85479e-002           8.54795e-003           5.47950e-004
                  208.50    367.49955                               23.59084             97.250                                        3.67500e+002           6.74996e+001           7.49955e+000           4.99553e-001           9.95535e-002           9.55347e-003           5.53466e-004
                  208.60    367.51316                               23.59084             97.250                                        3.67513e+002           6.75132e+001           7.51316e+000           5.13160e-001           1.31599e-002           3.15986e-003           1.59858e-004
                  208.70    367.51870                               23.59084             97.250                                        3.67519e+002           6.75187e+001           7.51870e+000           5.18699e-001           1.86991e-002           8.69905e-003           6.99053e-004
                  208.80    367.51078                               23.59084             97.250                                        3.67511e+002           6.75108e+001           7.51078e+000           5.10777e-001           1.07774e-002           7.77442e-004           7.77442e-004
                  208.90    367.50597                               23.59084             97.250                                        3.67506e+002           6.75060e+001           7.50597e+000           5.05972e-001           5.97179e-003           5.97179e-003           9.71790e-004
                  209.00    367.51321                               23.59084             97.250                                        3.67513e+002           6.75132e+001           7.51321e+000           5.13211e-001           1.32111e-002           3.21114e-003           2.11141e-004
                  209.10    367.51820                               23.59084             97.250                                        3.67518e+002           6.75182e+001           7.51820e+000           5.18199e-001           1.81987e-002           8.19866e-003           1.98662e-004
                  209.20    367.49696                               23.59084             97.250                                        3.67497e+002           6.74970e+001           7.49696e+000           4.96957e-001           9.69574e-002           6.95741e-003           9.57411e-004
