~VERSION INFORMATION
VERS                    .            2.0                                    :CWLS LOG ASCII STANDARD
WRAP                    .            NO                                     :ONE LINE PER TIME STEP


~WELL INFORMATION
#MNEM                   .UNIT        DATA                                    DESCRIPTION
#________________________________________________________________________________________
STRTTIME                .HH/MM/SS    19:20:48                               :START TIME
STOPTIME                .HH/MM/SS    19:23:33                               :STOP TIME
STRT                    .s           2.10                                   :START DATA
STOP                    .s           164.00                                 :STOP DATA
STEP                    .s           0.10                                   :MEASUREMENT TIME INTERVAL
NULL                    .            -999.25                                :NULL VALUE
COMP                    .            Statoil ASA                            :COMPANY
FLD                     .            Volve                                  :FIELD
WELL                    .            15/9-F-11 A                            :WELL
RUN                     .            8                                      :RUN
LOC                     .            Maersk Inspirer                        :LOCATION
PROV                    .            na                                     :PROVINCE
SRVC                    .            Baker Hughes INTEQ                     :SERVICE COMPANY
DATE                    .YY/MM/DD    13/05/23                               :LOG DATE
UWI                     .                                                   :UNIQUE WELL ID
DEPTHMD                 .m           3617.0                                 :MEASURED DEPTH
DEPTHTVD                .m           3015.4                                 :TRUE VERTICAL DEPTH


~CURVE INFORMATION
#MNEM                   .UNIT        API CODES                               DESCRIPTION
#________________________________________________________________________________________
TIME                    .s                                                  :01 TIME
DD_PRESS                .bar                                                :02 DRAW DOWN PRESSURE
DD_VOLUME               .cm3                                                :03 INCREMENTAL DRAW DOWN VOLUME
TEMP                    .degC                                               :04 TRANSDUCER TEMPERATURE
DD_PRESS_MOD_1000       .bar                                                :05 DRAW DOWN PRESSURE MOD 1000
DD_PRESS_MOD_100        .bar                                                :06 DRAW DOWN PRESSURE MOD 100
DD_PRESS_MOD_10         .bar                                                :07 DRAW DOWN PRESSURE MOD 10
DD_PRESS_MOD_1          .bar                                                :08 DRAW DOWN PRESSURE MOD 1
DD_PRESS_MOD_01         .bar                                                :09 DRAW DOWN PRESSURE MOD 01
DD_PRESS_MOD_001        .bar                                                :10 DRAW DOWN PRESSURE MOD 001
DD_PRESS_MOD_0001       .bar                                                :11 DRAW DOWN PRESSURE MOD 0001


~PARAMETER INFORMATION
#MNEM                   .UNIT        VALUE                                   DESCRIPTION
#________________________________________________________________________________________
TOOLFACE                .deg         -39.9                                  :01 TOOLFACE
PUMP_CAPACITY           .bar         400                                    :02 NOMINAL DRAW DOWN PUMP CAPACITY
PUMP_LIMIT              .bar         240                                    :03 DOWNLINK PUMP LIMIT
TIME_LIMIT              .min         10                                     :04 DOWNLINK MAX TIME
TEST_TYPE               .            REPEAT                                 :05 DOWNLINK
TEST_TYPE               .            HIGH MOBILITY                          :06 DOWNLINK
DD_PIST_A               .cm2         3.1416                                 :07 DRAW DOWN PISTON AREA
V_SYS                   .cm3         131.0000                               :08 SYSTEM VOLUME
PROBE_ID                .cm          1.2700                                 :09 TTK PROBE ID
G0                      .            4.6700                                 :10 GEOMETRY FACTOR


~A                  TIME     DD_PRESS                              DD_VOLUME               TEMP                                   DD_PRESS_MOD_1000       DD_PRESS_MOD_100        DD_PRESS_MOD_10         DD_PRESS_MOD_1        DD_PRESS_MOD_01       DD_PRESS_MOD_001      DD_PRESS_MOD_0001
# ...
                   55.30    340.84939                               10.72576             72.125                                        3.40849e+002           4.08494e+001           8.49394e-001           8.49394e-001           4.93940e-002           9.39401e-003           3.94007e-004
                   55.40    340.85042                               10.72576             72.125                                        3.40850e+002           4.08504e+001           8.50418e-001           8.50418e-001           5.04176e-002           4.17627e-004           4.17627e-004
                   55.50    340.84846                               10.72576             72.125                                        3.40848e+002           4.08485e+001           8.48465e-001           8.48465e-001           4.84649e-002           8.46486e-003           4.64856e-004
                   55.60    340.84785                               10.72576             72.125                                        3.40848e+002           4.08478e+001           8.47848e-001           8.47848e-001           4.78476e-002           7.84761e-003           8.47608e-004
                   55.70    340.84888                               10.72576             72.125                                        3.40849e+002           4.08489e+001           8.48876e-001           8.48876e-001           4.88761e-002           8.87610e-003           8.76103e-004
                   55.80    340.84793                               10.72576             72.125                                        3.40848e+002           4.08479e+001           8.47930e-001           8.47930e-001           4.79296e-002           7.92961e-003           9.29613e-004
                   55.90    340.84537                               10.72576             72.125                                        3.40845e+002           4.08454e+001           8.45372e-001           8.45372e-001           4.53724e-002           5.37238e-003           3.72380e-004
                   56.00    340.84443                               10.72576             72.125                                        3.40844e+002           4.08444e+001           8.44429e-001           8.44429e-001           4.44293e-002           4.42926e-003           4.29256e-004
                   56.10    340.84663                               10.72576             72.125                                        3.40847e+002           4.08466e+001           8.46625e-001           8.46625e-001           4.66251e-002           6.62511e-003           6.25109e-004
                   56.20    340.84693                               10.72576             72.125                                        3.40847e+002           4.08469e+001           8.46932e-001           8.46932e-001           4.69319e-002           6.93189e-003           9.31890e-004
                   56.30    340.84372                               10.72576             72.125                                        3.40844e+002           4.08437e+001           8.43720e-001           8.43720e-001           4.37201e-002           3.72007e-003           7.20066e-004
                   56.40    340.84346                               10.72576             72.125                                        3.40843e+002           4.08435e+001           8.43460e-001           8.43460e-001           4.34596e-002           3.45958e-003           4.59580e-004
                   56.50    340.85096                               10.72576             72.125                                        3.40851e+002           4.08510e+001           8.50961e-001           8.50961e-001           5.09610e-002           9.60995e-004           9.60995e-004
                   56.60    340.85354                               10.72576             72.125                                        3.40854e+002           4.08535e+001           8.53541e-001           8.53541e-001           5.35415e-002           3.54147e-003           5.41470e-004
                   56.70    340.84751                               10.72576             72.125                                        3.40848e+002           4.08475e+001           8.47511e-001           8.47511e-001           4.75115e-002           7.51149e-003           5.11487e-004
                   56.80    340.84448                               10.72576             72.125                                        3.40844e+002           4.08445e+001           8.44484e-001           8.44484e-001           4.44839e-002           4.48391e-003           4.83911e-004
                   56.90    340.84787                               10.72576             72.125                                        3.40848e+002           4.08479e+001           8.47871e-001           8.47871e-001           4.78714e-002           7.87139e-003           8.71391e-004
                   57.00    340.84951                               10.72576             72.125                                        3.40850e+002           4.08495e+001           8.49509e-001           8.49509e-001           4.95085e-002           9.50851e-003           5.08509e-004
                   57.10    340.84579                               10.72576             72.125                                        3.40846e+002           4.08458e+001           8.45790e-001           8.45790e-001           4.57904e-002           5.79035e-003           7.90352e-004
                   57.20    340.84657                               10.72576             72.125                                        3.40847e+002           4.08466e+001           8.46567e-001           8.46567e-001           4.65671e-002           6.56713e-003           5.67134e-004
                   57.30    340.84973                               10.72576             72.125                                        3.40850e+002           4.08497e+001           8.49726e-001           8.49726e-001           4.97257e-002           9.72574e-003           7.25736e-004
                   57.40    340.85030                               10.72576             72.125                                        3.40850e+002           4.08503e+001           8.50296e-001           8.50296e-001           5.02962e-002           2.96231e-004           2.96231e-004
                   57.50    340.84995                               10.72576             72.125                                        3.40850e+002           4.08499e+001           8.49945e-001           8.49945e-001           4.99453e-002           9.94530e-003           9.45297e-004
                   57.60    340.84962                               10.72576             72.125                                        3.40850e+002           4.08496e+001           8.49623e-001           8.49623e-001           4.96229e-002           9.62290e-003           6.22898e-004
                   57.70    340.85037                               10.72576             72.125                                        3.40850e+002           4.08504e+001           8.50369e-001           8.50369e-001           5.03688e-002           3.68847e-004           3.68847e-004
                   57.80    340.85046                               10.72576             72.125                                        3.40850e+002           4.08505e+001           8.50465e-001           8.50465e-001           5.04649e-002           4.64927e-004           4.64927e-004
                   57.90    340.84728                               10.72576             72.125                                        3.40847e+002           4.08473e+001           8.47284e-001           8.47284e-001           4.72843e-002           7.28426e-003           2.84262e-004
                   58.00    340.84442                               10.72576             72.125                                        3.40844e+002           4.08444e+001           8.44421e-001           8.44421e-001           4.44207e-002           4.42074e-003           4.20741e-004
