~VERSION INFORMATION
VERS                    .            2.0                                    :CWLS LOG ASCII STANDARD
WRAP                    .            NO                                     :ONE LINE PER TIME STEP


~WELL INFORMATION
#MNEM                   .UNIT        DATA                                    DESCRIPTION
#________________________________________________________________________________________
STRTTIME                .HH/MM/SS    16:02:11                               :START TIME
STOPTIME                .HH/MM/SS    16:05:47                               :STOP TIME
STRT                    .s           2.10                                   :START DATA
STOP                    .s           214.40                                 :STOP DATA
STEP                    .s           0.10                                   :MEASUREMENT TIME INTERVAL
NULL                    .            -999.25                                :NULL VALUE
COMP                    .            Statoil ASA                            :COMPANY
FLD                     .            Volve                                  :FIELD
WELL                    .            15/9-F-1 B                             :WELL
RUN                     .            7                                      :RUN
LOC                     .            Maersk Inspirer                        :LOCATION
PROV                    .            na                                     :PROVINCE
SRVC                    .            Baker Hughes INTEQ                     :SERVICE COMPANY
DATE                    .YY/MM/DD    13/09/06                               :LOG DATE
UWI                     .                                                   :UNIQUE WELL ID
DEPTHMD                 .m           3261.0                                 :MEASURED DEPTH
DEPTHTVD                .m           3057.0                                 :TRUE VERTICAL DEPTH


~CURVE INFORMATION
#MNEM                   .UNIT        API CODES                               DESCRIPTION
#________________________________________________________________________________________
TIME                    .s                                                  :01 TIME
DD_PRESS                .bar                                                :02 DRAW DOWN PRESSURE
DD_VOLUME               .cm3                                                :03 INCREMENTAL DRAW DOWN VOLUME
TEMP                    .degC                                               :04 TRANSDUCER TEMPERATURE
DD_PRESS_MOD_1000       .bar                                                :05 DRAW DOWN PRESSURE MOD 1000
DD_PRESS_MOD_100        .bar                                                :06 DRAW DOWN PRESSURE MOD 100
DD_PRESS_MOD_10         .bar                                                :07 DRAW DOWN PRESSURE MOD 10
DD_PRESS_MOD_1          .bar                                                :08 DRAW DOWN PRESSURE MOD 1
DD_PRESS_MOD_01         .bar                                                :09 DRAW DOWN PRESSURE MOD 01
DD_PRESS_MOD_001        .bar                                                :10 DRAW DOWN PRESSURE MOD 001
DD_PRESS_MOD_0001       .bar                                                :11 DRAW DOWN PRESSURE MOD 0001


~PARAMETER INFORMATION
#MNEM                   .UNIT        VALUE                                   DESCRIPTION
#________________________________________________________________________________________
TOOLFACE                .deg         na                                     :01 TOOLFACE
PUMP_CAPACITY           .bar         400                                    :02 NOMINAL DRAW DOWN PUMP CAPACITY
PUMP_LIMIT              .bar         400                                    :03 DOWNLINK PUMP LIMIT
TIME_LIMIT              .min         10                                     :04 DOWNLINK MAX TIME
TEST_TYPE               .            LOW MOBILITY                           :05 DOWNLINK
DD_PIST_A               .cm2         3.1416                                 :06 DRAW DOWN PISTON AREA
V_SYS                   .cm3         131.0000                               :07 SYSTEM VOLUME
PROBE_ID                .cm          1.2700                                 :08 TTK PROBE ID
G0                      .            4.6700                                 :09 GEOMETRY FACTOR


~A                  TIME     DD_PRESS                              DD_VOLUME               TEMP                                   DD_PRESS_MOD_1000       DD_PRESS_MOD_100        DD_PRESS_MOD_10         DD_PRESS_MOD_1        DD_PRESS_MOD_01       DD_PRESS_MOD_001      DD_PRESS_MOD_0001
# ...
                   30.10    372.75918                                2.15204             82.156                                        3.72759e+002           7.27592e+001           2.75918e+000           7.59181e-001           5.91809e-002           9.18086e-003           1.80864e-004
                   30.20    367.94358                                2.21101             82.156                                        3.67944e+002           6.79436e+001           7.94358e+000           9.43578e-001           4.35782e-002           3.57820e-003           5.78195e-004
                   30.30    362.96404                                2.27151             82.156                                        3.62964e+002           6.29640e+001           2.96404e+000           9.64037e-001           6.40366e-002           4.03664e-003           3.66403e-005
                   30.40    357.82732                                2.33363             82.156                                        3.57827e+002           5.78273e+001           7.82732e+000           8.27319e-001           2.73193e-002           7.31931e-003           3.19312e-004
                   30.50    352.58855                                2.39724             82.156                                        3.52589e+002           5.25886e+001           2.58855e+000           5.88555e-001           8.85548e-002           8.55477e-003           5.54766e-004
                   30.60    347.47339                                2.46227             82.156                                        3.47473e+002           4.74734e+001           7.47339e+000           4.73390e-001           7.33902e-002           3.39017e-003           3.90166e-004
                   30.70    343.46579                                2.52893             82.156                                        3.43466e+002           4.34658e+001           3.46579e+000           4.65795e-001           6.57949e-002           5.79492e-003           7.94920e-004
                   30.80    341.30361                                2.59719             82.156                                        3.41304e+002           4.13036e+001           1.30361e+000           3.03611e-001           3.61105e-003           3.61105e-003           6.11050e-004
                   30.90    340.51323                                2.66695             82.156                                        3.40513e+002           4.05132e+001           5.13227e-001           5.13227e-001           1.32272e-002           3.22715e-003           2.27155e-004
                   31.00    340.20731                                2.73800             82.156                                        3.40207e+002           4.02073e+001           2.07308e-001           2.07308e-001           7.30846e-003           7.30846e-003           3.08459e-004
                   31.10    340.03673                                2.81044             82.154                                        3.40037e+002           4.00367e+001           3.67253e-002           3.67253e-002           3.67253e-002           6.72533e-003           7.25331e-004
                   31.20    339.89597                                2.88425             82.150                                        3.39896e+002           3.98960e+001           9.89597e+000           8.95974e-001           9.59738e-002           5.97382e-003           9.73822e-004
                   31.30    339.78408                                2.95946             82.148                                        3.39784e+002           3.97841e+001           9.78408e+000           7.84077e-001           8.40767e-002           4.07670e-003           7.67008e-005
                   31.40    339.68274                                3.03592             82.148                                        3.39683e+002           3.96827e+001           9.68274e+000           6.82740e-001           8.27402e-002           2.74019e-003           7.40190e-004
                   31.50    339.57828                                3.11367             82.148                                        3.39578e+002           3.95783e+001           9.57828e+000           5.78278e-001           7.82784e-002           8.27842e-003           2.78415e-004
                   31.60    339.46356                                3.19265             82.148                                        3.39464e+002           3.94636e+001           9.46356e+000           4.63556e-001           6.35556e-002           3.55557e-003           5.55572e-004
                   31.70    339.36176                                3.27281             82.148                                        3.39362e+002           3.93618e+001           9.36176e+000           3.61764e-001           6.17644e-002           1.76442e-003           7.64419e-004
                   31.80    339.27501                                3.35416             82.148                                        3.39275e+002           3.92750e+001           9.27501e+000           2.75007e-001           7.50066e-002           5.00658e-003           6.57557e-006
                   31.90    339.17978                                3.43665             82.148                                        3.39180e+002           3.91798e+001           9.17978e+000           1.79780e-001           7.97798e-002           9.77982e-003           7.79819e-004
                   32.00    339.07614                                3.52029             82.148                                        3.39076e+002           3.90761e+001           9.07614e+000           7.61437e-002           7.61437e-002           6.14366e-003           1.43656e-004
                   32.10    338.99226                                3.60492             82.148                                        3.38992e+002           3.89923e+001           8.99226e+000           9.92263e-001           9.22634e-002           2.26345e-003           2.63448e-004
                   32.20    338.91262                                3.69063             82.148                                        3.38913e+002           3.89126e+001           8.91262e+000           9.12621e-001           1.26209e-002           2.62093e-003           6.20925e-004
                   32.30    338.81827                                3.77731             82.148                                        3.38818e+002           3.88183e+001           8.81827e+000           8.18267e-001           1.82667e-002           8.26667e-003           2.66666e-004
                   32.40    338.71576                                3.86492             82.148                                        3.38716e+002           3.87158e+001           8.71576e+000           7.15762e-001           1.57617e-002           5.76172e-003           7.61718e-004
                   32.50    338.64155                                3.95345             82.148                                        3.38642e+002           3.86416e+001           8.64155e+000           6.41550e-001           4.15500e-002           1.55003e-003           5.50029e-004
                   32.60    338.58323                                4.04296             82.146                                        3.38583e+002           3.85832e+001           8.58323e+000           5.83233e-001           8.32333e-002           3.23329e-003           2.33290e-004
                   32.70    338.50789                                4.13335             82.143                                        3.38508e+002           3.85079e+001           8.50789e+000           5.07893e-001           7.89309e-003           7.89309e-003           8.93090e-004
                   32.80    338.42234                                4.22454             82.141                                        3.38422e+002           3.84223e+001           8.42234e+000           4.22338e-001           2.23383e-002           2.33829e-003           3.38293e-004
