~VERSION INFORMATION
VERS                    .            2.0                                    :CWLS LOG ASCII STANDARD
WRAP                    .            NO                                     :ONE LINE PER TIME STEP


~WELL INFORMATION
#MNEM                   .UNIT        DATA                                    DESCRIPTION
#________________________________________________________________________________________
STRTTIME                .HH/MM/SS    11:44:47                               :START TIME
STOPTIME                .HH/MM/SS    11:47:33                               :STOP TIME
STRT                    .s           2.10                                   :START DATA
STOP                    .s           164.50                                 :STOP DATA
STEP                    .s           0.10                                   :MEASUREMENT TIME INTERVAL
NULL                    .            -999.25                                :NULL VALUE
COMP                    .            Statoil ASA                            :COMPANY
FLD                     .            Volve                                  :FIELD
WELL                    .            15/9-F-11 A                            :WELL
RUN                     .            8                                      :RUN
LOC                     .            Maersk Inspirer                        :LOCATION
PROV                    .            na                                     :PROVINCE
SRVC                    .            Baker Hughes INTEQ                     :SERVICE COMPANY
DATE                    .YY/MM/DD    13/05/21                               :LOG DATE
UWI                     .                                                   :UNIQUE WELL ID
DEPTHMD                 .m           3624.0                                 :MEASURED DEPTH
DEPTHTVD                .m           3020.7                                 :TRUE VERTICAL DEPTH


~CURVE INFORMATION
#MNEM                   .UNIT        API CODES                               DESCRIPTION
#________________________________________________________________________________________
TIME                    .s                                                  :01 TIME
DD_PRESS                .bar                                                :02 DRAW DOWN PRESSURE
DD_VOLUME               .cm3                                                :03 INCREMENTAL DRAW DOWN VOLUME
TEMP                    .degC                                               :04 TRANSDUCER TEMPERATURE
DD_PRESS_MOD_1000       .bar                                                :05 DRAW DOWN PRESSURE MOD 1000
DD_PRESS_MOD_100        .bar                                                :06 DRAW DOWN PRESSURE MOD 100
DD_PRESS_MOD_10         .bar                                                :07 DRAW DOWN PRESSURE MOD 10
DD_PRESS_MOD_1          .bar                                                :08 DRAW DOWN PRESSURE MOD 1
DD_PRESS_MOD_01         .bar                                                :09 DRAW DOWN PRESSURE MOD 01
DD_PRESS_MOD_001        .bar                                                :10 DRAW DOWN PRESSURE MOD 001
DD_PRESS_MOD_0001       .bar                                                :11 DRAW DOWN PRESSURE MOD 0001


~PARAMETER INFORMATION
#MNEM                   .UNIT        VALUE                                   DESCRIPTION
#________________________________________________________________________________________
TOOLFACE                .deg         61.7                                   :01 TOOLFACE
PUMP_CAPACITY           .bar         400                                    :02 NOMINAL DRAW DOWN PUMP CAPACITY
PUMP_LIMIT              .bar         240                                    :03 DOWNLINK PUMP LIMIT
TIME_LIMIT              .min         10                                     :04 DOWNLINK MAX TIME
TEST_TYPE               .            REPEAT                                 :05 DOWNLINK
TEST_TYPE               .            HIGH MOBILITY                          :06 DOWNLINK
DD_PIST_A               .cm2         3.1416                                 :07 DRAW DOWN PISTON AREA
V_SYS                   .cm3         131.0000                               :08 SYSTEM VOLUME
PROBE_ID                .cm          1.2700                                 :09 TTK PROBE ID
G0                      .            4.6700                                 :10 GEOMETRY FACTOR


~A                  TIME     DD_PRESS                              DD_VOLUME               TEMP                                   DD_PRESS_MOD_1000       DD_PRESS_MOD_100        DD_PRESS_MOD_10         DD_PRESS_MOD_1        DD_PRESS_MOD_01       DD_PRESS_MOD_001      DD_PRESS_MOD_0001
# ...
                  130.90    342.13360                               29.42480             81.422                                        3.42134e+002           4.21336e+001           2.13360e+000           1.33604e-001           3.36042e-002           3.60421e-003           6.04211e-004
                  131.00    342.13497                               29.42480             81.422                                        3.42135e+002           4.21350e+001           2.13497e+000           1.34969e-001           3.49688e-002           4.96877e-003           9.68775e-004
                  131.10    342.13511                               29.42480             81.422                                        3.42135e+002           4.21351e+001           2.13511e+000           1.35106e-001           3.51059e-002           5.10590e-003           1.05897e-004
                  131.20    342.13456                               29.42480             81.422                                        3.42135e+002           4.21346e+001           2.13456e+000           1.34560e-001           3.45597e-002           4.55969e-003           5.59690e-004
                  131.30    342.13486                               29.42480             81.422                                        3.42135e+002           4.21349e+001           2.13486e+000           1.34864e-001           3.48644e-002           4.86435e-003           8.64352e-004
                  131.40    342.13565                               29.42480             81.422                                        3.42136e+002           4.21356e+001           2.13565e+000           1.35646e-001           3.56462e-002           5.64619e-003           6.46188e-004
                  131.50    342.13337                               29.42480             81.422                                        3.42133e+002           4.21334e+001           2.13337e+000           1.33371e-001           3.33713e-002           3.37130e-003           3.71296e-004
                  131.60    342.13190                               29.42480             81.422                                        3.42132e+002           4.21319e+001           2.13190e+000           1.31903e-001           3.19025e-002           1.90250e-003           9.02500e-004
                  131.70    342.13336                               29.42480             81.422                                        3.42133e+002           4.21334e+001           2.13336e+000           1.33361e-001           3.33606e-002           3.36056e-003           3.60558e-004
                  131.80    342.13446                               29.42480             81.422                                        3.42134e+002           4.21345e+001           2.13446e+000           1.34455e-001           3.44552e-002           4.45520e-003           4.55205e-004
                  131.90    342.13314                               29.42480             81.422                                        3.42133e+002           4.21331e+001           2.13314e+000           1.33137e-001           3.31373e-002           3.13733e-003           1.37333e-004
                  132.00    342.13371                               29.42480             81.422                                        3.42134e+002           4.21337e+001           2.13371e+000           1.33706e-001           3.37063e-002           3.70632e-003           7.06319e-004
                  132.10    342.13595                               29.42480             81.422                                        3.42136e+002           4.21360e+001           2.13595e+000           1.35953e-001           3.59528e-002           5.95280e-003           9.52801e-004
                  132.20    342.13531                               29.42480             81.422                                        3.42135e+002           4.21353e+001           2.13531e+000           1.35309e-001           3.53089e-002           5.30894e-003           3.08939e-004
                  132.30    342.13181                               29.42480             81.422                                        3.42132e+002           4.21318e+001           2.13181e+000           1.31807e-001           3.18072e-002           1.80717e-003           8.07170e-004
                  132.40    342.13187                               29.42480             81.422                                        3.42132e+002           4.21319e+001           2.13187e+000           1.31865e-001           3.18651e-002           1.86511e-003           8.65106e-004
                  132.50    342.13437                               29.42480             81.422                                        3.42134e+002           4.21344e+001           2.13437e+000           1.34369e-001           3.43685e-002           4.36852e-003           3.68523e-004
                  132.60    342.13369                               29.42480             81.422                                        3.42134e+002           4.21337e+001           2.13369e+000           1.33687e-001           3.36873e-002           3.68734e-003           6.87337e-004
                  132.70    342.13375                               29.42480             81.422                                        3.42134e+002           4.21338e+001           2.13375e+000           1.33755e-001           3.37546e-002           3.75463e-003           7.54632e-004
                  132.80    342.13555                               29.42480             81.422                                        3.42136e+002           4.21355e+001           2.13555e+000           1.35547e-001           3.55475e-002           5.54746e-003           5.47456e-004
                  132.90    342.13493                               29.42480             81.422                                        3.42135e+002           4.21349e+001           2.13493e+000           1.34934e-001           3.49343e-002           4.93435e-003           9.34346e-004
                  133.00    342.13424                               29.42480             81.422                                        3.42134e+002           4.21342e+001           2.13424e+000           1.34236e-001           3.42360e-002           4.23602e-003           2.36017e-004
                  133.10    342.13523                               29.42480             81.422                                        3.42135e+002           4.21352e+001           2.13523e+000           1.35234e-001           3.52337e-002           5.23369e-003           2.33693e-004
                  133.20    342.13506                               29.42480             81.422                                        3.42135e+002           4.21351e+001           2.13506e+000           1.35059e-001           3.50586e-002           5.05863e-003           5.86276e-005
                  133.30    342.13401                               29.42480             81.422                                        3.42134e+002           4.21340e+001           2.13401e+000           1.34010e-001           3.40104e-002           4.01039e-003           1.03918e-005
                  133.40    342.13351                               29.42480             81.422                                        3.42134e+002           4.21335e+001           2.13351e+000           1.33511e-001           3.35109e-002           3.51093e-003           5.10926e-004
                  133.50    342.13425                               29.42480             81.422                                        3.42134e+002           4.21343e+001           2.13425e+000           1.34251e-001           3.42513e-002           4.25126e-003           2.51257e-004
                  133.60    342.13480                               29.42480             81.422                                        3.42135e+002           4.21348e+001           2.13480e+000           1.34798e-001           3.47981e-002           4.79808e-003           7.98078e-004
