~VERSION INFORMATION
VERS                    .            2.0                                    :CWLS LOG ASCII STANDARD
WRAP                    .            NO                                     :ONE LINE PER TIME STEP


~WELL INFORMATION
#MNEM                   .UNIT        DATA                                    DESCRIPTION
#________________________________________________________________________________________
STRTTIME                .HH/MM/SS    19:52:58                               :START TIME
STOPTIME                .HH/MM/SS    19:58:21                               :STOP TIME
STRT                    .s           2.10                                   :START DATA
STOP                    .s           321.30                                 :STOP DATA
STEP                    .s           0.10                                   :MEASUREMENT TIME INTERVAL
NULL                    .            -999.25                                :NULL VALUE
COMP                    .            Statoil ASA                            :COMPANY
FLD                     .            Volve                                  :FIELD
WELL                    .            15/9-F-11 A                            :WELL
RUN                     .            8                                      :RUN
LOC                     .            Maersk Inspirer                        :LOCATION
PROV                    .            na                                     :PROVINCE
SRVC                    .            Baker Hughes INTEQ                     :SERVICE COMPANY
DATE                    .YY/MM/DD    13/05/23                               :LOG DATE
UWI                     .                                                   :UNIQUE WELL ID
DEPTHMD                 .m           3602.0                                 :MEASURED DEPTH
DEPTHTVD                .m           3003.9                                 :TRUE VERTICAL DEPTH


~CURVE INFORMATION
#MNEM                   .UNIT        API CODES                               DESCRIPTION
#________________________________________________________________________________________
TIME                    .s                                                  :01 TIME
DD_PRESS                .bar                                                :02 DRAW DOWN PRESSURE
DD_VOLUME               .cm3                                                :03 INCREMENTAL DRAW DOWN VOLUME
TEMP                    .degC                                               :04 TRANSDUCER TEMPERATURE
DD_PRESS_MOD_1000       .bar                                                :05 DRAW DOWN PRESSURE MOD 1000
DD_PRESS_MOD_100        .bar                                                :06 DRAW DOWN PRESSURE MOD 100
DD_PRESS_MOD_10         .bar                                                :07 DRAW DOWN PRESSURE MOD 10
DD_PRESS_MOD_1          .bar                                                :08 DRAW DOWN PRESSURE MOD 1
DD_PRESS_MOD_01         .bar                                                :09 DRAW DOWN PRESSURE MOD 01
DD_PRESS_MOD_001        .bar                                                :10 DRAW DOWN PRESSURE MOD 001
DD_PRESS_MOD_0001       .bar                                                :11 DRAW DOWN PRESSURE MOD 0001


~PARAMETER INFORMATION
#MNEM                   .UNIT        VALUE                                   DESCRIPTION
#________________________________________________________________________________________
TOOLFACE                .deg         -40.9                                  :01 TOOLFACE
PUMP_CAPACITY           .bar         400                                    :02 NOMINAL DRAW DOWN PUMP CAPACITY
PUMP_LIMIT              .bar         240                                    :03 DOWNLINK PUMP LIMIT
TIME_LIMIT              .min         10                                     :04 DOWNLINK MAX TIME
TEST_TYPE               .            REPEAT                                 :05 DOWNLINK
TEST_TYPE               .            HIGH MOBILITY                          :06 DOWNLINK
DD_PIST_A               .cm2         3.1416                                 :07 DRAW DOWN PISTON AREA
V_SYS                   .cm3         131.0000                               :08 SYSTEM VOLUME
PROBE_ID                .cm          1.2700                                 :09 TTK PROBE ID
G0                      .            4.6700                                 :10 GEOMETRY FACTOR


~A                  TIME     DD_PRESS                              DD_VOLUME               TEMP                                   DD_PRESS_MOD_1000       DD_PRESS_MOD_100        DD_PRESS_MOD_10         DD_PRESS_MOD_1        DD_PRESS_MOD_01       DD_PRESS_MOD_001      DD_PRESS_MOD_0001
# ...
                  318.50    417.31106                                0.00000             71.172                                        4.17311e+002           1.73111e+001           7.31106e+000           3.11062e-001           1.10621e-002           1.06215e-003           6.21492e-005
                  318.60    417.32355                                0.00000             71.172                                        4.17324e+002           1.73235e+001           7.32355e+000           3.23549e-001           2.35489e-002           3.54889e-003           5.48892e-004
                  318.70    417.34091                                0.00000             71.172                                        4.17341e+002           1.73409e+001           7.34091e+000           3.40913e-001           4.09126e-002           9.12621e-004           9.12621e-004
                  318.80    417.31699                                0.00000             71.172                                        4.17317e+002           1.73170e+001           7.31699e+000           3.16993e-001           1.69934e-002           6.99344e-003           9.93444e-004
                  318.90    417.28268                                0.00000             71.172                                        4.17283e+002           1.72827e+001           7.28268e+000           2.82680e-001           8.26798e-002           2.67977e-003           6.79766e-004
                  319.00    417.30049                                0.00000             71.172                                        4.17300e+002           1.73005e+001           7.30049e+000           3.00492e-001           4.91642e-004           4.91642e-004           4.91642e-004
                  319.10    417.31589                                0.00000             71.172                                        4.17316e+002           1.73159e+001           7.31589e+000           3.15890e-001           1.58896e-002           5.88957e-003           8.89570e-004
                  319.20    417.28869                                0.00000             71.172                                        4.17289e+002           1.72887e+001           7.28869e+000           2.88693e-001           8.86931e-002           8.69310e-003           6.93099e-004
                  319.30    417.27645                                0.00000             71.172                                        4.17276e+002           1.72764e+001           7.27645e+000           2.76448e-001           7.64481e-002           6.44809e-003           4.48088e-004
                  319.40    417.32310                                0.00000             71.172                                        4.17323e+002           1.73231e+001           7.32310e+000           3.23099e-001           2.30994e-002           3.09939e-003           9.93898e-005
                  319.50    417.34299                                0.00000             71.172                                        4.17343e+002           1.73430e+001           7.34299e+000           3.42988e-001           4.29885e-002           2.98850e-003           9.88499e-004
                  319.60    417.30882                                0.00000             71.172                                        4.17309e+002           1.73088e+001           7.30882e+000           3.08817e-001           8.81680e-003           8.81680e-003           8.16797e-004
                  319.70    417.29217                                0.00000             71.172                                        4.17292e+002           1.72922e+001           7.29217e+000           2.92172e-001           9.21716e-002           2.17155e-003           1.71554e-004
                  319.80    417.32741                                0.00000             71.172                                        4.17327e+002           1.73274e+001           7.32741e+000           3.27406e-001           2.74059e-002           7.40586e-003           4.05861e-004
                  319.90    417.33260                                0.00000             71.172                                        4.17333e+002           1.73326e+001           7.33260e+000           3.32603e-001           3.26035e-002           2.60345e-003           6.03454e-004
                  320.00    417.29282                                0.00000             71.172                                        4.17293e+002           1.72928e+001           7.29282e+000           2.92822e-001           9.28219e-002           2.82187e-003           8.21874e-004
                  320.10    417.29008                                0.00000             71.172                                        4.17290e+002           1.72901e+001           7.29008e+000           2.90081e-001           9.00811e-002           8.11491e-005           8.11491e-005
                  320.20    417.33647                                0.00000             71.172                                        4.17336e+002           1.73365e+001           7.33647e+000           3.36470e-001           3.64701e-002           6.47010e-003           4.70097e-004
                  320.30    417.33686                                0.00000             71.172                                        4.17337e+002           1.73369e+001           7.33686e+000           3.36862e-001           3.68616e-002           6.86160e-003           8.61598e-004
                  320.40    417.29968                                0.00000             71.172                                        4.17300e+002           1.72997e+001           7.29968e+000           2.99682e-001           9.96822e-002           9.68219e-003           6.82190e-004
                  320.50    417.31168                                0.00000             71.172                                        4.17312e+002           1.73117e+001           7.31168e+000           3.11679e-001           1.16787e-002           1.67870e-003           6.78698e-004
                  320.60    417.34532                                0.00000             71.172                                        4.17345e+002           1.73453e+001           7.34532e+000           3.45317e-001           4.53171e-002           5.31710e-003           3.17097e-004
                  320.70    417.32321                                0.00000             71.172                                        4.17323e+002           1.73232e+001           7.32321e+000           3.23211e-001           2.32114e-002           3.21136e-003           2.11357e-004
                  320.80    417.28331                                0.00000             71.172                                        4.17283e+002           1.72833e+001           7.28331e+000           2.83312e-001           8.33117e-002           3.31166e-003           3.11659e-004
                  320.90    417.30766                                0.00000             71.172                                        4.17308e+002           1.73077e+001           7.30766e+000           3.07660e-001           7.66016e-003           7.66016e-003           6.60158e-004
                  321.00    417.34207                                0.00000             71.172                                        4.17342e+002           1.73421e+001           7.34207e+000           3.42067e-001           4.20673e-002           2.06734e-003           6.73370e-005
                  321.10    417.32304                                0.00000             71.172                                        4.17323e+002           1.73230e+001           7.32304e+000           3.23042e-001           2.30423e-002           3.04230e-003           4.23029e-005
                  321.20    417.29747                                0.00000             71.172                                        4.17297e+002           1.72975e+001           7.29747e+000           2.97468e-001           9.74675e-002           7.46751e-003           4.67506e-004
