~VERSION INFORMATION
VERS                    .            2.0                                    :CWLS LOG ASCII STANDARD
WRAP                    .            NO                                     :ONE LINE PER TIME STEP


~WELL INFORMATION
#MNEM                   .UNIT        DATA                                    DESCRIPTION
#________________________________________________________________________________________
STRTTIME                .HH/MM/SS    08:08:34                               :START TIME
STOPTIME                .HH/MM/SS    08:11:25                               :STOP TIME
STRT                    .s           2.10                                   :START DATA
STOP                    .s           169.10                                 :STOP DATA
STEP                    .s           0.10                                   :MEASUREMENT TIME INTERVAL
NULL                    .            -999.25                                :NULL VALUE
COMP                    .            Statoil ASA                            :COMPANY
FLD                     .            Volve                                  :FIELD
WELL                    .            15/9-F-11 A                            :WELL
RUN                     .            8                                      :RUN
LOC                     .            Maersk Inspirer                        :LOCATION
PROV                    .            na                                     :PROVINCE
SRVC                    .            Baker Hughes INTEQ                     :SERVICE COMPANY
DATE                    .YY/MM/DD    13/05/21                               :LOG DATE
UWI                     .                                                   :UNIQUE WELL ID
DEPTHMD                 .m           3694.5                                 :MEASURED DEPTH
DEPTHTVD                .m           3074.7                                 :TRUE VERTICAL DEPTH


~CURVE INFORMATION
#MNEM                   .UNIT        API CODES                               DESCRIPTION
#________________________________________________________________________________________
TIME                    .s                                                  :01 TIME
DD_PRESS                .bar                                                :02 DRAW DOWN PRESSURE
DD_VOLUME               .cm3                                                :03 INCREMENTAL DRAW DOWN VOLUME
TEMP                    .degC                                               :04 TRANSDUCER TEMPERATURE
DD_PRESS_MOD_1000       .bar                                                :05 DRAW DOWN PRESSURE MOD 1000
DD_PRESS_MOD_100        .bar                                                :06 DRAW DOWN PRESSURE MOD 100
DD_PRESS_MOD_10         .bar                                                :07 DRAW DOWN PRESSURE MOD 10
DD_PRESS_MOD_1          .bar                                                :08 DRAW DOWN PRESSURE MOD 1
DD_PRESS_MOD_01         .bar                                                :09 DRAW DOWN PRESSURE MOD 01
DD_PRESS_MOD_001        .bar                                                :10 DRAW DOWN PRESSURE MOD 001
DD_PRESS_MOD_0001       .bar                                                :11 DRAW DOWN PRESSURE MOD 0001


~PARAMETER INFORMATION
#MNEM                   .UNIT        VALUE                                   DESCRIPTION
#________________________________________________________________________________________
TOOLFACE                .deg         -107.9                                 :01 TOOLFACE
PUMP_CAPACITY           .bar         400                                    :02 NOMINAL DRAW DOWN PUMP CAPACITY
PUMP_LIMIT              .bar         240                                    :03 DOWNLINK PUMP LIMIT
TIME_LIMIT              .min         10                                     :04 DOWNLINK MAX TIME
TEST_TYPE               .            HIGH MOBILITY                          :05 DOWNLINK
DD_PIST_A               .cm2         3.1416                                 :06 DRAW DOWN PISTON AREA
V_SYS                   .cm3         131.0000                               :07 SYSTEM VOLUME
PROBE_ID                .cm          1.2700                                 :08 TTK PROBE ID
G0                      .            4.6700                                 :09 GEOMETRY FACTOR


~A                  TIME     DD_PRESS                              DD_VOLUME               TEMP                                   DD_PRESS_MOD_1000       DD_PRESS_MOD_100        DD_PRESS_MOD_10         DD_PRESS_MOD_1        DD_PRESS_MOD_01       DD_PRESS_MOD_001      DD_PRESS_MOD_0001
# ...
                  144.90    357.85544                                0.00000             84.859                                        3.57855e+002           5.78554e+001           7.85544e+000           8.55441e-001           5.54406e-002           5.44057e-003           4.40569e-004
                  145.00    359.56405                                0.00000             84.859                                        3.59564e+002           5.95640e+001           9.56405e+000           5.64050e-001           6.40498e-002           4.04977e-003           4.97671e-005
                  145.10    361.48844                                0.00000             84.859                                        3.61488e+002           6.14884e+001           1.48844e+000           4.88444e-001           8.84435e-002           8.44350e-003           4.43505e-004
                  145.20    363.34730                                0.00000             84.859                                        3.63347e+002           6.33473e+001           3.34730e+000           3.47304e-001           4.73045e-002           7.30447e-003           3.04469e-004
                  145.30    365.14292                                0.00000             84.859                                        3.65143e+002           6.51429e+001           5.14292e+000           1.42917e-001           4.29174e-002           2.91739e-003           9.17389e-004
                  145.40    367.10698                                0.00000             84.859                                        3.67107e+002           6.71070e+001           7.10698e+000           1.06979e-001           6.97894e-003           6.97894e-003           9.78941e-004
                  145.50    369.48642                                0.00000             84.859                                        3.69486e+002           6.94864e+001           9.48642e+000           4.86420e-001           8.64201e-002           6.42012e-003           4.20116e-004
                  145.60    372.02715                                0.00000             84.859                                        3.72027e+002           7.20271e+001           2.02715e+000           2.71485e-002           2.71485e-002           7.14848e-003           1.48476e-004
                  145.70    374.44687                                0.00000             84.859                                        3.74447e+002           7.44469e+001           4.44687e+000           4.46869e-001           4.68693e-002           6.86931e-003           8.69313e-004
                  145.80    376.96055                                0.00000             84.859                                        3.76961e+002           7.69605e+001           6.96055e+000           9.60547e-001           6.05467e-002           5.46679e-004           5.46679e-004
                  145.90    379.89383                                0.00000             84.859                                        3.79894e+002           7.98938e+001           9.89383e+000           8.93830e-001           9.38302e-002           3.83015e-003           8.30155e-004
                  146.00    382.94664                                0.00000             84.859                                        3.82947e+002           8.29466e+001           2.94664e+000           9.46643e-001           4.66433e-002           6.64333e-003           6.43331e-004
                  146.10    385.78471                                0.00000             84.859                                        3.85785e+002           8.57847e+001           5.78471e+000           7.84714e-001           8.47140e-002           4.71400e-003           7.14004e-004
                  146.20    388.63337                                0.00000             84.859                                        3.88633e+002           8.86334e+001           8.63337e+000           6.33367e-001           3.33669e-002           3.36694e-003           3.66936e-004
                  146.30    391.79987                                0.00000             84.859                                        3.91800e+002           9.17999e+001           1.79987e+000           7.99873e-001           9.98729e-002           9.87288e-003           8.72876e-004
                  146.40    394.98307                                0.00000             84.859                                        3.94983e+002           9.49831e+001           4.98307e+000           9.83072e-001           8.30718e-002           3.07180e-003           7.17977e-005
                  146.50    400.38345                                0.00000             84.859                                        4.00383e+002           3.83447e-001           3.83447e-001           3.83447e-001           8.34465e-002           3.44654e-003           4.46537e-004
                  146.60    412.35513                                0.00000             84.859                                        4.12355e+002           1.23551e+001           2.35513e+000           3.55132e-001           5.51321e-002           5.13205e-003           1.32055e-004
                  146.70    423.02035                                0.00000             84.859                                        4.23020e+002           2.30203e+001           3.02035e+000           2.03480e-002           2.03480e-002           3.48026e-004           3.48026e-004
                  146.80    425.42196                                0.00000             84.859                                        4.25422e+002           2.54220e+001           5.42196e+000           4.21960e-001           2.19603e-002           1.96025e-003           9.60253e-004
                  146.90    425.39800                                0.00000             84.859                                        4.25398e+002           2.53980e+001           5.39800e+000           3.98002e-001           9.80018e-002           8.00182e-003           1.82008e-006
                  147.00    425.39223                                0.00000             84.859                                        4.25392e+002           2.53922e+001           5.39223e+000           3.92229e-001           9.22290e-002           2.22896e-003           2.28959e-004
                  147.10    425.40166                                0.00000             84.859                                        4.25402e+002           2.54017e+001           5.40166e+000           4.01662e-001           1.66232e-003           1.66232e-003           6.62322e-004
                  147.20    425.39992                                0.00000             84.859                                        4.25400e+002           2.53999e+001           5.39992e+000           3.99924e-001           9.99241e-002           9.92413e-003           9.24127e-004
                  147.30    425.38705                                0.00000             84.859                                        4.25387e+002           2.53871e+001           5.38705e+000           3.87052e-001           8.70524e-002           7.05236e-003           5.23584e-005
                  147.40    425.39650                                0.00000             84.859                                        4.25397e+002           2.53965e+001           5.39650e+000           3.96504e-001           9.65036e-002           6.50356e-003           5.03564e-004
                  147.50    425.42789                                0.00000             84.859                                        4.25428e+002           2.54279e+001           5.42789e+000           4.27892e-001           2.78925e-002           7.89249e-003           8.92487e-004
                  147.60    425.43733                                0.00000             84.859                                        4.25437e+002           2.54373e+001           5.43733e+000           4.37329e-001           3.73286e-002           7.32860e-003           3.28595e-004
