~VERSION INFORMATION
VERS                    .            2.0                                    :CWLS LOG ASCII STANDARD
WRAP                    .            NO                                     :ONE LINE PER TIME STEP


~WELL INFORMATION
#MNEM                   .UNIT        DATA                                    DESCRIPTION
#________________________________________________________________________________________
STRTTIME                .HH/MM/SS    10:48:38                               :START TIME
STOPTIME                .HH/MM/SS    10:51:35                               :STOP TIME
STRT                    .s           2.10                                   :START DATA
STOP                    .s           175.10                                 :STOP DATA
STEP                    .s           0.10                                   :MEASUREMENT TIME INTERVAL
NULL                    .            -999.25                                :NULL VALUE
COMP                    .            Statoil ASA                            :COMPANY
FLD                     .            Volve                                  :FIELD
WELL                    .            15/9-F-11 A                            :WELL
RUN                     .            8                                      :RUN
LOC                     .            Maersk Inspirer                        :LOCATION
PROV                    .            na                                     :PROVINCE
SRVC                    .            Baker Hughes INTEQ                     :SERVICE COMPANY
DATE                    .YY/MM/DD    13/05/21                               :LOG DATE
UWI                     .                                                   :UNIQUE WELL ID
DEPTHMD                 .m           3635.2                                 :MEASURED DEPTH
DEPTHTVD                .m           3029.3                                 :TRUE VERTICAL DEPTH


~CURVE INFORMATION
#MNEM                   .UNIT        API CODES                               DESCRIPTION
#________________________________________________________________________________________
TIME                    .s                                                  :01 TIME
DD_PRESS                .bar                                                :02 DRAW DOWN PRESSURE
DD_VOLUME               .cm3                                                :03 INCREMENTAL DRAW DOWN VOLUME
TEMP                    .degC                                               :04 TRANSDUCER TEMPERATURE
DD_PRESS_MOD_1000       .bar                                                :05 DRAW DOWN PRESSURE MOD 1000
DD_PRESS_MOD_100        .bar                                                :06 DRAW DOWN PRESSURE MOD 100
DD_PRESS_MOD_10         .bar                                                :07 DRAW DOWN PRESSURE MOD 10
DD_PRESS_MOD_1          .bar                                                :08 DRAW DOWN PRESSURE MOD 1
DD_PRESS_MOD_01         .bar                                                :09 DRAW DOWN PRESSURE MOD 01
DD_PRESS_MOD_001        .bar                                                :10 DRAW DOWN PRESSURE MOD 001
DD_PRESS_MOD_0001       .bar                                                :11 DRAW DOWN PRESSURE MOD 0001


~PARAMETER INFORMATION
#MNEM                   .UNIT        VALUE                                   DESCRIPTION
#________________________________________________________________________________________
TOOLFACE                .deg         69.1                                   :01 TOOLFACE
PUMP_CAPACITY           .bar         400                                    :02 NOMINAL DRAW DOWN PUMP CAPACITY
PUMP_LIMIT              .bar         240                                    :03 DOWNLINK PUMP LIMIT
TIME_LIMIT              .min         10                                     :04 DOWNLINK MAX TIME
TEST_TYPE               .            REPEAT                                 :05 DOWNLINK
TEST_TYPE               .            HIGH MOBILITY                          :06 DOWNLINK
DD_PIST_A               .cm2         3.1416                                 :07 DRAW DOWN PISTON AREA
V_SYS                   .cm3         131.0000                               :08 SYSTEM VOLUME
PROBE_ID                .cm          1.2700                                 :09 TTK PROBE ID
G0                      .            4.6700                                 :10 GEOMETRY FACTOR


~A                  TIME     DD_PRESS                              DD_VOLUME               TEMP                                   DD_PRESS_MOD_1000       DD_PRESS_MOD_100        DD_PRESS_MOD_10         DD_PRESS_MOD_1        DD_PRESS_MOD_01       DD_PRESS_MOD_001      DD_PRESS_MOD_0001
# ...
                  150.50    342.84707                               20.28472             80.664                                        3.42847e+002           4.28471e+001           2.84707e+000           8.47066e-001           4.70664e-002           7.06642e-003           6.64199e-005
                  150.60    342.85207                               20.28472             80.664                                        3.42852e+002           4.28521e+001           2.85207e+000           8.52066e-001           5.20658e-002           2.06582e-003           6.58208e-005
                  150.70    342.87015                               20.28472             80.664                                        3.42870e+002           4.28702e+001           2.87015e+000           8.70153e-001           7.01527e-002           1.52705e-004           1.52705e-004
                  150.80    342.87801                               20.28472             80.664                                        3.42878e+002           4.28780e+001           2.87801e+000           8.78006e-001           7.80062e-002           8.00619e-003           6.18532e-006
                  150.90    342.86883                               20.28472             80.664                                        3.42869e+002           4.28688e+001           2.86883e+000           8.68827e-001           6.88273e-002           8.82731e-003           8.27312e-004
                  151.00    342.86053                               20.28472             80.664                                        3.42861e+002           4.28605e+001           2.86053e+000           8.60526e-001           6.05255e-002           5.25545e-004           5.25545e-004
                  151.10    342.86057                               20.28472             80.664                                        3.42861e+002           4.28606e+001           2.86057e+000           8.60574e-001           6.05743e-002           5.74296e-004           5.74296e-004
                  151.20    342.85652                               20.28472             80.664                                        3.42857e+002           4.28565e+001           2.85652e+000           8.56519e-001           5.65193e-002           6.51929e-003           5.19288e-004
                  151.30    342.85557                               20.28472             80.664                                        3.42856e+002           4.28556e+001           2.85557e+000           8.55567e-001           5.55668e-002           5.56681e-003           5.66805e-004
                  151.40    342.86023                               20.28472             80.664                                        3.42860e+002           4.28602e+001           2.86023e+000           8.60234e-001           6.02339e-002           2.33911e-004           2.33911e-004
                  151.50    342.85963                               20.28472             80.664                                        3.42860e+002           4.28596e+001           2.85963e+000           8.59635e-001           5.96348e-002           9.63481e-003           6.34809e-004
                  151.60    342.85360                               20.28472             80.664                                        3.42854e+002           4.28536e+001           2.85360e+000           8.53604e-001           5.36042e-002           3.60421e-003           6.04206e-004
                  151.70    342.86001                               20.28472             80.664                                        3.42860e+002           4.28600e+001           2.86001e+000           8.60005e-001           6.00052e-002           5.16453e-006           5.16453e-006
                  151.80    342.88118                               20.28472             80.664                                        3.42881e+002           4.28812e+001           2.88118e+000           8.81176e-001           8.11759e-002           1.17590e-003           1.75903e-004
                  151.90    342.88234                               20.28472             80.664                                        3.42882e+002           4.28823e+001           2.88234e+000           8.82341e-001           8.23415e-002           2.34147e-003           3.41468e-004
                  152.00    342.86267                               20.28472             80.664                                        3.42863e+002           4.28627e+001           2.86267e+000           8.62672e-001           6.26719e-002           2.67189e-003           6.71892e-004
                  152.10    342.85754                               20.28472             80.664                                        3.42858e+002           4.28575e+001           2.85754e+000           8.57545e-001           5.75449e-002           7.54485e-003           5.44850e-004
                  152.20    342.87036                               20.28472             80.664                                        3.42870e+002           4.28704e+001           2.87036e+000           8.70356e-001           7.03559e-002           3.55857e-004           3.55857e-004
                  152.30    342.86807                               20.28472             80.664                                        3.42868e+002           4.28681e+001           2.86807e+000           8.68069e-001           6.80695e-002           8.06947e-003           6.94715e-005
                  152.40    342.85228                               20.28472             80.664                                        3.42852e+002           4.28523e+001           2.85228e+000           8.52276e-001           5.22760e-002           2.27600e-003           2.76001e-004
                  152.50    342.84703                               20.28472             80.664                                        3.42847e+002           4.28470e+001           2.84703e+000           8.47027e-001           4.70271e-002           7.02710e-003           2.71042e-005
                  152.60    342.84792                               20.28472             80.664                                        3.42848e+002           4.28479e+001           2.84792e+000           8.47917e-001           4.79168e-002           7.91680e-003           9.16802e-004
                  152.70    342.85945                               20.28472             80.664                                        3.42859e+002           4.28595e+001           2.85945e+000           8.59454e-001           5.94542e-002           9.45421e-003           4.54214e-004
                  152.80    342.87658                               20.28472             80.664                                        3.42877e+002           4.28766e+001           2.87658e+000           8.76583e-001           7.65832e-002           6.58318e-003           5.83178e-004
                  152.90    342.87930                               20.28472             80.664                                        3.42879e+002           4.28793e+001           2.87930e+000           8.79303e-001           7.93030e-002           9.30297e-003           3.02971e-004
                  153.00    342.86296                               20.28472             80.664                                        3.42863e+002           4.28630e+001           2.86296e+000           8.62956e-001           6.29560e-002           2.95601e-003           9.56015e-004
                  153.10    342.85308                               20.28472             80.664                                        3.42853e+002           4.28531e+001           2.85308e+000           8.53079e-001           5.30788e-002           3.07883e-003           7.88326e-005
                  153.20    342.87082                               20.28472             80.664                                        3.42871e+002           4.28708e+001           2.87082e+000           8.70824e-001           7.08239e-002           8.23882e-004           8.23882e-004
