~VERSION INFORMATION
VERS                    .            2.0                                    :CWLS LOG ASCII STANDARD
WRAP                    .            NO                                     :ONE LINE PER TIME STEP


~WELL INFORMATION
#MNEM                   .UNIT        DATA                                    DESCRIPTION
#________________________________________________________________________________________
STRTTIME                .HH/MM/SS    03:09:23                               :START TIME
STOPTIME                .HH/MM/SS    03:12:09                               :STOP TIME
STRT                    .s           2.10                                   :START DATA
STOP                    .s           164.80                                 :STOP DATA
STEP                    .s           0.10                                   :MEASUREMENT TIME INTERVAL
NULL                    .            -999.25                                :NULL VALUE
COMP                    .            Statoil ASA                            :COMPANY
FLD                     .            Volve                                  :FIELD
WELL                    .            15/9-F-1 C                             :WELL
RUN                     .            4                                      :RUN
LOC                     .                                                   :LOCATION
PROV                    .            na                                     :PROVINCE
SRVC                    .            Baker Hughes INTEQ                     :SERVICE COMPANY
DATE                    .YY/MM/DD    14/03/15                               :LOG DATE
UWI                     .                                                   :UNIQUE WELL ID
DEPTHMD                 .m           3523.2                                 :MEASURED DEPTH
DEPTHTVD                .m           2986.7                                 :TRUE VERTICAL DEPTH


~CURVE INFORMATION
#MNEM                   .UNIT        API CODES                               DESCRIPTION
#________________________________________________________________________________________
TIME                    .s                                                  :01 TIME
DD_PRESS                .bar                                                :02 DRAW DOWN PRESSURE
DD_VOLUME               .cm3                                                :03 INCREMENTAL DRAW DOWN VOLUME
TEMP                    .degC                                               :04 TRANSDUCER TEMPERATURE
DD_PRESS_MOD_1000       .bar                                                :05 DRAW DOWN PRESSURE MOD 1000
DD_PRESS_MOD_100        .bar                                                :06 DRAW DOWN PRESSURE MOD 100
DD_PRESS_MOD_10         .bar                                                :07 DRAW DOWN PRESSURE MOD 10
DD_PRESS_MOD_1          .bar                                                :08 DRAW DOWN PRESSURE MOD 1
DD_PRESS_MOD_01         .bar                                                :09 DRAW DOWN PRESSURE MOD 01
DD_PRESS_MOD_001        .bar                                                :10 DRAW DOWN PRESSURE MOD 001
DD_PRESS_MOD_0001       .bar                                                :11 DRAW DOWN PRESSURE MOD 0001


~PARAMETER INFORMATION
#MNEM                   .UNIT        VALUE                                   DESCRIPTION
#________________________________________________________________________________________
TOOLFACE                .deg         104.9                                  :01 TOOLFACE
PUMP_CAPACITY           .bar         400                                    :02 NOMINAL DRAW DOWN PUMP CAPACITY
PUMP_LIMIT              .bar         240                                    :03 DOWNLINK PUMP LIMIT
TIME_LIMIT              .min         10                                     :04 DOWNLINK MAX TIME
TEST_TYPE               .            REPEAT                                 :05 DOWNLINK
TEST_TYPE               .            HIGH MOBILITY                          :06 DOWNLINK
DD_PIST_A               .cm2         3.1416                                 :07 DRAW DOWN PISTON AREA
V_SYS                   .cm3         131.0000                               :08 SYSTEM VOLUME
PROBE_ID                .cm          1.2700                                 :09 TTK PROBE ID
G0                      .            4.6700                                 :10 GEOMETRY FACTOR


~A                  TIME     DD_PRESS                              DD_VOLUME               TEMP                                   DD_PRESS_MOD_1000       DD_PRESS_MOD_100        DD_PRESS_MOD_10         DD_PRESS_MOD_1        DD_PRESS_MOD_01       DD_PRESS_MOD_001      DD_PRESS_MOD_0001
# ...
                  108.50    325.37944                               29.31456             84.484                                        3.25379e+002           2.53794e+001           5.37944e+000           3.79437e-001           7.94373e-002           9.43727e-003           4.37266e-004
                  108.60    331.76505                               29.42505             84.484                                        3.31765e+002           3.17650e+001           1.76505e+000           7.65046e-001           6.50455e-002           5.04553e-003           4.55257e-005
                  108.70    337.58097                               29.43937             84.484                                        3.37581e+002           3.75810e+001           7.58097e+000           5.80965e-001           8.09653e-002           9.65323e-004           9.65323e-004
                  108.80    339.83220                               29.43937             84.484                                        3.39832e+002           3.98322e+001           9.83220e+000           8.32199e-001           3.21990e-002           2.19898e-003           1.98980e-004
                  108.90    340.54696                               29.43937             84.484                                        3.40547e+002           4.05470e+001           5.46962e-001           5.46962e-001           4.69624e-002           6.96240e-003           9.62399e-004
                  109.00    340.77446                               29.43937             84.484                                        3.40774e+002           4.07745e+001           7.74463e-001           7.74463e-001           7.44635e-002           4.46348e-003           4.63484e-004
                  109.10    340.84957                               29.43937             84.484                                        3.40850e+002           4.08496e+001           8.49565e-001           8.49565e-001           4.95655e-002           9.56546e-003           5.65461e-004
                  109.20    340.88456                               29.43937             84.484                                        3.40885e+002           4.08846e+001           8.84561e-001           8.84561e-001           8.45606e-002           4.56056e-003           5.60561e-004
                  109.30    340.90285                               29.43937             84.484                                        3.40903e+002           4.09028e+001           9.02849e-001           9.02849e-001           2.84855e-003           2.84855e-003           8.48546e-004
                  109.40    340.90772                               29.43937             84.484                                        3.40908e+002           4.09077e+001           9.07719e-001           9.07719e-001           7.71937e-003           7.71937e-003           7.19367e-004
                  109.50    340.91233                               29.43937             84.484                                        3.40912e+002           4.09123e+001           9.12335e-001           9.12335e-001           1.23345e-002           2.33451e-003           3.34515e-004
                  109.60    340.92349                               29.43937             84.484                                        3.40923e+002           4.09235e+001           9.23490e-001           9.23490e-001           2.34896e-002           3.48957e-003           4.89567e-004
                  109.70    340.92398                               29.43937             84.484                                        3.40924e+002           4.09240e+001           9.23978e-001           9.23978e-001           2.39780e-002           3.97801e-003           9.78013e-004
                  109.80    340.91719                               29.43937             84.484                                        3.40917e+002           4.09172e+001           9.17191e-001           9.17191e-001           1.71905e-002           7.19054e-003           1.90541e-004
                  109.90    340.92487                               29.43937             84.484                                        3.40925e+002           4.09249e+001           9.24872e-001           9.24872e-001           2.48723e-002           4.87228e-003           8.72280e-004
                  110.00    340.94009                               29.43937             84.484                                        3.40940e+002           4.09401e+001           9.40086e-001           9.40086e-001           4.00864e-002           8.64315e-005           8.64315e-005
                  110.10    340.94127                               29.43937             84.484                                        3.40941e+002           4.09413e+001           9.41272e-001           9.41272e-001           4.12720e-002           1.27200e-003           2.72004e-004
                  110.20    340.93622                               29.43937             84.484                                        3.40936e+002           4.09362e+001           9.36218e-001           9.36218e-001           3.62177e-002           6.21767e-003           2.17672e-004
                  110.30    340.94057                               29.43937             84.484                                        3.40941e+002           4.09406e+001           9.40575e-001           9.40575e-001           4.05746e-002           5.74587e-004           5.74587e-004
                  110.40    340.95216                               29.43937             84.484                                        3.40952e+002           4.09522e+001           9.52161e-001           9.52161e-001           5.21608e-002           2.16081e-003           1.60807e-004
                  110.50    340.96043                               29.43937             84.484                                        3.40960e+002           4.09604e+001           9.60433e-001           9.60433e-001           6.04325e-002           4.32508e-004           4.32508e-004
                  110.60    340.95326                               29.43937             84.484                                        3.40953e+002           4.09533e+001           9.53256e-001           9.53256e-001           5.32556e-002           3.25564e-003           2.55644e-004
                  110.70    340.94575                               29.43937             84.484                                        3.40946e+002           4.09457e+001           9.45747e-001           9.45747e-001           4.57473e-002           5.74726e-003           7.47264e-004
                  110.80    340.95167                               29.43937             84.484                                        3.40952e+002           4.09517e+001           9.51667e-001           9.51667e-001           5.16670e-002           1.66701e-003           6.67008e-004
                  110.90    340.96394                               29.43937             84.484                                        3.40964e+002           4.09639e+001           9.63938e-001           9.63938e-001           6.39376e-002           3.93762e-003           9.37616e-004
                  111.00    340.97162                               29.43937             84.484                                        3.40972e+002           4.09716e+001           9.71624e-001           9.71624e-001           7.16237e-002           1.62371e-003           6.23711e-004
                  111.10    340.96624                               29.43937             84.484                                        3.40966e+002           4.09662e+001           9.66242e-001           9.66242e-001           6.62423e-002           6.24233e-003           2.42333e-004
                  111.20    340.96263                               29.43937             84.482                                        3.40963e+002           4.09626e+001           9.62634e-001           9.62634e-001           6.26339e-002           2.63395e-003           6.33949e-004
