~VERSION INFORMATION
VERS                    .            2.0                                    :CWLS LOG ASCII STANDARD
WRAP                    .            NO                                     :ONE LINE PER TIME STEP


~WELL INFORMATION
#MNEM                   .UNIT        DATA                                    DESCRIPTION
#________________________________________________________________________________________
STRTTIME                .HH/MM/SS    18:50:18                               :START TIME
STOPTIME                .HH/MM/SS    18:53:14                               :STOP TIME
STRT                    .s           2.10                                   :START DATA
STOP                    .s           174.80                                 :STOP DATA
STEP                    .s           0.10                                   :MEASUREMENT TIME INTERVAL
NULL                    .            -999.25                                :NULL VALUE
COMP                    .            Statoil ASA                            :COMPANY
FLD                     .            Volve                                  :FIELD
WELL                    .            15/9-F-11 A                            :WELL
RUN                     .            8                                      :RUN
LOC                     .            Maersk Inspirer                        :LOCATION
PROV                    .            na                                     :PROVINCE
SRVC                    .            Baker Hughes INTEQ                     :SERVICE COMPANY
DATE                    .YY/MM/DD    13/05/23                               :LOG DATE
UWI                     .                                                   :UNIQUE WELL ID
DEPTHMD                 .m           3651.0                                 :MEASURED DEPTH
DEPTHTVD                .m           3041.4                                 :TRUE VERTICAL DEPTH


~CURVE INFORMATION
#MNEM                   .UNIT        API CODES                               DESCRIPTION
#________________________________________________________________________________________
TIME                    .s                                                  :01 TIME
DD_PRESS                .bar                                                :02 DRAW DOWN PRESSURE
DD_VOLUME               .cm3                                                :03 INCREMENTAL DRAW DOWN VOLUME
TEMP                    .degC                                               :04 TRANSDUCER TEMPERATURE
DD_PRESS_MOD_1000       .bar                                                :05 DRAW DOWN PRESSURE MOD 1000
DD_PRESS_MOD_100        .bar                                                :06 DRAW DOWN PRESSURE MOD 100
DD_PRESS_MOD_10         .bar                                                :07 DRAW DOWN PRESSURE MOD 10
DD_PRESS_MOD_1          .bar                                                :08 DRAW DOWN PRESSURE MOD 1
DD_PRESS_MOD_01         .bar                                                :09 DRAW DOWN PRESSURE MOD 01
DD_PRESS_MOD_001        .bar                                                :10 DRAW DOWN PRESSURE MOD 001
DD_PRESS_MOD_0001       .bar                                                :11 DRAW DOWN PRESSURE MOD 0001


~PARAMETER INFORMATION
#MNEM                   .UNIT        VALUE                                   DESCRIPTION
#________________________________________________________________________________________
TOOLFACE                .deg         -39.7                                  :01 TOOLFACE
PUMP_CAPACITY           .bar         400                                    :02 NOMINAL DRAW DOWN PUMP CAPACITY
PUMP_LIMIT              .bar         240                                    :03 DOWNLINK PUMP LIMIT
TIME_LIMIT              .min         10                                     :04 DOWNLINK MAX TIME
TEST_TYPE               .            REPEAT                                 :05 DOWNLINK
TEST_TYPE               .            HIGH MOBILITY                          :06 DOWNLINK
DD_PIST_A               .cm2         3.1416                                 :07 DRAW DOWN PISTON AREA
V_SYS                   .cm3         131.0000                               :08 SYSTEM VOLUME
PROBE_ID                .cm          1.2700                                 :09 TTK PROBE ID
G0                      .            4.6700                                 :10 GEOMETRY FACTOR


~A                  TIME     DD_PRESS                              DD_VOLUME               TEMP                                   DD_PRESS_MOD_1000       DD_PRESS_MOD_100        DD_PRESS_MOD_10         DD_PRESS_MOD_1        DD_PRESS_MOD_01       DD_PRESS_MOD_001      DD_PRESS_MOD_0001
# ...
                  161.70    423.05524                                0.00000             73.289                                        4.23055e+002           2.30552e+001           3.05524e+000           5.52396e-002           5.52396e-002           5.23964e-003           2.39642e-004
                  161.80    423.03562                                0.00000             73.289                                        4.23036e+002           2.30356e+001           3.03562e+000           3.56244e-002           3.56244e-002           5.62438e-003           6.24382e-004
                  161.90    423.03364                                0.00000             73.289                                        4.23034e+002           2.30336e+001           3.03364e+000           3.36390e-002           3.36390e-002           3.63900e-003           6.39000e-004
                  162.00    423.04410                                0.00000             73.289                                        4.23044e+002           2.30441e+001           3.04410e+000           4.40983e-002           4.40983e-002           4.09833e-003           9.83289e-005
                  162.10    423.03485                                0.00000             73.289                                        4.23035e+002           2.30349e+001           3.03485e+000           3.48507e-002           3.48507e-002           4.85067e-003           8.50671e-004
                  162.20    423.01345                                0.00000             73.289                                        4.23013e+002           2.30134e+001           3.01345e+000           1.34462e-002           1.34462e-002           3.44622e-003           4.46215e-004
                  162.30    423.01126                                0.00000             73.289                                        4.23011e+002           2.30113e+001           3.01126e+000           1.12649e-002           1.12649e-002           1.26492e-003           2.64917e-004
                  162.40    423.02442                                0.00000             73.289                                        4.23024e+002           2.30244e+001           3.02442e+000           2.44224e-002           2.44224e-002           4.42236e-003           4.22355e-004
                  162.50    423.00396                                0.00000             73.289                                        4.23004e+002           2.30040e+001           3.00396e+000           3.96380e-003           3.96380e-003           3.96380e-003           9.63797e-004
                  162.60    422.97957                                0.00000             73.289                                        4.22980e+002           2.29796e+001           2.97957e+000           9.79573e-001           7.95728e-002           9.57282e-003           5.72817e-004
                  162.70    422.99890                                0.00000             73.289                                        4.22999e+002           2.29989e+001           2.99890e+000           9.98902e-001           9.89015e-002           8.90151e-003           9.01514e-004
                  162.80    423.02230                                0.00000             73.289                                        4.23022e+002           2.30223e+001           3.02230e+000           2.23027e-002           2.23027e-002           2.30273e-003           3.02734e-004
                  162.90    423.00286                                0.00000             73.289                                        4.23003e+002           2.30029e+001           3.00286e+000           2.86254e-003           2.86254e-003           2.86254e-003           8.62537e-004
                  163.00    422.98158                                0.00000             73.289                                        4.22982e+002           2.29816e+001           2.98158e+000           9.81576e-001           8.15760e-002           1.57597e-003           5.75971e-004
                  163.10    423.01473                                0.00000             73.289                                        4.23015e+002           2.30147e+001           3.01473e+000           1.47272e-002           1.47272e-002           4.72725e-003           7.27249e-004
                  163.20    423.02970                                0.00000             73.289                                        4.23030e+002           2.30297e+001           3.02970e+000           2.97015e-002           2.97015e-002           9.70150e-003           7.01499e-004
                  163.30    422.99490                                0.00000             73.289                                        4.22995e+002           2.29949e+001           2.99490e+000           9.94897e-001           9.48968e-002           4.89676e-003           8.96764e-004
                  163.40    422.96814                                0.00000             73.289                                        4.22968e+002           2.29681e+001           2.96814e+000           9.68142e-001           6.81420e-002           8.14199e-003           1.41992e-004
                  163.50    422.99605                                0.00000             73.289                                        4.22996e+002           2.29960e+001           2.99605e+000           9.96045e-001           9.60453e-002           6.04534e-003           4.53389e-005
                  163.60    423.00322                                0.00000             73.289                                        4.23003e+002           2.30032e+001           3.00322e+000           3.21978e-003           3.21978e-003           3.21978e-003           2.19783e-004
                  163.70    422.97908                                0.00000             73.289                                        4.22979e+002           2.29791e+001           2.97908e+000           9.79085e-001           7.90847e-002           9.08467e-003           8.46687e-005
                  163.80    422.95504                                0.00000             73.289                                        4.22955e+002           2.29550e+001           2.95504e+000           9.55039e-001           5.50393e-002           5.03927e-003           3.92660e-005
                  163.90    422.97349                                0.00000             73.287                                        4.22973e+002           2.29735e+001           2.97349e+000           9.73485e-001           7.34851e-002           3.48511e-003           4.85106e-004
                  164.00    422.96661                                0.00000             73.283                                        4.22967e+002           2.29666e+001           2.96661e+000           9.66609e-001           6.66089e-002           6.60887e-003           6.08870e-004
                  164.10    422.94541                                0.00000             73.284                                        4.22945e+002           2.29454e+001           2.94541e+000           9.45413e-001           4.54128e-002           5.41281e-003           4.12812e-004
                  164.20    422.95498                                0.00000             73.287                                        4.22955e+002           2.29550e+001           2.95498e+000           9.54981e-001           5.49807e-002           4.98069e-003           9.80689e-004
                  164.30    422.99672                                0.00000             73.287                                        4.22997e+002           2.29967e+001           2.99672e+000           9.96722e-001           9.67217e-002           6.72168e-003           7.21677e-004
                  164.40    423.00196                                0.00000             73.283                                        4.23002e+002           2.30020e+001           3.00196e+000           1.96004e-003           1.96004e-003           1.96004e-003           9.60038e-004
