~VERSION INFORMATION
VERS                    .            2.0                                    :CWLS LOG ASCII STANDARD
WRAP                    .            NO                                     :ONE LINE PER TIME STEP


~WELL INFORMATION
#MNEM                   .UNIT        DATA                                    DESCRIPTION
#________________________________________________________________________________________
STRTTIME                .HH/MM/SS    15:44:09                               :START TIME
STOPTIME                .HH/MM/SS    15:46:59                               :STOP TIME
STRT                    .s           2.10                                   :START DATA
STOP                    .s           168.10                                 :STOP DATA
STEP                    .s           0.10                                   :MEASUREMENT TIME INTERVAL
NULL                    .            -999.25                                :NULL VALUE
COMP                    .            Statoil ASA                            :COMPANY
FLD                     .            Volve                                  :FIELD
WELL                    .            15/9-F-1 B                             :WELL
RUN                     .            7                                      :RUN
LOC                     .            Maersk Inspirer                        :LOCATION
PROV                    .            na                                     :PROVINCE
SRVC                    .            Baker Hughes INTEQ                     :SERVICE COMPANY
DATE                    .YY/MM/DD    13/09/06                               :LOG DATE
UWI                     .                                                   :UNIQUE WELL ID
DEPTHMD                 .m           3266.5                                 :MEASURED DEPTH
DEPTHTVD                .m           3062.4                                 :TRUE VERTICAL DEPTH


~CURVE INFORMATION
#MNEM                   .UNIT        API CODES                               DESCRIPTION
#________________________________________________________________________________________
TIME                    .s                                                  :01 TIME
DD_PRESS                .bar                                                :02 DRAW DOWN PRESSURE
DD_VOLUME               .cm3                                                :03 INCREMENTAL DRAW DOWN VOLUME
TEMP                    .degC                                               :04 TRANSDUCER TEMPERATURE
DD_PRESS_MOD_1000       .bar                                                :05 DRAW DOWN PRESSURE MOD 1000
DD_PRESS_MOD_100        .bar                                                :06 DRAW DOWN PRESSURE MOD 100
DD_PRESS_MOD_10         .bar                                                :07 DRAW DOWN PRESSURE MOD 10
DD_PRESS_MOD_1          .bar                                                :08 DRAW DOWN PRESSURE MOD 1
DD_PRESS_MOD_01         .bar                                                :09 DRAW DOWN PRESSURE MOD 01
DD_PRESS_MOD_001        .bar                                                :10 DRAW DOWN PRESSURE MOD 001
DD_PRESS_MOD_0001       .bar                                                :11 DRAW DOWN PRESSURE MOD 0001


~PARAMETER INFORMATION
#MNEM                   .UNIT        VALUE                                   DESCRIPTION
#________________________________________________________________________________________
TOOLFACE                .deg         na                                     :01 TOOLFACE
PUMP_CAPACITY           .bar         400                                    :02 NOMINAL DRAW DOWN PUMP CAPACITY
PUMP_LIMIT              .bar         400                                    :03 DOWNLINK PUMP LIMIT
TIME_LIMIT              .min         10                                     :04 DOWNLINK MAX TIME
TEST_TYPE               .            LOW MOBILITY                           :05 DOWNLINK
DD_PIST_A               .cm2         3.1416                                 :06 DRAW DOWN PISTON AREA
V_SYS                   .cm3         131.0000                               :07 SYSTEM VOLUME
PROBE_ID                .cm          1.2700                                 :08 TTK PROBE ID
G0                      .            4.6700                                 :09 GEOMETRY FACTOR


~A                  TIME     DD_PRESS                              DD_VOLUME               TEMP                                   DD_PRESS_MOD_1000       DD_PRESS_MOD_100        DD_PRESS_MOD_10         DD_PRESS_MOD_1        DD_PRESS_MOD_01       DD_PRESS_MOD_001      DD_PRESS_MOD_0001
# ...
                  164.50    438.30966                                0.00000             82.531                                        4.38310e+002           3.83097e+001           8.30966e+000           3.09659e-001           9.65907e-003           9.65907e-003           6.59067e-004
                  164.60    438.25437                                0.00000             82.531                                        4.38254e+002           3.82544e+001           8.25437e+000           2.54374e-001           5.43740e-002           4.37402e-003           3.74020e-004
                  164.70    438.23991                                0.00000             82.531                                        4.38240e+002           3.82399e+001           8.23991e+000           2.39906e-001           3.99058e-002           9.90580e-003           9.05801e-004
                  164.80    438.29426                                0.00000             82.531                                        4.38294e+002           3.82943e+001           8.29426e+000           2.94260e-001           9.42597e-002           4.25971e-003           2.59707e-004
                  164.90    438.31337                                0.00000             82.531                                        4.38313e+002           3.83134e+001           8.31337e+000           3.13369e-001           1.33686e-002           3.36858e-003           3.68578e-004
                  165.00    438.26341                                0.00000             82.531                                        4.38263e+002           3.82634e+001           8.26341e+000           2.63410e-001           6.34099e-002           3.40986e-003           4.09861e-004
                  165.10    438.24868                                0.00000             82.531                                        4.38249e+002           3.82487e+001           8.24868e+000           2.48678e-001           4.86777e-002           8.67770e-003           6.77699e-004
                  165.20    438.29778                                0.00000             82.531                                        4.38298e+002           3.82978e+001           8.29778e+000           2.97782e-001           9.77819e-002           7.78189e-003           7.81891e-004
                  165.30    438.30353                                0.00000             82.531                                        4.38304e+002           3.83035e+001           8.30353e+000           3.03525e-001           3.52520e-003           3.52520e-003           5.25201e-004
                  165.40    438.25391                                0.00000             82.531                                        4.38254e+002           3.82539e+001           8.25391e+000           2.53914e-001           5.39145e-002           3.91449e-003           9.14490e-004
                  165.50    438.26289                                0.00000             82.531                                        4.38263e+002           3.82629e+001           8.26289e+000           2.62892e-001           6.28924e-002           2.89242e-003           8.92417e-004
                  165.60    438.32573                                0.00000             82.531                                        4.38326e+002           3.83257e+001           8.32573e+000           3.25729e-001           2.57291e-002           5.72910e-003           7.29102e-004
                  165.70    438.31173                                0.00000             82.531                                        4.38312e+002           3.83117e+001           8.31173e+000           3.11734e-001           1.17340e-002           1.73401e-003           7.34013e-004
                  165.80    438.24754                                0.00000             82.531                                        4.38248e+002           3.82475e+001           8.24754e+000           2.47540e-001           4.75397e-002           7.53971e-003           5.39712e-004
                  165.90    438.26019                                0.00000             82.531                                        4.38260e+002           3.82602e+001           8.26019e+000           2.60192e-001           6.01923e-002           1.92326e-004           1.92326e-004
                  166.00    438.32452                                0.00000             82.531                                        4.38325e+002           3.83245e+001           8.32452e+000           3.24518e-001           2.45177e-002           4.51765e-003           5.17651e-004
                  166.10    438.31243                                0.00000             82.529                                        4.38312e+002           3.83124e+001           8.31243e+000           3.12435e-001           1.24349e-002           2.43492e-003           4.34916e-004
                  166.20    438.25200                                0.00000             82.525                                        4.38252e+002           3.82520e+001           8.25200e+000           2.51997e-001           5.19972e-002           1.99717e-003           9.97166e-004
                  166.30    438.26626                                0.00000             82.523                                        4.38266e+002           3.82663e+001           8.26626e+000           2.66256e-001           6.62563e-002           6.25626e-003           2.56255e-004
                  166.40    438.32017                                0.00000             82.523                                        4.38320e+002           3.83202e+001           8.32017e+000           3.20174e-001           2.01741e-002           1.74136e-004           1.74136e-004
                  166.50    438.31929                                0.00000             82.523                                        4.38319e+002           3.83193e+001           8.31929e+000           3.19293e-001           1.92925e-002           9.29253e-003           2.92531e-004
                  166.60    438.27723                                0.00000             82.523                                        4.38277e+002           3.82772e+001           8.27723e+000           2.77228e-001           7.72281e-002           7.22815e-003           2.28146e-004
                  166.70    438.27775                                0.00000             82.523                                        4.38278e+002           3.82777e+001           8.27775e+000           2.77748e-001           7.77482e-002           7.74815e-003           7.48151e-004
                  166.80    438.32329                                0.00000             82.523                                        4.38323e+002           3.83233e+001           8.32329e+000           3.23285e-001           2.32855e-002           3.28549e-003           2.85486e-004
                  166.90    438.32788                                0.00000             82.523                                        4.38328e+002           3.83279e+001           8.32788e+000           3.27876e-001           2.78759e-002           7.87586e-003           8.75864e-004
                  167.00    438.27897                                0.00000             82.523                                        4.38279e+002           3.82790e+001           8.27897e+000           2.78974e-001           7.89736e-002           8.97362e-003           9.73618e-004
                  167.10    438.27709                                0.00000             82.523                                        4.38277e+002           3.82771e+001           8.27709e+000           2.77094e-001           7.70935e-002           7.09353e-003           9.35313e-005
                  167.20    438.33101                                0.00000             82.523                                        4.38331e+002           3.83310e+001           8.33101e+000           3.31012e-001           3.10115e-002           1.01155e-003           1.15483e-005
