~VERSION INFORMATION
VERS                    .            2.0                                    :CWLS LOG ASCII STANDARD
WRAP                    .            NO                                     :ONE LINE PER TIME STEP


~WELL INFORMATION
#MNEM                   .UNIT        DATA                                    DESCRIPTION
#________________________________________________________________________________________
STRTTIME                .HH/MM/SS    04:27:44                               :START TIME
STOPTIME                .HH/MM/SS    04:30:31                               :STOP TIME
STRT                    .s           2.10                                   :START DATA
STOP                    .s           165.30                                 :STOP DATA
STEP                    .s           0.10                                   :MEASUREMENT TIME INTERVAL
NULL                    .            -999.25                                :NULL VALUE
COMP                    .            Statoil ASA                            :COMPANY
FLD                     .            Volve                                  :FIELD
WELL                    .            15/9-F-1 C                             :WELL
RUN                     .            4                                      :RUN
LOC                     .                                                   :LOCATION
PROV                    .            na                                     :PROVINCE
SRVC                    .            Baker Hughes INTEQ                     :SERVICE COMPANY
DATE                    .YY/MM/DD    14/03/15                               :LOG DATE
UWI                     .                                                   :UNIQUE WELL ID
DEPTHMD                 .m           3273.1                                 :MEASURED DEPTH
DEPTHTVD                .m           2948.3                                 :TRUE VERTICAL DEPTH


~CURVE INFORMATION
#MNEM                   .UNIT        API CODES                               DESCRIPTION
#________________________________________________________________________________________
TIME                    .s                                                  :01 TIME
DD_PRESS                .bar                                                :02 DRAW DOWN PRESSURE
DD_VOLUME               .cm3                                                :03 INCREMENTAL DRAW DOWN VOLUME
TEMP                    .degC                                               :04 TRANSDUCER TEMPERATURE
DD_PRESS_MOD_1000       .bar                                                :05 DRAW DOWN PRESSURE MOD 1000
DD_PRESS_MOD_100        .bar                                                :06 DRAW DOWN PRESSURE MOD 100
DD_PRESS_MOD_10         .bar                                                :07 DRAW DOWN PRESSURE MOD 10
DD_PRESS_MOD_1          .bar                                                :08 DRAW DOWN PRESSURE MOD 1
DD_PRESS_MOD_01         .bar                                                :09 DRAW DOWN PRESSURE MOD 01
DD_PRESS_MOD_001        .bar                                                :10 DRAW DOWN PRESSURE MOD 001
DD_PRESS_MOD_0001       .bar                                                :11 DRAW DOWN PRESSURE MOD 0001


~PARAMETER INFORMATION
#MNEM                   .UNIT        VALUE                                   DESCRIPTION
#________________________________________________________________________________________
TOOLFACE                .deg         76.8                                   :01 TOOLFACE
PUMP_CAPACITY           .bar         400                                    :02 NOMINAL DRAW DOWN PUMP CAPACITY
PUMP_LIMIT              .bar         240                                    :03 DOWNLINK PUMP LIMIT
TIME_LIMIT              .min         10                                     :04 DOWNLINK MAX TIME
TEST_TYPE               .            REPEAT                                 :05 DOWNLINK
TEST_TYPE               .            HIGH MOBILITY                          :06 DOWNLINK
DD_PIST_A               .cm2         3.1416                                 :07 DRAW DOWN PISTON AREA
V_SYS                   .cm3         131.0000                               :08 SYSTEM VOLUME
PROBE_ID                .cm          1.2700                                 :09 TTK PROBE ID
G0                      .            4.6700                                 :10 GEOMETRY FACTOR


~A                  TIME     DD_PRESS                              DD_VOLUME               TEMP                                   DD_PRESS_MOD_1000       DD_PRESS_MOD_100        DD_PRESS_MOD_10         DD_PRESS_MOD_1        DD_PRESS_MOD_01       DD_PRESS_MOD_001      DD_PRESS_MOD_0001
# ...
                  119.70    338.17055                               29.44302             84.922                                        3.38171e+002           3.81706e+001           8.17055e+000           1.70552e-001           7.05522e-002           5.52171e-004           5.52171e-004
                  119.80    338.17112                               29.44302             84.922                                        3.38171e+002           3.81711e+001           8.17112e+000           1.71125e-001           7.11247e-002           1.12465e-003           1.24654e-004
                  119.90    338.17138                               29.44302             84.922                                        3.38171e+002           3.81714e+001           8.17138e+000           1.71383e-001           7.13829e-002           1.38290e-003           3.82904e-004
                  120.00    338.17140                               29.44302             84.922                                        3.38171e+002           3.81714e+001           8.17140e+000           1.71400e-001           7.14005e-002           1.40049e-003           4.00485e-004
                  120.10    338.17072                               29.44302             84.922                                        3.38171e+002           3.81707e+001           8.17072e+000           1.70720e-001           7.07200e-002           7.20023e-004           7.20023e-004
                  120.20    338.17320                               29.44302             84.920                                        3.38173e+002           3.81732e+001           8.17320e+000           1.73200e-001           7.32005e-002           3.20048e-003           2.00484e-004
                  120.30    338.17272                               29.44302             84.916                                        3.38173e+002           3.81727e+001           8.17272e+000           1.72723e-001           7.27229e-002           2.72287e-003           7.22873e-004
                  120.40    338.17098                               29.44302             84.914                                        3.38171e+002           3.81710e+001           8.17098e+000           1.70979e-001           7.09794e-002           9.79426e-004           9.79426e-004
                  120.50    338.17164                               29.44302             84.914                                        3.38172e+002           3.81716e+001           8.17164e+000           1.71637e-001           7.16373e-002           1.63727e-003           6.37270e-004
                  120.60    338.17376                               29.44302             84.914                                        3.38174e+002           3.81738e+001           8.17376e+000           1.73760e-001           7.37603e-002           3.76034e-003           7.60339e-004
                  120.70    338.17615                               29.44302             84.914                                        3.38176e+002           3.81761e+001           8.17615e+000           1.76149e-001           7.61486e-002           6.14859e-003           1.48594e-004
                  120.80    338.17605                               29.44302             84.914                                        3.38176e+002           3.81761e+001           8.17605e+000           1.76051e-001           7.60513e-002           6.05127e-003           5.12741e-005
                  120.90    338.17360                               29.44302             84.914                                        3.38174e+002           3.81736e+001           8.17360e+000           1.73601e-001           7.36011e-002           3.60106e-003           6.01062e-004
                  121.00    338.17049                               29.44302             84.914                                        3.38170e+002           3.81705e+001           8.17049e+000           1.70488e-001           7.04883e-002           4.88344e-004           4.88344e-004
                  121.10    338.16728                               29.44302             84.914                                        3.38167e+002           3.81673e+001           8.16728e+000           1.67285e-001           6.72849e-002           7.28490e-003           2.84896e-004
                  121.20    338.16655                               29.44302             84.914                                        3.38167e+002           3.81665e+001           8.16655e+000           1.66548e-001           6.65482e-002           6.54824e-003           5.48241e-004
                  121.30    338.16753                               29.44302             84.914                                        3.38168e+002           3.81675e+001           8.16753e+000           1.67526e-001           6.75257e-002           7.52569e-003           5.25687e-004
                  121.40    338.16949                               29.44302             84.914                                        3.38169e+002           3.81695e+001           8.16949e+000           1.69493e-001           6.94928e-002           9.49280e-003           4.92798e-004
                  121.50    338.17139                               29.44302             84.914                                        3.38171e+002           3.81714e+001           8.17139e+000           1.71393e-001           7.13929e-002           1.39294e-003           3.92945e-004
                  121.60    338.17223                               29.44302             84.914                                        3.38172e+002           3.81722e+001           8.17223e+000           1.72228e-001           7.22285e-002           2.22846e-003           2.28459e-004
                  121.70    338.17209                               29.44302             84.914                                        3.38172e+002           3.81721e+001           8.17209e+000           1.72087e-001           7.20872e-002           2.08725e-003           8.72468e-005
                  121.80    338.17033                               29.44302             84.914                                        3.38170e+002           3.81703e+001           8.17033e+000           1.70330e-001           7.03302e-002           3.30154e-004           3.30154e-004
                  121.90    338.17025                               29.44302             84.914                                        3.38170e+002           3.81702e+001           8.17025e+000           1.70248e-001           7.02482e-002           2.48188e-004           2.48188e-004
                  122.00    338.16994                               29.44302             84.914                                        3.38170e+002           3.81699e+001           8.16994e+000           1.69941e-001           6.99405e-002           9.94055e-003           9.40546e-004
                  122.10    338.17108                               29.44302             84.914                                        3.38171e+002           3.81711e+001           8.17108e+000           1.71083e-001           7.10825e-002           1.08251e-003           8.25097e-005
                  122.20    338.17053                               29.44302             84.914                                        3.38171e+002           3.81705e+001           8.17053e+000           1.70527e-001           7.05270e-002           5.26971e-004           5.26971e-004
                  122.30    338.16970                               29.44302             84.914                                        3.38170e+002           3.81697e+001           8.16970e+000           1.69697e-001           6.96971e-002           9.69712e-003           6.97117e-004
                  122.40    338.17060                               29.44302             84.914                                        3.38171e+002           3.81706e+001           8.17060e+000           1.70597e-001           7.05966e-002           5.96619e-004           5.96619e-004
