~VERSION INFORMATION
VERS                    .            2.0                                    :CWLS LOG ASCII STANDARD
WRAP                    .            NO                                     :ONE LINE PER TIME STEP


~WELL INFORMATION
#MNEM                   .UNIT        DATA                                    DESCRIPTION
#________________________________________________________________________________________
STRTTIME                .HH/MM/SS    04:27:44                               :START TIME
STOPTIME                .HH/MM/SS    04:30:31                               :STOP TIME
STRT                    .s           2.10                                   :START DATA
STOP                    .s           165.30                                 :STOP DATA
STEP                    .s           0.10                                   :MEASUREMENT TIME INTERVAL
NULL                    .            -999.25                                :NULL VALUE
COMP                    .            Statoil ASA                            :COMPANY
FLD                     .            Volve                                  :FIELD
WELL                    .            15/9-F-1 C                             :WELL
RUN                     .            4                                      :RUN
LOC                     .                                                   :LOCATION
PROV                    .            na                                     :PROVINCE
SRVC                    .            Baker Hughes INTEQ                     :SERVICE COMPANY
DATE                    .YY/MM/DD    14/03/15                               :LOG DATE
UWI                     .                                                   :UNIQUE WELL ID
DEPTHMD                 .m           3273.1                                 :MEASURED DEPTH
DEPTHTVD                .m           2948.3                                 :TRUE VERTICAL DEPTH


~CURVE INFORMATION
#MNEM                   .UNIT        API CODES                               DESCRIPTION
#________________________________________________________________________________________
TIME                    .s                                                  :01 TIME
DD_PRESS                .bar                                                :02 DRAW DOWN PRESSURE
DD_VOLUME               .cm3                                                :03 INCREMENTAL DRAW DOWN VOLUME
TEMP                    .degC                                               :04 TRANSDUCER TEMPERATURE
DD_PRESS_MOD_1000       .bar                                                :05 DRAW DOWN PRESSURE MOD 1000
DD_PRESS_MOD_100        .bar                                                :06 DRAW DOWN PRESSURE MOD 100
DD_PRESS_MOD_10         .bar                                                :07 DRAW DOWN PRESSURE MOD 10
DD_PRESS_MOD_1          .bar                                                :08 DRAW DOWN PRESSURE MOD 1
DD_PRESS_MOD_01         .bar                                                :09 DRAW DOWN PRESSURE MOD 01
DD_PRESS_MOD_001        .bar                                                :10 DRAW DOWN PRESSURE MOD 001
DD_PRESS_MOD_0001       .bar                                                :11 DRAW DOWN PRESSURE MOD 0001


~PARAMETER INFORMATION
#MNEM                   .UNIT        VALUE                                   DESCRIPTION
#________________________________________________________________________________________
TOOLFACE                .deg         76.8                                   :01 TOOLFACE
PUMP_CAPACITY           .bar         400                                    :02 NOMINAL DRAW DOWN PUMP CAPACITY
PUMP_LIMIT              .bar         240                                    :03 DOWNLINK PUMP LIMIT
TIME_LIMIT              .min         10                                     :04 DOWNLINK MAX TIME
TEST_TYPE               .            REPEAT                                 :05 DOWNLINK
TEST_TYPE               .            HIGH MOBILITY                          :06 DOWNLINK
DD_PIST_A               .cm2         3.1416                                 :07 DRAW DOWN PISTON AREA
V_SYS                   .cm3         131.0000                               :08 SYSTEM VOLUME
PROBE_ID                .cm          1.2700                                 :09 TTK PROBE ID
G0                      .            4.6700                                 :10 GEOMETRY FACTOR


~A                  TIME     DD_PRESS                              DD_VOLUME               TEMP                                   DD_PRESS_MOD_1000       DD_PRESS_MOD_100        DD_PRESS_MOD_10         DD_PRESS_MOD_1        DD_PRESS_MOD_01       DD_PRESS_MOD_001      DD_PRESS_MOD_0001
                    2.10    414.85601                                0.00000             85.141                                        4.14856e+002           1.48560e+001           4.85601e+000           8.56012e-001           5.60123e-002           6.01232e-003           1.23187e-005
                    2.20    414.86990                                0.00000             85.141                                        4.14870e+002           1.48699e+001           4.86990e+000           8.69896e-001           6.98960e-002           9.89600e-003           8.95999e-004
                    2.30    414.86196                                0.00000             85.141                                        4.14862e+002           1.48620e+001           4.86196e+000           8.61959e-001           6.19594e-002           1.95938e-003           9.59383e-004
                    2.40    414.86354                                0.00000             85.141                                        4.14864e+002           1.48635e+001           4.86354e+000           8.63545e-001           6.35450e-002           3.54496e-003           5.44956e-004
                    2.50    414.88523                                0.00000             85.141                                        4.14885e+002           1.48852e+001           4.88523e+000           8.85230e-001           8.52303e-002           5.23031e-003           2.30309e-004
                    2.60    414.89443                                0.00000             85.141                                        4.14894e+002           1.48944e+001           4.89443e+000           8.94434e-001           9.44338e-002           4.43376e-003           4.33756e-004
                    2.70    414.89516                                0.00000             85.141                                        4.14895e+002           1.48952e+001           4.89516e+000           8.95163e-001           9.51626e-002           5.16263e-003           1.62628e-004
                    2.80    414.90306                                0.00000             85.141                                        4.14903e+002           1.49031e+001           4.90306e+000           9.03058e-001           3.05821e-003           3.05821e-003           5.82086e-005
                    2.90    414.91693                                0.00000             85.141                                        4.14917e+002           1.49169e+001           4.91693e+000           9.16933e-001           1.69326e-002           6.93265e-003           9.32648e-004
                    3.00    414.93131                                0.00000             85.141                                        4.14931e+002           1.49313e+001           4.93131e+000           9.31314e-001           3.13140e-002           1.31400e-003           3.13995e-004
                    3.10    414.94340                                0.00000             85.141                                        4.14943e+002           1.49434e+001           4.94340e+000           9.43397e-001           4.33966e-002           3.39658e-003           3.96576e-004
                    3.20    414.94831                                0.00000             85.141                                        4.14948e+002           1.49483e+001           4.94831e+000           9.48312e-001           4.83117e-002           8.31175e-003           3.11748e-004
                    3.30    414.96614                                0.00000             85.141                                        4.14966e+002           1.49661e+001           4.96614e+000           9.66136e-001           6.61359e-002           6.13587e-003           1.35872e-004
                    3.40    414.98766                                0.00000             85.141                                        4.14988e+002           1.49877e+001           4.98766e+000           9.87657e-001           8.76571e-002           7.65707e-003           6.57073e-004
                    3.50    415.00130                                0.00000             85.141                                        4.15001e+002           1.50013e+001           5.00130e+000           1.29790e-003           1.29790e-003           1.29790e-003           2.97896e-004
                    3.60    415.00216                                0.00000             85.141                                        4.15002e+002           1.50022e+001           5.00216e+000           2.16491e-003           2.16491e-003           2.16491e-003           1.64910e-004
                    3.70    415.00957                                0.00000             85.141                                        4.15010e+002           1.50096e+001           5.00957e+000           9.57442e-003           9.57442e-003           9.57442e-003           5.74417e-004
                    3.80    415.03055                                0.00000             85.141                                        4.15031e+002           1.50305e+001           5.03055e+000           3.05467e-002           3.05467e-002           5.46734e-004           5.46734e-004
                    3.90    415.04106                                0.00000             85.141                                        4.15041e+002           1.50411e+001           5.04106e+000           4.10602e-002           4.10602e-002           1.06024e-003           6.02387e-005
                    4.00    415.03875                                0.00000             85.141                                        4.15039e+002           1.50388e+001           5.03875e+000           3.87525e-002           3.87525e-002           8.75251e-003           7.52505e-004
                    4.10    415.03255                                0.00000             85.138                                        4.15033e+002           1.50326e+001           5.03255e+000           3.25501e-002           3.25501e-002           2.55011e-003           5.50106e-004
                    4.20    415.03987                                0.00000             85.135                                        4.15040e+002           1.50399e+001           5.03987e+000           3.98698e-002           3.98698e-002           9.86977e-003           8.69769e-004
                    4.30    415.05749                                0.00000             85.133                                        4.15057e+002           1.50575e+001           5.05749e+000           5.74873e-002           5.74873e-002           7.48726e-003           4.87260e-004
                    4.40    415.06347                                0.00000             85.133                                        4.15063e+002           1.50635e+001           5.06347e+000           6.34666e-002           6.34666e-002           3.46662e-003           4.66623e-004
                    4.50    415.05377                                0.00000             85.133                                        4.15054e+002           1.50538e+001           5.05377e+000           5.37698e-002           5.37698e-002           3.76984e-003           7.69840e-004
                    4.60    415.05052                                0.00000             85.133                                        4.15051e+002           1.50505e+001           5.05052e+000           5.05174e-002           5.05174e-002           5.17360e-004           5.17360e-004
                    4.70    415.07236                                0.00000             85.133                                        4.15072e+002           1.50724e+001           5.07236e+000           7.23632e-002           7.23632e-002           2.36321e-003           3.63214e-004
                    4.80    415.10316                                0.00000             85.133                                        4.15103e+002           1.51032e+001           5.10316e+000           1.03161e-001           3.16055e-003           3.16055e-003           1.60553e-004
