~VERSION INFORMATION
VERS                    .            2.0                                    :CWLS LOG ASCII STANDARD
WRAP                    .            NO                                     :ONE LINE PER TIME STEP


~WELL INFORMATION
#MNEM                   .UNIT        DATA                                    DESCRIPTION
#________________________________________________________________________________________
STRTTIME                .HH/MM/SS    16:02:11                               :START TIME
STOPTIME                .HH/MM/SS    16:05:47                               :STOP TIME
STRT                    .s           2.10                                   :START DATA
STOP                    .s           214.40                                 :STOP DATA
STEP                    .s           0.10                                   :MEASUREMENT TIME INTERVAL
NULL                    .            -999.25                                :NULL VALUE
COMP                    .            Statoil ASA                            :COMPANY
FLD                     .            Volve                                  :FIELD
WELL                    .            15/9-F-1 B                             :WELL
RUN                     .            7                                      :RUN
LOC                     .            Maersk Inspirer                        :LOCATION
PROV                    .            na                                     :PROVINCE
SRVC                    .            Baker Hughes INTEQ                     :SERVICE COMPANY
DATE                    .YY/MM/DD    13/09/06                               :LOG DATE
UWI                     .                                                   :UNIQUE WELL ID
DEPTHMD                 .m           3261.0                                 :MEASURED DEPTH
DEPTHTVD                .m           3057.0                                 :TRUE VERTICAL DEPTH


~CURVE INFORMATION
#MNEM                   .UNIT        API CODES                               DESCRIPTION
#________________________________________________________________________________________
TIME                    .s                                                  :01 TIME
DD_PRESS                .bar                                                :02 DRAW DOWN PRESSURE
DD_VOLUME               .cm3                                                :03 INCREMENTAL DRAW DOWN VOLUME
TEMP                    .degC                                               :04 TRANSDUCER TEMPERATURE
DD_PRESS_MOD_1000       .bar                                                :05 DRAW DOWN PRESSURE MOD 1000
DD_PRESS_MOD_100        .bar                                                :06 DRAW DOWN PRESSURE MOD 100
DD_PRESS_MOD_10         .bar                                                :07 DRAW DOWN PRESSURE MOD 10
DD_PRESS_MOD_1          .bar                                                :08 DRAW DOWN PRESSURE MOD 1
DD_PRESS_MOD_01         .bar                                                :09 DRAW DOWN PRESSURE MOD 01
DD_PRESS_MOD_001        .bar                                                :10 DRAW DOWN PRESSURE MOD 001
DD_PRESS_MOD_0001       .bar                                                :11 DRAW DOWN PRESSURE MOD 0001


~PARAMETER INFORMATION
#MNEM                   .UNIT        VALUE                                   DESCRIPTION
#________________________________________________________________________________________
TOOLFACE                .deg         na                                     :01 TOOLFACE
PUMP_CAPACITY           .bar         400                                    :02 NOMINAL DRAW DOWN PUMP CAPACITY
PUMP_LIMIT              .bar         400                                    :03 DOWNLINK PUMP LIMIT
TIME_LIMIT              .min         10                                     :04 DOWNLINK MAX TIME
TEST_TYPE               .            LOW MOBILITY                           :05 DOWNLINK
DD_PIST_A               .cm2         3.1416                                 :06 DRAW DOWN PISTON AREA
V_SYS                   .cm3         131.0000                               :07 SYSTEM VOLUME
PROBE_ID                .cm          1.2700                                 :08 TTK PROBE ID
G0                      .            4.6700                                 :09 GEOMETRY FACTOR


~A                  TIME     DD_PRESS                              DD_VOLUME               TEMP                                   DD_PRESS_MOD_1000       DD_PRESS_MOD_100        DD_PRESS_MOD_10         DD_PRESS_MOD_1        DD_PRESS_MOD_01       DD_PRESS_MOD_001      DD_PRESS_MOD_0001
# ...
                   72.10    345.60597                               10.91395             82.102                                        3.45606e+002           4.56060e+001           5.60597e+000           6.05967e-001           5.96675e-003           5.96675e-003           9.66751e-004
                   72.20    345.61107                               10.91395             82.102                                        3.45611e+002           4.56111e+001           5.61107e+000           6.11071e-001           1.10706e-002           1.07060e-003           7.05961e-005
                   72.30    345.61030                               10.91395             82.102                                        3.45610e+002           4.56103e+001           5.61030e+000           6.10297e-001           1.02973e-002           2.97264e-004           2.97264e-004
                   72.40    345.60194                               10.91395             82.102                                        3.45602e+002           4.56019e+001           5.60194e+000           6.01937e-001           1.93672e-003           1.93672e-003           9.36718e-004
                   72.50    345.59623                               10.91395             82.102                                        3.45596e+002           4.55962e+001           5.59623e+000           5.96232e-001           9.62319e-002           6.23189e-003           2.31894e-004
                   72.60    345.60230                               10.91395             82.102                                        3.45602e+002           4.56023e+001           5.60230e+000           6.02297e-001           2.29674e-003           2.29674e-003           2.96741e-004
                   72.70    345.61018                               10.91395             82.102                                        3.45610e+002           4.56102e+001           5.61018e+000           6.10183e-001           1.01834e-002           1.83375e-004           1.83375e-004
                   72.80    345.61205                               10.91395             82.102                                        3.45612e+002           4.56120e+001           5.61205e+000           6.12048e-001           1.20480e-002           2.04804e-003           4.80432e-005
                   72.90    345.61404                               10.91395             82.102                                        3.45614e+002           4.56140e+001           5.61404e+000           6.14037e-001           1.40369e-002           4.03693e-003           3.69346e-005
                   73.00    345.61225                               10.91395             82.102                                        3.45612e+002           4.56122e+001           5.61225e+000           6.12247e-001           1.22468e-002           2.24684e-003           2.46839e-004
                   73.10    345.61082                               10.91395             82.102                                        3.45611e+002           4.56108e+001           5.61082e+000           6.10824e-001           1.08239e-002           8.23933e-004           8.23933e-004
                   73.20    345.61017                               10.91395             82.102                                        3.45610e+002           4.56102e+001           5.61017e+000           6.10171e-001           1.01709e-002           1.70870e-004           1.70870e-004
                   73.30    345.60964                               10.91395             82.102                                        3.45610e+002           4.56096e+001           5.60964e+000           6.09635e-001           9.63503e-003           9.63503e-003           6.35034e-004
                   73.40    345.60877                               10.91395             82.102                                        3.45609e+002           4.56088e+001           5.60877e+000           6.08767e-001           8.76672e-003           8.76672e-003           7.66721e-004
                   73.50    345.60737                               10.91395             82.102                                        3.45607e+002           4.56074e+001           5.60737e+000           6.07370e-001           7.37007e-003           7.37007e-003           3.70066e-004
                   73.60    345.60684                               10.91395             82.102                                        3.45607e+002           4.56068e+001           5.60684e+000           6.06838e-001           6.83772e-003           6.83772e-003           8.37721e-004
                   73.70    345.60641                               10.91395             82.102                                        3.45606e+002           4.56064e+001           5.60641e+000           6.06406e-001           6.40561e-003           6.40561e-003           4.05609e-004
                   73.80    345.60715                               10.91395             82.102                                        3.45607e+002           4.56072e+001           5.60715e+000           6.07153e-001           7.15307e-003           7.15307e-003           1.53071e-004
                   73.90    345.60491                               10.91395             82.102                                        3.45605e+002           4.56049e+001           5.60491e+000           6.04912e-001           4.91243e-003           4.91243e-003           9.12433e-004
                   74.00    345.60394                               10.91395             82.102                                        3.45604e+002           4.56039e+001           5.60394e+000           6.03945e-001           3.94452e-003           3.94452e-003           9.44515e-004
                   74.10    345.60398                               10.91395             82.102                                        3.45604e+002           4.56040e+001           5.60398e+000           6.03978e-001           3.97754e-003           3.97754e-003           9.77537e-004
                   74.20    345.60642                               10.91395             82.102                                        3.45606e+002           4.56064e+001           5.60642e+000           6.06420e-001           6.41984e-003           6.41984e-003           4.19837e-004
                   74.30    345.61212                               10.91395             82.102                                        3.45612e+002           4.56121e+001           5.61212e+000           6.12121e-001           1.21213e-002           2.12127e-003           1.21269e-004
                   74.40    345.61062                               10.91395             82.102                                        3.45611e+002           4.56106e+001           5.61062e+000           6.10617e-001           1.06166e-002           6.16596e-004           6.16596e-004
                   74.50    345.60599                               10.91395             82.102                                        3.45606e+002           4.56060e+001           5.60599e+000           6.05989e-001           5.98930e-003           5.98930e-003           9.89298e-004
                   74.60    345.60920                               10.91395             82.102                                        3.45609e+002           4.56092e+001           5.60920e+000           6.09197e-001           9.19671e-003           9.19671e-003           1.96714e-004
                   74.70    345.61284                               10.91395             82.102                                        3.45613e+002           4.56128e+001           5.61284e+000           6.12842e-001           1.28420e-002           2.84198e-003           8.41982e-004
                   74.80    345.60922                               10.91395             82.099                                        3.45609e+002           4.56092e+001           5.60922e+000           6.09219e-001           9.21867e-003           9.21867e-003           2.18670e-004
