~VERSION INFORMATION
VERS                    .            2.0                                    :CWLS LOG ASCII STANDARD
WRAP                    .            NO                                     :ONE LINE PER TIME STEP


~WELL INFORMATION
#MNEM                   .UNIT        DATA                                    DESCRIPTION
#________________________________________________________________________________________
STRTTIME                .HH/MM/SS    03:09:23                               :START TIME
STOPTIME                .HH/MM/SS    03:12:09                               :STOP TIME
STRT                    .s           2.10                                   :START DATA
STOP                    .s           164.80                                 :STOP DATA
STEP                    .s           0.10                                   :MEASUREMENT TIME INTERVAL
NULL                    .            -999.25                                :NULL VALUE
COMP                    .            Statoil ASA                            :COMPANY
FLD                     .            Volve                                  :FIELD
WELL                    .            15/9-F-1 C                             :WELL
RUN                     .            4                                      :RUN
LOC                     .                                                   :LOCATION
PROV                    .            na                                     :PROVINCE
SRVC                    .            Baker Hughes INTEQ                     :SERVICE COMPANY
DATE                    .YY/MM/DD    14/03/15                               :LOG DATE
UWI                     .                                                   :UNIQUE WELL ID
DEPTHMD                 .m           3523.2                                 :MEASURED DEPTH
DEPTHTVD                .m           2986.7                                 :TRUE VERTICAL DEPTH


~CURVE INFORMATION
#MNEM                   .UNIT        API CODES                               DESCRIPTION
#________________________________________________________________________________________
TIME                    .s                                                  :01 TIME
DD_PRESS                .bar                                                :02 DRAW DOWN PRESSURE
DD_VOLUME               .cm3                                                :03 INCREMENTAL DRAW DOWN VOLUME
TEMP                    .degC                                               :04 TRANSDUCER TEMPERATURE
DD_PRESS_MOD_1000       .bar                                                :05 DRAW DOWN PRESSURE MOD 1000
DD_PRESS_MOD_100        .bar                                                :06 DRAW DOWN PRESSURE MOD 100
DD_PRESS_MOD_10         .bar                                                :07 DRAW DOWN PRESSURE MOD 10
DD_PRESS_MOD_1          .bar                                                :08 DRAW DOWN PRESSURE MOD 1
DD_PRESS_MOD_01         .bar                                                :09 DRAW DOWN PRESSURE MOD 01
DD_PRESS_MOD_001        .bar                                                :10 DRAW DOWN PRESSURE MOD 001
DD_PRESS_MOD_0001       .bar                                                :11 DRAW DOWN PRESSURE MOD 0001


~PARAMETER INFORMATION
#MNEM                   .UNIT        VALUE                                   DESCRIPTION
#________________________________________________________________________________________
TOOLFACE                .deg         104.9                                  :01 TOOLFACE
PUMP_CAPACITY           .bar         400                                    :02 NOMINAL DRAW DOWN PUMP CAPACITY
PUMP_LIMIT              .bar         240                                    :03 DOWNLINK PUMP LIMIT
TIME_LIMIT              .min         10                                     :04 DOWNLINK MAX TIME
TEST_TYPE               .            REPEAT                                 :05 DOWNLINK
TEST_TYPE               .            HIGH MOBILITY                          :06 DOWNLINK
DD_PIST_A               .cm2         3.1416                                 :07 DRAW DOWN PISTON AREA
V_SYS                   .cm3         131.0000                               :08 SYSTEM VOLUME
PROBE_ID                .cm          1.2700                                 :09 TTK PROBE ID
G0                      .            4.6700                                 :10 GEOMETRY FACTOR


~A                  TIME     DD_PRESS                              DD_VOLUME               TEMP                                   DD_PRESS_MOD_1000       DD_PRESS_MOD_100        DD_PRESS_MOD_10         DD_PRESS_MOD_1        DD_PRESS_MOD_01       DD_PRESS_MOD_001      DD_PRESS_MOD_0001
# ...
                   32.90    333.53165                                5.97596             84.539                                        3.33532e+002           3.35316e+001           3.53165e+000           5.31649e-001           3.16489e-002           1.64893e-003           6.48930e-004
                   33.00    333.53084                                6.07556             84.539                                        3.33531e+002           3.35308e+001           3.53084e+000           5.30844e-001           3.08444e-002           8.44383e-004           8.44383e-004
                   33.10    333.52890                                6.17519             84.539                                        3.33529e+002           3.35289e+001           3.52890e+000           5.28904e-001           2.89041e-002           8.90410e-003           9.04105e-004
                   33.20    333.53123                                6.27476             84.539                                        3.33531e+002           3.35312e+001           3.53123e+000           5.31230e-001           3.12304e-002           1.23043e-003           2.30429e-004
                   33.30    333.52683                                6.37428             84.539                                        3.33527e+002           3.35268e+001           3.52683e+000           5.26833e-001           2.68327e-002           6.83269e-003           8.32688e-004
                   33.40    333.52320                                6.47364             84.539                                        3.33523e+002           3.35232e+001           3.52320e+000           5.23197e-001           2.31970e-002           3.19702e-003           1.97018e-004
                   33.50    333.52456                                6.57285             84.539                                        3.33525e+002           3.35246e+001           3.52456e+000           5.24565e-001           2.45648e-002           4.56479e-003           5.64790e-004
                   33.60    333.53695                                6.67183             84.539                                        3.33537e+002           3.35370e+001           3.53695e+000           5.36950e-001           3.69501e-002           6.95006e-003           9.50055e-004
                   33.70    333.55579                                6.77054             84.539                                        3.33556e+002           3.35558e+001           3.55579e+000           5.55790e-001           5.57905e-002           5.79048e-003           7.90482e-004
                   33.80    333.57287                                6.86888             84.539                                        3.33573e+002           3.35729e+001           3.57287e+000           5.72874e-001           7.28737e-002           2.87368e-003           8.73675e-004
                   33.90    333.59216                                6.96704             84.539                                        3.33592e+002           3.35922e+001           3.59216e+000           5.92159e-001           9.21591e-002           2.15911e-003           1.59105e-004
                   34.00    333.62474                                7.06485             84.537                                        3.33625e+002           3.36247e+001           3.62474e+000           6.24737e-001           2.47368e-002           4.73682e-003           7.36819e-004
                   34.10    333.66538                                7.16224             84.533                                        3.33665e+002           3.36654e+001           3.66538e+000           6.65376e-001           6.53759e-002           5.37593e-003           3.75926e-004
                   34.20    333.69505                                7.25906             84.531                                        3.33695e+002           3.36950e+001           3.69505e+000           6.95047e-001           9.50475e-002           5.04746e-003           4.74564e-005
                   34.30    333.72468                                7.35543             84.531                                        3.33725e+002           3.37247e+001           3.72468e+000           7.24675e-001           2.46754e-002           4.67536e-003           6.75357e-004
                   34.40    333.76156                                7.45126             84.531                                        3.33762e+002           3.37616e+001           3.76156e+000           7.61557e-001           6.15569e-002           1.55693e-003           5.56933e-004
                   34.50    333.79782                                7.54654             84.531                                        3.33798e+002           3.37978e+001           3.79782e+000           7.97816e-001           9.78165e-002           7.81647e-003           8.16468e-004
                   34.60    333.82713                                7.64114             84.531                                        3.33827e+002           3.38271e+001           3.82713e+000           8.27128e-001           2.71276e-002           7.12760e-003           1.27596e-004
                   34.70    333.87161                                7.73521             84.531                                        3.33872e+002           3.38716e+001           3.87161e+000           8.71607e-001           7.16074e-002           1.60736e-003           6.07356e-004
                   34.80    333.91779                                7.82866             84.531                                        3.33918e+002           3.39178e+001           3.91779e+000           9.17794e-001           1.77944e-002           7.79438e-003           7.94377e-004
                   34.90    333.95455                                7.92137             84.531                                        3.33955e+002           3.39545e+001           3.95455e+000           9.54548e-001           5.45481e-002           4.54808e-003           5.48083e-004
                   35.00    333.99544                                8.01333             84.531                                        3.33995e+002           3.39954e+001           3.99544e+000           9.95440e-001           9.54399e-002           5.43987e-003           4.39872e-004
                   35.10    334.04492                                8.10442             84.531                                        3.34045e+002           3.40449e+001           4.04492e+000           4.49181e-002           4.49181e-002           4.91814e-003           9.18138e-004
                   35.20    334.10327                                8.19472             84.531                                        3.34103e+002           3.41033e+001           4.10327e+000           1.03271e-001           3.27089e-003           3.27089e-003           2.70888e-004
                   35.30    334.16357                                8.28416             84.531                                        3.34164e+002           3.41636e+001           4.16357e+000           1.63571e-001           6.35711e-002           3.57114e-003           5.71140e-004
                   35.40    334.21972                                8.37269             84.531                                        3.34220e+002           3.42197e+001           4.21972e+000           2.19722e-001           1.97217e-002           9.72171e-003           7.21708e-004
                   35.50    334.28610                                8.46032             84.531                                        3.34286e+002           3.42861e+001           4.28610e+000           2.86099e-001           8.60992e-002           6.09919e-003           9.91935e-005
                   35.60    334.36785                                8.54694             84.531                                        3.34368e+002           3.43679e+001           4.36785e+000           3.67851e-001           6.78514e-002           7.85144e-003           8.51435e-004
