~VERSION INFORMATION
VERS                    .            2.0                                    :CWLS LOG ASCII STANDARD
WRAP                    .            NO                                     :ONE LINE PER TIME STEP


~WELL INFORMATION
#MNEM                   .UNIT        DATA                                    DESCRIPTION
#________________________________________________________________________________________
STRTTIME                .HH/MM/SS    15:31:36                               :START TIME
STOPTIME                .HH/MM/SS    15:34:21                               :STOP TIME
STRT                    .s           2.10                                   :START DATA
STOP                    .s           163.50                                 :STOP DATA
STEP                    .s           0.10                                   :MEASUREMENT TIME INTERVAL
NULL                    .            -999.25                                :NULL VALUE
COMP                    .            Statoil ASA                            :COMPANY
FLD                     .            Volve                                  :FIELD
WELL                    .            15/9-F-11 A                            :WELL
RUN                     .            8                                      :RUN
LOC                     .            Maersk Inspirer                        :LOCATION
PROV                    .            na                                     :PROVINCE
SRVC                    .            Baker Hughes INTEQ                     :SERVICE COMPANY
DATE                    .YY/MM/DD    13/05/21                               :LOG DATE
UWI                     .                                                   :UNIQUE WELL ID
DEPTHMD                 .m           3617.2                                 :MEASURED DEPTH
DEPTHTVD                .m           3015.5                                 :TRUE VERTICAL DEPTH


~CURVE INFORMATION
#MNEM                   .UNIT        API CODES                               DESCRIPTION
#________________________________________________________________________________________
TIME                    .s                                                  :01 TIME
DD_PRESS                .bar                                                :02 DRAW DOWN PRESSURE
DD_VOLUME               .cm3                                                :03 INCREMENTAL DRAW DOWN VOLUME
TEMP                    .degC                                               :04 TRANSDUCER TEMPERATURE
DD_PRESS_MOD_1000       .bar                                                :05 DRAW DOWN PRESSURE MOD 1000
DD_PRESS_MOD_100        .bar                                                :06 DRAW DOWN PRESSURE MOD 100
DD_PRESS_MOD_10         .bar                                                :07 DRAW DOWN PRESSURE MOD 10
DD_PRESS_MOD_1          .bar                                                :08 DRAW DOWN PRESSURE MOD 1
DD_PRESS_MOD_01         .bar                                                :09 DRAW DOWN PRESSURE MOD 01
DD_PRESS_MOD_001        .bar                                                :10 DRAW DOWN PRESSURE MOD 001
DD_PRESS_MOD_0001       .bar                                                :11 DRAW DOWN PRESSURE MOD 0001


~PARAMETER INFORMATION
#MNEM                   .UNIT        VALUE                                   DESCRIPTION
#________________________________________________________________________________________
TOOLFACE                .deg         63.0                                   :01 TOOLFACE
PUMP_CAPACITY           .bar         400                                    :02 NOMINAL DRAW DOWN PUMP CAPACITY
PUMP_LIMIT              .bar         240                                    :03 DOWNLINK PUMP LIMIT
TIME_LIMIT              .min         10                                     :04 DOWNLINK MAX TIME
TEST_TYPE               .            HIGH MOBILITY                          :05 DOWNLINK
DD_PIST_A               .cm2         3.1416                                 :06 DRAW DOWN PISTON AREA
V_SYS                   .cm3         131.0000                               :07 SYSTEM VOLUME
PROBE_ID                .cm          1.2700                                 :08 TTK PROBE ID
G0                      .            4.6700                                 :09 GEOMETRY FACTOR


~A                  TIME     DD_PRESS                              DD_VOLUME               TEMP                                   DD_PRESS_MOD_1000       DD_PRESS_MOD_100        DD_PRESS_MOD_10         DD_PRESS_MOD_1        DD_PRESS_MOD_01       DD_PRESS_MOD_001      DD_PRESS_MOD_0001
# ...
                  161.70    414.99381                                0.00000             80.344                                        4.14994e+002           1.49938e+001           4.99381e+000           9.93810e-001           9.38102e-002           3.81018e-003           8.10178e-004
                  161.80    414.96763                                0.00000             80.346                                        4.14968e+002           1.49676e+001           4.96763e+000           9.67631e-001           6.76306e-002           7.63055e-003           6.30554e-004
                  161.90    414.96675                                0.00000             80.347                                        4.14967e+002           1.49668e+001           4.96675e+000           9.66751e-001           6.67508e-002           6.75078e-003           7.50775e-004
                  162.00    414.99393                                0.00000             80.348                                        4.14994e+002           1.49939e+001           4.99393e+000           9.93931e-001           9.39305e-002           3.93053e-003           9.30533e-004
                  162.10    415.00377                                0.00000             80.347                                        4.15004e+002           1.50038e+001           5.00377e+000           3.77168e-003           3.77168e-003           3.77168e-003           7.71679e-004
                  162.20    414.98093                                0.00000             80.346                                        4.14981e+002           1.49809e+001           4.98093e+000           9.80928e-001           8.09276e-002           9.27621e-004           9.27621e-004
                  162.30    414.97139                                0.00000             80.344                                        4.14971e+002           1.49714e+001           4.97139e+000           9.71385e-001           7.13853e-002           1.38525e-003           3.85251e-004
                  162.40    414.98875                                0.00000             80.344                                        4.14989e+002           1.49888e+001           4.98875e+000           9.88751e-001           8.87513e-002           8.75133e-003           7.51326e-004
                  162.50    414.99496                                0.00000             80.344                                        4.14995e+002           1.49950e+001           4.99496e+000           9.94958e-001           9.49577e-002           4.95768e-003           9.57680e-004
                  162.60    414.97483                                0.00000             80.344                                        4.14975e+002           1.49748e+001           4.97483e+000           9.74834e-001           7.48341e-002           4.83411e-003           8.34112e-004
                  162.70    414.96643                                0.00000             80.346                                        4.14966e+002           1.49664e+001           4.96643e+000           9.66433e-001           6.64327e-002           6.43271e-003           4.32707e-004
                  162.80    414.99208                                0.00000             80.350                                        4.14992e+002           1.49921e+001           4.99208e+000           9.92079e-001           9.20785e-002           2.07852e-003           7.85166e-005
                  162.90    415.00374                                0.00000             80.352                                        4.15004e+002           1.50037e+001           5.00374e+000           3.74476e-003           3.74476e-003           3.74476e-003           7.44761e-004
                  163.00    414.98988                                0.00000             80.352                                        4.14990e+002           1.49899e+001           4.98988e+000           9.89881e-001           8.98809e-002           9.88089e-003           8.80888e-004
                  163.10    414.98603                                0.00000             80.352                                        4.14986e+002           1.49860e+001           4.98603e+000           9.86034e-001           8.60345e-002           6.03446e-003           3.44592e-005
                  163.20    415.00656                                0.00000             80.352                                        4.15007e+002           1.50066e+001           5.00656e+000           6.55613e-003           6.55613e-003           6.55613e-003           5.56134e-004
                  163.30    415.00705                                0.00000             80.352                                        4.15007e+002           1.50070e+001           5.00705e+000           7.04969e-003           7.04969e-003           7.04969e-003           4.96912e-005
                  163.40    414.98513                                0.00000             80.352                                        4.14985e+002           1.49851e+001           4.98513e+000           9.85134e-001           8.51338e-002           5.13382e-003           1.33818e-004
                  163.50    414.98144                                0.00000             80.352                                        4.14981e+002           1.49814e+001           4.98144e+000           9.81437e-001           8.14374e-002           1.43738e-003           4.37383e-004
