~VERSION INFORMATION
VERS                    .            2.0                                    :CWLS LOG ASCII STANDARD
WRAP                    .            NO                                     :ONE LINE PER TIME STEP


~WELL INFORMATION
#MNEM                   .UNIT        DATA                                    DESCRIPTION
#________________________________________________________________________________________
STRTTIME                .HH/MM/SS    23:39:21                               :START TIME
STOPTIME                .HH/MM/SS    23:43:19                               :STOP TIME
STRT                    .s           2.10                                   :START DATA
STOP                    .s           236.60                                 :STOP DATA
STEP                    .s           0.10                                   :MEASUREMENT TIME INTERVAL
NULL                    .            -999.25                                :NULL VALUE
COMP                    .            Statoil                                :COMPANY
FLD                     .            Volve                                  :FIELD
WELL                    .            15/9-F-11 T2                           :WELL
RUN                     .            7                                      :RUN
LOC                     .            Maersk Inspirer                        :LOCATION
PROV                    .            na                                     :PROVINCE
SRVC                    .            Baker Hughes INTEQ                     :SERVICE COMPANY
DATE                    .YY/MM/DD    13/05/04                               :LOG DATE
UWI                     .                                                   :UNIQUE WELL ID
DEPTHMD                 .m           4417.0                                 :MEASURED DEPTH
DEPTHTVD                .m           3257.6                                 :TRUE VERTICAL DEPTH


~CURVE INFORMATION
#MNEM                   .UNIT        API CODES                               DESCRIPTION
#________________________________________________________________________________________
TIME                    .s                                                  :01 TIME
DD_PRESS                .bar                                                :02 DRAW DOWN PRESSURE
DD_VOLUME               .cm3                                                :03 INCREMENTAL DRAW DOWN VOLUME
TEMP                    .degC                                               :04 TRANSDUCER TEMPERATURE
DD_PRESS_MOD_1000       .bar                                                :05 DRAW DOWN PRESSURE MOD 1000
DD_PRESS_MOD_100        .bar                                                :06 DRAW DOWN PRESSURE MOD 100
DD_PRESS_MOD_10         .bar                                                :07 DRAW DOWN PRESSURE MOD 10
DD_PRESS_MOD_1          .bar                                                :08 DRAW DOWN PRESSURE MOD 1
DD_PRESS_MOD_01         .bar                                                :09 DRAW DOWN PRESSURE MOD 01
DD_PRESS_MOD_001        .bar                                                :10 DRAW DOWN PRESSURE MOD 001
DD_PRESS_MOD_0001       .bar                                                :11 DRAW DOWN PRESSURE MOD 0001


~PARAMETER INFORMATION
#MNEM                   .UNIT        VALUE                                   DESCRIPTION
#________________________________________________________________________________________
TOOLFACE                .deg         na                                     :01 TOOLFACE
PUMP_CAPACITY           .bar         400                                    :02 NOMINAL DRAW DOWN PUMP CAPACITY
PUMP_LIMIT              .bar         240                                    :03 DOWNLINK PUMP LIMIT
TIME_LIMIT              .min         10                                     :04 DOWNLINK MAX TIME
TEST_TYPE               .            REPEAT                                 :05 DOWNLINK
TEST_TYPE               .            HIGH MOBILITY                          :06 DOWNLINK
DD_PIST_A               .cm2         3.1416                                 :07 DRAW DOWN PISTON AREA
V_SYS                   .cm3         131.0000                               :08 SYSTEM VOLUME
PROBE_ID                .cm          1.2700                                 :09 TTK PROBE ID
G0                      .            4.6700                                 :10 GEOMETRY FACTOR


~A                  TIME     DD_PRESS                              DD_VOLUME               TEMP                                   DD_PRESS_MOD_1000       DD_PRESS_MOD_100        DD_PRESS_MOD_10         DD_PRESS_MOD_1        DD_PRESS_MOD_01       DD_PRESS_MOD_001      DD_PRESS_MOD_0001
# ...
                   49.70    361.05609                               10.82289             96.063                                        3.61056e+002           6.10561e+001           1.05609e+000           5.60872e-002           5.60872e-002           6.08723e-003           8.72347e-005
                   49.80    361.06197                               10.82289             96.063                                        3.61062e+002           6.10620e+001           1.06197e+000           6.19664e-002           6.19664e-002           1.96639e-003           9.66392e-004
                   49.90    361.06345                               10.82289             96.063                                        3.61063e+002           6.10634e+001           1.06345e+000           6.34490e-002           6.34490e-002           3.44897e-003           4.48973e-004
                   50.00    361.05617                               10.82289             96.063                                        3.61056e+002           6.10562e+001           1.05617e+000           5.61655e-002           5.61655e-002           6.16550e-003           1.65505e-004
                   50.10    361.05487                               10.82289             96.063                                        3.61055e+002           6.10549e+001           1.05487e+000           5.48671e-002           5.48671e-002           4.86713e-003           8.67129e-004
                   50.20    361.06746                               10.82289             96.063                                        3.61067e+002           6.10675e+001           1.06746e+000           6.74595e-002           6.74595e-002           7.45950e-003           4.59497e-004
                   50.30    361.07745                               10.82289             96.063                                        3.61077e+002           6.10774e+001           1.07745e+000           7.74451e-002           7.74451e-002           7.44505e-003           4.45050e-004
                   50.40    361.06264                               10.82289             96.063                                        3.61063e+002           6.10626e+001           1.06264e+000           6.26392e-002           6.26392e-002           2.63916e-003           6.39155e-004
                   50.50    361.05641                               10.82289             96.063                                        3.61056e+002           6.10564e+001           1.05641e+000           5.64071e-002           5.64071e-002           6.40707e-003           4.07074e-004
                   50.60    361.06930                               10.82289             96.063                                        3.61069e+002           6.10693e+001           1.06930e+000           6.93020e-002           6.93020e-002           9.30197e-003           3.01970e-004
                   50.70    361.06964                               10.82289             96.063                                        3.61070e+002           6.10696e+001           1.06964e+000           6.96439e-002           6.96439e-002           9.64387e-003           6.43873e-004
                   50.80    361.05076                               10.82289             96.063                                        3.61051e+002           6.10508e+001           1.05076e+000           5.07612e-002           5.07612e-002           7.61224e-004           7.61224e-004
                   50.90    361.05745                               10.82289             96.063                                        3.61057e+002           6.10575e+001           1.05745e+000           5.74542e-002           5.74542e-002           7.45422e-003           4.54218e-004
                   51.00    361.07419                               10.82289             96.065                                        3.61074e+002           6.10742e+001           1.07419e+000           7.41928e-002           7.41928e-002           4.19284e-003           1.92844e-004
                   51.10    361.05922                               10.82289             96.066                                        3.61059e+002           6.10592e+001           1.05922e+000           5.92244e-002           5.92244e-002           9.22436e-003           2.24360e-004
                   51.20    361.04334                               10.82289             96.064                                        3.61043e+002           6.10433e+001           1.04334e+000           4.33430e-002           4.33430e-002           3.34300e-003           3.43001e-004
                   51.30    361.06308                               10.82289             96.063                                        3.61063e+002           6.10631e+001           1.06308e+000           6.30841e-002           6.30841e-002           3.08412e-003           8.41183e-005
                   51.40    361.07379                               10.82289             96.065                                        3.61074e+002           6.10738e+001           1.07379e+000           7.37865e-002           7.37865e-002           3.78645e-003           7.86451e-004
                   51.50    361.05338                               10.82289             96.068                                        3.61053e+002           6.10534e+001           1.05338e+000           5.33818e-002           5.33818e-002           3.38175e-003           3.81750e-004
                   51.60    361.05820                               10.82289             96.068                                        3.61058e+002           6.10582e+001           1.05820e+000           5.81968e-002           5.81968e-002           8.19679e-003           1.96795e-004
                   51.70    361.07662                               10.82289             96.064                                        3.61077e+002           6.10766e+001           1.07662e+000           7.66204e-002           7.66204e-002           6.62044e-003           6.20444e-004
                   51.80    361.06448                               10.82289             96.063                                        3.61064e+002           6.10645e+001           1.06448e+000           6.44751e-002           6.44751e-002           4.47509e-003           4.75093e-004
                   51.90    361.04774                               10.82289             96.063                                        3.61048e+002           6.10477e+001           1.04774e+000           4.77402e-002           4.77402e-002           7.74017e-003           7.40172e-004
                   52.00    361.06153                               10.82289             96.065                                        3.61062e+002           6.10615e+001           1.06153e+000           6.15321e-002           6.15321e-002           1.53207e-003           5.32074e-004
                   52.10    361.07623                               10.82289             96.068                                        3.61076e+002           6.10762e+001           1.07623e+000           7.62253e-002           7.62253e-002           6.22534e-003           2.25344e-004
                   52.20    361.07370                               10.82289             96.068                                        3.61074e+002           6.10737e+001           1.07370e+000           7.37042e-002           7.37042e-002           3.70418e-003           7.04176e-004
                   52.30    361.06190                               10.82289             96.064                                        3.61062e+002           6.10619e+001           1.06190e+000           6.19036e-002           6.19036e-002           1.90356e-003           9.03558e-004
                   52.40    361.06367                               10.82289             96.063                                        3.61064e+002           6.10637e+001           1.06367e+000           6.36659e-002           6.36659e-002           3.66593e-003           6.65930e-004
