~VERSION INFORMATION
VERS                    .            2.0                                    :CWLS LOG ASCII STANDARD
WRAP                    .            NO                                     :ONE LINE PER TIME STEP


~WELL INFORMATION
#MNEM                   .UNIT        DATA                                    DESCRIPTION
#________________________________________________________________________________________
STRTTIME                .HH/MM/SS    10:48:38                               :START TIME
STOPTIME                .HH/MM/SS    10:51:35                               :STOP TIME
STRT                    .s           2.10                                   :START DATA
STOP                    .s           175.10                                 :STOP DATA
STEP                    .s           0.10                                   :MEASUREMENT TIME INTERVAL
NULL                    .            -999.25                                :NULL VALUE
COMP                    .            Statoil ASA                            :COMPANY
FLD                     .            Volve                                  :FIELD
WELL                    .            15/9-F-11 A                            :WELL
RUN                     .            8                                      :RUN
LOC                     .            Maersk Inspirer                        :LOCATION
PROV                    .            na                                     :PROVINCE
SRVC                    .            Baker Hughes INTEQ                     :SERVICE COMPANY
DATE                    .YY/MM/DD    13/05/21                               :LOG DATE
UWI                     .                                                   :UNIQUE WELL ID
DEPTHMD                 .m           3635.2                                 :MEASURED DEPTH
DEPTHTVD                .m           3029.3                                 :TRUE VERTICAL DEPTH


~CURVE INFORMATION
#MNEM                   .UNIT        API CODES                               DESCRIPTION
#________________________________________________________________________________________
TIME                    .s                                                  :01 TIME
DD_PRESS                .bar                                                :02 DRAW DOWN PRESSURE
DD_VOLUME               .cm3                                                :03 INCREMENTAL DRAW DOWN VOLUME
TEMP                    .degC                                               :04 TRANSDUCER TEMPERATURE
DD_PRESS_MOD_1000       .bar                                                :05 DRAW DOWN PRESSURE MOD 1000
DD_PRESS_MOD_100        .bar                                                :06 DRAW DOWN PRESSURE MOD 100
DD_PRESS_MOD_10         .bar                                                :07 DRAW DOWN PRESSURE MOD 10
DD_PRESS_MOD_1          .bar                                                :08 DRAW DOWN PRESSURE MOD 1
DD_PRESS_MOD_01         .bar                                                :09 DRAW DOWN PRESSURE MOD 01
DD_PRESS_MOD_001        .bar                                                :10 DRAW DOWN PRESSURE MOD 001
DD_PRESS_MOD_0001       .bar                                                :11 DRAW DOWN PRESSURE MOD 0001


~PARAMETER INFORMATION
#MNEM                   .UNIT        VALUE                                   DESCRIPTION
#________________________________________________________________________________________
TOOLFACE                .deg         69.1                                   :01 TOOLFACE
PUMP_CAPACITY           .bar         400                                    :02 NOMINAL DRAW DOWN PUMP CAPACITY
PUMP_LIMIT              .bar         240                                    :03 DOWNLINK PUMP LIMIT
TIME_LIMIT              .min         10                                     :04 DOWNLINK MAX TIME
TEST_TYPE               .            REPEAT                                 :05 DOWNLINK
TEST_TYPE               .            HIGH MOBILITY                          :06 DOWNLINK
DD_PIST_A               .cm2         3.1416                                 :07 DRAW DOWN PISTON AREA
V_SYS                   .cm3         131.0000                               :08 SYSTEM VOLUME
PROBE_ID                .cm          1.2700                                 :09 TTK PROBE ID
G0                      .            4.6700                                 :10 GEOMETRY FACTOR


~A                  TIME     DD_PRESS                              DD_VOLUME               TEMP                                   DD_PRESS_MOD_1000       DD_PRESS_MOD_100        DD_PRESS_MOD_10         DD_PRESS_MOD_1        DD_PRESS_MOD_01       DD_PRESS_MOD_001      DD_PRESS_MOD_0001
# ...
                   35.70    319.81727                                8.69270             80.625                                        3.19817e+002           1.98173e+001           9.81727e+000           8.17270e-001           1.72698e-002           7.26980e-003           2.69799e-004
                   35.80    320.07811                                8.77494             80.625                                        3.20078e+002           2.00781e+001           7.81072e-002           7.81072e-002           7.81072e-002           8.10725e-003           1.07247e-004
                   35.90    320.33416                                8.85603             80.625                                        3.20334e+002           2.03342e+001           3.34160e-001           3.34160e-001           3.41599e-002           4.15990e-003           1.59903e-004
                   36.00    320.62490                                8.93600             80.625                                        3.20625e+002           2.06249e+001           6.24900e-001           6.24900e-001           2.48996e-002           4.89955e-003           8.99554e-004
                   36.10    320.95443                                9.01473             80.625                                        3.20954e+002           2.09544e+001           9.54427e-001           9.54427e-001           5.44274e-002           4.42742e-003           4.27422e-004
                   36.20    321.26932                                9.09218             80.625                                        3.21269e+002           2.12693e+001           1.26932e+000           2.69316e-001           6.93164e-002           9.31642e-003           3.16416e-004
                   36.30    321.55326                                9.16833             80.625                                        3.21553e+002           2.15533e+001           1.55326e+000           5.53260e-001           5.32604e-002           3.26041e-003           2.60415e-004
                   36.40    321.86288                                9.24329             80.625                                        3.21863e+002           2.18629e+001           1.86288e+000           8.62882e-001           6.28818e-002           2.88184e-003           8.81843e-004
                   36.50    322.21259                                9.31696             80.625                                        3.22213e+002           2.22126e+001           2.21259e+000           2.12595e-001           1.25948e-002           2.59482e-003           5.94817e-004
                   36.60    322.56527                                9.38909             80.625                                        3.22565e+002           2.25653e+001           2.56527e+000           5.65265e-001           6.52652e-002           5.26524e-003           2.65245e-004
                   36.70    322.90880                                9.45977             80.625                                        3.22909e+002           2.29088e+001           2.90880e+000           9.08796e-001           8.79558e-003           8.79558e-003           7.95583e-004
                   36.80    323.25836                                9.52916             80.625                                        3.23258e+002           2.32584e+001           3.25836e+000           2.58362e-001           5.83621e-002           8.36215e-003           3.62148e-004
                   36.90    323.62046                                9.59716             80.625                                        3.23620e+002           2.36205e+001           3.62046e+000           6.20456e-001           2.04562e-002           4.56180e-004           4.56180e-004
                   37.00    323.99950                                9.66363             80.625                                        3.23999e+002           2.39995e+001           3.99950e+000           9.99498e-001           9.94977e-002           9.49769e-003           4.97691e-004
                   37.10    324.38615                                9.72867             80.625                                        3.24386e+002           2.43862e+001           4.38615e+000           3.86152e-001           8.61518e-002           6.15180e-003           1.51800e-004
                   37.20    324.76865                                9.79211             80.625                                        3.24769e+002           2.47686e+001           4.76865e+000           7.68647e-001           6.86474e-002           8.64740e-003           6.47397e-004
                   37.30    325.15920                                9.85390             80.625                                        3.25159e+002           2.51592e+001           5.15920e+000           1.59204e-001           5.92045e-002           9.20449e-003           2.04488e-004
                   37.40    325.56999                                9.91423             80.625                                        3.25570e+002           2.55700e+001           5.56999e+000           5.69995e-001           6.99950e-002           9.99497e-003           9.94975e-004
                   37.50    326.00465                                9.97316             80.625                                        3.26005e+002           2.60047e+001           6.00465e+000           4.65218e-003           4.65218e-003           4.65218e-003           6.52177e-004
                   37.60    326.43279                               10.03033             80.625                                        3.26433e+002           2.64328e+001           6.43279e+000           4.32793e-001           3.27932e-002           2.79320e-003           7.93196e-004
                   37.70    326.84439                               10.08588             80.625                                        3.26844e+002           2.68444e+001           6.84439e+000           8.44386e-001           4.43864e-002           4.38637e-003           3.86374e-004
                   37.80    327.25726                               10.13971             80.625                                        3.27257e+002           2.72573e+001           7.25726e+000           2.57256e-001           5.72559e-002           7.25589e-003           2.55886e-004
                   37.90    327.68933                               10.19178             80.625                                        3.27689e+002           2.76893e+001           7.68933e+000           6.89333e-001           8.93331e-002           9.33313e-003           3.33133e-004
                   38.00    328.13707                               10.24207             80.625                                        3.28137e+002           2.81371e+001           8.13707e+000           1.37072e-001           3.70716e-002           7.07164e-003           7.16429e-005
                   38.10    328.59103                               10.29076             80.625                                        3.28591e+002           2.85910e+001           8.59103e+000           5.91032e-001           9.10316e-002           1.03162e-003           3.16209e-005
                   38.20    329.04971                               10.33778             80.625                                        3.29050e+002           2.90497e+001           9.04971e+000           4.97112e-002           4.97112e-002           9.71117e-003           7.11166e-004
                   38.30    329.51268                               10.38298             80.625                                        3.29513e+002           2.95127e+001           9.51268e+000           5.12680e-001           1.26801e-002           2.68008e-003           6.80084e-004
                   38.40    329.99224                               10.42633             80.625                                        3.29992e+002           2.99922e+001           9.99224e+000           9.92241e-001           9.22410e-002           2.24102e-003           2.41024e-004
