~VERSION INFORMATION
VERS                    .            2.0                                    :CWLS LOG ASCII STANDARD
WRAP                    .            NO                                     :ONE LINE PER TIME STEP


~WELL INFORMATION
#MNEM                   .UNIT        DATA                                    DESCRIPTION
#________________________________________________________________________________________
STRTTIME                .HH/MM/SS    08:48:41                               :START TIME
STOPTIME                .HH/MM/SS    08:51:35                               :STOP TIME
STRT                    .s           2.10                                   :START DATA
STOP                    .s           172.50                                 :STOP DATA
STEP                    .s           0.10                                   :MEASUREMENT TIME INTERVAL
NULL                    .            -999.25                                :NULL VALUE
COMP                    .            Statoil ASA                            :COMPANY
FLD                     .            Volve                                  :FIELD
WELL                    .            15/9-F-11 A                            :WELL
RUN                     .            8                                      :RUN
LOC                     .            Maersk Inspirer                        :LOCATION
PROV                    .            na                                     :PROVINCE
SRVC                    .            Baker Hughes INTEQ                     :SERVICE COMPANY
DATE                    .YY/MM/DD    13/05/21                               :LOG DATE
UWI                     .                                                   :UNIQUE WELL ID
DEPTHMD                 .m           3681.0                                 :MEASURED DEPTH
DEPTHTVD                .m           3064.4                                 :TRUE VERTICAL DEPTH


~CURVE INFORMATION
#MNEM                   .UNIT        API CODES                               DESCRIPTION
#________________________________________________________________________________________
TIME                    .s                                                  :01 TIME
DD_PRESS                .bar                                                :02 DRAW DOWN PRESSURE
DD_VOLUME               .cm3                                                :03 INCREMENTAL DRAW DOWN VOLUME
TEMP                    .degC                                               :04 TRANSDUCER TEMPERATURE
DD_PRESS_MOD_1000       .bar                                                :05 DRAW DOWN PRESSURE MOD 1000
DD_PRESS_MOD_100        .bar                                                :06 DRAW DOWN PRESSURE MOD 100
DD_PRESS_MOD_10         .bar                                                :07 DRAW DOWN PRESSURE MOD 10
DD_PRESS_MOD_1          .bar                                                :08 DRAW DOWN PRESSURE MOD 1
DD_PRESS_MOD_01         .bar                                                :09 DRAW DOWN PRESSURE MOD 01
DD_PRESS_MOD_001        .bar                                                :10 DRAW DOWN PRESSURE MOD 001
DD_PRESS_MOD_0001       .bar                                                :11 DRAW DOWN PRESSURE MOD 0001


~PARAMETER INFORMATION
#MNEM                   .UNIT        VALUE                                   DESCRIPTION
#________________________________________________________________________________________
TOOLFACE                .deg         -59.5                                  :01 TOOLFACE
PUMP_CAPACITY           .bar         400                                    :02 NOMINAL DRAW DOWN PUMP CAPACITY
PUMP_LIMIT              .bar         240                                    :03 DOWNLINK PUMP LIMIT
TIME_LIMIT              .min         10                                     :04 DOWNLINK MAX TIME
TEST_TYPE               .            REPEAT                                 :05 DOWNLINK
TEST_TYPE               .            HIGH MOBILITY                          :06 DOWNLINK
DD_PIST_A               .cm2         3.1416                                 :07 DRAW DOWN PISTON AREA
V_SYS                   .cm3         131.0000                               :08 SYSTEM VOLUME
PROBE_ID                .cm          1.2700                                 :09 TTK PROBE ID
G0                      .            4.6700                                 :10 GEOMETRY FACTOR


~A                  TIME     DD_PRESS                              DD_VOLUME               TEMP                                   DD_PRESS_MOD_1000       DD_PRESS_MOD_100        DD_PRESS_MOD_10         DD_PRESS_MOD_1        DD_PRESS_MOD_01       DD_PRESS_MOD_001      DD_PRESS_MOD_0001
# ...
                   46.90    345.55278                               10.79132             82.594                                        3.45553e+002           4.55528e+001           5.55278e+000           5.52777e-001           5.27770e-002           2.77705e-003           7.77045e-004
                   47.00    345.55604                               10.79132             82.594                                        3.45556e+002           4.55560e+001           5.55604e+000           5.56040e-001           5.60402e-002           6.04021e-003           4.02054e-005
                   47.10    345.55485                               10.79132             82.594                                        3.45555e+002           4.55548e+001           5.55485e+000           5.54850e-001           5.48498e-002           4.84977e-003           8.49771e-004
                   47.20    345.54350                               10.79132             82.594                                        3.45543e+002           4.55435e+001           5.54350e+000           5.43499e-001           4.34990e-002           3.49901e-003           4.99010e-004
                   47.30    345.54006                               10.79132             82.594                                        3.45540e+002           4.55401e+001           5.54006e+000           5.40061e-001           4.00608e-002           6.08403e-005           6.08403e-005
                   47.40    345.55216                               10.79132             82.594                                        3.45552e+002           4.55522e+001           5.55216e+000           5.52164e-001           5.21636e-002           2.16363e-003           1.63627e-004
                   47.50    345.56051                               10.79132             82.594                                        3.45561e+002           4.55605e+001           5.56051e+000           5.60510e-001           6.05095e-002           5.09534e-004           5.09534e-004
                   47.60    345.55000                               10.79132             82.594                                        3.45550e+002           4.55500e+001           5.55000e+000           5.50003e-001           5.00034e-002           3.42602e-006           3.42602e-006
                   47.70    345.54283                               10.79132             82.594                                        3.45543e+002           4.55428e+001           5.54283e+000           5.42832e-001           4.28317e-002           2.83169e-003           8.31689e-004
                   47.80    345.54934                               10.79132             82.594                                        3.45549e+002           4.55493e+001           5.54934e+000           5.49341e-001           4.93410e-002           9.34099e-003           3.40990e-004
                   47.90    345.55939                               10.79132             82.594                                        3.45559e+002           4.55594e+001           5.55939e+000           5.59389e-001           5.93895e-002           9.38947e-003           3.89465e-004
                   48.00    345.55093                               10.79132             82.594                                        3.45551e+002           4.55509e+001           5.55093e+000           5.50932e-001           5.09323e-002           9.32261e-004           9.32261e-004
                   48.10    345.54672                               10.79132             82.594                                        3.45547e+002           4.55467e+001           5.54672e+000           5.46724e-001           4.67242e-002           6.72425e-003           7.24249e-004
                   48.20    345.54872                               10.79132             82.594                                        3.45549e+002           4.55487e+001           5.54872e+000           5.48722e-001           4.87223e-002           8.72231e-003           7.22311e-004
                   48.30    345.54351                               10.79132             82.594                                        3.45544e+002           4.55435e+001           5.54351e+000           5.43506e-001           4.35061e-002           3.50615e-003           5.06147e-004
                   48.40    345.54895                               10.79132             82.594                                        3.45549e+002           4.55490e+001           5.54895e+000           5.48950e-001           4.89505e-002           8.95048e-003           9.50478e-004
                   48.50    345.55513                               10.79132             82.594                                        3.45555e+002           4.55551e+001           5.55513e+000           5.55126e-001           5.51257e-002           5.12574e-003           1.25739e-004
                   48.60    345.54684                               10.79132             82.594                                        3.45547e+002           4.55468e+001           5.54684e+000           5.46838e-001           4.68377e-002           6.83772e-003           8.37724e-004
                   48.70    345.53926                               10.79132             82.594                                        3.45539e+002           4.55393e+001           5.53926e+000           5.39257e-001           3.92572e-002           9.25719e-003           2.57192e-004
                   48.80    345.54999                               10.79132             82.594                                        3.45550e+002           4.55500e+001           5.54999e+000           5.49991e-001           4.99914e-002           9.99143e-003           9.91427e-004
                   48.90    345.56362                               10.79132             82.594                                        3.45564e+002           4.55636e+001           5.56362e+000           5.63624e-001           6.36237e-002           3.62368e-003           6.23684e-004
                   49.00    345.56534                               10.79132             82.594                                        3.45565e+002           4.55653e+001           5.56534e+000           5.65337e-001           6.53370e-002           5.33705e-003           3.37048e-004
                   49.10    345.55739                               10.79132             82.594                                        3.45557e+002           4.55574e+001           5.55739e+000           5.57387e-001           5.73866e-002           7.38660e-003           3.86598e-004
                   49.20    345.55514                               10.79132             82.594                                        3.45555e+002           4.55551e+001           5.55514e+000           5.55138e-001           5.51384e-002           5.13840e-003           1.38403e-004
                   49.30    345.55365                               10.79132             82.594                                        3.45554e+002           4.55536e+001           5.55365e+000           5.53646e-001           5.36463e-002           3.64625e-003           6.46254e-004
                   49.40    345.55269                               10.79132             82.594                                        3.45553e+002           4.55527e+001           5.55269e+000           5.52692e-001           5.26924e-002           2.69239e-003           6.92389e-004
                   49.50    345.54845                               10.79132             82.594                                        3.45548e+002           4.55484e+001           5.54845e+000           5.48447e-001           4.84470e-002           8.44696e-003           4.46960e-004
                   49.60    345.54091                               10.79132             82.594                                        3.45541e+002           4.55409e+001           5.54091e+000           5.40910e-001           4.09099e-002           9.09870e-004           9.09870e-004
