~VERSION INFORMATION
VERS                    .            2.0                                    :CWLS LOG ASCII STANDARD
WRAP                    .            NO                                     :ONE LINE PER TIME STEP


~WELL INFORMATION
#MNEM                   .UNIT        DATA                                    DESCRIPTION
#________________________________________________________________________________________
STRTTIME                .HH/MM/SS    02:14:19                               :START TIME
STOPTIME                .HH/MM/SS    02:17:23                               :STOP TIME
STRT                    .s           2.10                                   :START DATA
STOP                    .s           182.70                                 :STOP DATA
STEP                    .s           0.10                                   :MEASUREMENT TIME INTERVAL
NULL                    .            -999.25                                :NULL VALUE
COMP                    .            Statoil ASA                            :COMPANY
FLD                     .            Volve                                  :FIELD
WELL                    .            15/9-F-1 C                             :WELL
RUN                     .            4                                      :RUN
LOC                     .                                                   :LOCATION
PROV                    .            na                                     :PROVINCE
SRVC                    .            Baker Hughes INTEQ                     :SERVICE COMPANY
DATE                    .YY/MM/DD    14/03/15                               :LOG DATE
UWI                     .                                                   :UNIQUE WELL ID
DEPTHMD                 .m           3603.0                                 :MEASURED DEPTH
DEPTHTVD                .m           3006.7                                 :TRUE VERTICAL DEPTH


~CURVE INFORMATION
#MNEM                   .UNIT        API CODES                               DESCRIPTION
#________________________________________________________________________________________
TIME                    .s                                                  :01 TIME
DD_PRESS                .bar                                                :02 DRAW DOWN PRESSURE
DD_VOLUME               .cm3                                                :03 INCREMENTAL DRAW DOWN VOLUME
TEMP                    .degC                                               :04 TRANSDUCER TEMPERATURE
DD_PRESS_MOD_1000       .bar                                                :05 DRAW DOWN PRESSURE MOD 1000
DD_PRESS_MOD_100        .bar                                                :06 DRAW DOWN PRESSURE MOD 100
DD_PRESS_MOD_10         .bar                                                :07 DRAW DOWN PRESSURE MOD 10
DD_PRESS_MOD_1          .bar                                                :08 DRAW DOWN PRESSURE MOD 1
DD_PRESS_MOD_01         .bar                                                :09 DRAW DOWN PRESSURE MOD 01
DD_PRESS_MOD_001        .bar                                                :10 DRAW DOWN PRESSURE MOD 001
DD_PRESS_MOD_0001       .bar                                                :11 DRAW DOWN PRESSURE MOD 0001


~PARAMETER INFORMATION
#MNEM                   .UNIT        VALUE                                   DESCRIPTION
#________________________________________________________________________________________
TOOLFACE                .deg         109.6                                  :01 TOOLFACE
PUMP_CAPACITY           .bar         400                                    :02 NOMINAL DRAW DOWN PUMP CAPACITY
PUMP_LIMIT              .bar         240                                    :03 DOWNLINK PUMP LIMIT
TIME_LIMIT              .min         10                                     :04 DOWNLINK MAX TIME
TEST_TYPE               .            REPEAT                                 :05 DOWNLINK
TEST_TYPE               .            HIGH MOBILITY                          :06 DOWNLINK
DD_PIST_A               .cm2         3.1416                                 :07 DRAW DOWN PISTON AREA
V_SYS                   .cm3         131.0000                               :08 SYSTEM VOLUME
PROBE_ID                .cm          1.2700                                 :09 TTK PROBE ID
G0                      .            4.6700                                 :10 GEOMETRY FACTOR


~A                  TIME     DD_PRESS                              DD_VOLUME               TEMP                                   DD_PRESS_MOD_1000       DD_PRESS_MOD_100        DD_PRESS_MOD_10         DD_PRESS_MOD_1        DD_PRESS_MOD_01       DD_PRESS_MOD_001      DD_PRESS_MOD_0001
# ...
                  170.10    426.71001                                0.00000             86.039                                        4.26710e+002           2.67100e+001           6.71001e+000           7.10013e-001           1.00130e-002           1.29959e-005           1.29959e-005
                  170.20    426.69846                                0.00000             86.039                                        4.26698e+002           2.66985e+001           6.69846e+000           6.98457e-001           9.84571e-002           8.45709e-003           4.57091e-004
                  170.30    426.69314                                0.00000             86.039                                        4.26693e+002           2.66931e+001           6.69314e+000           6.93135e-001           9.31352e-002           3.13523e-003           1.35232e-004
                  170.40    426.69772                                0.00000             86.039                                        4.26698e+002           2.66977e+001           6.69772e+000           6.97720e-001           9.77197e-002           7.71970e-003           7.19703e-004
                  170.50    426.69911                                0.00000             86.039                                        4.26699e+002           2.66991e+001           6.69911e+000           6.99107e-001           9.91070e-002           9.10703e-003           1.07029e-004
                  170.60    426.69105                                0.00000             86.039                                        4.26691e+002           2.66911e+001           6.69105e+000           6.91055e-001           9.10547e-002           1.05472e-003           5.47210e-005
                  170.70    426.68501                                0.00000             86.039                                        4.26685e+002           2.66850e+001           6.68501e+000           6.85009e-001           8.50087e-002           5.00868e-003           8.68301e-006
                  170.80    426.69123                                0.00000             86.039                                        4.26691e+002           2.66912e+001           6.69123e+000           6.91228e-001           9.12276e-002           1.22762e-003           2.27624e-004
                  170.90    426.70865                                0.00000             86.039                                        4.26709e+002           2.67086e+001           6.70865e+000           7.08648e-001           8.64840e-003           8.64840e-003           6.48402e-004
                  171.00    426.71310                                0.00000             86.039                                        4.26713e+002           2.67131e+001           6.71310e+000           7.13100e-001           1.30998e-002           3.09978e-003           9.97801e-005
                  171.10    426.69006                                0.00000             86.039                                        4.26690e+002           2.66901e+001           6.69006e+000           6.90060e-001           9.00603e-002           6.02602e-005           6.02602e-005
                  171.20    426.66931                                0.00000             86.039                                        4.26669e+002           2.66693e+001           6.66931e+000           6.69308e-001           6.93077e-002           9.30767e-003           3.07667e-004
                  171.30    426.68086                                0.00000             86.039                                        4.26681e+002           2.66809e+001           6.68086e+000           6.80863e-001           8.08635e-002           8.63491e-004           8.63491e-004
                  171.40    426.70359                                0.00000             86.039                                        4.26704e+002           2.67036e+001           6.70359e+000           7.03591e-001           3.59097e-003           3.59097e-003           5.90968e-004
                  171.50    426.70204                                0.00000             86.039                                        4.26702e+002           2.67020e+001           6.70204e+000           7.02041e-001           2.04110e-003           2.04110e-003           4.11043e-005
                  171.60    426.67129                                0.00000             86.039                                        4.26671e+002           2.66713e+001           6.67129e+000           6.71293e-001           7.12928e-002           1.29284e-003           2.92842e-004
                  171.70    426.64486                                0.00000             86.039                                        4.26645e+002           2.66449e+001           6.64486e+000           6.44857e-001           4.48573e-002           4.85729e-003           8.57294e-004
                  171.80    426.65146                                0.00000             86.037                                        4.26651e+002           2.66515e+001           6.65146e+000           6.51457e-001           5.14573e-002           1.45734e-003           4.57336e-004
                  171.90    426.67610                                0.00000             86.033                                        4.26676e+002           2.66761e+001           6.67610e+000           6.76096e-001           7.60962e-002           6.09617e-003           9.61741e-005
                  172.00    426.67769                                0.00000             86.031                                        4.26678e+002           2.66777e+001           6.67769e+000           6.77688e-001           7.76877e-002           7.68775e-003           6.87749e-004
                  172.10    426.66228                                0.00000             86.031                                        4.26662e+002           2.66623e+001           6.66228e+000           6.62279e-001           6.22790e-002           2.27902e-003           2.79016e-004
                  172.20    426.66434                                0.00000             86.031                                        4.26664e+002           2.66643e+001           6.66434e+000           6.64338e-001           6.43382e-002           4.33822e-003           3.38216e-004
                  172.30    426.67552                                0.00000             86.034                                        4.26676e+002           2.66755e+001           6.67552e+000           6.75516e-001           7.55159e-002           5.51586e-003           5.15859e-004
                  172.40    426.67639                                0.00000             86.035                                        4.26676e+002           2.66764e+001           6.67639e+000           6.76394e-001           7.63942e-002           6.39421e-003           3.94215e-004
                  172.50    426.67109                                0.00000             86.033                                        4.26671e+002           2.66711e+001           6.67109e+000           6.71089e-001           7.10889e-002           1.08892e-003           8.89201e-005
                  172.60    426.67213                                0.00000             86.031                                        4.26672e+002           2.66721e+001           6.67213e+000           6.72130e-001           7.21298e-002           2.12981e-003           1.29806e-004
                  172.70    426.68729                                0.00000             86.031                                        4.26687e+002           2.66873e+001           6.68729e+000           6.87288e-001           8.72883e-002           7.28827e-003           2.88268e-004
                  172.80    426.69737                                0.00000             86.031                                        4.26697e+002           2.66974e+001           6.69737e+000           6.97373e-001           9.73731e-002           7.37306e-003           3.73060e-004
