~VERSION INFORMATION
VERS                    .            2.0                                    :CWLS LOG ASCII STANDARD
WRAP                    .            NO                                     :ONE LINE PER TIME STEP


~WELL INFORMATION
#MNEM                   .UNIT        DATA                                    DESCRIPTION
#________________________________________________________________________________________
STRTTIME                .HH/MM/SS    01:44:52                               :START TIME
STOPTIME                .HH/MM/SS    01:47:47                               :STOP TIME
STRT                    .s           2.10                                   :START DATA
STOP                    .s           173.40                                 :STOP DATA
STEP                    .s           0.10                                   :MEASUREMENT TIME INTERVAL
NULL                    .            -999.25                                :NULL VALUE
COMP                    .            Statoil ASA                            :COMPANY
FLD                     .            Volve                                  :FIELD
WELL                    .            15/9-F-1 C                             :WELL
RUN                     .            4                                      :RUN
LOC                     .                                                   :LOCATION
PROV                    .            na                                     :PROVINCE
SRVC                    .            Baker Hughes INTEQ                     :SERVICE COMPANY
DATE                    .YY/MM/DD    14/03/15                               :LOG DATE
UWI                     .                                                   :UNIQUE WELL ID
DEPTHMD                 .m           3620.2                                 :MEASURED DEPTH
DEPTHTVD                .m           3012.3                                 :TRUE VERTICAL DEPTH


~CURVE INFORMATION
#MNEM                   .UNIT        API CODES                               DESCRIPTION
#________________________________________________________________________________________
TIME                    .s                                                  :01 TIME
DD_PRESS                .bar                                                :02 DRAW DOWN PRESSURE
DD_VOLUME               .cm3                                                :03 INCREMENTAL DRAW DOWN VOLUME
TEMP                    .degC                                               :04 TRANSDUCER TEMPERATURE
DD_PRESS_MOD_1000       .bar                                                :05 DRAW DOWN PRESSURE MOD 1000
DD_PRESS_MOD_100        .bar                                                :06 DRAW DOWN PRESSURE MOD 100
DD_PRESS_MOD_10         .bar                                                :07 DRAW DOWN PRESSURE MOD 10
DD_PRESS_MOD_1          .bar                                                :08 DRAW DOWN PRESSURE MOD 1
DD_PRESS_MOD_01         .bar                                                :09 DRAW DOWN PRESSURE MOD 01
DD_PRESS_MOD_001        .bar                                                :10 DRAW DOWN PRESSURE MOD 001
DD_PRESS_MOD_0001       .bar                                                :11 DRAW DOWN PRESSURE MOD 0001


~PARAMETER INFORMATION
#MNEM                   .UNIT        VALUE                                   DESCRIPTION
#________________________________________________________________________________________
TOOLFACE                .deg         108.7                                  :01 TOOLFACE
PUMP_CAPACITY           .bar         400                                    :02 NOMINAL DRAW DOWN PUMP CAPACITY
PUMP_LIMIT              .bar         240                                    :03 DOWNLINK PUMP LIMIT
TIME_LIMIT              .min         10                                     :04 DOWNLINK MAX TIME
TEST_TYPE               .            REPEAT                                 :05 DOWNLINK
TEST_TYPE               .            HIGH MOBILITY                          :06 DOWNLINK
DD_PIST_A               .cm2         3.1416                                 :07 DRAW DOWN PISTON AREA
V_SYS                   .cm3         131.0000                               :08 SYSTEM VOLUME
PROBE_ID                .cm          1.2700                                 :09 TTK PROBE ID
G0                      .            4.6700                                 :10 GEOMETRY FACTOR


~A                  TIME     DD_PRESS                              DD_VOLUME               TEMP                                   DD_PRESS_MOD_1000       DD_PRESS_MOD_100        DD_PRESS_MOD_10         DD_PRESS_MOD_1        DD_PRESS_MOD_01       DD_PRESS_MOD_001      DD_PRESS_MOD_0001
                    2.10    428.10265                                0.00000             87.242                                        4.28103e+002           2.81027e+001           8.10265e+000           1.02652e-001           2.65180e-003           2.65180e-003           6.51805e-004
                    2.20    428.11743                                0.00000             87.242                                        4.28117e+002           2.81174e+001           8.11743e+000           1.17431e-001           1.74310e-002           7.43098e-003           4.30984e-004
                    2.30    428.13044                                0.00000             87.242                                        4.28130e+002           2.81304e+001           8.13044e+000           1.30444e-001           3.04436e-002           4.43646e-004           4.43646e-004
                    2.40    428.13396                                0.00000             87.242                                        4.28134e+002           2.81340e+001           8.13396e+000           1.33957e-001           3.39566e-002           3.95663e-003           9.56632e-004
                    2.50    428.12589                                0.00000             87.242                                        4.28126e+002           2.81259e+001           8.12589e+000           1.25891e-001           2.58910e-002           5.89099e-003           8.90994e-004
                    2.60    428.14180                                0.00000             87.242                                        4.28142e+002           2.81418e+001           8.14180e+000           1.41801e-001           4.18014e-002           1.80138e-003           8.01377e-004
                    2.70    428.17280                                0.00000             87.242                                        4.28173e+002           2.81728e+001           8.17280e+000           1.72797e-001           7.27966e-002           2.79664e-003           7.96641e-004
                    2.80    428.16997                                0.00000             87.242                                        4.28170e+002           2.81700e+001           8.16997e+000           1.69970e-001           6.99699e-002           9.96994e-003           9.69942e-004
                    2.90    428.14576                                0.00000             87.242                                        4.28146e+002           2.81458e+001           8.14576e+000           1.45761e-001           4.57606e-002           5.76061e-003           7.60610e-004
                    3.00    428.14364                                0.00000             87.242                                        4.28144e+002           2.81436e+001           8.14364e+000           1.43639e-001           4.36388e-002           3.63881e-003           6.38809e-004
                    3.10    428.17260                                0.00000             87.242                                        4.28173e+002           2.81726e+001           8.17260e+000           1.72598e-001           7.25985e-002           2.59847e-003           5.98467e-004
                    3.20    428.18500                                0.00000             87.242                                        4.28185e+002           2.81850e+001           8.18500e+000           1.84996e-001           8.49961e-002           4.99607e-003           9.96074e-004
                    3.30    428.17042                                0.00000             87.242                                        4.28170e+002           2.81704e+001           8.17042e+000           1.70420e-001           7.04205e-002           4.20459e-004           4.20459e-004
                    3.40    428.15839                                0.00000             87.242                                        4.28158e+002           2.81584e+001           8.15839e+000           1.58391e-001           5.83908e-002           8.39075e-003           3.90752e-004
                    3.50    428.17769                                0.00000             87.242                                        4.28178e+002           2.81777e+001           8.17769e+000           1.77687e-001           7.76871e-002           7.68710e-003           6.87099e-004
                    3.60    428.19751                                0.00000             87.242                                        4.28198e+002           2.81975e+001           8.19751e+000           1.97510e-001           9.75105e-002           7.51049e-003           5.10488e-004
                    3.70    428.18751                                0.00000             87.242                                        4.28188e+002           2.81875e+001           8.18751e+000           1.87515e-001           8.75150e-002           7.51498e-003           5.14980e-004
                    3.80    428.17030                                0.00000             87.242                                        4.28170e+002           2.81703e+001           8.17030e+000           1.70299e-001           7.02995e-002           2.99495e-004           2.99495e-004
                    3.90    428.19821                                0.00000             87.242                                        4.28198e+002           2.81982e+001           8.19821e+000           1.98211e-001           9.82108e-002           8.21084e-003           2.10842e-004
                    4.00    428.26715                                0.00000             87.242                                        4.28267e+002           2.82671e+001           8.26715e+000           2.67148e-001           6.71481e-002           7.14808e-003           1.48075e-004
                    4.10    428.29623                                0.00000             87.242                                        4.28296e+002           2.82962e+001           8.29623e+000           2.96229e-001           9.62292e-002           6.22916e-003           2.29161e-004
                    4.20    428.27574                                0.00000             87.242                                        4.28276e+002           2.82757e+001           8.27574e+000           2.75743e-001           7.57428e-002           5.74278e-003           7.42779e-004
                    4.30    428.27513                                0.00000             87.242                                        4.28275e+002           2.82751e+001           8.27513e+000           2.75133e-001           7.51330e-002           5.13304e-003           1.33036e-004
                    4.40    428.31224                                0.00000             87.242                                        4.28312e+002           2.83122e+001           8.31224e+000           3.12241e-001           1.22414e-002           2.24139e-003           2.41387e-004
                    4.50    428.33333                                0.00000             87.242                                        4.28333e+002           2.83333e+001           8.33333e+000           3.33328e-001           3.33283e-002           3.32830e-003           3.28297e-004
                    4.60    428.31854                                0.00000             87.242                                        4.28319e+002           2.83185e+001           8.31854e+000           3.18543e-001           1.85435e-002           8.54347e-003           5.43472e-004
                    4.70    428.29896                                0.00000             87.242                                        4.28299e+002           2.82990e+001           8.29896e+000           2.98959e-001           9.89587e-002           8.95872e-003           9.58720e-004
                    4.80    428.31879                                0.00000             87.242                                        4.28319e+002           2.83188e+001           8.31879e+000           3.18794e-001           1.87935e-002           8.79350e-003           7.93504e-004
