~VERSION INFORMATION
VERS                    .            2.0                                    :CWLS LOG ASCII STANDARD
WRAP                    .            NO                                     :ONE LINE PER TIME STEP


~WELL INFORMATION
#MNEM                   .UNIT        DATA                                    DESCRIPTION
#________________________________________________________________________________________
STRTTIME                .HH/MM/SS    23:39:21                               :START TIME
STOPTIME                .HH/MM/SS    23:43:19                               :STOP TIME
STRT                    .s           2.10                                   :START DATA
STOP                    .s           236.60                                 :STOP DATA
STEP                    .s           0.10                                   :MEASUREMENT TIME INTERVAL
NULL                    .            -999.25                                :NULL VALUE
COMP                    .            Statoil                                :COMPANY
FLD                     .            Volve                                  :FIELD
WELL                    .            15/9-F-11 T2                           :WELL
RUN                     .            7                                      :RUN
LOC                     .            Maersk Inspirer                        :LOCATION
PROV                    .            na                                     :PROVINCE
SRVC                    .            Baker Hughes INTEQ                     :SERVICE COMPANY
DATE                    .YY/MM/DD    13/05/04                               :LOG DATE
UWI                     .                                                   :UNIQUE WELL ID
DEPTHMD                 .m           4417.0                                 :MEASURED DEPTH
DEPTHTVD                .m           3257.6                                 :TRUE VERTICAL DEPTH


~CURVE INFORMATION
#MNEM                   .UNIT        API CODES                               DESCRIPTION
#________________________________________________________________________________________
TIME                    .s                                                  :01 TIME
DD_PRESS                .bar                                                :02 DRAW DOWN PRESSURE
DD_VOLUME               .cm3                                                :03 INCREMENTAL DRAW DOWN VOLUME
TEMP                    .degC                                               :04 TRANSDUCER TEMPERATURE
DD_PRESS_MOD_1000       .bar                                                :05 DRAW DOWN PRESSURE MOD 1000
DD_PRESS_MOD_100        .bar                                                :06 DRAW DOWN PRESSURE MOD 100
DD_PRESS_MOD_10         .bar                                                :07 DRAW DOWN PRESSURE MOD 10
DD_PRESS_MOD_1          .bar                                                :08 DRAW DOWN PRESSURE MOD 1
DD_PRESS_MOD_01         .bar                                                :09 DRAW DOWN PRESSURE MOD 01
DD_PRESS_MOD_001        .bar                                                :10 DRAW DOWN PRESSURE MOD 001
DD_PRESS_MOD_0001       .bar                                                :11 DRAW DOWN PRESSURE MOD 0001


~PARAMETER INFORMATION
#MNEM                   .UNIT        VALUE                                   DESCRIPTION
#________________________________________________________________________________________
TOOLFACE                .deg         na                                     :01 TOOLFACE
PUMP_CAPACITY           .bar         400                                    :02 NOMINAL DRAW DOWN PUMP CAPACITY
PUMP_LIMIT              .bar         240                                    :03 DOWNLINK PUMP LIMIT
TIME_LIMIT              .min         10                                     :04 DOWNLINK MAX TIME
TEST_TYPE               .            REPEAT                                 :05 DOWNLINK
TEST_TYPE               .            HIGH MOBILITY                          :06 DOWNLINK
DD_PIST_A               .cm2         3.1416                                 :07 DRAW DOWN PISTON AREA
V_SYS                   .cm3         131.0000                               :08 SYSTEM VOLUME
PROBE_ID                .cm          1.2700                                 :09 TTK PROBE ID
G0                      .            4.6700                                 :10 GEOMETRY FACTOR


~A                  TIME     DD_PRESS                              DD_VOLUME               TEMP                                   DD_PRESS_MOD_1000       DD_PRESS_MOD_100        DD_PRESS_MOD_10         DD_PRESS_MOD_1        DD_PRESS_MOD_01       DD_PRESS_MOD_001      DD_PRESS_MOD_0001
# ...
                   63.70    361.08637                               10.82289             96.055                                        3.61086e+002           6.10864e+001           1.08637e+000           8.63728e-002           8.63728e-002           6.37276e-003           3.72761e-004
                   63.80    361.06755                               10.82289             96.055                                        3.61068e+002           6.10675e+001           1.06755e+000           6.75460e-002           6.75460e-002           7.54601e-003           5.46013e-004
                   63.90    361.07919                               10.82289             96.055                                        3.61079e+002           6.10792e+001           1.07919e+000           7.91870e-002           7.91870e-002           9.18700e-003           1.86999e-004
                   64.00    361.08604                               10.82289             96.055                                        3.61086e+002           6.10860e+001           1.08604e+000           8.60390e-002           8.60390e-002           6.03903e-003           3.90301e-005
                   64.10    361.07041                               10.82289             96.055                                        3.61070e+002           6.10704e+001           1.07041e+000           7.04093e-002           7.04093e-002           4.09263e-004           4.09263e-004
                   64.20    361.07365                               10.82289             96.055                                        3.61074e+002           6.10737e+001           1.07365e+000           7.36522e-002           7.36522e-002           3.65217e-003           6.52170e-004
                   64.30    361.09766                               10.82289             96.055                                        3.61098e+002           6.10977e+001           1.09766e+000           9.76590e-002           9.76590e-002           7.65897e-003           6.58974e-004
                   64.40    361.09354                               10.82289             96.055                                        3.61094e+002           6.10935e+001           1.09354e+000           9.35450e-002           9.35450e-002           3.54500e-003           5.44995e-004
                   64.50    361.07507                               10.82289             96.055                                        3.61075e+002           6.10751e+001           1.07507e+000           7.50658e-002           7.50658e-002           5.06577e-003           6.57707e-005
                   64.60    361.08310                               10.82289             96.055                                        3.61083e+002           6.10831e+001           1.08310e+000           8.31007e-002           8.31007e-002           3.10068e-003           1.00676e-004
                   64.70    361.09907                               10.82289             96.055                                        3.61099e+002           6.10991e+001           1.09907e+000           9.90698e-002           9.90698e-002           9.06978e-003           6.97830e-005
                   64.80    361.08597                               10.82289             96.055                                        3.61086e+002           6.10860e+001           1.08597e+000           8.59715e-002           8.59715e-002           5.97153e-003           9.71532e-004
                   64.90    361.07320                               10.82289             96.055                                        3.61073e+002           6.10732e+001           1.07320e+000           7.31981e-002           7.31981e-002           3.19815e-003           1.98150e-004
                   65.00    361.07348                               10.82289             96.055                                        3.61073e+002           6.10735e+001           1.07348e+000           7.34781e-002           7.34781e-002           3.47813e-003           4.78130e-004
                   65.10    361.07763                               10.82289             96.055                                        3.61078e+002           6.10776e+001           1.07763e+000           7.76271e-002           7.76271e-002           7.62711e-003           6.27114e-004
                   65.20    361.08118                               10.82289             96.055                                        3.61081e+002           6.10812e+001           1.08118e+000           8.11822e-002           8.11822e-002           1.18221e-003           1.82211e-004
                   65.30    361.08612                               10.82289             96.055                                        3.61086e+002           6.10861e+001           1.08612e+000           8.61199e-002           8.61199e-002           6.11994e-003           1.19940e-004
                   65.40    361.08306                               10.82289             96.055                                        3.61083e+002           6.10831e+001           1.08306e+000           8.30638e-002           8.30638e-002           3.06379e-003           6.37911e-005
                   65.50    361.09194                               10.82289             96.055                                        3.61092e+002           6.10919e+001           1.09194e+000           9.19351e-002           9.19351e-002           1.93506e-003           9.35064e-004
                   65.60    361.09957                               10.82289             96.055                                        3.61100e+002           6.10996e+001           1.09957e+000           9.95708e-002           9.95708e-002           9.57077e-003           5.70767e-004
                   65.70    361.08601                               10.82289             96.055                                        3.61086e+002           6.10860e+001           1.08601e+000           8.60107e-002           8.60107e-002           6.01071e-003           1.07130e-005
                   65.80    361.07337                               10.82289             96.055                                        3.61073e+002           6.10734e+001           1.07337e+000           7.33736e-002           7.33736e-002           3.37361e-003           3.73613e-004
                   65.90    361.08092                               10.82289             96.055                                        3.61081e+002           6.10809e+001           1.08092e+000           8.09224e-002           8.09224e-002           9.22407e-004           9.22407e-004
                   66.00    361.08157                               10.82289             96.055                                        3.61082e+002           6.10816e+001           1.08157e+000           8.15682e-002           8.15682e-002           1.56824e-003           5.68239e-004
                   66.10    361.07138                               10.82289             96.055                                        3.61071e+002           6.10714e+001           1.07138e+000           7.13830e-002           7.13830e-002           1.38303e-003           3.83030e-004
                   66.20    361.08018                               10.82289             96.055                                        3.61080e+002           6.10802e+001           1.08018e+000           8.01808e-002           8.01808e-002           1.80765e-004           1.80765e-004
                   66.30    361.09636                               10.82289             96.055                                        3.61096e+002           6.10964e+001           1.09636e+000           9.63568e-002           9.63568e-002           6.35682e-003           3.56821e-004
                   66.40    361.08309                               10.82289             96.055                                        3.61083e+002           6.10831e+001           1.08309e+000           8.30860e-002           8.30860e-002           3.08603e-003           8.60254e-005
