~VERSION INFORMATION
VERS                    .            2.0                                    :CWLS LOG ASCII STANDARD
WRAP                    .            NO                                     :ONE LINE PER TIME STEP


~WELL INFORMATION
#MNEM                   .UNIT        DATA                                    DESCRIPTION
#________________________________________________________________________________________
STRTTIME                .HH/MM/SS    00:10:18                               :START TIME
STOPTIME                .HH/MM/SS    00:13:47                               :STOP TIME
STRT                    .s           2.10                                   :START DATA
STOP                    .s           207.40                                 :STOP DATA
STEP                    .s           0.10                                   :MEASUREMENT TIME INTERVAL
NULL                    .            -999.25                                :NULL VALUE
COMP                    .            Statoil ASA                            :COMPANY
FLD                     .            Volve                                  :FIELD
WELL                    .            15/9-F-1                               :WELL
RUN                     .            4                                      :RUN
LOC                     .            Maersk Inspirer                        :LOCATION
PROV                    .            na                                     :PROVINCE
SRVC                    .            Baker Hughes INTEQ                     :SERVICE COMPANY
DATE                    .YY/MM/DD    13/08/19                               :LOG DATE
UWI                     .                                                   :UNIQUE WELL ID
DEPTHMD                 .m           3332.4                                 :MEASURED DEPTH
DEPTHTVD                .m           3056.0                                 :TRUE VERTICAL DEPTH


~CURVE INFORMATION
#MNEM                   .UNIT        API CODES                               DESCRIPTION
#________________________________________________________________________________________
TIME                    .s                                                  :01 TIME
DD_PRESS                .bar                                                :02 DRAW DOWN PRESSURE
DD_VOLUME               .cm3                                                :03 INCREMENTAL DRAW DOWN VOLUME
TEMP                    .degC                                               :04 TRANSDUCER TEMPERATURE
DD_PRESS_MOD_1000       .bar                                                :05 DRAW DOWN PRESSURE MOD 1000
DD_PRESS_MOD_100        .bar                                                :06 DRAW DOWN PRESSURE MOD 100
DD_PRESS_MOD_10         .bar                                                :07 DRAW DOWN PRESSURE MOD 10
DD_PRESS_MOD_1          .bar                                                :08 DRAW DOWN PRESSURE MOD 1
DD_PRESS_MOD_01         .bar                                                :09 DRAW DOWN PRESSURE MOD 01
DD_PRESS_MOD_001        .bar                                                :10 DRAW DOWN PRESSURE MOD 001
DD_PRESS_MOD_0001       .bar                                                :11 DRAW DOWN PRESSURE MOD 0001


~PARAMETER INFORMATION
#MNEM                   .UNIT        VALUE                                   DESCRIPTION
#________________________________________________________________________________________
TOOLFACE                .deg         78.2                                   :01 TOOLFACE
PUMP_CAPACITY           .bar         400                                    :02 NOMINAL DRAW DOWN PUMP CAPACITY
PUMP_LIMIT              .bar         240                                    :03 DOWNLINK PUMP LIMIT
TIME_LIMIT              .min         10                                     :04 DOWNLINK MAX TIME
TEST_TYPE               .            LOW MOBILITY                           :05 DOWNLINK
DD_PIST_A               .cm2         3.1416                                 :06 DRAW DOWN PISTON AREA
V_SYS                   .cm3         131.0000                               :07 SYSTEM VOLUME
PROBE_ID                .cm          1.2700                                 :08 TTK PROBE ID
G0                      .            4.6700                                 :09 GEOMETRY FACTOR


~A                  TIME     DD_PRESS                              DD_VOLUME               TEMP                                   DD_PRESS_MOD_1000       DD_PRESS_MOD_100        DD_PRESS_MOD_10         DD_PRESS_MOD_1        DD_PRESS_MOD_01       DD_PRESS_MOD_001      DD_PRESS_MOD_0001
# ...
                   30.10    338.94903                                3.92359             74.719                                        3.38949e+002           3.89490e+001           8.94903e+000           9.49026e-001           4.90263e-002           9.02625e-003           2.62515e-005
                   30.20    338.91046                                4.01413             74.719                                        3.38910e+002           3.89105e+001           8.91046e+000           9.10459e-001           1.04594e-002           4.59356e-004           4.59356e-004
                   30.30    338.87222                                4.10547             74.719                                        3.38872e+002           3.88722e+001           8.87222e+000           8.72218e-001           7.22182e-002           2.21815e-003           2.18155e-004
                   30.40    338.81902                                4.19767             74.719                                        3.38819e+002           3.88190e+001           8.81902e+000           8.19022e-001           1.90225e-002           9.02248e-003           2.24777e-005
                   30.50    338.77267                                4.29059             74.719                                        3.38773e+002           3.87727e+001           8.77267e+000           7.72673e-001           7.26727e-002           2.67267e-003           6.72669e-004
                   30.60    338.74281                                4.38415             74.719                                        3.38743e+002           3.87428e+001           8.74281e+000           7.42813e-001           4.28132e-002           2.81316e-003           8.13162e-004
                   30.70    338.73596                                4.47835             74.719                                        3.38736e+002           3.87360e+001           8.73596e+000           7.35956e-001           3.59562e-002           5.95618e-003           9.56178e-004
                   30.80    338.72645                                4.57317             74.719                                        3.38726e+002           3.87264e+001           8.72645e+000           7.26448e-001           2.64481e-002           6.44809e-003           4.48088e-004
                   30.90    338.69593                                4.66863             74.719                                        3.38696e+002           3.86959e+001           8.69593e+000           6.95935e-001           9.59346e-002           5.93465e-003           9.34649e-004
                   31.00    338.65295                                4.76466             74.719                                        3.38653e+002           3.86530e+001           8.65295e+000           6.52953e-001           5.29530e-002           2.95301e-003           9.53005e-004
                   31.10    338.64338                                4.86102             74.719                                        3.38643e+002           3.86434e+001           8.64338e+000           6.43379e-001           4.33786e-002           3.37864e-003           3.78639e-004
                   31.20    338.62226                                4.95783             74.716                                        3.38622e+002           3.86223e+001           8.62226e+000           6.22259e-001           2.22587e-002           2.25875e-003           2.58747e-004
                   31.30    338.57394                                5.05539             74.713                                        3.38574e+002           3.85739e+001           8.57394e+000           5.73939e-001           7.39390e-002           3.93899e-003           9.38989e-004
                   31.40    338.51549                                5.15336             74.711                                        3.38515e+002           3.85155e+001           8.51549e+000           5.15485e-001           1.54852e-002           5.48521e-003           4.85209e-004
                   31.50    338.48742                                5.25154             74.711                                        3.38487e+002           3.84874e+001           8.48742e+000           4.87417e-001           8.74169e-002           7.41692e-003           4.16922e-004
                   31.60    338.49779                                5.35009             74.711                                        3.38498e+002           3.84978e+001           8.49779e+000           4.97788e-001           9.77883e-002           7.78828e-003           7.88276e-004
                   31.70    338.49290                                5.44894             74.711                                        3.38493e+002           3.84929e+001           8.49290e+000           4.92897e-001           9.28969e-002           2.89690e-003           8.96898e-004
                   31.80    338.46336                                5.54800             74.711                                        3.38463e+002           3.84634e+001           8.46336e+000           4.63365e-001           6.33648e-002           3.36475e-003           3.64752e-004
                   31.90    338.42757                                5.64721             74.711                                        3.38428e+002           3.84276e+001           8.42757e+000           4.27574e-001           2.75744e-002           7.57443e-003           5.74428e-004
                   32.00    338.39357                                5.74649             74.711                                        3.38394e+002           3.83936e+001           8.39357e+000           3.93573e-001           9.35726e-002           3.57261e-003           5.72610e-004
                   32.10    338.36589                                5.84598             74.711                                        3.38366e+002           3.83659e+001           8.36589e+000           3.65887e-001           6.58867e-002           5.88671e-003           8.86706e-004
                   32.20    338.34793                                5.94561             74.711                                        3.38348e+002           3.83479e+001           8.34793e+000           3.47927e-001           4.79267e-002           7.92667e-003           9.26673e-004
                   32.30    338.32418                                6.04529             74.711                                        3.38324e+002           3.83242e+001           8.32418e+000           3.24178e-001           2.41778e-002           4.17780e-003           1.77804e-004
                   32.40    338.30047                                6.14491             74.711                                        3.38300e+002           3.83005e+001           8.30047e+000           3.00471e-001           4.71164e-004           4.71164e-004           4.71164e-004
                   32.50    338.29495                                6.24448             74.711                                        3.38295e+002           3.82950e+001           8.29495e+000           2.94951e-001           9.49513e-002           4.95125e-003           9.51252e-004
                   32.60    338.29567                                6.34401             74.711                                        3.38296e+002           3.82957e+001           8.29567e+000           2.95670e-001           9.56702e-002           5.67021e-003           6.70209e-004
                   32.70    338.28490                                6.44348             74.711                                        3.38285e+002           3.82849e+001           8.28490e+000           2.84901e-001           8.49010e-002           4.90103e-003           9.01033e-004
                   32.80    338.26932                                6.54269             74.711                                        3.38269e+002           3.82693e+001           8.26932e+000           2.69316e-001           6.93156e-002           9.31556e-003           3.15565e-004
