~VERSION INFORMATION
VERS                    .            2.0                                    :CWLS LOG ASCII STANDARD
WRAP                    .            NO                                     :ONE LINE PER TIME STEP


~WELL INFORMATION
#MNEM                   .UNIT        DATA                                    DESCRIPTION
#________________________________________________________________________________________
STRTTIME                .HH/MM/SS    08:48:41                               :START TIME
STOPTIME                .HH/MM/SS    08:51:35                               :STOP TIME
STRT                    .s           2.10                                   :START DATA
STOP                    .s           172.50                                 :STOP DATA
STEP                    .s           0.10                                   :MEASUREMENT TIME INTERVAL
NULL                    .            -999.25                                :NULL VALUE
COMP                    .            Statoil ASA                            :COMPANY
FLD                     .            Volve                                  :FIELD
WELL                    .            15/9-F-11 A                            :WELL
RUN                     .            8                                      :RUN
LOC                     .            Maersk Inspirer                        :LOCATION
PROV                    .            na                                     :PROVINCE
SRVC                    .            Baker Hughes INTEQ                     :SERVICE COMPANY
DATE                    .YY/MM/DD    13/05/21                               :LOG DATE
UWI                     .                                                   :UNIQUE WELL ID
DEPTHMD                 .m           3681.0                                 :MEASURED DEPTH
DEPTHTVD                .m           3064.4                                 :TRUE VERTICAL DEPTH


~CURVE INFORMATION
#MNEM                   .UNIT        API CODES                               DESCRIPTION
#________________________________________________________________________________________
TIME                    .s                                                  :01 TIME
DD_PRESS                .bar                                                :02 DRAW DOWN PRESSURE
DD_VOLUME               .cm3                                                :03 INCREMENTAL DRAW DOWN VOLUME
TEMP                    .degC                                               :04 TRANSDUCER TEMPERATURE
DD_PRESS_MOD_1000       .bar                                                :05 DRAW DOWN PRESSURE MOD 1000
DD_PRESS_MOD_100        .bar                                                :06 DRAW DOWN PRESSURE MOD 100
DD_PRESS_MOD_10         .bar                                                :07 DRAW DOWN PRESSURE MOD 10
DD_PRESS_MOD_1          .bar                                                :08 DRAW DOWN PRESSURE MOD 1
DD_PRESS_MOD_01         .bar                                                :09 DRAW DOWN PRESSURE MOD 01
DD_PRESS_MOD_001        .bar                                                :10 DRAW DOWN PRESSURE MOD 001
DD_PRESS_MOD_0001       .bar                                                :11 DRAW DOWN PRESSURE MOD 0001


~PARAMETER INFORMATION
#MNEM                   .UNIT        VALUE                                   DESCRIPTION
#________________________________________________________________________________________
TOOLFACE                .deg         -59.5                                  :01 TOOLFACE
PUMP_CAPACITY           .bar         400                                    :02 NOMINAL DRAW DOWN PUMP CAPACITY
PUMP_LIMIT              .bar         240                                    :03 DOWNLINK PUMP LIMIT
TIME_LIMIT              .min         10                                     :04 DOWNLINK MAX TIME
TEST_TYPE               .            REPEAT                                 :05 DOWNLINK
TEST_TYPE               .            HIGH MOBILITY                          :06 DOWNLINK
DD_PIST_A               .cm2         3.1416                                 :07 DRAW DOWN PISTON AREA
V_SYS                   .cm3         131.0000                               :08 SYSTEM VOLUME
PROBE_ID                .cm          1.2700                                 :09 TTK PROBE ID
G0                      .            4.6700                                 :10 GEOMETRY FACTOR


~A                  TIME     DD_PRESS                              DD_VOLUME               TEMP                                   DD_PRESS_MOD_1000       DD_PRESS_MOD_100        DD_PRESS_MOD_10         DD_PRESS_MOD_1        DD_PRESS_MOD_01       DD_PRESS_MOD_001      DD_PRESS_MOD_0001
# ...
                   91.70    345.55273                               19.86705             82.578                                        3.45553e+002           4.55527e+001           5.55273e+000           5.52730e-001           5.27304e-002           2.73042e-003           7.30420e-004
                   91.80    345.55047                               19.86705             82.578                                        3.45550e+002           4.55505e+001           5.55047e+000           5.50469e-001           5.04693e-002           4.69254e-004           4.69254e-004
                   91.90    345.54447                               19.86705             82.578                                        3.45544e+002           4.55445e+001           5.54447e+000           5.44468e-001           4.44684e-002           4.46839e-003           4.68390e-004
                   92.00    345.53738                               19.86705             82.578                                        3.45537e+002           4.55374e+001           5.53738e+000           5.37384e-001           3.73845e-002           7.38445e-003           3.84455e-004
                   92.10    345.54472                               19.86705             82.578                                        3.45545e+002           4.55447e+001           5.54472e+000           5.44722e-001           4.47216e-002           4.72160e-003           7.21601e-004
                   92.20    345.54949                               19.86705             82.578                                        3.45549e+002           4.55495e+001           5.54949e+000           5.49491e-001           4.94909e-002           9.49091e-003           4.90913e-004
                   92.30    345.54696                               19.86705             82.578                                        3.45547e+002           4.55470e+001           5.54696e+000           5.46964e-001           4.69636e-002           6.96357e-003           9.63571e-004
                   92.40    345.54595                               19.86705             82.578                                        3.45546e+002           4.55460e+001           5.54595e+000           5.45951e-001           4.59513e-002           5.95128e-003           9.51277e-004
                   92.50    345.54351                               19.86705             82.578                                        3.45544e+002           4.55435e+001           5.54351e+000           5.43506e-001           4.35057e-002           3.50567e-003           5.05673e-004
                   92.60    345.54217                               19.86705             82.578                                        3.45542e+002           4.55422e+001           5.54217e+000           5.42172e-001           4.21725e-002           2.17249e-003           1.72494e-004
                   92.70    345.54215                               19.86705             82.578                                        3.45542e+002           4.55422e+001           5.54215e+000           5.42155e-001           4.21547e-002           2.15472e-003           1.54721e-004
                   92.80    345.54517                               19.86705             82.578                                        3.45545e+002           4.55452e+001           5.54517e+000           5.45169e-001           4.51686e-002           5.16861e-003           1.68611e-004
                   92.90    345.54675                               19.86705             82.578                                        3.45547e+002           4.55468e+001           5.54675e+000           5.46754e-001           4.67543e-002           6.75427e-003           7.54270e-004
                   93.00    345.54647                               19.86705             82.578                                        3.45546e+002           4.55465e+001           5.54647e+000           5.46470e-001           4.64697e-002           6.46968e-003           4.69680e-004
                   93.10    345.54625                               19.86705             82.578                                        3.45546e+002           4.55462e+001           5.54625e+000           5.46249e-001           4.62493e-002           6.24927e-003           2.49274e-004
                   93.20    345.54961                               19.86705             82.578                                        3.45550e+002           4.55496e+001           5.54961e+000           5.49612e-001           4.96117e-002           9.61172e-003           6.11725e-004
                   93.30    345.54590                               19.86705             82.578                                        3.45546e+002           4.55459e+001           5.54590e+000           5.45901e-001           4.59007e-002           5.90071e-003           9.00714e-004
                   93.40    345.54217                               19.86705             82.578                                        3.45542e+002           4.55422e+001           5.54217e+000           5.42166e-001           4.21655e-002           2.16553e-003           1.65526e-004
                   93.50    345.53747                               19.86705             82.578                                        3.45537e+002           4.55375e+001           5.53747e+000           5.37473e-001           3.74733e-002           7.47325e-003           4.73254e-004
                   93.60    345.54144                               19.86705             82.578                                        3.45541e+002           4.55414e+001           5.54144e+000           5.41444e-001           4.14442e-002           1.44424e-003           4.44243e-004
                   93.70    345.54816                               19.86705             82.578                                        3.45548e+002           4.55482e+001           5.54816e+000           5.48157e-001           4.81567e-002           8.15672e-003           1.56719e-004
                   93.80    345.55122                               19.86705             82.578                                        3.45551e+002           4.55512e+001           5.55122e+000           5.51215e-001           5.12150e-002           1.21505e-003           2.15047e-004
                   93.90    345.55231                               19.86705             82.578                                        3.45552e+002           4.55523e+001           5.55231e+000           5.52306e-001           5.23057e-002           2.30572e-003           3.05722e-004
                   94.00    345.55119                               19.86705             82.578                                        3.45551e+002           4.55512e+001           5.55119e+000           5.51191e-001           5.11910e-002           1.19100e-003           1.91002e-004
                   94.10    345.54302                               19.86705             82.578                                        3.45543e+002           4.55430e+001           5.54302e+000           5.43022e-001           4.30218e-002           3.02181e-003           2.18100e-005
                   94.20    345.53447                               19.86705             82.578                                        3.45534e+002           4.55345e+001           5.53447e+000           5.34466e-001           3.44660e-002           4.46603e-003           4.66033e-004
                   94.30    345.54082                               19.86705             82.578                                        3.45541e+002           4.55408e+001           5.54082e+000           5.40817e-001           4.08169e-002           8.16861e-004           8.16861e-004
                   94.40    345.55262                               19.86705             82.578                                        3.45553e+002           4.55526e+001           5.55262e+000           5.52619e-001           5.26185e-002           2.61851e-003           6.18512e-004
