~VERSION INFORMATION
VERS                    .            2.0                                    :CWLS LOG ASCII STANDARD
WRAP                    .            NO                                     :ONE LINE PER TIME STEP


~WELL INFORMATION
#MNEM                   .UNIT        DATA                                    DESCRIPTION
#________________________________________________________________________________________
STRTTIME                .HH/MM/SS    11:44:47                               :START TIME
STOPTIME                .HH/MM/SS    11:47:33                               :STOP TIME
STRT                    .s           2.10                                   :START DATA
STOP                    .s           164.50                                 :STOP DATA
STEP                    .s           0.10                                   :MEASUREMENT TIME INTERVAL
NULL                    .            -999.25                                :NULL VALUE
COMP                    .            Statoil ASA                            :COMPANY
FLD                     .            Volve                                  :FIELD
WELL                    .            15/9-F-11 A                            :WELL
RUN                     .            8                                      :RUN
LOC                     .            Maersk Inspirer                        :LOCATION
PROV                    .            na                                     :PROVINCE
SRVC                    .            Baker Hughes INTEQ                     :SERVICE COMPANY
DATE                    .YY/MM/DD    13/05/21                               :LOG DATE
UWI                     .                                                   :UNIQUE WELL ID
DEPTHMD                 .m           3624.0                                 :MEASURED DEPTH
DEPTHTVD                .m           3020.7                                 :TRUE VERTICAL DEPTH


~CURVE INFORMATION
#MNEM                   .UNIT        API CODES                               DESCRIPTION
#________________________________________________________________________________________
TIME                    .s                                                  :01 TIME
DD_PRESS                .bar                                                :02 DRAW DOWN PRESSURE
DD_VOLUME               .cm3                                                :03 INCREMENTAL DRAW DOWN VOLUME
TEMP                    .degC                                               :04 TRANSDUCER TEMPERATURE
DD_PRESS_MOD_1000       .bar                                                :05 DRAW DOWN PRESSURE MOD 1000
DD_PRESS_MOD_100        .bar                                                :06 DRAW DOWN PRESSURE MOD 100
DD_PRESS_MOD_10         .bar                                                :07 DRAW DOWN PRESSURE MOD 10
DD_PRESS_MOD_1          .bar                                                :08 DRAW DOWN PRESSURE MOD 1
DD_PRESS_MOD_01         .bar                                                :09 DRAW DOWN PRESSURE MOD 01
DD_PRESS_MOD_001        .bar                                                :10 DRAW DOWN PRESSURE MOD 001
DD_PRESS_MOD_0001       .bar                                                :11 DRAW DOWN PRESSURE MOD 0001


~PARAMETER INFORMATION
#MNEM                   .UNIT        VALUE                                   DESCRIPTION
#________________________________________________________________________________________
TOOLFACE                .deg         61.7                                   :01 TOOLFACE
PUMP_CAPACITY           .bar         400                                    :02 NOMINAL DRAW DOWN PUMP CAPACITY
PUMP_LIMIT              .bar         240                                    :03 DOWNLINK PUMP LIMIT
TIME_LIMIT              .min         10                                     :04 DOWNLINK MAX TIME
TEST_TYPE               .            REPEAT                                 :05 DOWNLINK
TEST_TYPE               .            HIGH MOBILITY                          :06 DOWNLINK
DD_PIST_A               .cm2         3.1416                                 :07 DRAW DOWN PISTON AREA
V_SYS                   .cm3         131.0000                               :08 SYSTEM VOLUME
PROBE_ID                .cm          1.2700                                 :09 TTK PROBE ID
G0                      .            4.6700                                 :10 GEOMETRY FACTOR


~A                  TIME     DD_PRESS                              DD_VOLUME               TEMP                                   DD_PRESS_MOD_1000       DD_PRESS_MOD_100        DD_PRESS_MOD_10         DD_PRESS_MOD_1        DD_PRESS_MOD_01       DD_PRESS_MOD_001      DD_PRESS_MOD_0001
# ...
                  161.70    415.32781                                0.00000             81.445                                        4.15328e+002           1.53278e+001           5.32781e+000           3.27809e-001           2.78090e-002           7.80904e-003           8.09042e-004
                  161.80    415.33472                                0.00000             81.445                                        4.15335e+002           1.53347e+001           5.33472e+000           3.34723e-001           3.47233e-002           4.72331e-003           7.23314e-004
                  161.90    415.31243                                0.00000             81.445                                        4.15312e+002           1.53124e+001           5.31243e+000           3.12431e-001           1.24306e-002           2.43058e-003           4.30582e-004
                  162.00    415.29428                                0.00000             81.445                                        4.15294e+002           1.52943e+001           5.29428e+000           2.94283e-001           9.42831e-002           4.28314e-003           2.83142e-004
                  162.10    415.32274                                0.00000             81.445                                        4.15323e+002           1.53227e+001           5.32274e+000           3.22743e-001           2.27426e-002           2.74263e-003           7.42627e-004
                  162.20    415.35051                                0.00000             81.445                                        4.15351e+002           1.53505e+001           5.35051e+000           3.50511e-001           5.05107e-002           5.10731e-004           5.10731e-004
                  162.30    415.32724                                0.00000             81.445                                        4.15327e+002           1.53272e+001           5.32724e+000           3.27243e-001           2.72433e-002           7.24331e-003           2.43312e-004
                  162.40    415.29500                                0.00000             81.445                                        4.15295e+002           1.52950e+001           5.29500e+000           2.94999e-001           9.49986e-002           4.99856e-003           9.98563e-004
                  162.50    415.29592                                0.00000             81.445                                        4.15296e+002           1.52959e+001           5.29592e+000           2.95925e-001           9.59247e-002           5.92475e-003           9.24747e-004
                  162.60    415.30826                                0.00000             81.445                                        4.15308e+002           1.53083e+001           5.30826e+000           3.08255e-001           8.25526e-003           8.25526e-003           2.55262e-004
                  162.70    415.30440                                0.00000             81.445                                        4.15304e+002           1.53044e+001           5.30440e+000           3.04404e-001           4.40370e-003           4.40370e-003           4.03700e-004
                  162.80    415.30155                                0.00000             81.445                                        4.15302e+002           1.53016e+001           5.30155e+000           3.01550e-001           1.55046e-003           1.55046e-003           5.50464e-004
                  162.90    415.32155                                0.00000             81.445                                        4.15322e+002           1.53216e+001           5.32155e+000           3.21552e-001           2.15516e-002           1.55165e-003           5.51645e-004
                  163.00    415.33139                                0.00000             81.445                                        4.15331e+002           1.53314e+001           5.33139e+000           3.31390e-001           3.13899e-002           1.38988e-003           3.89878e-004
                  163.10    415.31533                                0.00000             81.445                                        4.15315e+002           1.53153e+001           5.31533e+000           3.15332e-001           1.53317e-002           5.33169e-003           3.31690e-004
                  163.20    415.30939                                0.00000             81.445                                        4.15309e+002           1.53094e+001           5.30939e+000           3.09391e-001           9.39111e-003           9.39111e-003           3.91108e-004
                  163.30    415.34880                                0.00000             81.445                                        4.15349e+002           1.53488e+001           5.34880e+000           3.48800e-001           4.87997e-002           8.79971e-003           7.99714e-004
                  163.40    415.37420                                0.00000             81.445                                        4.15374e+002           1.53742e+001           5.37420e+000           3.74200e-001           7.41998e-002           4.19982e-003           1.99824e-004
                  163.50    415.34839                                0.00000             81.445                                        4.15348e+002           1.53484e+001           5.34839e+000           3.48386e-001           4.83862e-002           8.38621e-003           3.86215e-004
                  163.60    415.31889                                0.00000             81.445                                        4.15319e+002           1.53189e+001           5.31889e+000           3.18890e-001           1.88901e-002           8.89007e-003           8.90070e-004
                  163.70    415.32554                                0.00000             81.445                                        4.15326e+002           1.53255e+001           5.32554e+000           3.25538e-001           2.55381e-002           5.53807e-003           5.38065e-004
                  163.80    415.33375                                0.00000             81.445                                        4.15334e+002           1.53338e+001           5.33375e+000           3.33751e-001           3.37510e-002           3.75098e-003           7.50983e-004
                  163.90    415.32802                                0.00000             81.445                                        4.15328e+002           1.53280e+001           5.32802e+000           3.28019e-001           2.80190e-002           8.01899e-003           1.89862e-005
                  164.00    415.33805                                0.00000             81.445                                        4.15338e+002           1.53381e+001           5.33805e+000           3.38054e-001           3.80542e-002           8.05418e-003           5.41816e-005
                  164.10    415.36110                                0.00000             81.445                                        4.15361e+002           1.53611e+001           5.36110e+000           3.61101e-001           6.11015e-002           1.10145e-003           1.01454e-004
                  164.20    415.36553                                0.00000             81.445                                        4.15366e+002           1.53655e+001           5.36553e+000           3.65534e-001           6.55339e-002           5.53394e-003           5.33937e-004
                  164.30    415.34028                                0.00000             81.445                                        4.15340e+002           1.53403e+001           5.34028e+000           3.40278e-001           4.02784e-002           2.78397e-004           2.78397e-004
                  164.40    415.33991                                0.00000             81.445                                        4.15340e+002           1.53399e+001           5.33991e+000           3.39914e-001           3.99137e-002           9.91366e-003           9.13661e-004
