~VERSION INFORMATION
VERS                    .            2.0                                    :CWLS LOG ASCII STANDARD
WRAP                    .            NO                                     :ONE LINE PER TIME STEP


~WELL INFORMATION
#MNEM                   .UNIT        DATA                                    DESCRIPTION
#________________________________________________________________________________________
STRTTIME                .HH/MM/SS    16:20:20                               :START TIME
STOPTIME                .HH/MM/SS    16:23:23                               :STOP TIME
STRT                    .s           2.10                                   :START DATA
STOP                    .s           182.00                                 :STOP DATA
STEP                    .s           0.10                                   :MEASUREMENT TIME INTERVAL
NULL                    .            -999.25                                :NULL VALUE
COMP                    .            Statoil ASA                            :COMPANY
FLD                     .            Volve                                  :FIELD
WELL                    .            15/9-F-1 B                             :WELL
RUN                     .            7                                      :RUN
LOC                     .            Maersk Inspirer                        :LOCATION
PROV                    .            na                                     :PROVINCE
SRVC                    .            Baker Hughes INTEQ                     :SERVICE COMPANY
DATE                    .YY/MM/DD    13/09/06                               :LOG DATE
UWI                     .                                                   :UNIQUE WELL ID
DEPTHMD                 .m           3255.0                                 :MEASURED DEPTH
DEPTHTVD                .m           3051.1                                 :TRUE VERTICAL DEPTH


~CURVE INFORMATION
#MNEM                   .UNIT        API CODES                               DESCRIPTION
#________________________________________________________________________________________
TIME                    .s                                                  :01 TIME
DD_PRESS                .bar                                                :02 DRAW DOWN PRESSURE
DD_VOLUME               .cm3                                                :03 INCREMENTAL DRAW DOWN VOLUME
TEMP                    .degC                                               :04 TRANSDUCER TEMPERATURE
DD_PRESS_MOD_1000       .bar                                                :05 DRAW DOWN PRESSURE MOD 1000
DD_PRESS_MOD_100        .bar                                                :06 DRAW DOWN PRESSURE MOD 100
DD_PRESS_MOD_10         .bar                                                :07 DRAW DOWN PRESSURE MOD 10
DD_PRESS_MOD_1          .bar                                                :08 DRAW DOWN PRESSURE MOD 1
DD_PRESS_MOD_01         .bar                                                :09 DRAW DOWN PRESSURE MOD 01
DD_PRESS_MOD_001        .bar                                                :10 DRAW DOWN PRESSURE MOD 001
DD_PRESS_MOD_0001       .bar                                                :11 DRAW DOWN PRESSURE MOD 0001


~PARAMETER INFORMATION
#MNEM                   .UNIT        VALUE                                   DESCRIPTION
#________________________________________________________________________________________
TOOLFACE                .deg         na                                     :01 TOOLFACE
PUMP_CAPACITY           .bar         400                                    :02 NOMINAL DRAW DOWN PUMP CAPACITY
PUMP_LIMIT              .bar         400                                    :03 DOWNLINK PUMP LIMIT
TIME_LIMIT              .min         10                                     :04 DOWNLINK MAX TIME
TEST_TYPE               .            LOW MOBILITY                           :05 DOWNLINK
DD_PIST_A               .cm2         3.1416                                 :06 DRAW DOWN PISTON AREA
V_SYS                   .cm3         131.0000                               :07 SYSTEM VOLUME
PROBE_ID                .cm          1.2700                                 :08 TTK PROBE ID
G0                      .            4.6700                                 :09 GEOMETRY FACTOR


~A                  TIME     DD_PRESS                              DD_VOLUME               TEMP                                   DD_PRESS_MOD_1000       DD_PRESS_MOD_100        DD_PRESS_MOD_10         DD_PRESS_MOD_1        DD_PRESS_MOD_01       DD_PRESS_MOD_001      DD_PRESS_MOD_0001
# ...
                   83.30    336.92129                               12.69562             81.773                                        3.36921e+002           3.69213e+001           6.92129e+000           9.21291e-001           2.12907e-002           1.29073e-003           2.90729e-004
                   83.40    336.62719                               12.80563             81.773                                        3.36627e+002           3.66272e+001           6.62719e+000           6.27187e-001           2.71867e-002           7.18673e-003           1.86733e-004
                   83.50    336.34289                               12.92038             81.773                                        3.36343e+002           3.63429e+001           6.34289e+000           3.42890e-001           4.28902e-002           2.89020e-003           8.90200e-004
                   83.60    336.06176                               13.03996             81.773                                        3.36062e+002           3.60618e+001           6.06176e+000           6.17602e-002           6.17602e-002           1.76020e-003           7.60199e-004
                   83.70    335.79014                               13.16443             81.773                                        3.35790e+002           3.57901e+001           5.79014e+000           7.90136e-001           9.01361e-002           1.36080e-004           1.36080e-004
                   83.80    335.50943                               13.29396             81.773                                        3.35509e+002           3.55094e+001           5.50943e+000           5.09429e-001           9.42886e-003           9.42886e-003           4.28863e-004
                   83.90    335.21546                               13.42875             81.773                                        3.35215e+002           3.52155e+001           5.21546e+000           2.15455e-001           1.54553e-002           5.45534e-003           4.55335e-004
                   84.00    334.92115                               13.56882             81.773                                        3.34921e+002           3.49212e+001           4.92115e+000           9.21154e-001           2.11545e-002           1.15449e-003           1.54488e-004
                   84.10    334.63259                               13.71418             81.773                                        3.34633e+002           3.46326e+001           4.63259e+000           6.32592e-001           3.25918e-002           2.59185e-003           5.91845e-004
                   84.20    334.34091                               13.86502             81.773                                        3.34341e+002           3.43409e+001           4.34091e+000           3.40906e-001           4.09056e-002           9.05572e-004           9.05572e-004
                   84.30    334.04570                               14.02160             81.773                                        3.34046e+002           3.40457e+001           4.04570e+000           4.56999e-002           4.56999e-002           5.69992e-003           6.99919e-004
                   84.40    333.75863                               14.18395             81.773                                        3.33759e+002           3.37586e+001           3.75863e+000           7.58633e-001           5.86328e-002           8.63278e-003           6.32777e-004
                   84.50    333.47526                               14.35187             81.773                                        3.33475e+002           3.34753e+001           3.47526e+000           4.75263e-001           7.52627e-002           5.26269e-003           2.62689e-004
                   84.60    333.18505                               14.52534             81.773                                        3.33185e+002           3.31850e+001           3.18505e+000           1.85048e-001           8.50476e-002           5.04763e-003           4.76297e-005
                   84.70    332.89586                               14.70459             81.773                                        3.32896e+002           3.28959e+001           2.89586e+000           8.95856e-001           9.58561e-002           5.85608e-003           8.56078e-004
                   84.80    332.61468                               14.88949             81.773                                        3.32615e+002           3.26147e+001           2.61468e+000           6.14681e-001           1.46815e-002           4.68150e-003           6.81497e-004
                   84.90    332.33372                               15.08029             81.773                                        3.32334e+002           3.23337e+001           2.33372e+000           3.33725e-001           3.37248e-002           3.72483e-003           7.24832e-004
                   85.00    332.05006                               15.27706             81.773                                        3.32050e+002           3.20501e+001           2.05006e+000           5.00550e-002           5.00550e-002           5.50210e-005           5.50210e-005
                   85.10    331.76364                               15.47963             81.773                                        3.31764e+002           3.17636e+001           1.76364e+000           7.63641e-001           6.36413e-002           3.64133e-003           6.41332e-004
                   85.20    331.48088                               15.68744             81.773                                        3.31481e+002           3.14809e+001           1.48088e+000           4.80878e-001           8.08778e-002           8.77774e-004           8.77774e-004
                   85.30    331.21747                               15.90023             81.773                                        3.31217e+002           3.12175e+001           1.21747e+000           2.17475e-001           1.74749e-002           7.47491e-003           4.74912e-004
                   85.40    330.94152                               16.11856             81.773                                        3.30942e+002           3.09415e+001           9.41519e-001           9.41519e-001           4.15187e-002           1.51874e-003           5.18739e-004
                   85.50    330.68341                               16.34264             81.773                                        3.30683e+002           3.06834e+001           6.83405e-001           6.83405e-001           8.34051e-002           3.40506e-003           4.05063e-004
                   85.60    330.45117                               16.57282             81.773                                        3.30451e+002           3.04512e+001           4.51169e-001           4.51169e-001           5.11694e-002           1.16935e-003           1.69351e-004
                   85.70    330.21077                               16.80934             81.773                                        3.30211e+002           3.02108e+001           2.10773e-001           2.10773e-001           1.07733e-002           7.73306e-004           7.73306e-004
                   85.80    329.94522                               17.05155             81.773                                        3.29945e+002           2.99452e+001           9.94522e+000           9.45217e-001           4.52173e-002           5.21734e-003           2.17342e-004
                   85.90    329.69245                               17.29863             81.773                                        3.29692e+002           2.96925e+001           9.69245e+000           6.92452e-001           9.24519e-002           2.45188e-003           4.51877e-004
                   86.00    329.45591                               17.55047             81.773                                        3.29456e+002           2.94559e+001           9.45591e+000           4.55914e-001           5.59139e-002           5.91391e-003           9.13911e-004
