~VERSION INFORMATION
VERS                    .            2.0                                    :CWLS LOG ASCII STANDARD
WRAP                    .            NO                                     :ONE LINE PER TIME STEP


~WELL INFORMATION
#MNEM                   .UNIT        DATA                                    DESCRIPTION
#________________________________________________________________________________________
STRTTIME                .HH/MM/SS    08:31:17                               :START TIME
STOPTIME                .HH/MM/SS    08:34:03                               :STOP TIME
STRT                    .s           2.10                                   :START DATA
STOP                    .s           164.70                                 :STOP DATA
STEP                    .s           0.10                                   :MEASUREMENT TIME INTERVAL
NULL                    .            -999.25                                :NULL VALUE
COMP                    .            Statoil ASA                            :COMPANY
FLD                     .            Volve                                  :FIELD
WELL                    .            15/9-F-11 A                            :WELL
RUN                     .            8                                      :RUN
LOC                     .            Maersk Inspirer                        :LOCATION
PROV                    .            na                                     :PROVINCE
SRVC                    .            Baker Hughes INTEQ                     :SERVICE COMPANY
DATE                    .YY/MM/DD    13/05/21                               :LOG DATE
UWI                     .                                                   :UNIQUE WELL ID
DEPTHMD                 .m           3688.1                                 :MEASURED DEPTH
DEPTHTVD                .m           3069.8                                 :TRUE VERTICAL DEPTH


~CURVE INFORMATION
#MNEM                   .UNIT        API CODES                               DESCRIPTION
#________________________________________________________________________________________
TIME                    .s                                                  :01 TIME
DD_PRESS                .bar                                                :02 DRAW DOWN PRESSURE
DD_VOLUME               .cm3                                                :03 INCREMENTAL DRAW DOWN VOLUME
TEMP                    .degC                                               :04 TRANSDUCER TEMPERATURE
DD_PRESS_MOD_1000       .bar                                                :05 DRAW DOWN PRESSURE MOD 1000
DD_PRESS_MOD_100        .bar                                                :06 DRAW DOWN PRESSURE MOD 100
DD_PRESS_MOD_10         .bar                                                :07 DRAW DOWN PRESSURE MOD 10
DD_PRESS_MOD_1          .bar                                                :08 DRAW DOWN PRESSURE MOD 1
DD_PRESS_MOD_01         .bar                                                :09 DRAW DOWN PRESSURE MOD 01
DD_PRESS_MOD_001        .bar                                                :10 DRAW DOWN PRESSURE MOD 001
DD_PRESS_MOD_0001       .bar                                                :11 DRAW DOWN PRESSURE MOD 0001


~PARAMETER INFORMATION
#MNEM                   .UNIT        VALUE                                   DESCRIPTION
#________________________________________________________________________________________
TOOLFACE                .deg         -78.9                                  :01 TOOLFACE
PUMP_CAPACITY           .bar         400                                    :02 NOMINAL DRAW DOWN PUMP CAPACITY
PUMP_LIMIT              .bar         240                                    :03 DOWNLINK PUMP LIMIT
TIME_LIMIT              .min         10                                     :04 DOWNLINK MAX TIME
TEST_TYPE               .            REPEAT                                 :05 DOWNLINK
TEST_TYPE               .            HIGH MOBILITY                          :06 DOWNLINK
DD_PIST_A               .cm2         3.1416                                 :07 DRAW DOWN PISTON AREA
V_SYS                   .cm3         131.0000                               :08 SYSTEM VOLUME
PROBE_ID                .cm          1.2700                                 :09 TTK PROBE ID
G0                      .            4.6700                                 :10 GEOMETRY FACTOR


~A                  TIME     DD_PRESS                              DD_VOLUME               TEMP                                   DD_PRESS_MOD_1000       DD_PRESS_MOD_100        DD_PRESS_MOD_10         DD_PRESS_MOD_1        DD_PRESS_MOD_01       DD_PRESS_MOD_001      DD_PRESS_MOD_0001
# ...
                   24.50    424.55915                                0.00000             83.359                                        4.24559e+002           2.45592e+001           4.55915e+000           5.59153e-001           5.91533e-002           9.15327e-003           1.53268e-004
                   24.60    424.60838                                0.00000             83.359                                        4.24608e+002           2.46084e+001           4.60838e+000           6.08380e-001           8.37954e-003           8.37954e-003           3.79536e-004
                   24.70    424.61361                                0.00000             83.357                                        4.24614e+002           2.46136e+001           4.61361e+000           6.13605e-001           1.36051e-002           3.60511e-003           6.05111e-004
                   24.80    424.61566                                0.00000             83.354                                        4.24616e+002           2.46157e+001           4.61566e+000           6.15664e-001           1.56642e-002           5.66420e-003           6.64203e-004
                   24.90    424.66962                                0.83057             83.352                                        4.24670e+002           2.46696e+001           4.66962e+000           6.69624e-001           6.96240e-002           9.62400e-003           6.23998e-004
                   25.00    424.67141                                0.83259             83.352                                        4.24671e+002           2.46714e+001           4.67141e+000           6.71407e-001           7.14071e-002           1.40709e-003           4.07086e-004
                   25.10    424.60481                                0.83443             83.354                                        4.24605e+002           2.46048e+001           4.60481e+000           6.04806e-001           4.80648e-003           4.80648e-003           8.06476e-004
                   25.20    424.53572                                0.83655             83.355                                        4.24536e+002           2.45357e+001           4.53572e+000           5.35715e-001           3.57155e-002           5.71546e-003           7.15457e-004
                   25.30    424.40425                                0.84060             83.354                                        4.24404e+002           2.44042e+001           4.40425e+000           4.04246e-001           4.24631e-003           4.24631e-003           2.46313e-004
                   25.40    424.15248                                0.84661             83.352                                        4.24152e+002           2.41525e+001           4.15248e+000           1.52484e-001           5.24836e-002           2.48356e-003           4.83560e-004
                   25.50    423.72521                                0.85464             83.352                                        4.23725e+002           2.37252e+001           3.72521e+000           7.25209e-001           2.52088e-002           5.20882e-003           2.08819e-004
                   25.60    423.16541                                0.86466             83.352                                        4.23165e+002           2.31654e+001           3.16541e+000           1.65407e-001           6.54069e-002           5.40691e-003           4.06906e-004
                   25.70    422.61397                                0.87668             83.352                                        4.22614e+002           2.26140e+001           2.61397e+000           6.13966e-001           1.39660e-002           3.96605e-003           9.66048e-004
                   25.80    422.00566                                0.89061             83.352                                        4.22006e+002           2.20057e+001           2.00566e+000           5.65956e-003           5.65956e-003           5.65956e-003           6.59559e-004
                   25.90    421.13958                                0.90644             83.352                                        4.21140e+002           2.11396e+001           1.13958e+000           1.39583e-001           3.95828e-002           9.58282e-003           5.82816e-004
                   26.00    420.03937                                0.92436             83.352                                        4.20039e+002           2.00394e+001           3.93746e-002           3.93746e-002           3.93746e-002           9.37462e-003           3.74616e-004
                   26.10    418.88706                                0.94424             83.352                                        4.18887e+002           1.88871e+001           8.88706e+000           8.87061e-001           8.70614e-002           7.06137e-003           6.13709e-005
                   26.20    417.63643                                0.96609             83.352                                        4.17636e+002           1.76364e+001           7.63643e+000           6.36429e-001           3.64293e-002           6.42926e-003           4.29256e-004
                   26.30    416.15435                                0.98977             83.352                                        4.16154e+002           1.61543e+001           6.15435e+000           1.54350e-001           5.43498e-002           4.34981e-003           3.49808e-004
                   26.40    414.49195                                1.01531             83.352                                        4.14492e+002           1.44919e+001           4.49195e+000           4.91946e-001           9.19456e-002           1.94564e-003           9.45643e-004
                   26.50    412.81357                                1.04279             83.352                                        4.12814e+002           1.28136e+001           2.81357e+000           8.13571e-001           1.35713e-002           3.57132e-003           5.71321e-004
                   26.60    411.03755                                1.07225             83.352                                        4.11038e+002           1.10375e+001           1.03755e+000           3.75467e-002           3.75467e-002           7.54666e-003           5.46662e-004
                   26.70    409.03847                                1.10363             83.352                                        4.09038e+002           9.03847e+000           9.03847e+000           3.84706e-002           3.84706e-002           8.47059e-003           4.70590e-004
                   26.80    406.83321                                1.13688             83.352                                        4.06833e+002           6.83321e+000           6.83321e+000           8.33214e-001           3.32137e-002           3.21365e-003           2.13652e-004
                   26.90    404.49288                                1.17198             83.352                                        4.04493e+002           4.49288e+000           4.49288e+000           4.92879e-001           9.28787e-002           2.87867e-003           8.78670e-004
                   27.00    401.98945                                1.20895             83.352                                        4.01989e+002           1.98945e+000           1.98945e+000           9.89447e-001           8.94472e-002           9.44716e-003           4.47161e-004
                   27.10    399.26924                                1.24772             83.352                                        3.99269e+002           9.92692e+001           9.26924e+000           2.69236e-001           6.92362e-002           9.23620e-003           2.36198e-004
                   27.20    396.40157                                1.28835             83.352                                        3.96402e+002           9.64016e+001           6.40157e+000           4.01569e-001           1.56941e-003           1.56941e-003           5.69409e-004
