~VERSION INFORMATION
VERS                    .            2.0                                    :CWLS LOG ASCII STANDARD
WRAP                    .            NO                                     :ONE LINE PER TIME STEP


~WELL INFORMATION
#MNEM                   .UNIT        DATA                                    DESCRIPTION
#________________________________________________________________________________________
STRTTIME                .HH/MM/SS    00:10:18                               :START TIME
STOPTIME                .HH/MM/SS    00:13:47                               :STOP TIME
STRT                    .s           2.10                                   :START DATA
STOP                    .s           207.40                                 :STOP DATA
STEP                    .s           0.10                                   :MEASUREMENT TIME INTERVAL
NULL                    .            -999.25                                :NULL VALUE
COMP                    .            Statoil ASA                            :COMPANY
FLD                     .            Volve                                  :FIELD
WELL                    .            15/9-F-1                               :WELL
RUN                     .            4                                      :RUN
LOC                     .            Maersk Inspirer                        :LOCATION
PROV                    .            na                                     :PROVINCE
SRVC                    .            Baker Hughes INTEQ                     :SERVICE COMPANY
DATE                    .YY/MM/DD    13/08/19                               :LOG DATE
UWI                     .                                                   :UNIQUE WELL ID
DEPTHMD                 .m           3332.4                                 :MEASURED DEPTH
DEPTHTVD                .m           3056.0                                 :TRUE VERTICAL DEPTH


~CURVE INFORMATION
#MNEM                   .UNIT        API CODES                               DESCRIPTION
#________________________________________________________________________________________
TIME                    .s                                                  :01 TIME
DD_PRESS                .bar                                                :02 DRAW DOWN PRESSURE
DD_VOLUME               .cm3                                                :03 INCREMENTAL DRAW DOWN VOLUME
TEMP                    .degC                                               :04 TRANSDUCER TEMPERATURE
DD_PRESS_MOD_1000       .bar                                                :05 DRAW DOWN PRESSURE MOD 1000
DD_PRESS_MOD_100        .bar                                                :06 DRAW DOWN PRESSURE MOD 100
DD_PRESS_MOD_10         .bar                                                :07 DRAW DOWN PRESSURE MOD 10
DD_PRESS_MOD_1          .bar                                                :08 DRAW DOWN PRESSURE MOD 1
DD_PRESS_MOD_01         .bar                                                :09 DRAW DOWN PRESSURE MOD 01
DD_PRESS_MOD_001        .bar                                                :10 DRAW DOWN PRESSURE MOD 001
DD_PRESS_MOD_0001       .bar                                                :11 DRAW DOWN PRESSURE MOD 0001


~PARAMETER INFORMATION
#MNEM                   .UNIT        VALUE                                   DESCRIPTION
#________________________________________________________________________________________
TOOLFACE                .deg         78.2                                   :01 TOOLFACE
PUMP_CAPACITY           .bar         400                                    :02 NOMINAL DRAW DOWN PUMP CAPACITY
PUMP_LIMIT              .bar         240                                    :03 DOWNLINK PUMP LIMIT
TIME_LIMIT              .min         10                                     :04 DOWNLINK MAX TIME
TEST_TYPE               .            LOW MOBILITY                           :05 DOWNLINK
DD_PIST_A               .cm2         3.1416                                 :06 DRAW DOWN PISTON AREA
V_SYS                   .cm3         131.0000                               :07 SYSTEM VOLUME
PROBE_ID                .cm          1.2700                                 :08 TTK PROBE ID
G0                      .            4.6700                                 :09 GEOMETRY FACTOR


~A                  TIME     DD_PRESS                              DD_VOLUME               TEMP                                   DD_PRESS_MOD_1000       DD_PRESS_MOD_100        DD_PRESS_MOD_10         DD_PRESS_MOD_1        DD_PRESS_MOD_01       DD_PRESS_MOD_001      DD_PRESS_MOD_0001
# ...
                  164.50    340.64370                               29.23324             74.727                                        3.40644e+002           4.06437e+001           6.43702e-001           6.43702e-001           4.37024e-002           3.70240e-003           7.02397e-004
                  164.60    340.64281                               29.23324             74.727                                        3.40643e+002           4.06428e+001           6.42810e-001           6.42810e-001           4.28102e-002           2.81020e-003           8.10195e-004
                  164.70    340.64105                               29.23324             74.727                                        3.40641e+002           4.06410e+001           6.41048e-001           6.41048e-001           4.10478e-002           1.04777e-003           4.77720e-005
                  164.80    340.63968                               29.23324             74.727                                        3.40640e+002           4.06397e+001           6.39678e-001           6.39678e-001           3.96782e-002           9.67825e-003           6.78245e-004
                  164.90    340.64109                               29.23324             74.727                                        3.40641e+002           4.06411e+001           6.41086e-001           6.41086e-001           4.10855e-002           1.08552e-003           8.55198e-005
                  165.00    340.64253                               29.23324             74.727                                        3.40643e+002           4.06425e+001           6.42529e-001           6.42529e-001           4.25287e-002           2.52865e-003           5.28654e-004
                  165.10    340.64241                               29.23324             74.727                                        3.40642e+002           4.06424e+001           6.42409e-001           6.42409e-001           4.24090e-002           2.40905e-003           4.09045e-004
                  165.20    340.63906                               29.23324             74.727                                        3.40639e+002           4.06391e+001           6.39057e-001           6.39057e-001           3.90571e-002           9.05713e-003           5.71282e-005
                  165.30    340.63868                               29.23324             74.727                                        3.40639e+002           4.06387e+001           6.38679e-001           6.38679e-001           3.86791e-002           8.67913e-003           6.79127e-004
                  165.40    340.64013                               29.23324             74.727                                        3.40640e+002           4.06401e+001           6.40131e-001           6.40131e-001           4.01309e-002           1.30876e-004           1.30876e-004
                  165.50    340.63969                               29.23324             74.727                                        3.40640e+002           4.06397e+001           6.39695e-001           6.39695e-001           3.96947e-002           9.69466e-003           6.94659e-004
                  165.60    340.63962                               29.23324             74.727                                        3.40640e+002           4.06396e+001           6.39616e-001           6.39616e-001           3.96160e-002           9.61602e-003           6.16022e-004
                  165.70    340.63923                               29.23324             74.727                                        3.40639e+002           4.06392e+001           6.39229e-001           6.39229e-001           3.92294e-002           9.22937e-003           2.29371e-004
                  165.80    340.63853                               29.23324             74.727                                        3.40639e+002           4.06385e+001           6.38532e-001           6.38532e-001           3.85324e-002           8.53239e-003           5.32385e-004
                  165.90    340.64017                               29.23324             74.727                                        3.40640e+002           4.06402e+001           6.40172e-001           6.40172e-001           4.01718e-002           1.71819e-004           1.71819e-004
                  166.00    340.63934                               29.23324             74.727                                        3.40639e+002           4.06393e+001           6.39341e-001           6.39341e-001           3.93414e-002           9.34138e-003           3.41375e-004
                  166.10    340.63588                               29.23324             74.727                                        3.40636e+002           4.06359e+001           6.35882e-001           6.35882e-001           3.58819e-002           5.88194e-003           8.81938e-004
                  166.20    340.63521                               29.23324             74.727                                        3.40635e+002           4.06352e+001           6.35207e-001           6.35207e-001           3.52070e-002           5.20701e-003           2.07006e-004
                  166.30    340.63923                               29.23324             74.727                                        3.40639e+002           4.06392e+001           6.39234e-001           6.39234e-001           3.92344e-002           9.23444e-003           2.34440e-004
                  166.40    340.64103                               29.23324             74.727                                        3.40641e+002           4.06410e+001           6.41028e-001           6.41028e-001           4.10283e-002           1.02835e-003           2.83461e-005
                  166.50    340.63941                               29.23324             74.727                                        3.40639e+002           4.06394e+001           6.39411e-001           6.39411e-001           3.94112e-002           9.41118e-003           4.11179e-004
                  166.60    340.63890                               29.23324             74.727                                        3.40639e+002           4.06389e+001           6.38904e-001           6.38904e-001           3.89042e-002           8.90415e-003           9.04153e-004
                  166.70    340.64158                               29.23324             74.727                                        3.40642e+002           4.06416e+001           6.41575e-001           6.41575e-001           4.15753e-002           1.57526e-003           5.75259e-004
                  166.80    340.64167                               29.23324             74.727                                        3.40642e+002           4.06417e+001           6.41669e-001           6.41669e-001           4.16691e-002           1.66910e-003           6.69101e-004
                  166.90    340.64101                               29.23324             74.727                                        3.40641e+002           4.06410e+001           6.41008e-001           6.41008e-001           4.10083e-002           1.00828e-003           8.28053e-006
                  167.00    340.64179                               29.23324             74.727                                        3.40642e+002           4.06418e+001           6.41787e-001           6.41787e-001           4.17872e-002           1.78718e-003           7.87177e-004
                  167.10    340.64017                               29.23324             74.727                                        3.40640e+002           4.06402e+001           6.40172e-001           6.40172e-001           4.01724e-002           1.72396e-004           1.72396e-004
                  167.20    340.63546                               29.23324             74.727                                        3.40635e+002           4.06355e+001           6.35460e-001           6.35460e-001           3.54600e-002           5.46001e-003           4.60013e-004
