~VERSION INFORMATION
VERS                    .            2.0                                    :CWLS LOG ASCII STANDARD
WRAP                    .            NO                                     :ONE LINE PER TIME STEP


~WELL INFORMATION
#MNEM                   .UNIT        DATA                                    DESCRIPTION
#________________________________________________________________________________________
STRTTIME                .HH/MM/SS    14:04:48                               :START TIME
STOPTIME                .HH/MM/SS    14:07:57                               :STOP TIME
STRT                    .s           2.10                                   :START DATA
STOP                    .s           187.50                                 :STOP DATA
STEP                    .s           0.10                                   :MEASUREMENT TIME INTERVAL
NULL                    .            -999.25                                :NULL VALUE
COMP                    .            Statoil ASA                            :COMPANY
FLD                     .            Volve                                  :FIELD
WELL                    .            15/9-F-1 B                             :WELL
RUN                     .            7                                      :RUN
LOC                     .            Maersk Inspirer                        :LOCATION
PROV                    .            na                                     :PROVINCE
SRVC                    .            Baker Hughes INTEQ                     :SERVICE COMPANY
DATE                    .YY/MM/DD    13/09/06                               :LOG DATE
UWI                     .                                                   :UNIQUE WELL ID
DEPTHMD                 .m           3296.0                                 :MEASURED DEPTH
DEPTHTVD                .m           3091.5                                 :TRUE VERTICAL DEPTH


~CURVE INFORMATION
#MNEM                   .UNIT        API CODES                               DESCRIPTION
#________________________________________________________________________________________
TIME                    .s                                                  :01 TIME
DD_PRESS                .bar                                                :02 DRAW DOWN PRESSURE
DD_VOLUME               .cm3                                                :03 INCREMENTAL DRAW DOWN VOLUME
TEMP                    .degC                                               :04 TRANSDUCER TEMPERATURE
DD_PRESS_MOD_1000       .bar                                                :05 DRAW DOWN PRESSURE MOD 1000
DD_PRESS_MOD_100        .bar                                                :06 DRAW DOWN PRESSURE MOD 100
DD_PRESS_MOD_10         .bar                                                :07 DRAW DOWN PRESSURE MOD 10
DD_PRESS_MOD_1          .bar                                                :08 DRAW DOWN PRESSURE MOD 1
DD_PRESS_MOD_01         .bar                                                :09 DRAW DOWN PRESSURE MOD 01
DD_PRESS_MOD_001        .bar                                                :10 DRAW DOWN PRESSURE MOD 001
DD_PRESS_MOD_0001       .bar                                                :11 DRAW DOWN PRESSURE MOD 0001


~PARAMETER INFORMATION
#MNEM                   .UNIT        VALUE                                   DESCRIPTION
#________________________________________________________________________________________
TOOLFACE                .deg         na                                     :01 TOOLFACE
PUMP_CAPACITY           .bar         400                                    :02 NOMINAL DRAW DOWN PUMP CAPACITY
PUMP_LIMIT              .bar         400                                    :03 DOWNLINK PUMP LIMIT
TIME_LIMIT              .min         10                                     :04 DOWNLINK MAX TIME
TEST_TYPE               .            LOW MOBILITY                           :05 DOWNLINK
DD_PIST_A               .cm2         3.1416                                 :06 DRAW DOWN PISTON AREA
V_SYS                   .cm3         131.0000                               :07 SYSTEM VOLUME
PROBE_ID                .cm          1.2700                                 :08 TTK PROBE ID
G0                      .            4.6700                                 :09 GEOMETRY FACTOR


~A                  TIME     DD_PRESS                              DD_VOLUME               TEMP                                   DD_PRESS_MOD_1000       DD_PRESS_MOD_100        DD_PRESS_MOD_10         DD_PRESS_MOD_1        DD_PRESS_MOD_01       DD_PRESS_MOD_001      DD_PRESS_MOD_0001
# ...
                  100.10    348.62571                               19.96297             83.273                                        3.48626e+002           4.86257e+001           8.62571e+000           6.25707e-001           2.57068e-002           5.70676e-003           7.06759e-004
                  100.20    348.61860                               19.96297             83.273                                        3.48619e+002           4.86186e+001           8.61860e+000           6.18602e-001           1.86020e-002           8.60197e-003           6.01967e-004
                  100.30    348.63145                               19.96297             83.273                                        3.48631e+002           4.86315e+001           8.63145e+000           6.31453e-001           3.14530e-002           1.45304e-003           4.53039e-004
                  100.40    348.64115                               19.96297             83.273                                        3.48641e+002           4.86412e+001           8.64115e+000           6.41152e-001           4.11518e-002           1.15184e-003           1.51840e-004
                  100.50    348.63040                               19.96297             83.273                                        3.48630e+002           4.86304e+001           8.63040e+000           6.30404e-001           3.04042e-002           4.04240e-004           4.04240e-004
                  100.60    348.63646                               19.96297             83.273                                        3.48636e+002           4.86365e+001           8.63646e+000           6.36461e-001           3.64607e-002           6.46065e-003           4.60651e-004
                  100.70    348.64679                               19.96297             83.273                                        3.48647e+002           4.86468e+001           8.64679e+000           6.46793e-001           4.67933e-002           6.79326e-003           7.93261e-004
                  100.80    348.62625                               19.96297             83.273                                        3.48626e+002           4.86262e+001           8.62625e+000           6.26248e-001           2.62477e-002           6.24772e-003           2.47722e-004
                  100.90    348.61653                               19.96297             83.273                                        3.48617e+002           4.86165e+001           8.61653e+000           6.16528e-001           1.65284e-002           6.52843e-003           5.28431e-004
                  101.00    348.62567                               19.96297             83.273                                        3.48626e+002           4.86257e+001           8.62567e+000           6.25668e-001           2.56680e-002           5.66803e-003           6.68034e-004
                  101.10    348.63599                               19.96297             83.273                                        3.48636e+002           4.86360e+001           8.63599e+000           6.35990e-001           3.59897e-002           5.98975e-003           9.89748e-004
                  101.20    348.64725                               19.96297             83.273                                        3.48647e+002           4.86472e+001           8.64725e+000           6.47249e-001           4.72490e-002           7.24900e-003           2.48999e-004
                  101.30    348.64402                               19.96297             83.273                                        3.48644e+002           4.86440e+001           8.64402e+000           6.44016e-001           4.40164e-002           4.01643e-003           1.64281e-005
                  101.40    348.62905                               19.96297             83.273                                        3.48629e+002           4.86290e+001           8.62905e+000           6.29048e-001           2.90483e-002           9.04834e-003           4.83425e-005
                  101.50    348.62003                               19.96297             83.273                                        3.48620e+002           4.86200e+001           8.62003e+000           6.20028e-001           2.00276e-002           2.75702e-005           2.75702e-005
                  101.60    348.60939                               19.96297             83.273                                        3.48609e+002           4.86094e+001           8.60939e+000           6.09388e-001           9.38760e-003           9.38760e-003           3.87605e-004
                  101.70    348.62377                               19.96297             83.273                                        3.48624e+002           4.86238e+001           8.62377e+000           6.23774e-001           2.37741e-002           3.77408e-003           7.74076e-004
                  101.80    348.66497                               19.96297             83.273                                        3.48665e+002           4.86650e+001           8.66497e+000           6.64969e-001           6.49688e-002           4.96882e-003           9.68818e-004
                  101.90    348.66752                               19.96297             83.273                                        3.48668e+002           4.86675e+001           8.66752e+000           6.67517e-001           6.75165e-002           7.51652e-003           5.16522e-004
                  102.00    348.64411                               19.96297             83.273                                        3.48644e+002           4.86441e+001           8.64411e+000           6.44113e-001           4.41132e-002           4.11319e-003           1.13195e-004
                  102.10    348.63669                               19.96297             83.273                                        3.48637e+002           4.86367e+001           8.63669e+000           6.36688e-001           3.66883e-002           6.68832e-003           6.88322e-004
                  102.20    348.62687                               19.96297             83.273                                        3.48627e+002           4.86269e+001           8.62687e+000           6.26871e-001           2.68706e-002           6.87056e-003           8.70561e-004
                  102.30    348.61576                               19.96297             83.273                                        3.48616e+002           4.86158e+001           8.61576e+000           6.15759e-001           1.57585e-002           5.75855e-003           7.58550e-004
                  102.40    348.63409                               19.96297             83.273                                        3.48634e+002           4.86341e+001           8.63409e+000           6.34092e-001           3.40923e-002           4.09233e-003           9.23333e-005
                  102.50    348.65400                               19.96297             83.273                                        3.48654e+002           4.86540e+001           8.65400e+000           6.53999e-001           5.39991e-002           3.99913e-003           9.99127e-004
                  102.60    348.65507                               19.96297             83.273                                        3.48655e+002           4.86551e+001           8.65507e+000           6.55070e-001           5.50696e-002           5.06964e-003           6.96380e-005
                  102.70    348.64902                               19.96297             83.273                                        3.48649e+002           4.86490e+001           8.64902e+000           6.49018e-001           4.90179e-002           9.01788e-003           1.78794e-005
                  102.80    348.63532                               19.96297             83.273                                        3.48635e+002           4.86353e+001           8.63532e+000           6.35322e-001           3.53224e-002           5.32242e-003           3.22416e-004
