~VERSION INFORMATION
VERS                    .            2.0                                    :CWLS LOG ASCII STANDARD
WRAP                    .            NO                                     :ONE LINE PER TIME STEP


~WELL INFORMATION
#MNEM                   .UNIT        DATA                                    DESCRIPTION
#________________________________________________________________________________________
STRTTIME                .HH/MM/SS    11:44:47                               :START TIME
STOPTIME                .HH/MM/SS    11:47:33                               :STOP TIME
STRT                    .s           2.10                                   :START DATA
STOP                    .s           164.50                                 :STOP DATA
STEP                    .s           0.10                                   :MEASUREMENT TIME INTERVAL
NULL                    .            -999.25                                :NULL VALUE
COMP                    .            Statoil ASA                            :COMPANY
FLD                     .            Volve                                  :FIELD
WELL                    .            15/9-F-11 A                            :WELL
RUN                     .            8                                      :RUN
LOC                     .            Maersk Inspirer                        :LOCATION
PROV                    .            na                                     :PROVINCE
SRVC                    .            Baker Hughes INTEQ                     :SERVICE COMPANY
DATE                    .YY/MM/DD    13/05/21                               :LOG DATE
UWI                     .                                                   :UNIQUE WELL ID
DEPTHMD                 .m           3624.0                                 :MEASURED DEPTH
DEPTHTVD                .m           3020.7                                 :TRUE VERTICAL DEPTH


~CURVE INFORMATION
#MNEM                   .UNIT        API CODES                               DESCRIPTION
#________________________________________________________________________________________
TIME                    .s                                                  :01 TIME
DD_PRESS                .bar                                                :02 DRAW DOWN PRESSURE
DD_VOLUME               .cm3                                                :03 INCREMENTAL DRAW DOWN VOLUME
TEMP                    .degC                                               :04 TRANSDUCER TEMPERATURE
DD_PRESS_MOD_1000       .bar                                                :05 DRAW DOWN PRESSURE MOD 1000
DD_PRESS_MOD_100        .bar                                                :06 DRAW DOWN PRESSURE MOD 100
DD_PRESS_MOD_10         .bar                                                :07 DRAW DOWN PRESSURE MOD 10
DD_PRESS_MOD_1          .bar                                                :08 DRAW DOWN PRESSURE MOD 1
DD_PRESS_MOD_01         .bar                                                :09 DRAW DOWN PRESSURE MOD 01
DD_PRESS_MOD_001        .bar                                                :10 DRAW DOWN PRESSURE MOD 001
DD_PRESS_MOD_0001       .bar                                                :11 DRAW DOWN PRESSURE MOD 0001


~PARAMETER INFORMATION
#MNEM                   .UNIT        VALUE                                   DESCRIPTION
#________________________________________________________________________________________
TOOLFACE                .deg         61.7                                   :01 TOOLFACE
PUMP_CAPACITY           .bar         400                                    :02 NOMINAL DRAW DOWN PUMP CAPACITY
PUMP_LIMIT              .bar         240                                    :03 DOWNLINK PUMP LIMIT
TIME_LIMIT              .min         10                                     :04 DOWNLINK MAX TIME
TEST_TYPE               .            REPEAT                                 :05 DOWNLINK
TEST_TYPE               .            HIGH MOBILITY                          :06 DOWNLINK
DD_PIST_A               .cm2         3.1416                                 :07 DRAW DOWN PISTON AREA
V_SYS                   .cm3         131.0000                               :08 SYSTEM VOLUME
PROBE_ID                .cm          1.2700                                 :09 TTK PROBE ID
G0                      .            4.6700                                 :10 GEOMETRY FACTOR


~A                  TIME     DD_PRESS                              DD_VOLUME               TEMP                                   DD_PRESS_MOD_1000       DD_PRESS_MOD_100        DD_PRESS_MOD_10         DD_PRESS_MOD_1        DD_PRESS_MOD_01       DD_PRESS_MOD_001      DD_PRESS_MOD_0001
# ...
                   86.10    342.13775                               19.78935             81.438                                        3.42138e+002           4.21378e+001           2.13775e+000           1.37754e-001           3.77537e-002           7.75365e-003           7.53654e-004
                   86.20    342.13640                               19.78935             81.438                                        3.42136e+002           4.21364e+001           2.13640e+000           1.36404e-001           3.64044e-002           6.40440e-003           4.04398e-004
                   86.30    342.13714                               19.78935             81.438                                        3.42137e+002           4.21371e+001           2.13714e+000           1.37145e-001           3.71448e-002           7.14485e-003           1.44846e-004
                   86.40    342.13841                               19.78935             81.438                                        3.42138e+002           4.21384e+001           2.13841e+000           1.38407e-001           3.84074e-002           8.40744e-003           4.07435e-004
                   86.50    342.13696                               19.78935             81.438                                        3.42137e+002           4.21370e+001           2.13696e+000           1.36956e-001           3.69563e-002           6.95633e-003           9.56330e-004
                   86.60    342.13539                               19.78935             81.438                                        3.42135e+002           4.21354e+001           2.13539e+000           1.35389e-001           3.53893e-002           5.38931e-003           3.89307e-004
                   86.70    342.13503                               19.78935             81.438                                        3.42135e+002           4.21350e+001           2.13503e+000           1.35026e-001           3.50261e-002           5.02607e-003           2.60724e-005
                   86.80    342.13446                               19.78935             81.438                                        3.42134e+002           4.21345e+001           2.13446e+000           1.34459e-001           3.44585e-002           4.45850e-003           4.58502e-004
                   86.90    342.13439                               19.78935             81.438                                        3.42134e+002           4.21344e+001           2.13439e+000           1.34389e-001           3.43894e-002           4.38945e-003           3.89448e-004
                   87.00    342.13464                               19.78935             81.438                                        3.42135e+002           4.21346e+001           2.13464e+000           1.34636e-001           3.46364e-002           4.63644e-003           6.36442e-004
                   87.10    342.13548                               19.78935             81.438                                        3.42135e+002           4.21355e+001           2.13548e+000           1.35479e-001           3.54795e-002           5.47946e-003           4.79464e-004
                   87.20    342.13564                               19.78935             81.438                                        3.42136e+002           4.21356e+001           2.13564e+000           1.35642e-001           3.56423e-002           5.64230e-003           6.42297e-004
                   87.30    342.13563                               19.78935             81.438                                        3.42136e+002           4.21356e+001           2.13563e+000           1.35631e-001           3.56310e-002           5.63098e-003           6.30979e-004
                   87.40    342.13541                               19.78935             81.438                                        3.42135e+002           4.21354e+001           2.13541e+000           1.35412e-001           3.54116e-002           5.41159e-003           4.11592e-004
                   87.50    342.13459                               19.78935             81.438                                        3.42135e+002           4.21346e+001           2.13459e+000           1.34588e-001           3.45879e-002           4.58792e-003           5.87917e-004
                   87.60    342.13463                               19.78935             81.438                                        3.42135e+002           4.21346e+001           2.13463e+000           1.34629e-001           3.46286e-002           4.62858e-003           6.28577e-004
                   87.70    342.13511                               19.78935             81.438                                        3.42135e+002           4.21351e+001           2.13511e+000           1.35115e-001           3.51149e-002           5.11495e-003           1.14945e-004
                   87.80    342.13560                               19.78935             81.438                                        3.42136e+002           4.21356e+001           2.13560e+000           1.35602e-001           3.56020e-002           5.60196e-003           6.01964e-004
                   87.90    342.13672                               19.78935             81.438                                        3.42137e+002           4.21367e+001           2.13672e+000           1.36718e-001           3.67180e-002           6.71802e-003           7.18021e-004
                   88.00    342.13706                               19.78935             81.438                                        3.42137e+002           4.21371e+001           2.13706e+000           1.37064e-001           3.70644e-002           7.06443e-003           6.44336e-005
                   88.10    342.13654                               19.78935             81.438                                        3.42137e+002           4.21365e+001           2.13654e+000           1.36537e-001           3.65373e-002           6.53731e-003           5.37306e-004
                   88.20    342.13640                               19.78935             81.438                                        3.42136e+002           4.21364e+001           2.13640e+000           1.36396e-001           3.63957e-002           6.39575e-003           3.95746e-004
                   88.30    342.13741                               19.78935             81.438                                        3.42137e+002           4.21374e+001           2.13741e+000           1.37412e-001           3.74124e-002           7.41244e-003           4.12439e-004
                   88.40    342.13781                               19.78935             81.438                                        3.42138e+002           4.21378e+001           2.13781e+000           1.37806e-001           3.78058e-002           7.80576e-003           8.05757e-004
                   88.50    342.13719                               19.78935             81.438                                        3.42137e+002           4.21372e+001           2.13719e+000           1.37189e-001           3.71893e-002           7.18931e-003           1.89308e-004
                   88.60    342.13603                               19.78935             81.438                                        3.42136e+002           4.21360e+001           2.13603e+000           1.36026e-001           3.60261e-002           6.02613e-003           2.61255e-005
                   88.70    342.13517                               19.78935             81.438                                        3.42135e+002           4.21352e+001           2.13517e+000           1.35170e-001           3.51702e-002           5.17016e-003           1.70158e-004
                   88.80    342.13549                               19.78935             81.438                                        3.42135e+002           4.21355e+001           2.13549e+000           1.35489e-001           3.54888e-002           5.48879e-003           4.88792e-004
