~VERSION INFORMATION
VERS                    .            2.0                                    :CWLS LOG ASCII STANDARD
WRAP                    .            NO                                     :ONE LINE PER TIME STEP


~WELL INFORMATION
#MNEM                   .UNIT        DATA                                    DESCRIPTION
#________________________________________________________________________________________
STRTTIME                .HH/MM/SS    10:02:47                               :START TIME
STOPTIME                .HH/MM/SS    10:07:04                               :STOP TIME
STRT                    .s           2.10                                   :START DATA
STOP                    .s           255.20                                 :STOP DATA
STEP                    .s           0.10                                   :MEASUREMENT TIME INTERVAL
NULL                    .            -999.25                                :NULL VALUE
COMP                    .            Statoil ASA                            :COMPANY
FLD                     .            Volve                                  :FIELD
WELL                    .            15/9-F-11 A                            :WELL
RUN                     .            8                                      :RUN
LOC                     .            Maersk Inspirer                        :LOCATION
PROV                    .            na                                     :PROVINCE
SRVC                    .            Baker Hughes INTEQ                     :SERVICE COMPANY
DATE                    .YY/MM/DD    13/05/21                               :LOG DATE
UWI                     .                                                   :UNIQUE WELL ID
DEPTHMD                 .m           3657.3                                 :MEASURED DEPTH
DEPTHTVD                .m           3046.2                                 :TRUE VERTICAL DEPTH


~CURVE INFORMATION
#MNEM                   .UNIT        API CODES                               DESCRIPTION
#________________________________________________________________________________________
TIME                    .s                                                  :01 TIME
DD_PRESS                .bar                                                :02 DRAW DOWN PRESSURE
DD_VOLUME               .cm3                                                :03 INCREMENTAL DRAW DOWN VOLUME
TEMP                    .degC                                               :04 TRANSDUCER TEMPERATURE
DD_PRESS_MOD_1000       .bar                                                :05 DRAW DOWN PRESSURE MOD 1000
DD_PRESS_MOD_100        .bar                                                :06 DRAW DOWN PRESSURE MOD 100
DD_PRESS_MOD_10         .bar                                                :07 DRAW DOWN PRESSURE MOD 10
DD_PRESS_MOD_1          .bar                                                :08 DRAW DOWN PRESSURE MOD 1
DD_PRESS_MOD_01         .bar                                                :09 DRAW DOWN PRESSURE MOD 01
DD_PRESS_MOD_001        .bar                                                :10 DRAW DOWN PRESSURE MOD 001
DD_PRESS_MOD_0001       .bar                                                :11 DRAW DOWN PRESSURE MOD 0001


~PARAMETER INFORMATION
#MNEM                   .UNIT        VALUE                                   DESCRIPTION
#________________________________________________________________________________________
TOOLFACE                .deg         60.1                                   :01 TOOLFACE
PUMP_CAPACITY           .bar         400                                    :02 NOMINAL DRAW DOWN PUMP CAPACITY
PUMP_LIMIT              .bar         240                                    :03 DOWNLINK PUMP LIMIT
TIME_LIMIT              .min         10                                     :04 DOWNLINK MAX TIME
TEST_TYPE               .            REPEAT                                 :05 DOWNLINK
TEST_TYPE               .            HIGH MOBILITY                          :06 DOWNLINK
DD_PIST_A               .cm2         3.1416                                 :07 DRAW DOWN PISTON AREA
V_SYS                   .cm3         131.0000                               :08 SYSTEM VOLUME
PROBE_ID                .cm          1.2700                                 :09 TTK PROBE ID
G0                      .            4.6700                                 :10 GEOMETRY FACTOR


~A                  TIME     DD_PRESS                              DD_VOLUME               TEMP                                   DD_PRESS_MOD_1000       DD_PRESS_MOD_100        DD_PRESS_MOD_10         DD_PRESS_MOD_1        DD_PRESS_MOD_01       DD_PRESS_MOD_001      DD_PRESS_MOD_0001
# ...
                  167.30    344.40115                               12.37699             82.109                                        3.44401e+002           4.44011e+001           4.40115e+000           4.01147e-001           1.14662e-003           1.14662e-003           1.46619e-004
                  167.40    344.39366                               12.37699             82.109                                        3.44394e+002           4.43937e+001           4.39366e+000           3.93656e-001           9.36563e-002           3.65629e-003           6.56287e-004
                  167.50    344.39215                               12.37699             82.109                                        3.44392e+002           4.43922e+001           4.39215e+000           3.92154e-001           9.21540e-002           2.15400e-003           1.54000e-004
                  167.60    344.39819                               12.37699             82.109                                        3.44398e+002           4.43982e+001           4.39819e+000           3.98191e-001           9.81914e-002           8.19139e-003           1.91393e-004
                  167.70    344.40064                               12.37699             82.109                                        3.44401e+002           4.44006e+001           4.40064e+000           4.00642e-001           6.42165e-004           6.42165e-004           6.42165e-004
                  167.80    344.39564                               12.37699             82.109                                        3.44396e+002           4.43956e+001           4.39564e+000           3.95644e-001           9.56444e-002           5.64444e-003           6.44436e-004
                  167.90    344.38879                               12.37699             82.109                                        3.44389e+002           4.43888e+001           4.38879e+000           3.88791e-001           8.87907e-002           8.79069e-003           7.90686e-004
                  168.00    344.39577                               12.37699             82.109                                        3.44396e+002           4.43958e+001           4.39577e+000           3.95775e-001           9.57747e-002           5.77472e-003           7.74723e-004
                  168.10    344.40546                               12.37699             82.109                                        3.44405e+002           4.44055e+001           4.40546e+000           4.05463e-001           5.46295e-003           5.46295e-003           4.62955e-004
                  168.20    344.40385                               12.37699             82.109                                        3.44404e+002           4.44038e+001           4.40385e+000           4.03847e-001           3.84697e-003           3.84697e-003           8.46972e-004
                  168.30    344.39894                               12.37699             82.109                                        3.44399e+002           4.43989e+001           4.39894e+000           3.98936e-001           9.89360e-002           8.93598e-003           9.35983e-004
                  168.40    344.40136                               12.37699             82.109                                        3.44401e+002           4.44014e+001           4.40136e+000           4.01357e-001           1.35722e-003           1.35722e-003           3.57217e-004
                  168.50    344.40413                               12.37699             82.109                                        3.44404e+002           4.44041e+001           4.40413e+000           4.04133e-001           4.13327e-003           4.13327e-003           1.33272e-004
                  168.60    344.39804                               12.37699             82.109                                        3.44398e+002           4.43980e+001           4.39804e+000           3.98044e-001           9.80443e-002           8.04432e-003           4.43214e-005
                  168.70    344.39146                               12.37699             82.109                                        3.44391e+002           4.43915e+001           4.39146e+000           3.91461e-001           9.14607e-002           1.46067e-003           4.60669e-004
                  168.80    344.39273                               12.37699             82.109                                        3.44393e+002           4.43927e+001           4.39273e+000           3.92730e-001           9.27296e-002           2.72960e-003           7.29604e-004
                  168.90    344.39391                               12.37699             82.109                                        3.44394e+002           4.43939e+001           4.39391e+000           3.93910e-001           9.39101e-002           3.91014e-003           9.10144e-004
                  169.00    344.39175                               12.37699             82.109                                        3.44392e+002           4.43917e+001           4.39175e+000           3.91746e-001           9.17464e-002           1.74641e-003           7.46411e-004
                  169.10    344.39319                               12.37699             82.109                                        3.44393e+002           4.43932e+001           4.39319e+000           3.93192e-001           9.31916e-002           3.19159e-003           1.91589e-004
                  169.20    344.39646                               12.37699             82.109                                        3.44396e+002           4.43965e+001           4.39646e+000           3.96456e-001           9.64564e-002           6.45638e-003           4.56381e-004
                  169.30    344.39383                               12.37699             82.109                                        3.44394e+002           4.43938e+001           4.39383e+000           3.93831e-001           9.38314e-002           3.83143e-003           8.31428e-004
                  169.40    344.39449                               12.37699             82.109                                        3.44394e+002           4.43945e+001           4.39449e+000           3.94485e-001           9.44850e-002           4.48503e-003           4.85025e-004
                  169.50    344.40477                               12.37699             82.109                                        3.44405e+002           4.44048e+001           4.40477e+000           4.04768e-001           4.76787e-003           4.76787e-003           7.67871e-004
                  169.60    344.40440                               12.37699             82.109                                        3.44404e+002           4.44044e+001           4.40440e+000           4.04399e-001           4.39936e-003           4.39936e-003           3.99360e-004
                  169.70    344.39435                               12.37699             82.109                                        3.44394e+002           4.43944e+001           4.39435e+000           3.94352e-001           9.43521e-002           4.35213e-003           3.52130e-004
                  169.80    344.39847                               12.37699             82.109                                        3.44398e+002           4.43985e+001           4.39847e+000           3.98467e-001           9.84674e-002           8.46739e-003           4.67392e-004
                  169.90    344.41017                               12.37699             82.109                                        3.44410e+002           4.44102e+001           4.41017e+000           4.10165e-001           1.01650e-002           1.65007e-004           1.65007e-004
                  170.00    344.40933                               12.37699             82.109                                        3.44409e+002           4.44093e+001           4.40933e+000           4.09331e-001           9.33108e-003           9.33108e-003           3.31078e-004
