~VERSION INFORMATION
VERS                    .            2.0                                    :CWLS LOG ASCII STANDARD
WRAP                    .            NO                                     :ONE LINE PER TIME STEP


~WELL INFORMATION
#MNEM                   .UNIT        DATA                                    DESCRIPTION
#________________________________________________________________________________________
STRTTIME                .HH/MM/SS    08:48:41                               :START TIME
STOPTIME                .HH/MM/SS    08:51:35                               :STOP TIME
STRT                    .s           2.10                                   :START DATA
STOP                    .s           172.50                                 :STOP DATA
STEP                    .s           0.10                                   :MEASUREMENT TIME INTERVAL
NULL                    .            -999.25                                :NULL VALUE
COMP                    .            Statoil ASA                            :COMPANY
FLD                     .            Volve                                  :FIELD
WELL                    .            15/9-F-11 A                            :WELL
RUN                     .            8                                      :RUN
LOC                     .            Maersk Inspirer                        :LOCATION
PROV                    .            na                                     :PROVINCE
SRVC                    .            Baker Hughes INTEQ                     :SERVICE COMPANY
DATE                    .YY/MM/DD    13/05/21                               :LOG DATE
UWI                     .                                                   :UNIQUE WELL ID
DEPTHMD                 .m           3681.0                                 :MEASURED DEPTH
DEPTHTVD                .m           3064.4                                 :TRUE VERTICAL DEPTH


~CURVE INFORMATION
#MNEM                   .UNIT        API CODES                               DESCRIPTION
#________________________________________________________________________________________
TIME                    .s                                                  :01 TIME
DD_PRESS                .bar                                                :02 DRAW DOWN PRESSURE
DD_VOLUME               .cm3                                                :03 INCREMENTAL DRAW DOWN VOLUME
TEMP                    .degC                                               :04 TRANSDUCER TEMPERATURE
DD_PRESS_MOD_1000       .bar                                                :05 DRAW DOWN PRESSURE MOD 1000
DD_PRESS_MOD_100        .bar                                                :06 DRAW DOWN PRESSURE MOD 100
DD_PRESS_MOD_10         .bar                                                :07 DRAW DOWN PRESSURE MOD 10
DD_PRESS_MOD_1          .bar                                                :08 DRAW DOWN PRESSURE MOD 1
DD_PRESS_MOD_01         .bar                                                :09 DRAW DOWN PRESSURE MOD 01
DD_PRESS_MOD_001        .bar                                                :10 DRAW DOWN PRESSURE MOD 001
DD_PRESS_MOD_0001       .bar                                                :11 DRAW DOWN PRESSURE MOD 0001


~PARAMETER INFORMATION
#MNEM                   .UNIT        VALUE                                   DESCRIPTION
#________________________________________________________________________________________
TOOLFACE                .deg         -59.5                                  :01 TOOLFACE
PUMP_CAPACITY           .bar         400                                    :02 NOMINAL DRAW DOWN PUMP CAPACITY
PUMP_LIMIT              .bar         240                                    :03 DOWNLINK PUMP LIMIT
TIME_LIMIT              .min         10                                     :04 DOWNLINK MAX TIME
TEST_TYPE               .            REPEAT                                 :05 DOWNLINK
TEST_TYPE               .            HIGH MOBILITY                          :06 DOWNLINK
DD_PIST_A               .cm2         3.1416                                 :07 DRAW DOWN PISTON AREA
V_SYS                   .cm3         131.0000                               :08 SYSTEM VOLUME
PROBE_ID                .cm          1.2700                                 :09 TTK PROBE ID
G0                      .            4.6700                                 :10 GEOMETRY FACTOR


~A                  TIME     DD_PRESS                              DD_VOLUME               TEMP                                   DD_PRESS_MOD_1000       DD_PRESS_MOD_100        DD_PRESS_MOD_10         DD_PRESS_MOD_1        DD_PRESS_MOD_01       DD_PRESS_MOD_001      DD_PRESS_MOD_0001
# ...
                  158.90    424.34461                                0.00000             82.617                                        4.24345e+002           2.43446e+001           4.34461e+000           3.44608e-001           4.46076e-002           4.60760e-003           6.07605e-004
                  159.00    424.33107                                0.00000             82.617                                        4.24331e+002           2.43311e+001           4.33107e+000           3.31070e-001           3.10698e-002           1.06983e-003           6.98292e-005
                  159.10    424.32256                                0.00000             82.617                                        4.24323e+002           2.43226e+001           4.32256e+000           3.22562e-001           2.25624e-002           2.56243e-003           5.62430e-004
                  159.20    424.33136                                0.00000             82.617                                        4.24331e+002           2.43314e+001           4.33136e+000           3.31360e-001           3.13604e-002           1.36041e-003           3.60415e-004
                  159.30    424.33358                                0.00000             82.617                                        4.24334e+002           2.43336e+001           4.33358e+000           3.33578e-001           3.35780e-002           3.57795e-003           5.77953e-004
                  159.40    424.32375                                0.00000             82.617                                        4.24324e+002           2.43237e+001           4.32375e+000           3.23749e-001           2.37491e-002           3.74913e-003           7.49134e-004
                  159.50    424.32363                                0.00000             82.617                                        4.24324e+002           2.43236e+001           4.32363e+000           3.23634e-001           2.36341e-002           3.63407e-003           6.34072e-004
                  159.60    424.32430                                0.00000             82.617                                        4.24324e+002           2.43243e+001           4.32430e+000           3.24304e-001           2.43038e-002           4.30381e-003           3.03808e-004
                  159.70    424.32318                                0.00000             82.617                                        4.24323e+002           2.43232e+001           4.32318e+000           3.23185e-001           2.31849e-002           3.18489e-003           1.84888e-004
                  159.80    424.32115                                0.00000             82.617                                        4.24321e+002           2.43212e+001           4.32115e+000           3.21155e-001           2.11548e-002           1.15476e-003           1.54759e-004
                  159.90    424.32976                                0.00000             82.617                                        4.24330e+002           2.43298e+001           4.32976e+000           3.29756e-001           2.97559e-002           9.75593e-003           7.55932e-004
                  160.00    424.34804                                0.00000             82.617                                        4.24348e+002           2.43480e+001           4.34804e+000           3.48036e-001           4.80362e-002           8.03619e-003           3.61881e-005
                  160.10    424.34985                                0.00000             82.617                                        4.24350e+002           2.43499e+001           4.34985e+000           3.49853e-001           4.98531e-002           9.85311e-003           8.53111e-004
                  160.20    424.33332                                0.00000             82.617                                        4.24333e+002           2.43333e+001           4.33332e+000           3.33319e-001           3.33191e-002           3.31908e-003           3.19078e-004
                  160.30    424.34458                                0.00000             82.617                                        4.24345e+002           2.43446e+001           4.34458e+000           3.44582e-001           4.45823e-002           4.58232e-003           5.82319e-004
                  160.40    424.35404                                0.00000             82.617                                        4.24354e+002           2.43540e+001           4.35404e+000           3.54040e-001           5.40405e-002           4.04045e-003           4.04524e-005
                  160.50    424.34424                                0.00000             82.617                                        4.24344e+002           2.43442e+001           4.34424e+000           3.44237e-001           4.42372e-002           4.23718e-003           2.37175e-004
                  160.60    424.32623                                0.00000             82.617                                        4.24326e+002           2.43262e+001           4.32623e+000           3.26227e-001           2.62270e-002           6.22703e-003           2.27033e-004
                  160.70    424.33206                                0.00000             82.617                                        4.24332e+002           2.43321e+001           4.33206e+000           3.32055e-001           3.20552e-002           2.05524e-003           5.52439e-005
                  160.80    424.33850                                0.00000             82.617                                        4.24338e+002           2.43385e+001           4.33850e+000           3.38497e-001           3.84966e-002           8.49662e-003           4.96616e-004
                  160.90    424.34212                                0.00000             82.617                                        4.24342e+002           2.43421e+001           4.34212e+000           3.42116e-001           4.21158e-002           2.11584e-003           1.15839e-004
                  161.00    424.34432                                0.00000             82.617                                        4.24344e+002           2.43443e+001           4.34432e+000           3.44315e-001           4.43152e-002           4.31523e-003           3.15230e-004
                  161.10    424.35178                                0.00000             82.617                                        4.24352e+002           2.43518e+001           4.35178e+000           3.51777e-001           5.17769e-002           1.77689e-003           7.76894e-004
                  161.20    424.34782                                0.00000             82.617                                        4.24348e+002           2.43478e+001           4.34782e+000           3.47820e-001           4.78203e-002           7.82033e-003           8.20328e-004
                  161.30    424.34660                                0.00000             82.617                                        4.24347e+002           2.43466e+001           4.34660e+000           3.46598e-001           4.65984e-002           6.59835e-003           5.98354e-004
                  161.40    424.35286                                0.00000             82.617                                        4.24353e+002           2.43529e+001           4.35286e+000           3.52856e-001           5.28558e-002           2.85576e-003           8.55764e-004
                  161.50    424.35515                                0.00000             82.617                                        4.24355e+002           2.43552e+001           4.35515e+000           3.55153e-001           5.51532e-002           5.15323e-003           1.53229e-004
                  161.60    424.33519                                0.00000             82.617                                        4.24335e+002           2.43352e+001           4.33519e+000           3.35186e-001           3.51857e-002           5.18570e-003           1.85698e-004
