~VERSION INFORMATION
VERS                    .            2.0                                    :CWLS LOG ASCII STANDARD
WRAP                    .            NO                                     :ONE LINE PER TIME STEP


~WELL INFORMATION
#MNEM                   .UNIT        DATA                                    DESCRIPTION
#________________________________________________________________________________________
STRTTIME                .HH/MM/SS    16:20:20                               :START TIME
STOPTIME                .HH/MM/SS    16:23:23                               :STOP TIME
STRT                    .s           2.10                                   :START DATA
STOP                    .s           182.00                                 :STOP DATA
STEP                    .s           0.10                                   :MEASUREMENT TIME INTERVAL
NULL                    .            -999.25                                :NULL VALUE
COMP                    .            Statoil ASA                            :COMPANY
FLD                     .            Volve                                  :FIELD
WELL                    .            15/9-F-1 B                             :WELL
RUN                     .            7                                      :RUN
LOC                     .            Maersk Inspirer                        :LOCATION
PROV                    .            na                                     :PROVINCE
SRVC                    .            Baker Hughes INTEQ                     :SERVICE COMPANY
DATE                    .YY/MM/DD    13/09/06                               :LOG DATE
UWI                     .                                                   :UNIQUE WELL ID
DEPTHMD                 .m           3255.0                                 :MEASURED DEPTH
DEPTHTVD                .m           3051.1                                 :TRUE VERTICAL DEPTH


~CURVE INFORMATION
#MNEM                   .UNIT        API CODES                               DESCRIPTION
#________________________________________________________________________________________
TIME                    .s                                                  :01 TIME
DD_PRESS                .bar                                                :02 DRAW DOWN PRESSURE
DD_VOLUME               .cm3                                                :03 INCREMENTAL DRAW DOWN VOLUME
TEMP                    .degC                                               :04 TRANSDUCER TEMPERATURE
DD_PRESS_MOD_1000       .bar                                                :05 DRAW DOWN PRESSURE MOD 1000
DD_PRESS_MOD_100        .bar                                                :06 DRAW DOWN PRESSURE MOD 100
DD_PRESS_MOD_10         .bar                                                :07 DRAW DOWN PRESSURE MOD 10
DD_PRESS_MOD_1          .bar                                                :08 DRAW DOWN PRESSURE MOD 1
DD_PRESS_MOD_01         .bar                                                :09 DRAW DOWN PRESSURE MOD 01
DD_PRESS_MOD_001        .bar                                                :10 DRAW DOWN PRESSURE MOD 001
DD_PRESS_MOD_0001       .bar                                                :11 DRAW DOWN PRESSURE MOD 0001


~PARAMETER INFORMATION
#MNEM                   .UNIT        VALUE                                   DESCRIPTION
#________________________________________________________________________________________
TOOLFACE                .deg         na                                     :01 TOOLFACE
PUMP_CAPACITY           .bar         400                                    :02 NOMINAL DRAW DOWN PUMP CAPACITY
PUMP_LIMIT              .bar         400                                    :03 DOWNLINK PUMP LIMIT
TIME_LIMIT              .min         10                                     :04 DOWNLINK MAX TIME
TEST_TYPE               .            LOW MOBILITY                           :05 DOWNLINK
DD_PIST_A               .cm2         3.1416                                 :06 DRAW DOWN PISTON AREA
V_SYS                   .cm3         131.0000                               :07 SYSTEM VOLUME
PROBE_ID                .cm          1.2700                                 :08 TTK PROBE ID
G0                      .            4.6700                                 :09 GEOMETRY FACTOR


~A                  TIME     DD_PRESS                              DD_VOLUME               TEMP                                   DD_PRESS_MOD_1000       DD_PRESS_MOD_100        DD_PRESS_MOD_10         DD_PRESS_MOD_1        DD_PRESS_MOD_01       DD_PRESS_MOD_001      DD_PRESS_MOD_0001
# ...
                   97.30    345.12704                               19.96054             81.766                                        3.45127e+002           4.51270e+001           5.12704e+000           1.27042e-001           2.70416e-002           7.04163e-003           4.16304e-005
                   97.40    345.11819                               19.96054             81.766                                        3.45118e+002           4.51182e+001           5.11819e+000           1.18190e-001           1.81902e-002           8.19017e-003           1.90173e-004
                   97.50    345.11428                               19.96054             81.766                                        3.45114e+002           4.51143e+001           5.11428e+000           1.14280e-001           1.42797e-002           4.27972e-003           2.79718e-004
                   97.60    345.12155                               19.96054             81.766                                        3.45122e+002           4.51215e+001           5.12155e+000           1.21549e-001           2.15487e-002           1.54873e-003           5.48730e-004
                   97.70    345.12457                               19.96054             81.766                                        3.45125e+002           4.51246e+001           5.12457e+000           1.24572e-001           2.45723e-002           4.57232e-003           5.72318e-004
                   97.80    345.11724                               19.96054             81.766                                        3.45117e+002           4.51172e+001           5.11724e+000           1.17243e-001           1.72434e-002           7.24341e-003           2.43412e-004
                   97.90    345.11142                               19.96054             81.766                                        3.45111e+002           4.51114e+001           5.11142e+000           1.11420e-001           1.14200e-002           1.42002e-003           4.20016e-004
                   98.00    345.11782                               19.96054             81.766                                        3.45118e+002           4.51178e+001           5.11782e+000           1.17821e-001           1.78207e-002           7.82065e-003           8.20652e-004
                   98.10    345.12259                               19.96054             81.766                                        3.45123e+002           4.51226e+001           5.12259e+000           1.22588e-001           2.25883e-002           2.58832e-003           5.88318e-004
                   98.20    345.11745                               19.96054             81.766                                        3.45117e+002           4.51175e+001           5.11745e+000           1.17455e-001           1.74550e-002           7.45496e-003           4.54965e-004
                   98.30    345.11749                               19.96054             81.766                                        3.45117e+002           4.51175e+001           5.11749e+000           1.17493e-001           1.74933e-002           7.49325e-003           4.93251e-004
                   98.40    345.12691                               19.96054             81.766                                        3.45127e+002           4.51269e+001           5.12691e+000           1.26907e-001           2.69066e-002           6.90664e-003           9.06637e-004
                   98.50    345.12907                               19.96054             81.766                                        3.45129e+002           4.51291e+001           5.12907e+000           1.29066e-001           2.90664e-002           9.06637e-003           6.63655e-005
                   98.60    345.11700                               19.96054             81.766                                        3.45117e+002           4.51170e+001           5.11700e+000           1.17004e-001           1.70042e-002           7.00419e-003           4.18594e-006
                   98.70    345.11302                               19.96054             81.766                                        3.45113e+002           4.51130e+001           5.11302e+000           1.13020e-001           1.30198e-002           3.01975e-003           1.97540e-005
                   98.80    345.12420                               19.96054             81.766                                        3.45124e+002           4.51242e+001           5.12420e+000           1.24197e-001           2.41974e-002           4.19744e-003           1.97445e-004
                   98.90    345.12161                               19.96054             81.766                                        3.45122e+002           4.51216e+001           5.12161e+000           1.21611e-001           2.16105e-002           1.61054e-003           6.10540e-004
                   99.00    345.10943                               19.96054             81.766                                        3.45109e+002           4.51094e+001           5.10943e+000           1.09431e-001           9.43130e-003           9.43130e-003           4.31299e-004
                   99.10    345.11226                               19.96054             81.766                                        3.45112e+002           4.51123e+001           5.11226e+000           1.12258e-001           1.22580e-002           2.25804e-003           2.58039e-004
                   99.20    345.12859                               19.96054             81.766                                        3.45129e+002           4.51286e+001           5.12859e+000           1.28586e-001           2.85864e-002           8.58639e-003           5.86390e-004
                   99.30    345.12636                               19.96054             81.766                                        3.45126e+002           4.51264e+001           5.12636e+000           1.26364e-001           2.63637e-002           6.36366e-003           3.63663e-004
                   99.40    345.10880                               19.96054             81.766                                        3.45109e+002           4.51088e+001           5.10880e+000           1.08801e-001           8.80111e-003           8.80111e-003           8.01106e-004
                   99.50    345.10951                               19.96054             81.766                                        3.45110e+002           4.51095e+001           5.10951e+000           1.09512e-001           9.51236e-003           9.51236e-003           5.12357e-004
                   99.60    345.12589                               19.96054             81.766                                        3.45126e+002           4.51259e+001           5.12589e+000           1.25893e-001           2.58929e-002           5.89286e-003           8.92857e-004
                   99.70    345.13057                               19.96054             81.766                                        3.45131e+002           4.51306e+001           5.13057e+000           1.30570e-001           3.05697e-002           5.69730e-004           5.69730e-004
                   99.80    345.11771                               19.96054             81.766                                        3.45118e+002           4.51177e+001           5.11771e+000           1.17711e-001           1.77112e-002           7.71116e-003           7.11163e-004
                   99.90    345.11191                               19.96054             81.766                                        3.45112e+002           4.51119e+001           5.11191e+000           1.11911e-001           1.19115e-002           1.91147e-003           9.11467e-004
                  100.00    345.12294                               19.96054             81.766                                        3.45123e+002           4.51229e+001           5.12294e+000           1.22942e-001           2.29418e-002           2.94181e-003           9.41810e-004
