~VERSION INFORMATION
VERS                    .            2.0                                    :CWLS LOG ASCII STANDARD
WRAP                    .            NO                                     :ONE LINE PER TIME STEP


~WELL INFORMATION
#MNEM                   .UNIT        DATA                                    DESCRIPTION
#________________________________________________________________________________________
STRTTIME                .HH/MM/SS    23:13:04                               :START TIME
STOPTIME                .HH/MM/SS    23:16:31                               :STOP TIME
STRT                    .s           2.10                                   :START DATA
STOP                    .s           205.60                                 :STOP DATA
STEP                    .s           0.10                                   :MEASUREMENT TIME INTERVAL
NULL                    .            -999.25                                :NULL VALUE
COMP                    .            Statoil ASA                            :COMPANY
FLD                     .            Volve                                  :FIELD
WELL                    .            15/9-F-1 C                             :WELL
RUN                     .            4                                      :RUN
LOC                     .                                                   :LOCATION
PROV                    .            na                                     :PROVINCE
SRVC                    .            Baker Hughes INTEQ                     :SERVICE COMPANY
DATE                    .YY/MM/DD    14/03/14                               :LOG DATE
UWI                     .                                                   :UNIQUE WELL ID
DEPTHMD                 .m           3858.0                                 :MEASURED DEPTH
DEPTHTVD                .m           3096.5                                 :TRUE VERTICAL DEPTH


~CURVE INFORMATION
#MNEM                   .UNIT        API CODES                               DESCRIPTION
#________________________________________________________________________________________
TIME                    .s                                                  :01 TIME
DD_PRESS                .bar                                                :02 DRAW DOWN PRESSURE
DD_VOLUME               .cm3                                                :03 INCREMENTAL DRAW DOWN VOLUME
TEMP                    .degC                                               :04 TRANSDUCER TEMPERATURE
DD_PRESS_MOD_1000       .bar                                                :05 DRAW DOWN PRESSURE MOD 1000
DD_PRESS_MOD_100        .bar                                                :06 DRAW DOWN PRESSURE MOD 100
DD_PRESS_MOD_10         .bar                                                :07 DRAW DOWN PRESSURE MOD 10
DD_PRESS_MOD_1          .bar                                                :08 DRAW DOWN PRESSURE MOD 1
DD_PRESS_MOD_01         .bar                                                :09 DRAW DOWN PRESSURE MOD 01
DD_PRESS_MOD_001        .bar                                                :10 DRAW DOWN PRESSURE MOD 001
DD_PRESS_MOD_0001       .bar                                                :11 DRAW DOWN PRESSURE MOD 0001


~PARAMETER INFORMATION
#MNEM                   .UNIT        VALUE                                   DESCRIPTION
#________________________________________________________________________________________
TOOLFACE                .deg         88.6                                   :01 TOOLFACE
PUMP_CAPACITY           .bar         400                                    :02 NOMINAL DRAW DOWN PUMP CAPACITY
PUMP_LIMIT              .bar         240                                    :03 DOWNLINK PUMP LIMIT
TIME_LIMIT              .min         10                                     :04 DOWNLINK MAX TIME
TEST_TYPE               .            HIGH MOBILITY                          :05 DOWNLINK
DD_PIST_A               .cm2         3.1416                                 :06 DRAW DOWN PISTON AREA
V_SYS                   .cm3         131.0000                               :07 SYSTEM VOLUME
PROBE_ID                .cm          1.2700                                 :08 TTK PROBE ID
G0                      .            4.6700                                 :09 GEOMETRY FACTOR


~A                  TIME     DD_PRESS                              DD_VOLUME               TEMP                                   DD_PRESS_MOD_1000       DD_PRESS_MOD_100        DD_PRESS_MOD_10         DD_PRESS_MOD_1        DD_PRESS_MOD_01       DD_PRESS_MOD_001      DD_PRESS_MOD_0001
# ...
                  189.70    441.18092                                0.00000             89.992                                        4.41181e+002           4.11809e+001           1.18092e+000           1.80923e-001           8.09230e-002           9.23012e-004           9.23012e-004
                  189.80    441.18347                                0.00000             89.992                                        4.41183e+002           4.11835e+001           1.18347e+000           1.83472e-001           8.34721e-002           3.47214e-003           4.72142e-004
                  189.90    441.18145                                0.00000             89.992                                        4.41181e+002           4.11815e+001           1.18145e+000           1.81453e-001           8.14531e-002           1.45309e-003           4.53093e-004
                  190.00    441.17430                                0.00000             89.992                                        4.41174e+002           4.11743e+001           1.17430e+000           1.74300e-001           7.42998e-002           4.29977e-003           2.99773e-004
                  190.10    441.17738                                0.00000             89.992                                        4.41177e+002           4.11774e+001           1.17738e+000           1.77385e-001           7.73848e-002           7.38484e-003           3.84836e-004
                  190.20    441.19202                                0.00000             89.992                                        4.41192e+002           4.11920e+001           1.19202e+000           1.92025e-001           9.20250e-002           2.02498e-003           2.49842e-005
                  190.30    441.20944                                0.00000             89.992                                        4.41209e+002           4.12094e+001           1.20944e+000           2.09436e-001           9.43622e-003           9.43622e-003           4.36221e-004
                  190.40    441.22250                                0.00000             89.992                                        4.41223e+002           4.12225e+001           1.22250e+000           2.22505e-001           2.25049e-002           2.50495e-003           5.04950e-004
                  190.50    441.20579                                0.00000             89.992                                        4.41206e+002           4.12058e+001           1.20579e+000           2.05792e-001           5.79191e-003           5.79191e-003           7.91905e-004
                  190.60    441.18032                                0.00000             89.992                                        4.41180e+002           4.11803e+001           1.18032e+000           1.80320e-001           8.03201e-002           3.20074e-004           3.20074e-004
                  190.70    441.18666                                0.00000             89.992                                        4.41187e+002           4.11867e+001           1.18666e+000           1.86658e-001           8.66579e-002           6.65793e-003           6.57925e-004
                  190.80    441.19990                                0.00000             89.992                                        4.41200e+002           4.11999e+001           1.19990e+000           1.99896e-001           9.98961e-002           9.89613e-003           8.96132e-004
                  190.90    441.19411                                0.00000             89.992                                        4.41194e+002           4.11941e+001           1.19411e+000           1.94109e-001           9.41086e-002           4.10859e-003           1.08588e-004
                  191.00    441.18038                                0.00000             89.992                                        4.41180e+002           4.11804e+001           1.18038e+000           1.80376e-001           8.03757e-002           3.75744e-004           3.75744e-004
                  191.10    441.17953                                0.00000             89.992                                        4.41180e+002           4.11795e+001           1.17953e+000           1.79528e-001           7.95284e-002           9.52836e-003           5.28362e-004
                  191.20    441.18886                                0.00000             89.992                                        4.41189e+002           4.11889e+001           1.18886e+000           1.88863e-001           8.88627e-002           8.86272e-003           8.62717e-004
                  191.30    441.19437                                0.00000             89.992                                        4.41194e+002           4.11944e+001           1.19437e+000           1.94370e-001           9.43699e-002           4.36986e-003           3.69859e-004
                  191.40    441.18339                                0.00000             89.992                                        4.41183e+002           4.11834e+001           1.18339e+000           1.83393e-001           8.33928e-002           3.39279e-003           3.92786e-004
                  191.50    441.17585                                0.00000             89.992                                        4.41176e+002           4.11758e+001           1.17585e+000           1.75848e-001           7.58482e-002           5.84817e-003           8.48174e-004
                  191.60    441.17844                                0.00000             89.992                                        4.41178e+002           4.11784e+001           1.17844e+000           1.78439e-001           7.84386e-002           8.43857e-003           4.38566e-004
                  191.70    441.18371                                0.00000             89.992                                        4.41184e+002           4.11837e+001           1.18371e+000           1.83708e-001           8.37084e-002           3.70839e-003           7.08394e-004
                  191.80    441.18337                                0.00000             89.992                                        4.41183e+002           4.11834e+001           1.18337e+000           1.83373e-001           8.33733e-002           3.37329e-003           3.73288e-004
                  191.90    441.18739                                0.00000             89.992                                        4.41187e+002           4.11874e+001           1.18739e+000           1.87390e-001           8.73901e-002           7.39012e-003           3.90122e-004
                  192.00    441.17465                                0.00000             89.992                                        4.41175e+002           4.11747e+001           1.17465e+000           1.74654e-001           7.46544e-002           4.65436e-003           6.54363e-004
                  192.10    441.16196                                0.00000             89.992                                        4.41162e+002           4.11620e+001           1.16196e+000           1.61957e-001           6.19573e-002           1.95732e-003           9.57320e-004
                  192.20    441.16907                                0.00000             89.992                                        4.41169e+002           4.11691e+001           1.16907e+000           1.69075e-001           6.90745e-002           9.07453e-003           7.45277e-005
                  192.30    441.17626                                0.00000             89.992                                        4.41176e+002           4.11763e+001           1.17626e+000           1.76261e-001           7.62613e-002           6.26133e-003           2.61327e-004
                  192.40    441.17131                                0.00000             89.992                                        4.41171e+002           4.11713e+001           1.17131e+000           1.71308e-001           7.13075e-002           1.30750e-003           3.07500e-004
