~VERSION INFORMATION
VERS                    .            2.0                                    :CWLS LOG ASCII STANDARD
WRAP                    .            NO                                     :ONE LINE PER TIME STEP


~WELL INFORMATION
#MNEM                   .UNIT        DATA                                    DESCRIPTION
#________________________________________________________________________________________
STRTTIME                .HH/MM/SS    19:20:48                               :START TIME
STOPTIME                .HH/MM/SS    19:23:33                               :STOP TIME
STRT                    .s           2.10                                   :START DATA
STOP                    .s           164.00                                 :STOP DATA
STEP                    .s           0.10                                   :MEASUREMENT TIME INTERVAL
NULL                    .            -999.25                                :NULL VALUE
COMP                    .            Statoil ASA                            :COMPANY
FLD                     .            Volve                                  :FIELD
WELL                    .            15/9-F-11 A                            :WELL
RUN                     .            8                                      :RUN
LOC                     .            Maersk Inspirer                        :LOCATION
PROV                    .            na                                     :PROVINCE
SRVC                    .            Baker Hughes INTEQ                     :SERVICE COMPANY
DATE                    .YY/MM/DD    13/05/23                               :LOG DATE
UWI                     .                                                   :UNIQUE WELL ID
DEPTHMD                 .m           3617.0                                 :MEASURED DEPTH
DEPTHTVD                .m           3015.4                                 :TRUE VERTICAL DEPTH


~CURVE INFORMATION
#MNEM                   .UNIT        API CODES                               DESCRIPTION
#________________________________________________________________________________________
TIME                    .s                                                  :01 TIME
DD_PRESS                .bar                                                :02 DRAW DOWN PRESSURE
DD_VOLUME               .cm3                                                :03 INCREMENTAL DRAW DOWN VOLUME
TEMP                    .degC                                               :04 TRANSDUCER TEMPERATURE
DD_PRESS_MOD_1000       .bar                                                :05 DRAW DOWN PRESSURE MOD 1000
DD_PRESS_MOD_100        .bar                                                :06 DRAW DOWN PRESSURE MOD 100
DD_PRESS_MOD_10         .bar                                                :07 DRAW DOWN PRESSURE MOD 10
DD_PRESS_MOD_1          .bar                                                :08 DRAW DOWN PRESSURE MOD 1
DD_PRESS_MOD_01         .bar                                                :09 DRAW DOWN PRESSURE MOD 01
DD_PRESS_MOD_001        .bar                                                :10 DRAW DOWN PRESSURE MOD 001
DD_PRESS_MOD_0001       .bar                                                :11 DRAW DOWN PRESSURE MOD 0001


~PARAMETER INFORMATION
#MNEM                   .UNIT        VALUE                                   DESCRIPTION
#________________________________________________________________________________________
TOOLFACE                .deg         -39.9                                  :01 TOOLFACE
PUMP_CAPACITY           .bar         400                                    :02 NOMINAL DRAW DOWN PUMP CAPACITY
PUMP_LIMIT              .bar         240                                    :03 DOWNLINK PUMP LIMIT
TIME_LIMIT              .min         10                                     :04 DOWNLINK MAX TIME
TEST_TYPE               .            REPEAT                                 :05 DOWNLINK
TEST_TYPE               .            HIGH MOBILITY                          :06 DOWNLINK
DD_PIST_A               .cm2         3.1416                                 :07 DRAW DOWN PISTON AREA
V_SYS                   .cm3         131.0000                               :08 SYSTEM VOLUME
PROBE_ID                .cm          1.2700                                 :09 TTK PROBE ID
G0                      .            4.6700                                 :10 GEOMETRY FACTOR


~A                  TIME     DD_PRESS                              DD_VOLUME               TEMP                                   DD_PRESS_MOD_1000       DD_PRESS_MOD_100        DD_PRESS_MOD_10         DD_PRESS_MOD_1        DD_PRESS_MOD_01       DD_PRESS_MOD_001      DD_PRESS_MOD_0001
# ...
                   97.30    340.84510                               19.82577             72.086                                        3.40845e+002           4.08451e+001           8.45101e-001           8.45101e-001           4.51011e-002           5.10115e-003           1.01147e-004
                   97.40    340.84736                               19.82577             72.086                                        3.40847e+002           4.08474e+001           8.47360e-001           8.47360e-001           4.73597e-002           7.35966e-003           3.59661e-004
                   97.50    340.84566                               19.82577             72.086                                        3.40846e+002           4.08457e+001           8.45661e-001           8.45661e-001           4.56613e-002           5.66129e-003           6.61294e-004
                   97.60    340.84342                               19.82577             72.086                                        3.40843e+002           4.08434e+001           8.43424e-001           8.43424e-001           4.34239e-002           3.42391e-003           4.23909e-004
                   97.70    340.84482                               19.82577             72.086                                        3.40845e+002           4.08448e+001           8.44816e-001           8.44816e-001           4.48162e-002           4.81617e-003           8.16172e-004
                   97.80    340.84427                               19.82577             72.086                                        3.40844e+002           4.08443e+001           8.44272e-001           8.44272e-001           4.42722e-002           4.27220e-003           2.72201e-004
                   97.90    340.84290                               19.82577             72.086                                        3.40843e+002           4.08429e+001           8.42901e-001           8.42901e-001           4.29005e-002           2.90055e-003           9.00550e-004
                   98.00    340.84238                               19.82577             72.086                                        3.40842e+002           4.08424e+001           8.42383e-001           8.42383e-001           4.23832e-002           2.38318e-003           3.83184e-004
                   98.10    340.84197                               19.82577             72.086                                        3.40842e+002           4.08420e+001           8.41974e-001           8.41974e-001           4.19738e-002           1.97376e-003           9.73760e-004
                   98.20    340.84272                               19.82577             72.086                                        3.40843e+002           4.08427e+001           8.42720e-001           8.42720e-001           4.27201e-002           2.72013e-003           7.20133e-004
                   98.30    340.84362                               19.82577             72.086                                        3.40844e+002           4.08436e+001           8.43623e-001           8.43623e-001           4.36233e-002           3.62326e-003           6.23260e-004
                   98.40    340.84370                               19.82577             72.086                                        3.40844e+002           4.08437e+001           8.43699e-001           8.43699e-001           4.36993e-002           3.69934e-003           6.99341e-004
                   98.50    340.84211                               19.82577             72.086                                        3.40842e+002           4.08421e+001           8.42110e-001           8.42110e-001           4.21103e-002           2.11033e-003           1.10325e-004
                   98.60    340.84102                               19.82577             72.086                                        3.40841e+002           4.08410e+001           8.41017e-001           8.41017e-001           4.10173e-002           1.01728e-003           1.72779e-005
                   98.70    340.84263                               19.82577             72.086                                        3.40843e+002           4.08426e+001           8.42631e-001           8.42631e-001           4.26313e-002           2.63126e-003           6.31259e-004
                   98.80    340.84309                               19.82577             72.086                                        3.40843e+002           4.08431e+001           8.43095e-001           8.43095e-001           4.30946e-002           3.09464e-003           9.46421e-005
                   98.90    340.83961                               19.82577             72.086                                        3.40840e+002           4.08396e+001           8.39612e-001           8.39612e-001           3.96125e-002           9.61246e-003           6.12460e-004
                   99.00    340.84044                               19.82577             72.086                                        3.40840e+002           4.08404e+001           8.40437e-001           8.40437e-001           4.04367e-002           4.36711e-004           4.36711e-004
                   99.10    340.84371                               19.82577             72.086                                        3.40844e+002           4.08437e+001           8.43715e-001           8.43715e-001           4.37149e-002           3.71489e-003           7.14894e-004
                   99.20    340.84593                               19.82577             72.086                                        3.40846e+002           4.08459e+001           8.45929e-001           8.45929e-001           4.59294e-002           5.92940e-003           9.29402e-004
                   99.30    340.84310                               19.82577             72.086                                        3.40843e+002           4.08431e+001           8.43102e-001           8.43102e-001           4.31021e-002           3.10214e-003           1.02137e-004
                   99.40    340.84068                               19.82577             72.086                                        3.40841e+002           4.08407e+001           8.40676e-001           8.40676e-001           4.06755e-002           6.75537e-004           6.75537e-004
                   99.50    340.84269                               19.82577             72.086                                        3.40843e+002           4.08427e+001           8.42694e-001           8.42694e-001           4.26944e-002           2.69439e-003           6.94388e-004
                   99.60    340.84521                               19.82577             72.086                                        3.40845e+002           4.08452e+001           8.45208e-001           8.45208e-001           4.52080e-002           5.20798e-003           2.07978e-004
                   99.70    340.84309                               19.82577             72.086                                        3.40843e+002           4.08431e+001           8.43085e-001           8.43085e-001           4.30851e-002           3.08510e-003           8.51042e-005
                   99.80    340.84220                               19.82577             72.086                                        3.40842e+002           4.08422e+001           8.42199e-001           8.42199e-001           4.21994e-002           2.19943e-003           1.99431e-004
                   99.90    340.84123                               19.82577             72.086                                        3.40841e+002           4.08412e+001           8.41227e-001           8.41227e-001           4.12274e-002           1.22735e-003           2.27352e-004
                  100.00    340.84164                               19.82577             72.086                                        3.40842e+002           4.08416e+001           8.41638e-001           8.41638e-001           4.16375e-002           1.63754e-003           6.37539e-004
