~VERSION INFORMATION
VERS                    .            2.0                                    :CWLS LOG ASCII STANDARD
WRAP                    .            NO                                     :ONE LINE PER TIME STEP


~WELL INFORMATION
#MNEM                   .UNIT        DATA                                    DESCRIPTION
#________________________________________________________________________________________
STRTTIME                .HH/MM/SS    08:31:17                               :START TIME
STOPTIME                .HH/MM/SS    08:34:03                               :STOP TIME
STRT                    .s           2.10                                   :START DATA
STOP                    .s           164.70                                 :STOP DATA
STEP                    .s           0.10                                   :MEASUREMENT TIME INTERVAL
NULL                    .            -999.25                                :NULL VALUE
COMP                    .            Statoil ASA                            :COMPANY
FLD                     .            Volve                                  :FIELD
WELL                    .            15/9-F-11 A                            :WELL
RUN                     .            8                                      :RUN
LOC                     .            Maersk Inspirer                        :LOCATION
PROV                    .            na                                     :PROVINCE
SRVC                    .            Baker Hughes INTEQ                     :SERVICE COMPANY
DATE                    .YY/MM/DD    13/05/21                               :LOG DATE
UWI                     .                                                   :UNIQUE WELL ID
DEPTHMD                 .m           3688.1                                 :MEASURED DEPTH
DEPTHTVD                .m           3069.8                                 :TRUE VERTICAL DEPTH


~CURVE INFORMATION
#MNEM                   .UNIT        API CODES                               DESCRIPTION
#________________________________________________________________________________________
TIME                    .s                                                  :01 TIME
DD_PRESS                .bar                                                :02 DRAW DOWN PRESSURE
DD_VOLUME               .cm3                                                :03 INCREMENTAL DRAW DOWN VOLUME
TEMP                    .degC                                               :04 TRANSDUCER TEMPERATURE
DD_PRESS_MOD_1000       .bar                                                :05 DRAW DOWN PRESSURE MOD 1000
DD_PRESS_MOD_100        .bar                                                :06 DRAW DOWN PRESSURE MOD 100
DD_PRESS_MOD_10         .bar                                                :07 DRAW DOWN PRESSURE MOD 10
DD_PRESS_MOD_1          .bar                                                :08 DRAW DOWN PRESSURE MOD 1
DD_PRESS_MOD_01         .bar                                                :09 DRAW DOWN PRESSURE MOD 01
DD_PRESS_MOD_001        .bar                                                :10 DRAW DOWN PRESSURE MOD 001
DD_PRESS_MOD_0001       .bar                                                :11 DRAW DOWN PRESSURE MOD 0001


~PARAMETER INFORMATION
#MNEM                   .UNIT        VALUE                                   DESCRIPTION
#________________________________________________________________________________________
TOOLFACE                .deg         -78.9                                  :01 TOOLFACE
PUMP_CAPACITY           .bar         400                                    :02 NOMINAL DRAW DOWN PUMP CAPACITY
PUMP_LIMIT              .bar         240                                    :03 DOWNLINK PUMP LIMIT
TIME_LIMIT              .min         10                                     :04 DOWNLINK MAX TIME
TEST_TYPE               .            REPEAT                                 :05 DOWNLINK
TEST_TYPE               .            HIGH MOBILITY                          :06 DOWNLINK
DD_PIST_A               .cm2         3.1416                                 :07 DRAW DOWN PISTON AREA
V_SYS                   .cm3         131.0000                               :08 SYSTEM VOLUME
PROBE_ID                .cm          1.2700                                 :09 TTK PROBE ID
G0                      .            4.6700                                 :10 GEOMETRY FACTOR


~A                  TIME     DD_PRESS                              DD_VOLUME               TEMP                                   DD_PRESS_MOD_1000       DD_PRESS_MOD_100        DD_PRESS_MOD_10         DD_PRESS_MOD_1        DD_PRESS_MOD_01       DD_PRESS_MOD_001      DD_PRESS_MOD_0001
# ...
                   55.30    346.06449                               10.53756             83.297                                        3.46064e+002           4.60645e+001           6.06449e+000           6.44906e-002           6.44906e-002           4.49058e-003           4.90584e-004
                   55.40    346.06616                               10.53756             83.297                                        3.46066e+002           4.60662e+001           6.06616e+000           6.61627e-002           6.61627e-002           6.16269e-003           1.62694e-004
                   55.50    346.07527                               10.53756             83.297                                        3.46075e+002           4.60753e+001           6.07527e+000           7.52742e-002           7.52742e-002           5.27422e-003           2.74225e-004
                   55.60    346.07549                               10.53756             83.297                                        3.46075e+002           4.60755e+001           6.07549e+000           7.54948e-002           7.54948e-002           5.49484e-003           4.94839e-004
                   55.70    346.06559                               10.53756             83.297                                        3.46066e+002           4.60656e+001           6.06559e+000           6.55876e-002           6.55876e-002           5.58759e-003           5.87593e-004
                   55.80    346.06359                               10.53756             83.297                                        3.46064e+002           4.60636e+001           6.06359e+000           6.35897e-002           6.35897e-002           3.58966e-003           5.89658e-004
                   55.90    346.06582                               10.53756             83.297                                        3.46066e+002           4.60658e+001           6.06582e+000           6.58156e-002           6.58156e-002           5.81558e-003           8.15584e-004
                   56.00    346.07388                               10.53756             83.297                                        3.46074e+002           4.60739e+001           6.07388e+000           7.38811e-002           7.38811e-002           3.88108e-003           8.81078e-004
                   56.10    346.08389                               10.53756             83.297                                        3.46084e+002           4.60839e+001           6.08389e+000           8.38872e-002           8.38872e-002           3.88716e-003           8.87163e-004
                   56.20    346.07704                               10.53756             83.297                                        3.46077e+002           4.60770e+001           6.07704e+000           7.70386e-002           7.70386e-002           7.03860e-003           3.85967e-005
                   56.30    346.05538                               10.53756             83.297                                        3.46055e+002           4.60554e+001           6.05538e+000           5.53763e-002           5.53763e-002           5.37633e-003           3.76333e-004
                   56.40    346.05622                               10.53756             83.297                                        3.46056e+002           4.60562e+001           6.05622e+000           5.62228e-002           5.62228e-002           6.22285e-003           2.22849e-004
                   56.50    346.07795                               10.53756             83.297                                        3.46078e+002           4.60779e+001           6.07795e+000           7.79482e-002           7.79482e-002           7.94825e-003           9.48248e-004
                   56.60    346.08040                               10.53756             83.295                                        3.46080e+002           4.60804e+001           6.08040e+000           8.03964e-002           8.03964e-002           3.96423e-004           3.96423e-004
                   56.70    346.07001                               10.53756             83.291                                        3.46070e+002           4.60700e+001           6.07001e+000           7.00139e-002           7.00139e-002           1.39394e-005           1.39394e-005
                   56.80    346.07113                               10.53756             83.289                                        3.46071e+002           4.60711e+001           6.07113e+000           7.11306e-002           7.11306e-002           1.13057e-003           1.30567e-004
                   56.90    346.08040                               10.53756             83.291                                        3.46080e+002           4.60804e+001           6.08040e+000           8.04018e-002           8.04018e-002           4.01797e-004           4.01797e-004
                   57.00    346.07685                               10.53756             83.295                                        3.46077e+002           4.60768e+001           6.07685e+000           7.68498e-002           7.68498e-002           6.84982e-003           8.49823e-004
                   57.10    346.06288                               10.53756             83.295                                        3.46063e+002           4.60629e+001           6.06288e+000           6.28827e-002           6.28827e-002           2.88266e-003           8.82660e-004
                   57.20    346.06283                               10.53756             83.291                                        3.46063e+002           4.60628e+001           6.06283e+000           6.28322e-002           6.28322e-002           2.83223e-003           8.32232e-004
                   57.30    346.07246                               10.53756             83.289                                        3.46072e+002           4.60725e+001           6.07246e+000           7.24612e-002           7.24612e-002           2.46115e-003           4.61152e-004
                   57.40    346.07470                               10.53756             83.289                                        3.46075e+002           4.60747e+001           6.07470e+000           7.47026e-002           7.47026e-002           4.70259e-003           7.02590e-004
                   57.50    346.07471                               10.53756             83.289                                        3.46075e+002           4.60747e+001           6.07471e+000           7.47085e-002           7.47085e-002           4.70851e-003           7.08508e-004
                   57.60    346.06881                               10.53756             83.289                                        3.46069e+002           4.60688e+001           6.06881e+000           6.88077e-002           6.88077e-002           8.80769e-003           8.07690e-004
                   57.70    346.05867                               10.53756             83.289                                        3.46059e+002           4.60587e+001           6.05867e+000           5.86748e-002           5.86748e-002           8.67482e-003           6.74823e-004
                   57.80    346.06817                               10.53756             83.289                                        3.46068e+002           4.60682e+001           6.06817e+000           6.81738e-002           6.81738e-002           8.17375e-003           1.73752e-004
                   57.90    346.07589                               10.53756             83.289                                        3.46076e+002           4.60759e+001           6.07589e+000           7.58903e-002           7.58903e-002           5.89028e-003           8.90285e-004
                   58.00    346.06186                               10.53756             83.289                                        3.46062e+002           4.60619e+001           6.06186e+000           6.18606e-002           6.18606e-002           1.86061e-003           8.60612e-004
