~VERSION INFORMATION
VERS                    .            2.0                                    :CWLS LOG ASCII STANDARD
WRAP                    .            NO                                     :ONE LINE PER TIME STEP


~WELL INFORMATION
#MNEM                   .UNIT        DATA                                    DESCRIPTION
#________________________________________________________________________________________
STRTTIME                .HH/MM/SS    00:10:18                               :START TIME
STOPTIME                .HH/MM/SS    00:13:47                               :STOP TIME
STRT                    .s           2.10                                   :START DATA
STOP                    .s           207.40                                 :STOP DATA
STEP                    .s           0.10                                   :MEASUREMENT TIME INTERVAL
NULL                    .            -999.25                                :NULL VALUE
COMP                    .            Statoil ASA                            :COMPANY
FLD                     .            Volve                                  :FIELD
WELL                    .            15/9-F-1                               :WELL
RUN                     .            4                                      :RUN
LOC                     .            Maersk Inspirer                        :LOCATION
PROV                    .            na                                     :PROVINCE
SRVC                    .            Baker Hughes INTEQ                     :SERVICE COMPANY
DATE                    .YY/MM/DD    13/08/19                               :LOG DATE
UWI                     .                                                   :UNIQUE WELL ID
DEPTHMD                 .m           3332.4                                 :MEASURED DEPTH
DEPTHTVD                .m           3056.0                                 :TRUE VERTICAL DEPTH


~CURVE INFORMATION
#MNEM                   .UNIT        API CODES                               DESCRIPTION
#________________________________________________________________________________________
TIME                    .s                                                  :01 TIME
DD_PRESS                .bar                                                :02 DRAW DOWN PRESSURE
DD_VOLUME               .cm3                                                :03 INCREMENTAL DRAW DOWN VOLUME
TEMP                    .degC                                               :04 TRANSDUCER TEMPERATURE
DD_PRESS_MOD_1000       .bar                                                :05 DRAW DOWN PRESSURE MOD 1000
DD_PRESS_MOD_100        .bar                                                :06 DRAW DOWN PRESSURE MOD 100
DD_PRESS_MOD_10         .bar                                                :07 DRAW DOWN PRESSURE MOD 10
DD_PRESS_MOD_1          .bar                                                :08 DRAW DOWN PRESSURE MOD 1
DD_PRESS_MOD_01         .bar                                                :09 DRAW DOWN PRESSURE MOD 01
DD_PRESS_MOD_001        .bar                                                :10 DRAW DOWN PRESSURE MOD 001
DD_PRESS_MOD_0001       .bar                                                :11 DRAW DOWN PRESSURE MOD 0001


~PARAMETER INFORMATION
#MNEM                   .UNIT        VALUE                                   DESCRIPTION
#________________________________________________________________________________________
TOOLFACE                .deg         78.2                                   :01 TOOLFACE
PUMP_CAPACITY           .bar         400                                    :02 NOMINAL DRAW DOWN PUMP CAPACITY
PUMP_LIMIT              .bar         240                                    :03 DOWNLINK PUMP LIMIT
TIME_LIMIT              .min         10                                     :04 DOWNLINK MAX TIME
TEST_TYPE               .            LOW MOBILITY                           :05 DOWNLINK
DD_PIST_A               .cm2         3.1416                                 :06 DRAW DOWN PISTON AREA
V_SYS                   .cm3         131.0000                               :07 SYSTEM VOLUME
PROBE_ID                .cm          1.2700                                 :08 TTK PROBE ID
G0                      .            4.6700                                 :09 GEOMETRY FACTOR


~A                  TIME     DD_PRESS                              DD_VOLUME               TEMP                                   DD_PRESS_MOD_1000       DD_PRESS_MOD_100        DD_PRESS_MOD_10         DD_PRESS_MOD_1        DD_PRESS_MOD_01       DD_PRESS_MOD_001      DD_PRESS_MOD_0001
# ...
                  136.50    340.63913                               19.85276             74.719                                        3.40639e+002           4.06391e+001           6.39128e-001           6.39128e-001           3.91281e-002           9.12809e-003           1.28088e-004
                  136.60    340.63993                               19.85276             74.719                                        3.40640e+002           4.06399e+001           6.39925e-001           6.39925e-001           3.99252e-002           9.92516e-003           9.25158e-004
                  136.70    340.63470                               19.85276             74.719                                        3.40635e+002           4.06347e+001           6.34696e-001           6.34696e-001           3.46963e-002           4.69632e-003           6.96321e-004
                  136.80    340.63420                               19.85276             74.719                                        3.40634e+002           4.06342e+001           6.34204e-001           6.34204e-001           3.42041e-002           4.20408e-003           2.04083e-004
                  136.90    340.63570                               19.85276             74.719                                        3.40636e+002           4.06357e+001           6.35704e-001           6.35704e-001           3.57037e-002           5.70373e-003           7.03732e-004
                  137.00    340.63467                               19.85276             74.719                                        3.40635e+002           4.06347e+001           6.34667e-001           6.34667e-001           3.46673e-002           4.66728e-003           6.67283e-004
                  137.10    340.63344                               19.85276             74.719                                        3.40633e+002           4.06334e+001           6.33442e-001           6.33442e-001           3.34425e-002           3.44245e-003           4.42454e-004
                  137.20    340.63763                               19.85276             74.719                                        3.40638e+002           4.06376e+001           6.37631e-001           6.37631e-001           3.76311e-002           7.63108e-003           6.31075e-004
                  137.30    340.64078                               19.85276             74.719                                        3.40641e+002           4.06408e+001           6.40775e-001           6.40775e-001           4.07752e-002           7.75249e-004           7.75249e-004
                  137.40    340.64139                               19.85276             74.719                                        3.40641e+002           4.06414e+001           6.41386e-001           6.41386e-001           4.13855e-002           1.38551e-003           3.85511e-004
                  137.50    340.63973                               19.85276             74.719                                        3.40640e+002           4.06397e+001           6.39725e-001           6.39725e-001           3.97250e-002           9.72501e-003           7.25006e-004
                  137.60    340.63845                               19.85276             74.719                                        3.40638e+002           4.06385e+001           6.38452e-001           6.38452e-001           3.84521e-002           8.45209e-003           4.52089e-004
                  137.70    340.64033                               19.85276             74.719                                        3.40640e+002           4.06403e+001           6.40334e-001           6.40334e-001           4.03338e-002           3.33820e-004           3.33820e-004
                  137.80    340.64299                               19.85276             74.719                                        3.40643e+002           4.06430e+001           6.42994e-001           6.42994e-001           4.29940e-002           2.99404e-003           9.94043e-004
                  137.90    340.64069                               19.85276             74.719                                        3.40641e+002           4.06407e+001           6.40691e-001           6.40691e-001           4.06914e-002           6.91357e-004           6.91357e-004
                  138.00    340.63925                               19.85276             74.719                                        3.40639e+002           4.06392e+001           6.39246e-001           6.39246e-001           3.92463e-002           9.24634e-003           2.46343e-004
                  138.10    340.63865                               19.85276             74.719                                        3.40639e+002           4.06387e+001           6.38651e-001           6.38651e-001           3.86514e-002           8.65139e-003           6.51390e-004
                  138.20    340.63767                               19.85276             74.719                                        3.40638e+002           4.06377e+001           6.37674e-001           6.37674e-001           3.76740e-002           7.67400e-003           6.73997e-004
                  138.30    340.63672                               19.85276             74.719                                        3.40637e+002           4.06367e+001           6.36716e-001           6.36716e-001           3.67156e-002           6.71561e-003           7.15614e-004
                  138.40    340.63886                               19.85276             74.719                                        3.40639e+002           4.06389e+001           6.38861e-001           6.38861e-001           3.88606e-002           8.86060e-003           8.60600e-004
                  138.50    340.63823                               19.85276             74.719                                        3.40638e+002           4.06382e+001           6.38232e-001           6.38232e-001           3.82318e-002           8.23182e-003           2.31825e-004
                  138.60    340.63720                               19.85276             74.719                                        3.40637e+002           4.06372e+001           6.37197e-001           6.37197e-001           3.71971e-002           7.19706e-003           1.97057e-004
                  138.70    340.63920                               19.85276             74.719                                        3.40639e+002           4.06392e+001           6.39197e-001           6.39197e-001           3.91967e-002           9.19673e-003           1.96728e-004
                  138.80    340.63904                               19.85276             74.719                                        3.40639e+002           4.06390e+001           6.39036e-001           6.39036e-001           3.90355e-002           9.03552e-003           3.55208e-005
                  138.90    340.63772                               19.85276             74.719                                        3.40638e+002           4.06377e+001           6.37716e-001           6.37716e-001           3.77157e-002           7.71568e-003           7.15681e-004
                  139.00    340.63898                               19.85276             74.719                                        3.40639e+002           4.06390e+001           6.38980e-001           6.38980e-001           3.89802e-002           8.98021e-003           9.80207e-004
                  139.10    340.64139                               19.85276             74.719                                        3.40641e+002           4.06414e+001           6.41394e-001           6.41394e-001           4.13935e-002           1.39350e-003           3.93502e-004
                  139.20    340.63993                               19.85276             74.719                                        3.40640e+002           4.06399e+001           6.39932e-001           6.39932e-001           3.99324e-002           9.93244e-003           9.32439e-004
