~VERSION INFORMATION
VERS                    .            2.0                                    :CWLS LOG ASCII STANDARD
WRAP                    .            NO                                     :ONE LINE PER TIME STEP


~WELL INFORMATION
#MNEM                   .UNIT        DATA                                    DESCRIPTION
#________________________________________________________________________________________
STRTTIME                .HH/MM/SS    18:24:11                               :START TIME
STOPTIME                .HH/MM/SS    18:26:54                               :STOP TIME
STRT                    .s           2.10                                   :START DATA
STOP                    .s           161.30                                 :STOP DATA
STEP                    .s           0.10                                   :MEASUREMENT TIME INTERVAL
NULL                    .            -999.25                                :NULL VALUE
COMP                    .            Statoil ASA                            :COMPANY
FLD                     .            Volve                                  :FIELD
WELL                    .            15/9-F-11 A                            :WELL
RUN                     .            8                                      :RUN
LOC                     .            Maersk Inspirer                        :LOCATION
PROV                    .            na                                     :PROVINCE
SRVC                    .            Baker Hughes INTEQ                     :SERVICE COMPANY
DATE                    .YY/MM/DD    13/05/23                               :LOG DATE
UWI                     .                                                   :UNIQUE WELL ID
DEPTHMD                 .m           3681.0                                 :MEASURED DEPTH
DEPTHTVD                .m           3064.4                                 :TRUE VERTICAL DEPTH


~CURVE INFORMATION
#MNEM                   .UNIT        API CODES                               DESCRIPTION
#________________________________________________________________________________________
TIME                    .s                                                  :01 TIME
DD_PRESS                .bar                                                :02 DRAW DOWN PRESSURE
DD_VOLUME               .cm3                                                :03 INCREMENTAL DRAW DOWN VOLUME
TEMP                    .degC                                               :04 TRANSDUCER TEMPERATURE
DD_PRESS_MOD_1000       .bar                                                :05 DRAW DOWN PRESSURE MOD 1000
DD_PRESS_MOD_100        .bar                                                :06 DRAW DOWN PRESSURE MOD 100
DD_PRESS_MOD_10         .bar                                                :07 DRAW DOWN PRESSURE MOD 10
DD_PRESS_MOD_1          .bar                                                :08 DRAW DOWN PRESSURE MOD 1
DD_PRESS_MOD_01         .bar                                                :09 DRAW DOWN PRESSURE MOD 01
DD_PRESS_MOD_001        .bar                                                :10 DRAW DOWN PRESSURE MOD 001
DD_PRESS_MOD_0001       .bar                                                :11 DRAW DOWN PRESSURE MOD 0001


~PARAMETER INFORMATION
#MNEM                   .UNIT        VALUE                                   DESCRIPTION
#________________________________________________________________________________________
TOOLFACE                .deg         -38.1                                  :01 TOOLFACE
PUMP_CAPACITY           .bar         400                                    :02 NOMINAL DRAW DOWN PUMP CAPACITY
PUMP_LIMIT              .bar         240                                    :03 DOWNLINK PUMP LIMIT
TIME_LIMIT              .min         10                                     :04 DOWNLINK MAX TIME
TEST_TYPE               .            HIGH MOBILITY                          :05 DOWNLINK
DD_PIST_A               .cm2         3.1416                                 :06 DRAW DOWN PISTON AREA
V_SYS                   .cm3         131.0000                               :07 SYSTEM VOLUME
PROBE_ID                .cm          1.2700                                 :08 TTK PROBE ID
G0                      .            4.6700                                 :09 GEOMETRY FACTOR


~A                  TIME     DD_PRESS                              DD_VOLUME               TEMP                                   DD_PRESS_MOD_1000       DD_PRESS_MOD_100        DD_PRESS_MOD_10         DD_PRESS_MOD_1        DD_PRESS_MOD_01       DD_PRESS_MOD_001      DD_PRESS_MOD_0001
# ...
                  116.90    345.15757                               29.45759             75.102                                        3.45158e+002           4.51576e+001           5.15757e+000           1.57572e-001           5.75723e-002           7.57226e-003           5.72260e-004
                  117.00    345.15146                               29.45759             75.102                                        3.45151e+002           4.51515e+001           5.15146e+000           1.51457e-001           5.14566e-002           1.45657e-003           4.56573e-004
                  117.10    345.14892                               29.45759             75.102                                        3.45149e+002           4.51489e+001           5.14892e+000           1.48922e-001           4.89224e-002           8.92235e-003           9.22352e-004
                  117.20    345.15392                               29.45759             75.102                                        3.45154e+002           4.51539e+001           5.15392e+000           1.53919e-001           5.39187e-002           3.91869e-003           9.18686e-004
                  117.30    345.15644                               29.45759             75.102                                        3.45156e+002           4.51564e+001           5.15644e+000           1.56445e-001           5.64449e-002           6.44485e-003           4.44854e-004
                  117.40    345.15295                               29.45759             75.102                                        3.45153e+002           4.51529e+001           5.15295e+000           1.52948e-001           5.29482e-002           2.94825e-003           9.48248e-004
                  117.50    345.14885                               29.45759             75.102                                        3.45149e+002           4.51489e+001           5.14885e+000           1.48853e-001           4.88529e-002           8.85294e-003           8.52938e-004
                  117.60    345.15157                               29.45759             75.102                                        3.45152e+002           4.51516e+001           5.15157e+000           1.51569e-001           5.15694e-002           1.56945e-003           5.69445e-004
                  117.70    345.15710                               29.45759             75.099                                        3.45157e+002           4.51571e+001           5.15710e+000           1.57100e-001           5.70997e-002           7.09972e-003           9.97179e-005
                  117.80    345.15864                               29.45759             75.096                                        3.45159e+002           4.51586e+001           5.15864e+000           1.58644e-001           5.86444e-002           8.64440e-003           6.44397e-004
                  117.90    345.15598                               29.45759             75.094                                        3.45156e+002           4.51560e+001           5.15598e+000           1.55978e-001           5.59782e-002           5.97825e-003           9.78247e-004
                  118.00    345.15501                               29.45759             75.096                                        3.45155e+002           4.51550e+001           5.15501e+000           1.55007e-001           5.50065e-002           5.00650e-003           6.50374e-006
                  118.10    345.15633                               29.45759             75.100                                        3.45156e+002           4.51563e+001           5.15633e+000           1.56330e-001           5.63303e-002           6.33032e-003           3.30319e-004
                  118.20    345.15805                               29.45759             75.102                                        3.45158e+002           4.51580e+001           5.15805e+000           1.58049e-001           5.80489e-002           8.04885e-003           4.88510e-005
                  118.30    345.15913                               29.45759             75.102                                        3.45159e+002           4.51591e+001           5.15913e+000           1.59126e-001           5.91263e-002           9.12632e-003           1.26324e-004
                  118.40    345.15462                               29.45759             75.099                                        3.45155e+002           4.51546e+001           5.15462e+000           1.54619e-001           5.46186e-002           4.61856e-003           6.18562e-004
                  118.50    345.15464                               29.45759             75.096                                        3.45155e+002           4.51546e+001           5.15464e+000           1.54642e-001           5.46422e-002           4.64217e-003           6.42168e-004
                  118.60    345.16109                               29.45759             75.094                                        3.45161e+002           4.51611e+001           5.16109e+000           1.61092e-001           6.10917e-002           1.09172e-003           9.17221e-005
                  118.70    345.16179                               29.45759             75.094                                        3.45162e+002           4.51618e+001           5.16179e+000           1.61787e-001           6.17866e-002           1.78661e-003           7.86606e-004
                  118.80    345.15380                               29.45759             75.094                                        3.45154e+002           4.51538e+001           5.15380e+000           1.53803e-001           5.38031e-002           3.80307e-003           8.03074e-004
                  118.90    345.15115                               29.45759             75.094                                        3.45151e+002           4.51512e+001           5.15115e+000           1.51155e-001           5.11548e-002           1.15482e-003           1.54825e-004
                  119.00    345.15464                               29.45759             75.094                                        3.45155e+002           4.51546e+001           5.15464e+000           1.54638e-001           5.46378e-002           4.63778e-003           6.37777e-004
                  119.10    345.16158                               29.45759             75.094                                        3.45162e+002           4.51616e+001           5.16158e+000           1.61577e-001           6.15773e-002           1.57725e-003           5.77254e-004
                  119.20    345.15988                               29.45759             75.094                                        3.45160e+002           4.51599e+001           5.15988e+000           1.59875e-001           5.98753e-002           9.87532e-003           8.75317e-004
                  119.30    345.15280                               29.45759             75.094                                        3.45153e+002           4.51528e+001           5.15280e+000           1.52802e-001           5.28022e-002           2.80221e-003           8.02212e-004
                  119.40    345.15332                               29.45759             75.094                                        3.45153e+002           4.51533e+001           5.15332e+000           1.53316e-001           5.33165e-002           3.31650e-003           3.16499e-004
                  119.50    345.15590                               29.45759             75.094                                        3.45156e+002           4.51559e+001           5.15590e+000           1.55903e-001           5.59026e-002           5.90262e-003           9.02623e-004
                  119.60    345.15436                               29.45759             75.094                                        3.45154e+002           4.51544e+001           5.15436e+000           1.54365e-001           5.43647e-002           4.36469e-003           3.64694e-004
