~VERSION INFORMATION
VERS                    .            2.0                                    :CWLS LOG ASCII STANDARD
WRAP                    .            NO                                     :ONE LINE PER TIME STEP


~WELL INFORMATION
#MNEM                   .UNIT        DATA                                    DESCRIPTION
#________________________________________________________________________________________
STRTTIME                .HH/MM/SS    16:20:20                               :START TIME
STOPTIME                .HH/MM/SS    16:23:23                               :STOP TIME
STRT                    .s           2.10                                   :START DATA
STOP                    .s           182.00                                 :STOP DATA
STEP                    .s           0.10                                   :MEASUREMENT TIME INTERVAL
NULL                    .            -999.25                                :NULL VALUE
COMP                    .            Statoil ASA                            :COMPANY
FLD                     .            Volve                                  :FIELD
WELL                    .            15/9-F-1 B                             :WELL
RUN                     .            7                                      :RUN
LOC                     .            Maersk Inspirer                        :LOCATION
PROV                    .            na                                     :PROVINCE
SRVC                    .            Baker Hughes INTEQ                     :SERVICE COMPANY
DATE                    .YY/MM/DD    13/09/06                               :LOG DATE
UWI                     .                                                   :UNIQUE WELL ID
DEPTHMD                 .m           3255.0                                 :MEASURED DEPTH
DEPTHTVD                .m           3051.1                                 :TRUE VERTICAL DEPTH


~CURVE INFORMATION
#MNEM                   .UNIT        API CODES                               DESCRIPTION
#________________________________________________________________________________________
TIME                    .s                                                  :01 TIME
DD_PRESS                .bar                                                :02 DRAW DOWN PRESSURE
DD_VOLUME               .cm3                                                :03 INCREMENTAL DRAW DOWN VOLUME
TEMP                    .degC                                               :04 TRANSDUCER TEMPERATURE
DD_PRESS_MOD_1000       .bar                                                :05 DRAW DOWN PRESSURE MOD 1000
DD_PRESS_MOD_100        .bar                                                :06 DRAW DOWN PRESSURE MOD 100
DD_PRESS_MOD_10         .bar                                                :07 DRAW DOWN PRESSURE MOD 10
DD_PRESS_MOD_1          .bar                                                :08 DRAW DOWN PRESSURE MOD 1
DD_PRESS_MOD_01         .bar                                                :09 DRAW DOWN PRESSURE MOD 01
DD_PRESS_MOD_001        .bar                                                :10 DRAW DOWN PRESSURE MOD 001
DD_PRESS_MOD_0001       .bar                                                :11 DRAW DOWN PRESSURE MOD 0001


~PARAMETER INFORMATION
#MNEM                   .UNIT        VALUE                                   DESCRIPTION
#________________________________________________________________________________________
TOOLFACE                .deg         na                                     :01 TOOLFACE
PUMP_CAPACITY           .bar         400                                    :02 NOMINAL DRAW DOWN PUMP CAPACITY
PUMP_LIMIT              .bar         400                                    :03 DOWNLINK PUMP LIMIT
TIME_LIMIT              .min         10                                     :04 DOWNLINK MAX TIME
TEST_TYPE               .            LOW MOBILITY                           :05 DOWNLINK
DD_PIST_A               .cm2         3.1416                                 :06 DRAW DOWN PISTON AREA
V_SYS                   .cm3         131.0000                               :07 SYSTEM VOLUME
PROBE_ID                .cm          1.2700                                 :08 TTK PROBE ID
G0                      .            4.6700                                 :09 GEOMETRY FACTOR


~A                  TIME     DD_PRESS                              DD_VOLUME               TEMP                                   DD_PRESS_MOD_1000       DD_PRESS_MOD_100        DD_PRESS_MOD_10         DD_PRESS_MOD_1        DD_PRESS_MOD_01       DD_PRESS_MOD_001      DD_PRESS_MOD_0001
# ...
                  167.30    436.61662                                0.00000             81.758                                        4.36617e+002           3.66166e+001           6.61662e+000           6.16625e-001           1.66245e-002           6.62452e-003           6.24524e-004
                  167.40    436.59641                                0.00000             81.758                                        4.36596e+002           3.65964e+001           6.59641e+000           5.96407e-001           9.64065e-002           6.40653e-003           4.06534e-004
                  167.50    436.61453                                0.00000             81.758                                        4.36615e+002           3.66145e+001           6.61453e+000           6.14529e-001           1.45288e-002           4.52876e-003           5.28761e-004
                  167.60    436.64447                                0.00000             81.758                                        4.36644e+002           3.66445e+001           6.64447e+000           6.44468e-001           4.44683e-002           4.46833e-003           4.68333e-004
                  167.70    436.62381                                0.00000             81.758                                        4.36624e+002           3.66238e+001           6.62381e+000           6.23809e-001           2.38087e-002           3.80869e-003           8.08691e-004
                  167.80    436.59732                                0.00000             81.758                                        4.36597e+002           3.65973e+001           6.59732e+000           5.97323e-001           9.73233e-002           7.32327e-003           3.23274e-004
                  167.90    436.61767                                0.00000             81.758                                        4.36618e+002           3.66177e+001           6.61767e+000           6.17670e-001           1.76699e-002           7.66988e-003           6.69883e-004
                  168.00    436.66281                                0.00000             81.758                                        4.36663e+002           3.66628e+001           6.66281e+000           6.62814e-001           6.28138e-002           2.81376e-003           8.13756e-004
                  168.10    436.64462                                0.00000             81.758                                        4.36645e+002           3.66446e+001           6.64462e+000           6.44618e-001           4.46184e-002           4.61841e-003           6.18409e-004
                  168.20    436.60333                                0.00000             81.758                                        4.36603e+002           3.66033e+001           6.60333e+000           6.03330e-001           3.33034e-003           3.33034e-003           3.30342e-004
                  168.30    436.60898                                0.00000             81.758                                        4.36609e+002           3.66090e+001           6.60898e+000           6.08981e-001           8.98103e-003           8.98103e-003           9.81033e-004
                  168.40    436.64746                                0.00000             81.758                                        4.36647e+002           3.66475e+001           6.64746e+000           6.47461e-001           4.74608e-002           7.46075e-003           4.60754e-004
                  168.50    436.63228                                0.00000             81.758                                        4.36632e+002           3.66323e+001           6.63228e+000           6.32285e-001           3.22845e-002           2.28452e-003           2.84523e-004
                  168.60    436.60013                                0.00000             81.758                                        4.36600e+002           3.66001e+001           6.60013e+000           6.00129e-001           1.28648e-004           1.28648e-004           1.28648e-004
                  168.70    436.62020                                0.00000             81.758                                        4.36620e+002           3.66202e+001           6.62020e+000           6.20197e-001           2.01966e-002           1.96574e-004           1.96574e-004
                  168.80    436.65328                                0.00000             81.758                                        4.36653e+002           3.66533e+001           6.65328e+000           6.53277e-001           5.32769e-002           3.27692e-003           2.76918e-004
                  168.90    436.62500                                0.00000             81.758                                        4.36625e+002           3.66250e+001           6.62500e+000           6.24996e-001           2.49964e-002           4.99641e-003           9.96411e-004
                  169.00    436.57863                                0.00000             81.758                                        4.36579e+002           3.65786e+001           6.57863e+000           5.78635e-001           7.86349e-002           8.63490e-003           6.34896e-004
                  169.10    436.59539                                0.00000             81.758                                        4.36595e+002           3.65954e+001           6.59539e+000           5.95389e-001           9.53888e-002           5.38878e-003           3.88776e-004
                  169.20    436.64516                                0.00000             81.758                                        4.36645e+002           3.66452e+001           6.64516e+000           6.45158e-001           4.51581e-002           5.15815e-003           1.58150e-004
                  169.30    436.62382                                0.00000             81.758                                        4.36624e+002           3.66238e+001           6.62382e+000           6.23818e-001           2.38178e-002           3.81776e-003           8.17757e-004
                  169.40    436.58906                                0.00000             81.758                                        4.36589e+002           3.65891e+001           6.58906e+000           5.89061e-001           8.90606e-002           9.06057e-003           6.05657e-005
                  169.50    436.61215                                0.00000             81.758                                        4.36612e+002           3.66122e+001           6.61215e+000           6.12152e-001           1.21520e-002           2.15199e-003           1.51994e-004
                  169.60    436.64235                                0.00000             81.758                                        4.36642e+002           3.66423e+001           6.64235e+000           6.42349e-001           4.23489e-002           2.34886e-003           3.48860e-004
                  169.70    436.61515                                0.00000             81.758                                        4.36615e+002           3.66151e+001           6.61515e+000           6.15145e-001           1.51453e-002           5.14527e-003           1.45268e-004
                  169.80    436.59603                                0.00000             81.758                                        4.36596e+002           3.65960e+001           6.59603e+000           5.96025e-001           9.60251e-002           6.02512e-003           2.51172e-005
                  169.90    436.62802                                0.00000             81.758                                        4.36628e+002           3.66280e+001           6.62802e+000           6.28024e-001           2.80241e-002           8.02407e-003           2.40722e-005
                  170.00    436.66732                                0.00000             81.758                                        4.36667e+002           3.66673e+001           6.66732e+000           6.67324e-001           6.73241e-002           7.32414e-003           3.24144e-004
