~VERSION INFORMATION
VERS                    .            2.0                                    :CWLS LOG ASCII STANDARD
WRAP                    .            NO                                     :ONE LINE PER TIME STEP


~WELL INFORMATION
#MNEM                   .UNIT        DATA                                    DESCRIPTION
#________________________________________________________________________________________
STRTTIME                .HH/MM/SS    23:13:04                               :START TIME
STOPTIME                .HH/MM/SS    23:16:31                               :STOP TIME
STRT                    .s           2.10                                   :START DATA
STOP                    .s           205.60                                 :STOP DATA
STEP                    .s           0.10                                   :MEASUREMENT TIME INTERVAL
NULL                    .            -999.25                                :NULL VALUE
COMP                    .            Statoil ASA                            :COMPANY
FLD                     .            Volve                                  :FIELD
WELL                    .            15/9-F-1 C                             :WELL
RUN                     .            4                                      :RUN
LOC                     .                                                   :LOCATION
PROV                    .            na                                     :PROVINCE
SRVC                    .            Baker Hughes INTEQ                     :SERVICE COMPANY
DATE                    .YY/MM/DD    14/03/14                               :LOG DATE
UWI                     .                                                   :UNIQUE WELL ID
DEPTHMD                 .m           3858.0                                 :MEASURED DEPTH
DEPTHTVD                .m           3096.5                                 :TRUE VERTICAL DEPTH


~CURVE INFORMATION
#MNEM                   .UNIT        API CODES                               DESCRIPTION
#________________________________________________________________________________________
TIME                    .s                                                  :01 TIME
DD_PRESS                .bar                                                :02 DRAW DOWN PRESSURE
DD_VOLUME               .cm3                                                :03 INCREMENTAL DRAW DOWN VOLUME
TEMP                    .degC                                               :04 TRANSDUCER TEMPERATURE
DD_PRESS_MOD_1000       .bar                                                :05 DRAW DOWN PRESSURE MOD 1000
DD_PRESS_MOD_100        .bar                                                :06 DRAW DOWN PRESSURE MOD 100
DD_PRESS_MOD_10         .bar                                                :07 DRAW DOWN PRESSURE MOD 10
DD_PRESS_MOD_1          .bar                                                :08 DRAW DOWN PRESSURE MOD 1
DD_PRESS_MOD_01         .bar                                                :09 DRAW DOWN PRESSURE MOD 01
DD_PRESS_MOD_001        .bar                                                :10 DRAW DOWN PRESSURE MOD 001
DD_PRESS_MOD_0001       .bar                                                :11 DRAW DOWN PRESSURE MOD 0001


~PARAMETER INFORMATION
#MNEM                   .UNIT        VALUE                                   DESCRIPTION
#________________________________________________________________________________________
TOOLFACE                .deg         88.6                                   :01 TOOLFACE
PUMP_CAPACITY           .bar         400                                    :02 NOMINAL DRAW DOWN PUMP CAPACITY
PUMP_LIMIT              .bar         240                                    :03 DOWNLINK PUMP LIMIT
TIME_LIMIT              .min         10                                     :04 DOWNLINK MAX TIME
TEST_TYPE               .            HIGH MOBILITY                          :05 DOWNLINK
DD_PIST_A               .cm2         3.1416                                 :06 DRAW DOWN PISTON AREA
V_SYS                   .cm3         131.0000                               :07 SYSTEM VOLUME
PROBE_ID                .cm          1.2700                                 :08 TTK PROBE ID
G0                      .            4.6700                                 :09 GEOMETRY FACTOR


~A                  TIME     DD_PRESS                              DD_VOLUME               TEMP                                   DD_PRESS_MOD_1000       DD_PRESS_MOD_100        DD_PRESS_MOD_10         DD_PRESS_MOD_1        DD_PRESS_MOD_01       DD_PRESS_MOD_001      DD_PRESS_MOD_0001
# ...
                  108.50    352.20850                               19.73593             90.039                                        3.52209e+002           5.22085e+001           2.20850e+000           2.08503e-001           8.50328e-003           8.50328e-003           5.03279e-004
                  108.60    352.21448                               19.73593             90.039                                        3.52214e+002           5.22145e+001           2.21448e+000           2.14480e-001           1.44798e-002           4.47985e-003           4.79849e-004
                  108.70    352.21325                               19.73593             90.039                                        3.52213e+002           5.22133e+001           2.21325e+000           2.13254e-001           1.32538e-002           3.25382e-003           2.53819e-004
                  108.80    352.20636                               19.73593             90.039                                        3.52206e+002           5.22064e+001           2.20636e+000           2.06356e-001           6.35606e-003           6.35606e-003           3.56056e-004
                  108.90    352.20479                               19.73593             90.039                                        3.52205e+002           5.22048e+001           2.20479e+000           2.04790e-001           4.79045e-003           4.79045e-003           7.90448e-004
                  109.00    352.20941                               19.73593             90.039                                        3.52209e+002           5.22094e+001           2.20941e+000           2.09414e-001           9.41421e-003           9.41421e-003           4.14210e-004
                  109.10    352.21134                               19.73593             90.039                                        3.52211e+002           5.22113e+001           2.21134e+000           2.11344e-001           1.13444e-002           1.34436e-003           3.44359e-004
                  109.20    352.20933                               19.73593             90.039                                        3.52209e+002           5.22093e+001           2.20933e+000           2.09331e-001           9.33111e-003           9.33111e-003           3.31115e-004
                  109.30    352.20723                               19.73593             90.039                                        3.52207e+002           5.22072e+001           2.20723e+000           2.07225e-001           7.22518e-003           7.22518e-003           2.25177e-004
                  109.40    352.20854                               19.73593             90.039                                        3.52209e+002           5.22085e+001           2.20854e+000           2.08537e-001           8.53716e-003           8.53716e-003           5.37155e-004
                  109.50    352.20913                               19.73593             90.039                                        3.52209e+002           5.22091e+001           2.20913e+000           2.09131e-001           9.13117e-003           9.13117e-003           1.31171e-004
                  109.60    352.20769                               19.73593             90.039                                        3.52208e+002           5.22077e+001           2.20769e+000           2.07688e-001           7.68812e-003           7.68812e-003           6.88125e-004
                  109.70    352.20707                               19.73593             90.039                                        3.52207e+002           5.22071e+001           2.20707e+000           2.07071e-001           7.07071e-003           7.07071e-003           7.07146e-005
                  109.80    352.21074                               19.73593             90.039                                        3.52211e+002           5.22107e+001           2.21074e+000           2.10742e-001           1.07422e-002           7.42206e-004           7.42206e-004
                  109.90    352.21355                               19.73593             90.039                                        3.52214e+002           5.22135e+001           2.21355e+000           2.13547e-001           1.35468e-002           3.54682e-003           5.46823e-004
                  110.00    352.21147                               19.73593             90.039                                        3.52211e+002           5.22115e+001           2.21147e+000           2.11469e-001           1.14694e-002           1.46944e-003           4.69443e-004
                  110.10    352.20824                               19.73593             90.039                                        3.52208e+002           5.22082e+001           2.20824e+000           2.08241e-001           8.24105e-003           8.24105e-003           2.41054e-004
                  110.20    352.21072                               19.73593             90.039                                        3.52211e+002           5.22107e+001           2.21072e+000           2.10723e-001           1.07230e-002           7.23025e-004           7.23025e-004
                  110.30    352.21084                               19.73593             90.039                                        3.52211e+002           5.22108e+001           2.21084e+000           2.10842e-001           1.08416e-002           8.41605e-004           8.41605e-004
                  110.40    352.20829                               19.73593             90.037                                        3.52208e+002           5.22083e+001           2.20829e+000           2.08287e-001           8.28685e-003           8.28685e-003           2.86846e-004
                  110.50    352.20792                               19.73593             90.033                                        3.52208e+002           5.22079e+001           2.20792e+000           2.07919e-001           7.91889e-003           7.91889e-003           9.18888e-004
                  110.60    352.20798                               19.73593             90.031                                        3.52208e+002           5.22080e+001           2.20798e+000           2.07979e-001           7.97851e-003           7.97851e-003           9.78514e-004
                  110.70    352.20893                               19.73593             90.034                                        3.52209e+002           5.22089e+001           2.20893e+000           2.08926e-001           8.92561e-003           8.92561e-003           9.25611e-004
                  110.80    352.21093                               19.73593             90.037                                        3.52211e+002           5.22109e+001           2.21093e+000           2.10931e-001           1.09311e-002           9.31071e-004           9.31071e-004
                  110.90    352.21134                               19.73593             90.037                                        3.52211e+002           5.22113e+001           2.21134e+000           2.11340e-001           1.13402e-002           1.34022e-003           3.40225e-004
                  111.00    352.20705                               19.73593             90.033                                        3.52207e+002           5.22070e+001           2.20705e+000           2.07048e-001           7.04811e-003           7.04811e-003           4.81087e-005
                  111.10    352.20696                               19.73593             90.031                                        3.52207e+002           5.22070e+001           2.20696e+000           2.06961e-001           6.96122e-003           6.96122e-003           9.61218e-004
                  111.20    352.20883                               19.73593             90.031                                        3.52209e+002           5.22088e+001           2.20883e+000           2.08829e-001           8.82850e-003           8.82850e-003           8.28503e-004
