~VERSION INFORMATION
VERS                    .            2.0                                    :CWLS LOG ASCII STANDARD
WRAP                    .            NO                                     :ONE LINE PER TIME STEP


~WELL INFORMATION
#MNEM                   .UNIT        DATA                                    DESCRIPTION
#________________________________________________________________________________________
STRTTIME                .HH/MM/SS    10:22:55                               :START TIME
STOPTIME                .HH/MM/SS    10:26:06                               :STOP TIME
STRT                    .s           2.10                                   :START DATA
STOP                    .s           189.80                                 :STOP DATA
STEP                    .s           0.10                                   :MEASUREMENT TIME INTERVAL
NULL                    .            -999.25                                :NULL VALUE
COMP                    .            Statoil ASA                            :COMPANY
FLD                     .            Volve                                  :FIELD
WELL                    .            15/9-F-11 A                            :WELL
RUN                     .            8                                      :RUN
LOC                     .            Maersk Inspirer                        :LOCATION
PROV                    .            na                                     :PROVINCE
SRVC                    .            Baker Hughes INTEQ                     :SERVICE COMPANY
DATE                    .YY/MM/DD    13/05/21                               :LOG DATE
UWI                     .                                                   :UNIQUE WELL ID
DEPTHMD                 .m           3651.0                                 :MEASURED DEPTH
DEPTHTVD                .m           3041.4                                 :TRUE VERTICAL DEPTH


~CURVE INFORMATION
#MNEM                   .UNIT        API CODES                               DESCRIPTION
#________________________________________________________________________________________
TIME                    .s                                                  :01 TIME
DD_PRESS                .bar                                                :02 DRAW DOWN PRESSURE
DD_VOLUME               .cm3                                                :03 INCREMENTAL DRAW DOWN VOLUME
TEMP                    .degC                                               :04 TRANSDUCER TEMPERATURE
DD_PRESS_MOD_1000       .bar                                                :05 DRAW DOWN PRESSURE MOD 1000
DD_PRESS_MOD_100        .bar                                                :06 DRAW DOWN PRESSURE MOD 100
DD_PRESS_MOD_10         .bar                                                :07 DRAW DOWN PRESSURE MOD 10
DD_PRESS_MOD_1          .bar                                                :08 DRAW DOWN PRESSURE MOD 1
DD_PRESS_MOD_01         .bar                                                :09 DRAW DOWN PRESSURE MOD 01
DD_PRESS_MOD_001        .bar                                                :10 DRAW DOWN PRESSURE MOD 001
DD_PRESS_MOD_0001       .bar                                                :11 DRAW DOWN PRESSURE MOD 0001


~PARAMETER INFORMATION
#MNEM                   .UNIT        VALUE                                   DESCRIPTION
#________________________________________________________________________________________
TOOLFACE                .deg         61.5                                   :01 TOOLFACE
PUMP_CAPACITY           .bar         400                                    :02 NOMINAL DRAW DOWN PUMP CAPACITY
PUMP_LIMIT              .bar         240                                    :03 DOWNLINK PUMP LIMIT
TIME_LIMIT              .min         10                                     :04 DOWNLINK MAX TIME
TEST_TYPE               .            REPEAT                                 :05 DOWNLINK
TEST_TYPE               .            HIGH MOBILITY                          :06 DOWNLINK
DD_PIST_A               .cm2         3.1416                                 :07 DRAW DOWN PISTON AREA
V_SYS                   .cm3         131.0000                               :08 SYSTEM VOLUME
PROBE_ID                .cm          1.2700                                 :09 TTK PROBE ID
G0                      .            4.6700                                 :10 GEOMETRY FACTOR


~A                  TIME     DD_PRESS                              DD_VOLUME               TEMP                                   DD_PRESS_MOD_1000       DD_PRESS_MOD_100        DD_PRESS_MOD_10         DD_PRESS_MOD_1        DD_PRESS_MOD_01       DD_PRESS_MOD_001      DD_PRESS_MOD_0001
# ...
                  150.50    343.78333                               29.42966             81.086                                        3.43783e+002           4.37833e+001           3.78333e+000           7.83333e-001           8.33325e-002           3.33251e-003           3.32514e-004
                  150.60    343.78341                               29.42966             81.086                                        3.43783e+002           4.37834e+001           3.78341e+000           7.83405e-001           8.34052e-002           3.40525e-003           4.05250e-004
                  150.70    343.78348                               29.42966             81.086                                        3.43783e+002           4.37835e+001           3.78348e+000           7.83481e-001           8.34807e-002           3.48066e-003           4.80662e-004
                  150.80    343.78370                               29.42966             81.086                                        3.43784e+002           4.37837e+001           3.78370e+000           7.83703e-001           8.37029e-002           3.70287e-003           7.02870e-004
                  150.90    343.78378                               29.42966             81.086                                        3.43784e+002           4.37838e+001           3.78378e+000           7.83781e-001           8.37809e-002           3.78093e-003           7.80931e-004
                  151.00    343.78377                               29.42966             81.086                                        3.43784e+002           4.37838e+001           3.78377e+000           7.83765e-001           8.37653e-002           3.76527e-003           7.65275e-004
                  151.10    343.78474                               29.42966             81.086                                        3.43785e+002           4.37847e+001           3.78474e+000           7.84736e-001           8.47364e-002           4.73640e-003           7.36396e-004
                  151.20    343.78499                               29.42966             81.086                                        3.43785e+002           4.37850e+001           3.78499e+000           7.84989e-001           8.49891e-002           4.98913e-003           9.89132e-004
                  151.30    343.78402                               29.42966             81.086                                        3.43784e+002           4.37840e+001           3.78402e+000           7.84015e-001           8.40154e-002           4.01539e-003           1.53865e-005
                  151.40    343.78333                               29.42966             81.086                                        3.43783e+002           4.37833e+001           3.78333e+000           7.83333e-001           8.33325e-002           3.33251e-003           3.32514e-004
                  151.50    343.78333                               29.42966             81.086                                        3.43783e+002           4.37833e+001           3.78333e+000           7.83333e-001           8.33325e-002           3.33251e-003           3.32514e-004
                  151.60    343.78333                               29.42966             81.086                                        3.43783e+002           4.37833e+001           3.78333e+000           7.83333e-001           8.33325e-002           3.33251e-003           3.32514e-004
                  151.70    343.78333                               29.42966             81.086                                        3.43783e+002           4.37833e+001           3.78333e+000           7.83333e-001           8.33325e-002           3.33251e-003           3.32514e-004
                  151.80    343.78333                               29.42966             81.086                                        3.43783e+002           4.37833e+001           3.78333e+000           7.83333e-001           8.33325e-002           3.33251e-003           3.32514e-004
                  151.90    343.78333                               29.42966             81.086                                        3.43783e+002           4.37833e+001           3.78333e+000           7.83333e-001           8.33325e-002           3.33251e-003           3.32514e-004
                  152.00    343.78333                               29.42966             81.086                                        3.43783e+002           4.37833e+001           3.78333e+000           7.83333e-001           8.33325e-002           3.33251e-003           3.32514e-004
                  152.10    343.78333                               29.42966             81.086                                        3.43783e+002           4.37833e+001           3.78333e+000           7.83333e-001           8.33325e-002           3.33251e-003           3.32514e-004
                  152.20    343.78333                               29.42966             81.086                                        3.43783e+002           4.37833e+001           3.78333e+000           7.83333e-001           8.33325e-002           3.33251e-003           3.32514e-004
                  152.30    343.78333                               29.42966             81.086                                        3.43783e+002           4.37833e+001           3.78333e+000           7.83333e-001           8.33325e-002           3.33251e-003           3.32514e-004
                  152.40    343.78333                               29.42966             81.086                                        3.43783e+002           4.37833e+001           3.78333e+000           7.83333e-001           8.33325e-002           3.33251e-003           3.32514e-004
                  152.50    343.78383                               29.42966             81.086                                        3.43784e+002           4.37838e+001           3.78383e+000           7.83833e-001           8.38325e-002           3.83253e-003           8.32529e-004
                  152.60    343.78399                               29.42966             81.086                                        3.43784e+002           4.37840e+001           3.78399e+000           7.83995e-001           8.39946e-002           3.99461e-003           9.94610e-004
                  152.70    343.78366                               29.42966             81.086                                        3.43784e+002           4.37837e+001           3.78366e+000           7.83658e-001           8.36576e-002           3.65758e-003           6.57580e-004
                  152.80    343.78361                               29.42966             81.086                                        3.43784e+002           4.37836e+001           3.78361e+000           7.83611e-001           8.36114e-002           3.61141e-003           6.11411e-004
                  152.90    343.78398                               29.42966             81.086                                        3.43784e+002           4.37840e+001           3.78398e+000           7.83980e-001           8.39800e-002           3.97999e-003           9.79987e-004
                  153.00    343.78387                               29.42966             81.086                                        3.43784e+002           4.37839e+001           3.78387e+000           7.83870e-001           8.38704e-002           3.87039e-003           8.70390e-004
                  153.10    343.78333                               29.42966             81.086                                        3.43783e+002           4.37833e+001           3.78333e+000           7.83333e-001           8.33325e-002           3.33251e-003           3.32514e-004
                  153.20    343.78333                               29.42966             81.086                                        3.43783e+002           4.37833e+001           3.78333e+000           7.83333e-001           8.33325e-002           3.33251e-003           3.32514e-004
