~VERSION INFORMATION
VERS                    .            2.0                                    :CWLS LOG ASCII STANDARD
WRAP                    .            NO                                     :ONE LINE PER TIME STEP


~WELL INFORMATION
#MNEM                   .UNIT        DATA                                    DESCRIPTION
#________________________________________________________________________________________
STRTTIME                .HH/MM/SS    10:48:38                               :START TIME
STOPTIME                .HH/MM/SS    10:51:35                               :STOP TIME
STRT                    .s           2.10                                   :START DATA
STOP                    .s           175.10                                 :STOP DATA
STEP                    .s           0.10                                   :MEASUREMENT TIME INTERVAL
NULL                    .            -999.25                                :NULL VALUE
COMP                    .            Statoil ASA                            :COMPANY
FLD                     .            Volve                                  :FIELD
WELL                    .            15/9-F-11 A                            :WELL
RUN                     .            8                                      :RUN
LOC                     .            Maersk Inspirer                        :LOCATION
PROV                    .            na                                     :PROVINCE
SRVC                    .            Baker Hughes INTEQ                     :SERVICE COMPANY
DATE                    .YY/MM/DD    13/05/21                               :LOG DATE
UWI                     .                                                   :UNIQUE WELL ID
DEPTHMD                 .m           3635.2                                 :MEASURED DEPTH
DEPTHTVD                .m           3029.3                                 :TRUE VERTICAL DEPTH


~CURVE INFORMATION
#MNEM                   .UNIT        API CODES                               DESCRIPTION
#________________________________________________________________________________________
TIME                    .s                                                  :01 TIME
DD_PRESS                .bar                                                :02 DRAW DOWN PRESSURE
DD_VOLUME               .cm3                                                :03 INCREMENTAL DRAW DOWN VOLUME
TEMP                    .degC                                               :04 TRANSDUCER TEMPERATURE
DD_PRESS_MOD_1000       .bar                                                :05 DRAW DOWN PRESSURE MOD 1000
DD_PRESS_MOD_100        .bar                                                :06 DRAW DOWN PRESSURE MOD 100
DD_PRESS_MOD_10         .bar                                                :07 DRAW DOWN PRESSURE MOD 10
DD_PRESS_MOD_1          .bar                                                :08 DRAW DOWN PRESSURE MOD 1
DD_PRESS_MOD_01         .bar                                                :09 DRAW DOWN PRESSURE MOD 01
DD_PRESS_MOD_001        .bar                                                :10 DRAW DOWN PRESSURE MOD 001
DD_PRESS_MOD_0001       .bar                                                :11 DRAW DOWN PRESSURE MOD 0001


~PARAMETER INFORMATION
#MNEM                   .UNIT        VALUE                                   DESCRIPTION
#________________________________________________________________________________________
TOOLFACE                .deg         69.1                                   :01 TOOLFACE
PUMP_CAPACITY           .bar         400                                    :02 NOMINAL DRAW DOWN PUMP CAPACITY
PUMP_LIMIT              .bar         240                                    :03 DOWNLINK PUMP LIMIT
TIME_LIMIT              .min         10                                     :04 DOWNLINK MAX TIME
TEST_TYPE               .            REPEAT                                 :05 DOWNLINK
TEST_TYPE               .            HIGH MOBILITY                          :06 DOWNLINK
DD_PIST_A               .cm2         3.1416                                 :07 DRAW DOWN PISTON AREA
V_SYS                   .cm3         131.0000                               :08 SYSTEM VOLUME
PROBE_ID                .cm          1.2700                                 :09 TTK PROBE ID
G0                      .            4.6700                                 :10 GEOMETRY FACTOR


~A                  TIME     DD_PRESS                              DD_VOLUME               TEMP                                   DD_PRESS_MOD_1000       DD_PRESS_MOD_100        DD_PRESS_MOD_10         DD_PRESS_MOD_1        DD_PRESS_MOD_01       DD_PRESS_MOD_001      DD_PRESS_MOD_0001
# ...
                  139.30    342.86664                               20.28472             80.656                                        3.42867e+002           4.28666e+001           2.86664e+000           8.66639e-001           6.66387e-002           6.63865e-003           6.38654e-004
                  139.40    342.86076                               20.28472             80.656                                        3.42861e+002           4.28608e+001           2.86076e+000           8.60758e-001           6.07575e-002           7.57545e-004           7.57545e-004
                  139.50    342.84912                               20.28472             80.656                                        3.42849e+002           4.28491e+001           2.84912e+000           8.49121e-001           4.91214e-002           9.12139e-003           1.21393e-004
                  139.60    342.84385                               20.28472             80.656                                        3.42844e+002           4.28439e+001           2.84385e+000           8.43851e-001           4.38508e-002           3.85077e-003           8.50774e-004
                  139.70    342.86018                               20.28472             80.656                                        3.42860e+002           4.28602e+001           2.86018e+000           8.60176e-001           6.01758e-002           1.75813e-004           1.75813e-004
                  139.80    342.87515                               20.28472             80.656                                        3.42875e+002           4.28752e+001           2.87515e+000           8.75151e-001           7.51511e-002           5.15111e-003           1.51114e-004
                  139.90    342.85986                               20.28472             80.656                                        3.42860e+002           4.28599e+001           2.85986e+000           8.59863e-001           5.98634e-002           9.86336e-003           8.63356e-004
                  140.00    342.84671                               20.28472             80.656                                        3.42847e+002           4.28467e+001           2.84671e+000           8.46715e-001           4.67150e-002           6.71497e-003           7.14969e-004
                  140.10    342.86876                               20.28472             80.656                                        3.42869e+002           4.28688e+001           2.86876e+000           8.68758e-001           6.87580e-002           8.75795e-003           7.57953e-004
                  140.20    342.88961                               20.28472             80.656                                        3.42890e+002           4.28896e+001           2.88961e+000           8.89609e-001           8.96094e-002           9.60943e-003           6.09432e-004
                  140.30    342.87931                               20.28472             80.656                                        3.42879e+002           4.28793e+001           2.87931e+000           8.79313e-001           7.93132e-002           9.31317e-003           3.13169e-004
                  140.40    342.86403                               20.28472             80.656                                        3.42864e+002           4.28640e+001           2.86403e+000           8.64030e-001           6.40296e-002           4.02957e-003           2.95677e-005
                  140.50    342.86324                               20.28472             80.656                                        3.42863e+002           4.28632e+001           2.86324e+000           8.63243e-001           6.32432e-002           3.24315e-003           2.43153e-004
                  140.60    342.87205                               20.28472             80.656                                        3.42872e+002           4.28721e+001           2.87205e+000           8.72051e-001           7.20512e-002           2.05116e-003           5.11583e-005
                  140.70    342.87710                               20.28472             80.656                                        3.42877e+002           4.28771e+001           2.87710e+000           8.77097e-001           7.70969e-002           7.09686e-003           9.68552e-005
                  140.80    342.86368                               20.28472             80.656                                        3.42864e+002           4.28637e+001           2.86368e+000           8.63681e-001           6.36807e-002           3.68068e-003           6.80675e-004
                  140.90    342.84362                               20.28472             80.656                                        3.42844e+002           4.28436e+001           2.84362e+000           8.43623e-001           4.36233e-002           3.62331e-003           6.23308e-004
                  141.00    342.83819                               20.28472             80.656                                        3.42838e+002           4.28382e+001           2.83819e+000           8.38194e-001           3.81944e-002           8.19440e-003           1.94400e-004
                  141.10    342.86081                               20.28472             80.656                                        3.42861e+002           4.28608e+001           2.86081e+000           8.60806e-001           6.08058e-002           8.05833e-004           8.05833e-004
                  141.20    342.88981                               20.28472             80.656                                        3.42890e+002           4.28898e+001           2.88981e+000           8.89807e-001           8.98070e-002           9.80695e-003           8.06951e-004
                  141.30    342.88247                               20.28472             80.656                                        3.42882e+002           4.28825e+001           2.88247e+000           8.82471e-001           8.24714e-002           2.47141e-003           4.71409e-004
                  141.40    342.85084                               20.28472             80.656                                        3.42851e+002           4.28508e+001           2.85084e+000           8.50841e-001           5.08412e-002           8.41189e-004           8.41189e-004
                  141.50    342.85578                               20.28472             80.656                                        3.42856e+002           4.28558e+001           2.85578e+000           8.55779e-001           5.57788e-002           5.77885e-003           7.78848e-004
                  141.60    342.87982                               20.28472             80.656                                        3.42880e+002           4.28798e+001           2.87982e+000           8.79816e-001           7.98157e-002           9.81567e-003           8.15674e-004
                  141.70    342.87618                               20.28472             80.656                                        3.42876e+002           4.28762e+001           2.87618e+000           8.76181e-001           7.61810e-002           6.18098e-003           1.80982e-004
                  141.80    342.85909                               20.28472             80.656                                        3.42859e+002           4.28591e+001           2.85909e+000           8.59086e-001           5.90865e-002           9.08648e-003           8.64780e-005
                  141.90    342.85046                               20.28472             80.656                                        3.42850e+002           4.28505e+001           2.85046e+000           8.50458e-001           5.04578e-002           4.57815e-004           4.57815e-004
                  142.00    342.85686                               20.28472             80.656                                        3.42857e+002           4.28569e+001           2.85686e+000           8.56860e-001           5.68599e-002           6.85990e-003           8.59902e-004
