~VERSION INFORMATION
VERS                    .            2.0                                    :CWLS LOG ASCII STANDARD
WRAP                    .            NO                                     :ONE LINE PER TIME STEP


~WELL INFORMATION
#MNEM                   .UNIT        DATA                                    DESCRIPTION
#________________________________________________________________________________________
STRTTIME                .HH/MM/SS    22:39:37                               :START TIME
STOPTIME                .HH/MM/SS    22:43:03                               :STOP TIME
STRT                    .s           2.10                                   :START DATA
STOP                    .s           204.10                                 :STOP DATA
STEP                    .s           0.10                                   :MEASUREMENT TIME INTERVAL
NULL                    .            -999.25                                :NULL VALUE
COMP                    .            Statoil ASA                            :COMPANY
FLD                     .            Volve                                  :FIELD
WELL                    .            15/9-F-1 C                             :WELL
RUN                     .            4                                      :RUN
LOC                     .                                                   :LOCATION
PROV                    .            na                                     :PROVINCE
SRVC                    .            Baker Hughes INTEQ                     :SERVICE COMPANY
DATE                    .YY/MM/DD    14/03/14                               :LOG DATE
UWI                     .                                                   :UNIQUE WELL ID
DEPTHMD                 .m           3925.1                                 :MEASURED DEPTH
DEPTHTVD                .m           3120.2                                 :TRUE VERTICAL DEPTH


~CURVE INFORMATION
#MNEM                   .UNIT        API CODES                               DESCRIPTION
#________________________________________________________________________________________
TIME                    .s                                                  :01 TIME
DD_PRESS                .bar                                                :02 DRAW DOWN PRESSURE
DD_VOLUME               .cm3                                                :03 INCREMENTAL DRAW DOWN VOLUME
TEMP                    .degC                                               :04 TRANSDUCER TEMPERATURE
DD_PRESS_MOD_1000       .bar                                                :05 DRAW DOWN PRESSURE MOD 1000
DD_PRESS_MOD_100        .bar                                                :06 DRAW DOWN PRESSURE MOD 100
DD_PRESS_MOD_10         .bar                                                :07 DRAW DOWN PRESSURE MOD 10
DD_PRESS_MOD_1          .bar                                                :08 DRAW DOWN PRESSURE MOD 1
DD_PRESS_MOD_01         .bar                                                :09 DRAW DOWN PRESSURE MOD 01
DD_PRESS_MOD_001        .bar                                                :10 DRAW DOWN PRESSURE MOD 001
DD_PRESS_MOD_0001       .bar                                                :11 DRAW DOWN PRESSURE MOD 0001


~PARAMETER INFORMATION
#MNEM                   .UNIT        VALUE                                   DESCRIPTION
#________________________________________________________________________________________
TOOLFACE                .deg         -7.4                                   :01 TOOLFACE
PUMP_CAPACITY           .bar         400                                    :02 NOMINAL DRAW DOWN PUMP CAPACITY
PUMP_LIMIT              .bar         240                                    :03 DOWNLINK PUMP LIMIT
TIME_LIMIT              .min         10                                     :04 DOWNLINK MAX TIME
TEST_TYPE               .            HIGH MOBILITY                          :05 DOWNLINK
DD_PIST_A               .cm2         3.1416                                 :06 DRAW DOWN PISTON AREA
V_SYS                   .cm3         131.0000                               :07 SYSTEM VOLUME
PROBE_ID                .cm          1.2700                                 :08 TTK PROBE ID
G0                      .            4.6700                                 :09 GEOMETRY FACTOR


~A                  TIME     DD_PRESS                              DD_VOLUME               TEMP                                   DD_PRESS_MOD_1000       DD_PRESS_MOD_100        DD_PRESS_MOD_10         DD_PRESS_MOD_1        DD_PRESS_MOD_01       DD_PRESS_MOD_001      DD_PRESS_MOD_0001
# ...
                  200.90    444.99199                                0.00000             91.344                                        4.44992e+002           4.49920e+001           4.99199e+000           9.91987e-001           9.19868e-002           1.98681e-003           9.86814e-004
                  201.00    445.00399                                0.00000             91.344                                        4.45004e+002           4.50040e+001           5.00399e+000           3.98547e-003           3.98547e-003           3.98547e-003           9.85467e-004
                  201.10    444.99850                                0.00000             91.344                                        4.44999e+002           4.49985e+001           4.99850e+000           9.98503e-001           9.85029e-002           8.50291e-003           5.02912e-004
                  201.20    444.98844                                0.00000             91.344                                        4.44988e+002           4.49884e+001           4.98844e+000           9.88436e-001           8.84357e-002           8.43565e-003           4.35653e-004
                  201.30    444.98655                                0.00000             91.344                                        4.44987e+002           4.49866e+001           4.98655e+000           9.86555e-001           8.65546e-002           6.55465e-003           5.54648e-004
                  201.40    444.98884                                0.00000             91.344                                        4.44989e+002           4.49888e+001           4.98884e+000           9.88844e-001           8.88443e-002           8.84427e-003           8.44270e-004
                  201.50    444.98576                                0.00000             91.344                                        4.44986e+002           4.49858e+001           4.98576e+000           9.85760e-001           8.57605e-002           5.76046e-003           7.60462e-004
                  201.60    444.97832                                0.00000             91.344                                        4.44978e+002           4.49783e+001           4.97832e+000           9.78324e-001           7.83243e-002           8.32429e-003           3.24292e-004
                  201.70    444.97494                                0.00000             91.344                                        4.44975e+002           4.49749e+001           4.97494e+000           9.74938e-001           7.49384e-002           4.93836e-003           9.38361e-004
                  201.80    444.97623                                0.00000             91.344                                        4.44976e+002           4.49762e+001           4.97623e+000           9.76232e-001           7.62325e-002           6.23245e-003           2.32453e-004
                  201.90    444.97899                                0.00000             91.344                                        4.44979e+002           4.49790e+001           4.97899e+000           9.78991e-001           7.89914e-002           8.99140e-003           9.91401e-004
                  202.00    444.98212                                0.00000             91.344                                        4.44982e+002           4.49821e+001           4.98212e+000           9.82120e-001           8.21200e-002           2.11995e-003           1.19954e-004
                  202.10    444.97768                                0.00000             91.344                                        4.44978e+002           4.49777e+001           4.97768e+000           9.77679e-001           7.76792e-002           7.67919e-003           6.79192e-004
                  202.20    444.97213                                0.00000             91.344                                        4.44972e+002           4.49721e+001           4.97213e+000           9.72132e-001           7.21320e-002           2.13203e-003           1.32032e-004
                  202.30    444.97416                                0.00000             91.344                                        4.44974e+002           4.49742e+001           4.97416e+000           9.74159e-001           7.41592e-002           4.15916e-003           1.59157e-004
                  202.40    444.97548                                0.00000             91.344                                        4.44975e+002           4.49755e+001           4.97548e+000           9.75481e-001           7.54812e-002           5.48119e-003           4.81186e-004
                  202.50    444.96141                                0.00000             91.344                                        4.44961e+002           4.49614e+001           4.96141e+000           9.61407e-001           6.14069e-002           1.40686e-003           4.06859e-004
                  202.60    444.94727                                0.00000             91.344                                        4.44947e+002           4.49473e+001           4.94727e+000           9.47274e-001           4.72736e-002           7.27362e-003           2.73621e-004
                  202.70    444.94969                                0.00000             91.344                                        4.44950e+002           4.49497e+001           4.94969e+000           9.49689e-001           4.96887e-002           9.68866e-003           6.88658e-004
                  202.80    444.95745                                0.00000             91.344                                        4.44957e+002           4.49574e+001           4.95745e+000           9.57450e-001           5.74496e-002           7.44964e-003           4.49640e-004
                  202.90    444.95608                                0.00000             91.344                                        4.44956e+002           4.49561e+001           4.95608e+000           9.56077e-001           5.60774e-002           6.07744e-003           7.74421e-005
                  203.00    444.94467                                0.00000             91.344                                        4.44945e+002           4.49447e+001           4.94467e+000           9.44674e-001           4.46743e-002           4.67427e-003           6.74267e-004
                  203.10    444.94765                                0.00000             91.344                                        4.44948e+002           4.49477e+001           4.94765e+000           9.47653e-001           4.76531e-002           7.65314e-003           6.53141e-004
                  203.20    444.96612                                0.00000             91.344                                        4.44966e+002           4.49661e+001           4.96612e+000           9.66116e-001           6.61164e-002           6.11637e-003           1.16372e-004
                  203.30    444.97539                                0.00000             91.344                                        4.44975e+002           4.49754e+001           4.97539e+000           9.75389e-001           7.53891e-002           5.38909e-003           3.89092e-004
                  203.40    444.97004                                0.00000             91.344                                        4.44970e+002           4.49700e+001           4.97004e+000           9.70036e-001           7.00358e-002           3.58081e-005           3.58081e-005
                  203.50    444.97164                                0.00000             91.344                                        4.44972e+002           4.49716e+001           4.97164e+000           9.71635e-001           7.16353e-002           1.63530e-003           6.35300e-004
                  203.60    444.98023                                0.00000             91.344                                        4.44980e+002           4.49802e+001           4.98023e+000           9.80228e-001           8.02283e-002           2.28294e-004           2.28294e-004
