~VERSION INFORMATION
VERS                    .            2.0                                    :CWLS LOG ASCII STANDARD
WRAP                    .            NO                                     :ONE LINE PER TIME STEP


~WELL INFORMATION
#MNEM                   .UNIT        DATA                                    DESCRIPTION
#________________________________________________________________________________________
STRTTIME                .HH/MM/SS    10:02:47                               :START TIME
STOPTIME                .HH/MM/SS    10:07:04                               :STOP TIME
STRT                    .s           2.10                                   :START DATA
STOP                    .s           255.20                                 :STOP DATA
STEP                    .s           0.10                                   :MEASUREMENT TIME INTERVAL
NULL                    .            -999.25                                :NULL VALUE
COMP                    .            Statoil ASA                            :COMPANY
FLD                     .            Volve                                  :FIELD
WELL                    .            15/9-F-11 A                            :WELL
RUN                     .            8                                      :RUN
LOC                     .            Maersk Inspirer                        :LOCATION
PROV                    .            na                                     :PROVINCE
SRVC                    .            Baker Hughes INTEQ                     :SERVICE COMPANY
DATE                    .YY/MM/DD    13/05/21                               :LOG DATE
UWI                     .                                                   :UNIQUE WELL ID
DEPTHMD                 .m           3657.3                                 :MEASURED DEPTH
DEPTHTVD                .m           3046.2                                 :TRUE VERTICAL DEPTH


~CURVE INFORMATION
#MNEM                   .UNIT        API CODES                               DESCRIPTION
#________________________________________________________________________________________
TIME                    .s                                                  :01 TIME
DD_PRESS                .bar                                                :02 DRAW DOWN PRESSURE
DD_VOLUME               .cm3                                                :03 INCREMENTAL DRAW DOWN VOLUME
TEMP                    .degC                                               :04 TRANSDUCER TEMPERATURE
DD_PRESS_MOD_1000       .bar                                                :05 DRAW DOWN PRESSURE MOD 1000
DD_PRESS_MOD_100        .bar                                                :06 DRAW DOWN PRESSURE MOD 100
DD_PRESS_MOD_10         .bar                                                :07 DRAW DOWN PRESSURE MOD 10
DD_PRESS_MOD_1          .bar                                                :08 DRAW DOWN PRESSURE MOD 1
DD_PRESS_MOD_01         .bar                                                :09 DRAW DOWN PRESSURE MOD 01
DD_PRESS_MOD_001        .bar                                                :10 DRAW DOWN PRESSURE MOD 001
DD_PRESS_MOD_0001       .bar                                                :11 DRAW DOWN PRESSURE MOD 0001


~PARAMETER INFORMATION
#MNEM                   .UNIT        VALUE                                   DESCRIPTION
#________________________________________________________________________________________
TOOLFACE                .deg         60.1                                   :01 TOOLFACE
PUMP_CAPACITY           .bar         400                                    :02 NOMINAL DRAW DOWN PUMP CAPACITY
PUMP_LIMIT              .bar         240                                    :03 DOWNLINK PUMP LIMIT
TIME_LIMIT              .min         10                                     :04 DOWNLINK MAX TIME
TEST_TYPE               .            REPEAT                                 :05 DOWNLINK
TEST_TYPE               .            HIGH MOBILITY                          :06 DOWNLINK
DD_PIST_A               .cm2         3.1416                                 :07 DRAW DOWN PISTON AREA
V_SYS                   .cm3         131.0000                               :08 SYSTEM VOLUME
PROBE_ID                .cm          1.2700                                 :09 TTK PROBE ID
G0                      .            4.6700                                 :10 GEOMETRY FACTOR


~A                  TIME     DD_PRESS                              DD_VOLUME               TEMP                                   DD_PRESS_MOD_1000       DD_PRESS_MOD_100        DD_PRESS_MOD_10         DD_PRESS_MOD_1        DD_PRESS_MOD_01       DD_PRESS_MOD_001      DD_PRESS_MOD_0001
# ...
                   18.90    420.04989                                0.00000             82.227                                        4.20050e+002           2.00499e+001           4.98877e-002           4.98877e-002           4.98877e-002           9.88768e-003           8.87681e-004
                   19.00    420.04034                                0.00000             82.227                                        4.20040e+002           2.00403e+001           4.03438e-002           4.03438e-002           4.03438e-002           3.43787e-004           3.43787e-004
                   19.10    420.04715                                0.00000             82.227                                        4.20047e+002           2.00472e+001           4.71534e-002           4.71534e-002           4.71534e-002           7.15335e-003           1.53353e-004
                   19.20    420.06046                                0.00000             82.227                                        4.20060e+002           2.00605e+001           6.04598e-002           6.04598e-002           6.04598e-002           4.59840e-004           4.59840e-004
                   19.30    420.06078                                0.00000             82.227                                        4.20061e+002           2.00608e+001           6.07810e-002           6.07810e-002           6.07810e-002           7.80991e-004           7.80991e-004
                   19.40    420.04611                                0.00000             82.227                                        4.20046e+002           2.00461e+001           4.61083e-002           4.61083e-002           4.61083e-002           6.10825e-003           1.08250e-004
                   19.50    420.05470                                0.00000             82.227                                        4.20055e+002           2.00547e+001           5.46977e-002           5.46977e-002           5.46977e-002           4.69773e-003           6.97729e-004
                   19.60    420.06958                                0.00000             82.227                                        4.20070e+002           2.00696e+001           6.95806e-002           6.95806e-002           6.95806e-002           9.58058e-003           5.80583e-004
                   19.70    420.06187                                0.00000             82.227                                        4.20062e+002           2.00619e+001           6.18662e-002           6.18662e-002           6.18662e-002           1.86618e-003           8.66178e-004
                   19.80    420.03189                                0.00000             82.227                                        4.20032e+002           2.00319e+001           3.18909e-002           3.18909e-002           3.18909e-002           1.89087e-003           8.90873e-004
                   19.90    420.00970                                0.00000             82.227                                        4.20010e+002           2.00097e+001           9.70191e-003           9.70191e-003           9.70191e-003           9.70191e-003           7.01911e-004
                   20.00    420.01141                                0.00000             82.227                                        4.20011e+002           2.00114e+001           1.14079e-002           1.14079e-002           1.14079e-002           1.40790e-003           4.07905e-004
                   20.10    420.01817                                0.00000             82.227                                        4.20018e+002           2.00182e+001           1.81669e-002           1.81669e-002           1.81669e-002           8.16693e-003           1.66935e-004
                   20.20    420.00084                                0.00000             82.227                                        4.20001e+002           2.00008e+001           8.36908e-004           8.36908e-004           8.36908e-004           8.36908e-004           8.36908e-004
                   20.30    419.98157                                0.00000             82.227                                        4.19982e+002           1.99816e+001           9.98157e+000           9.81570e-001           8.15698e-002           1.56977e-003           5.69774e-004
                   20.40    419.97400                                0.00000             82.227                                        4.19974e+002           1.99740e+001           9.97400e+000           9.74000e-001           7.40002e-002           4.00015e-003           1.54413e-007
                   20.50    419.97223                                0.00000             82.227                                        4.19972e+002           1.99722e+001           9.97223e+000           9.72226e-001           7.22259e-002           2.22585e-003           2.25853e-004
                   20.60    419.96943                                0.00000             82.227                                        4.19969e+002           1.99694e+001           9.96943e+000           9.69430e-001           6.94301e-002           9.43005e-003           4.30051e-004
                   20.70    419.97485                                0.00000             82.224                                        4.19975e+002           1.99748e+001           9.97485e+000           9.74848e-001           7.48477e-002           4.84767e-003           8.47670e-004
                   20.80    419.98186                                0.00000             82.221                                        4.19982e+002           1.99819e+001           9.98186e+000           9.81864e-001           8.18645e-002           1.86445e-003           8.64450e-004
                   20.90    419.97793                                0.00000             82.219                                        4.19978e+002           1.99779e+001           9.97793e+000           9.77933e-001           7.79327e-002           7.93271e-003           9.32707e-004
                   21.00    419.97259                                0.00000             82.221                                        4.19973e+002           1.99726e+001           9.97259e+000           9.72586e-001           7.25855e-002           2.58550e-003           5.85501e-004
                   21.10    419.98524                                0.00000             82.222                                        4.19985e+002           1.99852e+001           9.98524e+000           9.85245e-001           8.52448e-002           5.24480e-003           2.44802e-004
                   21.20    420.00839                                0.00000             82.221                                        4.20008e+002           2.00084e+001           8.38864e-003           8.38864e-003           8.38864e-003           8.38864e-003           3.88639e-004
                   21.30    420.00214                                0.00000             82.219                                        4.20002e+002           2.00021e+001           2.14280e-003           2.14280e-003           2.14280e-003           2.14280e-003           1.42802e-004
                   21.40    419.97906                                0.00000             82.219                                        4.19979e+002           1.99791e+001           9.97906e+000           9.79061e-001           7.90608e-002           9.06079e-003           6.07858e-005
                   21.50    419.96369                                0.00000             82.219                                        4.19964e+002           1.99637e+001           9.96369e+000           9.63687e-001           6.36867e-002           3.68666e-003           6.86663e-004
                   21.60    419.96346                                0.00000             82.219                                        4.19963e+002           1.99635e+001           9.96346e+000           9.63463e-001           6.34633e-002           3.46329e-003           4.63293e-004
