~VERSION INFORMATION
VERS                    .            2.0                                    :CWLS LOG ASCII STANDARD
WRAP                    .            NO                                     :ONE LINE PER TIME STEP


~WELL INFORMATION
#MNEM                   .UNIT        DATA                                    DESCRIPTION
#________________________________________________________________________________________
STRTTIME                .HH/MM/SS    03:09:23                               :START TIME
STOPTIME                .HH/MM/SS    03:12:09                               :STOP TIME
STRT                    .s           2.10                                   :START DATA
STOP                    .s           164.80                                 :STOP DATA
STEP                    .s           0.10                                   :MEASUREMENT TIME INTERVAL
NULL                    .            -999.25                                :NULL VALUE
COMP                    .            Statoil ASA                            :COMPANY
FLD                     .            Volve                                  :FIELD
WELL                    .            15/9-F-1 C                             :WELL
RUN                     .            4                                      :RUN
LOC                     .                                                   :LOCATION
PROV                    .            na                                     :PROVINCE
SRVC                    .            Baker Hughes INTEQ                     :SERVICE COMPANY
DATE                    .YY/MM/DD    14/03/15                               :LOG DATE
UWI                     .                                                   :UNIQUE WELL ID
DEPTHMD                 .m           3523.2                                 :MEASURED DEPTH
DEPTHTVD                .m           2986.7                                 :TRUE VERTICAL DEPTH


~CURVE INFORMATION
#MNEM                   .UNIT        API CODES                               DESCRIPTION
#________________________________________________________________________________________
TIME                    .s                                                  :01 TIME
DD_PRESS                .bar                                                :02 DRAW DOWN PRESSURE
DD_VOLUME               .cm3                                                :03 INCREMENTAL DRAW DOWN VOLUME
TEMP                    .degC                                               :04 TRANSDUCER TEMPERATURE
DD_PRESS_MOD_1000       .bar                                                :05 DRAW DOWN PRESSURE MOD 1000
DD_PRESS_MOD_100        .bar                                                :06 DRAW DOWN PRESSURE MOD 100
DD_PRESS_MOD_10         .bar                                                :07 DRAW DOWN PRESSURE MOD 10
DD_PRESS_MOD_1          .bar                                                :08 DRAW DOWN PRESSURE MOD 1
DD_PRESS_MOD_01         .bar                                                :09 DRAW DOWN PRESSURE MOD 01
DD_PRESS_MOD_001        .bar                                                :10 DRAW DOWN PRESSURE MOD 001
DD_PRESS_MOD_0001       .bar                                                :11 DRAW DOWN PRESSURE MOD 0001


~PARAMETER INFORMATION
#MNEM                   .UNIT        VALUE                                   DESCRIPTION
#________________________________________________________________________________________
TOOLFACE                .deg         104.9                                  :01 TOOLFACE
PUMP_CAPACITY           .bar         400                                    :02 NOMINAL DRAW DOWN PUMP CAPACITY
PUMP_LIMIT              .bar         240                                    :03 DOWNLINK PUMP LIMIT
TIME_LIMIT              .min         10                                     :04 DOWNLINK MAX TIME
TEST_TYPE               .            REPEAT                                 :05 DOWNLINK
TEST_TYPE               .            HIGH MOBILITY                          :06 DOWNLINK
DD_PIST_A               .cm2         3.1416                                 :07 DRAW DOWN PISTON AREA
V_SYS                   .cm3         131.0000                               :08 SYSTEM VOLUME
PROBE_ID                .cm          1.2700                                 :09 TTK PROBE ID
G0                      .            4.6700                                 :10 GEOMETRY FACTOR


~A                  TIME     DD_PRESS                              DD_VOLUME               TEMP                                   DD_PRESS_MOD_1000       DD_PRESS_MOD_100        DD_PRESS_MOD_10         DD_PRESS_MOD_1        DD_PRESS_MOD_01       DD_PRESS_MOD_001      DD_PRESS_MOD_0001
# ...
                  119.70    340.98523                               29.43937             84.479                                        3.40985e+002           4.09852e+001           9.85231e-001           9.85231e-001           8.52311e-002           5.23112e-003           2.31118e-004
                  119.80    340.99243                               29.43937             84.477                                        3.40992e+002           4.09924e+001           9.92430e-001           9.92430e-001           9.24305e-002           2.43045e-003           4.30455e-004
                  119.90    340.99006                               29.43937             84.477                                        3.40990e+002           4.09901e+001           9.90064e-001           9.90064e-001           9.00636e-002           6.35747e-005           6.35747e-005
                  120.00    340.98106                               29.43937             84.477                                        3.40981e+002           4.09811e+001           9.81062e-001           9.81062e-001           8.10616e-002           1.06160e-003           6.16039e-005
                  120.10    340.97986                               29.43937             84.477                                        3.40980e+002           4.09799e+001           9.79861e-001           9.79861e-001           7.98613e-002           9.86126e-003           8.61262e-004
                  120.20    340.98239                               29.43937             84.477                                        3.40982e+002           4.09824e+001           9.82389e-001           9.82389e-001           8.23886e-002           2.38862e-003           3.88619e-004
                  120.30    340.98100                               29.43937             84.477                                        3.40981e+002           4.09810e+001           9.81004e-001           9.81004e-001           8.10039e-002           1.00394e-003           3.93881e-006
                  120.40    340.98118                               29.43937             84.477                                        3.40981e+002           4.09812e+001           9.81181e-001           9.81181e-001           8.11809e-002           1.18094e-003           1.80943e-004
                  120.50    340.99048                               29.43937             84.479                                        3.40990e+002           4.09905e+001           9.90479e-001           9.90479e-001           9.04786e-002           4.78559e-004           4.78559e-004
                  120.60    340.99078                               29.43937             84.482                                        3.40991e+002           4.09908e+001           9.90777e-001           9.90777e-001           9.07773e-002           7.77297e-004           7.77297e-004
                  120.70    340.98148                               29.43937             84.482                                        3.40981e+002           4.09815e+001           9.81481e-001           9.81481e-001           8.14810e-002           1.48096e-003           4.80960e-004
                  120.80    340.97847                               29.43937             84.479                                        3.40978e+002           4.09785e+001           9.78472e-001           9.78472e-001           7.84720e-002           8.47201e-003           4.72005e-004
                  120.90    340.98634                               29.43937             84.477                                        3.40986e+002           4.09863e+001           9.86339e-001           9.86339e-001           8.63387e-002           6.33871e-003           3.38715e-004
                  121.00    340.99321                               29.43937             84.477                                        3.40993e+002           4.09932e+001           9.93208e-001           9.93208e-001           9.32081e-002           3.20807e-003           2.08070e-004
                  121.10    340.98410                               29.43937             84.477                                        3.40984e+002           4.09841e+001           9.84096e-001           9.84096e-001           8.40962e-002           4.09622e-003           9.62230e-005
                  121.20    340.97223                               29.43937             84.477                                        3.40972e+002           4.09722e+001           9.72233e-001           9.72233e-001           7.22334e-002           2.23336e-003           2.33359e-004
                  121.30    340.97739                               29.43937             84.477                                        3.40977e+002           4.09774e+001           9.77389e-001           9.77389e-001           7.73890e-002           7.38903e-003           3.89026e-004
                  121.40    340.98802                               29.43937             84.477                                        3.40988e+002           4.09880e+001           9.88018e-001           9.88018e-001           8.80180e-002           8.01798e-003           1.79843e-005
                  121.50    340.99009                               29.43937             84.477                                        3.40990e+002           4.09901e+001           9.90093e-001           9.90093e-001           9.00927e-002           9.27007e-005           9.27007e-005
                  121.60    340.98368                               29.43937             84.477                                        3.40984e+002           4.09837e+001           9.83678e-001           9.83678e-001           8.36783e-002           3.67827e-003           6.78269e-004
                  121.70    340.97826                               29.43937             84.477                                        3.40978e+002           4.09783e+001           9.78256e-001           9.78256e-001           7.82556e-002           8.25565e-003           2.55648e-004
                  121.80    340.98366                               29.43937             84.477                                        3.40984e+002           4.09837e+001           9.83662e-001           9.83662e-001           8.36621e-002           3.66208e-003           6.62075e-004
                  121.90    340.99071                               29.43937             84.477                                        3.40991e+002           4.09907e+001           9.90709e-001           9.90709e-001           9.07095e-002           7.09482e-004           7.09482e-004
                  122.00    340.99087                               29.43937             84.477                                        3.40991e+002           4.09909e+001           9.90873e-001           9.90873e-001           9.08728e-002           8.72809e-004           8.72809e-004
                  122.10    340.98390                               29.43937             84.477                                        3.40984e+002           4.09839e+001           9.83896e-001           9.83896e-001           8.38956e-002           3.89564e-003           8.95638e-004
                  122.20    340.98058                               29.43937             84.477                                        3.40981e+002           4.09806e+001           9.80584e-001           9.80584e-001           8.05840e-002           5.83961e-004           5.83961e-004
                  122.30    340.98972                               29.43937             84.477                                        3.40990e+002           4.09897e+001           9.89716e-001           9.89716e-001           8.97163e-002           9.71634e-003           7.16340e-004
                  122.40    340.99498                               29.43937             84.477                                        3.40995e+002           4.09950e+001           9.94975e-001           9.94975e-001           9.49753e-002           4.97528e-003           9.75278e-004
