~VERSION INFORMATION
VERS                    .            2.0                                    :CWLS LOG ASCII STANDARD
WRAP                    .            NO                                     :ONE LINE PER TIME STEP


~WELL INFORMATION
#MNEM                   .UNIT        DATA                                    DESCRIPTION
#________________________________________________________________________________________
STRTTIME                .HH/MM/SS    16:37:30                               :START TIME
STOPTIME                .HH/MM/SS    16:40:36                               :STOP TIME
STRT                    .s           2.10                                   :START DATA
STOP                    .s           184.70                                 :STOP DATA
STEP                    .s           0.10                                   :MEASUREMENT TIME INTERVAL
NULL                    .            -999.25                                :NULL VALUE
COMP                    .            Statoil ASA                            :COMPANY
FLD                     .            Volve                                  :FIELD
WELL                    .            15/9-F-1 B                             :WELL
RUN                     .            7                                      :RUN
LOC                     .            Maersk Inspirer                        :LOCATION
PROV                    .            na                                     :PROVINCE
SRVC                    .            Baker Hughes INTEQ                     :SERVICE COMPANY
DATE                    .YY/MM/DD    13/09/06                               :LOG DATE
UWI                     .                                                   :UNIQUE WELL ID
DEPTHMD                 .m           3247.0                                 :MEASURED DEPTH
DEPTHTVD                .m           3043.3                                 :TRUE VERTICAL DEPTH


~CURVE INFORMATION
#MNEM                   .UNIT        API CODES                               DESCRIPTION
#________________________________________________________________________________________
TIME                    .s                                                  :01 TIME
DD_PRESS                .bar                                                :02 DRAW DOWN PRESSURE
DD_VOLUME               .cm3                                                :03 INCREMENTAL DRAW DOWN VOLUME
TEMP                    .degC                                               :04 TRANSDUCER TEMPERATURE
DD_PRESS_MOD_1000       .bar                                                :05 DRAW DOWN PRESSURE MOD 1000
DD_PRESS_MOD_100        .bar                                                :06 DRAW DOWN PRESSURE MOD 100
DD_PRESS_MOD_10         .bar                                                :07 DRAW DOWN PRESSURE MOD 10
DD_PRESS_MOD_1          .bar                                                :08 DRAW DOWN PRESSURE MOD 1
DD_PRESS_MOD_01         .bar                                                :09 DRAW DOWN PRESSURE MOD 01
DD_PRESS_MOD_001        .bar                                                :10 DRAW DOWN PRESSURE MOD 001
DD_PRESS_MOD_0001       .bar                                                :11 DRAW DOWN PRESSURE MOD 0001


~PARAMETER INFORMATION
#MNEM                   .UNIT        VALUE                                   DESCRIPTION
#________________________________________________________________________________________
TOOLFACE                .deg         na                                     :01 TOOLFACE
PUMP_CAPACITY           .bar         400                                    :02 NOMINAL DRAW DOWN PUMP CAPACITY
PUMP_LIMIT              .bar         400                                    :03 DOWNLINK PUMP LIMIT
TIME_LIMIT              .min         10                                     :04 DOWNLINK MAX TIME
TEST_TYPE               .            LOW MOBILITY                           :05 DOWNLINK
DD_PIST_A               .cm2         3.1416                                 :06 DRAW DOWN PISTON AREA
V_SYS                   .cm3         131.0000                               :07 SYSTEM VOLUME
PROBE_ID                .cm          1.2700                                 :08 TTK PROBE ID
G0                      .            4.6700                                 :09 GEOMETRY FACTOR


~A                  TIME     DD_PRESS                              DD_VOLUME               TEMP                                   DD_PRESS_MOD_1000       DD_PRESS_MOD_100        DD_PRESS_MOD_10         DD_PRESS_MOD_1        DD_PRESS_MOD_01       DD_PRESS_MOD_001      DD_PRESS_MOD_0001
# ...
                  156.10    344.55378                               29.23081             81.508                                        3.44554e+002           4.45538e+001           4.55378e+000           5.53778e-001           5.37781e-002           3.77812e-003           7.78116e-004
                  156.20    344.54419                               29.23081             81.508                                        3.44544e+002           4.45442e+001           4.54419e+000           5.44188e-001           4.41881e-002           4.18810e-003           1.88096e-004
                  156.30    344.56147                               29.23081             81.508                                        3.44561e+002           4.45615e+001           4.56147e+000           5.61465e-001           6.14652e-002           1.46518e-003           4.65185e-004
                  156.40    344.57957                               29.23081             81.508                                        3.44580e+002           4.45796e+001           4.57957e+000           5.79569e-001           7.95695e-002           9.56947e-003           5.69469e-004
                  156.50    344.56980                               29.23081             81.508                                        3.44570e+002           4.45698e+001           4.56980e+000           5.69802e-001           6.98019e-002           9.80194e-003           8.01935e-004
                  156.60    344.56295                               29.23081             81.508                                        3.44563e+002           4.45629e+001           4.56295e+000           5.62946e-001           6.29457e-002           2.94574e-003           9.45739e-004
                  156.70    344.56506                               29.23081             81.508                                        3.44565e+002           4.45651e+001           4.56506e+000           5.65058e-001           6.50578e-002           5.05780e-003           5.78031e-005
                  156.80    344.55803                               29.23081             81.508                                        3.44558e+002           4.45580e+001           4.55803e+000           5.58033e-001           5.80333e-002           8.03325e-003           3.32540e-005
                  156.90    344.55062                               29.23081             81.508                                        3.44551e+002           4.45506e+001           4.55062e+000           5.50621e-001           5.06207e-002           6.20705e-004           6.20705e-004
                  157.00    344.56746                               29.23081             81.508                                        3.44567e+002           4.45675e+001           4.56746e+000           5.67457e-001           6.74569e-002           7.45692e-003           4.56916e-004
                  157.10    344.58481                               29.23081             81.508                                        3.44585e+002           4.45848e+001           4.58481e+000           5.84809e-001           8.48095e-002           4.80948e-003           8.09484e-004
                  157.20    344.57652                               29.23081             81.508                                        3.44577e+002           4.45765e+001           4.57652e+000           5.76518e-001           7.65179e-002           6.51789e-003           5.17890e-004
                  157.30    344.55771                               29.23081             81.508                                        3.44558e+002           4.45577e+001           4.55771e+000           5.57713e-001           5.77132e-002           7.71325e-003           7.13245e-004
                  157.40    344.55518                               29.23081             81.508                                        3.44555e+002           4.45552e+001           4.55518e+000           5.55176e-001           5.51760e-002           5.17601e-003           1.76006e-004
                  157.50    344.56475                               29.23081             81.508                                        3.44565e+002           4.45647e+001           4.56475e+000           5.64745e-001           6.47451e-002           4.74512e-003           7.45125e-004
                  157.60    344.56655                               29.23081             81.508                                        3.44567e+002           4.45665e+001           4.56655e+000           5.66550e-001           6.65497e-002           6.54971e-003           5.49715e-004
                  157.70    344.55715                               29.23081             81.508                                        3.44557e+002           4.45572e+001           4.55715e+000           5.57154e-001           5.71543e-002           7.15429e-003           1.54292e-004
                  157.80    344.55747                               29.23081             81.508                                        3.44557e+002           4.45575e+001           4.55747e+000           5.57471e-001           5.74708e-002           7.47081e-003           4.70813e-004
                  157.90    344.56825                               29.23081             81.508                                        3.44568e+002           4.45682e+001           4.56825e+000           5.68250e-001           6.82498e-002           8.24982e-003           2.49816e-004
                  158.00    344.56959                               29.23081             81.508                                        3.44570e+002           4.45696e+001           4.56959e+000           5.69586e-001           6.95856e-002           9.58557e-003           5.85571e-004
                  158.10    344.55893                               29.23081             81.508                                        3.44559e+002           4.45589e+001           4.55893e+000           5.58931e-001           5.89315e-002           8.93147e-003           9.31467e-004
                  158.20    344.56043                               29.23081             81.508                                        3.44560e+002           4.45604e+001           4.56043e+000           5.60430e-001           6.04304e-002           4.30393e-004           4.30393e-004
                  158.30    344.57369                               29.23081             81.508                                        3.44574e+002           4.45737e+001           4.57369e+000           5.73685e-001           7.36852e-002           3.68521e-003           6.85211e-004
                  158.40    344.56563                               29.23081             81.508                                        3.44566e+002           4.45656e+001           4.56563e+000           5.65626e-001           6.56257e-002           5.62568e-003           6.25683e-004
                  158.50    344.54604                               29.23081             81.508                                        3.44546e+002           4.45460e+001           4.54604e+000           5.46036e-001           4.60363e-002           6.03632e-003           3.63168e-005
                  158.60    344.55371                               29.23081             81.508                                        3.44554e+002           4.45537e+001           4.55371e+000           5.53705e-001           5.37052e-002           3.70521e-003           7.05214e-004
                  158.70    344.57285                               29.23081             81.508                                        3.44573e+002           4.45729e+001           4.57285e+000           5.72851e-001           7.28507e-002           2.85068e-003           8.50685e-004
                  158.80    344.56885                               29.23081             81.508                                        3.44569e+002           4.45689e+001           4.56885e+000           5.68852e-001           6.88521e-002           8.85214e-003           8.52143e-004
