~VERSION INFORMATION
VERS                    .            2.0                                    :CWLS LOG ASCII STANDARD
WRAP                    .            NO                                     :ONE LINE PER TIME STEP


~WELL INFORMATION
#MNEM                   .UNIT        DATA                                    DESCRIPTION
#________________________________________________________________________________________
STRTTIME                .HH/MM/SS    16:20:20                               :START TIME
STOPTIME                .HH/MM/SS    16:23:23                               :STOP TIME
STRT                    .s           2.10                                   :START DATA
STOP                    .s           182.00                                 :STOP DATA
STEP                    .s           0.10                                   :MEASUREMENT TIME INTERVAL
NULL                    .            -999.25                                :NULL VALUE
COMP                    .            Statoil ASA                            :COMPANY
FLD                     .            Volve                                  :FIELD
WELL                    .            15/9-F-1 B                             :WELL
RUN                     .            7                                      :RUN
LOC                     .            Maersk Inspirer                        :LOCATION
PROV                    .            na                                     :PROVINCE
SRVC                    .            Baker Hughes INTEQ                     :SERVICE COMPANY
DATE                    .YY/MM/DD    13/09/06                               :LOG DATE
UWI                     .                                                   :UNIQUE WELL ID
DEPTHMD                 .m           3255.0                                 :MEASURED DEPTH
DEPTHTVD                .m           3051.1                                 :TRUE VERTICAL DEPTH


~CURVE INFORMATION
#MNEM                   .UNIT        API CODES                               DESCRIPTION
#________________________________________________________________________________________
TIME                    .s                                                  :01 TIME
DD_PRESS                .bar                                                :02 DRAW DOWN PRESSURE
DD_VOLUME               .cm3                                                :03 INCREMENTAL DRAW DOWN VOLUME
TEMP                    .degC                                               :04 TRANSDUCER TEMPERATURE
DD_PRESS_MOD_1000       .bar                                                :05 DRAW DOWN PRESSURE MOD 1000
DD_PRESS_MOD_100        .bar                                                :06 DRAW DOWN PRESSURE MOD 100
DD_PRESS_MOD_10         .bar                                                :07 DRAW DOWN PRESSURE MOD 10
DD_PRESS_MOD_1          .bar                                                :08 DRAW DOWN PRESSURE MOD 1
DD_PRESS_MOD_01         .bar                                                :09 DRAW DOWN PRESSURE MOD 01
DD_PRESS_MOD_001        .bar                                                :10 DRAW DOWN PRESSURE MOD 001
DD_PRESS_MOD_0001       .bar                                                :11 DRAW DOWN PRESSURE MOD 0001


~PARAMETER INFORMATION
#MNEM                   .UNIT        VALUE                                   DESCRIPTION
#________________________________________________________________________________________
TOOLFACE                .deg         na                                     :01 TOOLFACE
PUMP_CAPACITY           .bar         400                                    :02 NOMINAL DRAW DOWN PUMP CAPACITY
PUMP_LIMIT              .bar         400                                    :03 DOWNLINK PUMP LIMIT
TIME_LIMIT              .min         10                                     :04 DOWNLINK MAX TIME
TEST_TYPE               .            LOW MOBILITY                           :05 DOWNLINK
DD_PIST_A               .cm2         3.1416                                 :06 DRAW DOWN PISTON AREA
V_SYS                   .cm3         131.0000                               :07 SYSTEM VOLUME
PROBE_ID                .cm          1.2700                                 :08 TTK PROBE ID
G0                      .            4.6700                                 :09 GEOMETRY FACTOR


~A                  TIME     DD_PRESS                              DD_VOLUME               TEMP                                   DD_PRESS_MOD_1000       DD_PRESS_MOD_100        DD_PRESS_MOD_10         DD_PRESS_MOD_1        DD_PRESS_MOD_01       DD_PRESS_MOD_001      DD_PRESS_MOD_0001
# ...
                  178.50    436.59387                                0.00000             81.750                                        4.36594e+002           3.65939e+001           6.59387e+000           5.93870e-001           9.38697e-002           3.86966e-003           8.69665e-004
                  178.60    436.58629                                0.00000             81.750                                        4.36586e+002           3.65863e+001           6.58629e+000           5.86289e-001           8.62895e-002           6.28945e-003           2.89453e-004
                  178.70    436.65845                                0.00000             81.750                                        4.36658e+002           3.66584e+001           6.65845e+000           6.58448e-001           5.84483e-002           8.44826e-003           4.48264e-004
                  178.80    436.67301                                0.00000             81.750                                        4.36673e+002           3.66730e+001           6.67301e+000           6.73007e-001           7.30067e-002           3.00672e-003           6.72337e-006
                  178.90    436.60068                                0.00000             81.750                                        4.36601e+002           3.66007e+001           6.60068e+000           6.00681e-001           6.81455e-004           6.81455e-004           6.81455e-004
                  179.00    436.58369                                0.00000             81.750                                        4.36584e+002           3.65837e+001           6.58369e+000           5.83692e-001           8.36916e-002           3.69160e-003           6.91602e-004
                  179.10    436.65421                                0.00000             81.750                                        4.36654e+002           3.66542e+001           6.65421e+000           6.54207e-001           5.42070e-002           4.20697e-003           2.06973e-004
                  179.20    436.68090                                0.00000             81.750                                        4.36681e+002           3.66809e+001           6.68090e+000           6.80895e-001           8.08954e-002           8.95443e-004           8.95443e-004
                  179.30    436.61370                                0.00000             81.750                                        4.36614e+002           3.66137e+001           6.61370e+000           6.13698e-001           1.36976e-002           3.69757e-003           6.97572e-004
                  179.40    436.59343                                0.00000             81.750                                        4.36593e+002           3.65934e+001           6.59343e+000           5.93427e-001           9.34265e-002           3.42654e-003           4.26539e-004
                  179.50    436.65813                                0.00000             81.750                                        4.36658e+002           3.66581e+001           6.65813e+000           6.58129e-001           5.81291e-002           8.12905e-003           1.29055e-004
                  179.60    436.66763                                0.00000             81.750                                        4.36668e+002           3.66676e+001           6.66763e+000           6.67627e-001           6.76273e-002           7.62727e-003           6.27274e-004
                  179.70    436.58881                                0.00000             81.750                                        4.36589e+002           3.65888e+001           6.58881e+000           5.88805e-001           8.88054e-002           8.80536e-003           8.05357e-004
                  179.80    436.56752                                0.00000             81.750                                        4.36568e+002           3.65675e+001           6.56752e+000           5.67519e-001           6.75187e-002           7.51873e-003           5.18729e-004
                  179.90    436.63207                                0.00000             81.750                                        4.36632e+002           3.66321e+001           6.63207e+000           6.32070e-001           3.20700e-002           2.07001e-003           7.00142e-005
                  180.00    436.65094                                0.00000             81.750                                        4.36651e+002           3.66509e+001           6.65094e+000           6.50939e-001           5.09393e-002           9.39256e-004           9.39256e-004
                  180.10    436.58586                                0.00000             81.750                                        4.36586e+002           3.65859e+001           6.58586e+000           5.85864e-001           8.58642e-002           5.86424e-003           8.64244e-004
                  180.20    436.57671                                0.00000             81.750                                        4.36577e+002           3.65767e+001           6.57671e+000           5.76710e-001           7.67098e-002           6.70977e-003           7.09770e-004
                  180.30    436.63822                                0.00000             81.750                                        4.36638e+002           3.66382e+001           6.63822e+000           6.38221e-001           3.82207e-002           8.22073e-003           2.20732e-004
                  180.40    436.64271                                0.00000             81.750                                        4.36643e+002           3.66427e+001           6.64271e+000           6.42713e-001           4.27127e-002           2.71267e-003           7.12668e-004
                  180.50    436.57244                                0.00000             81.750                                        4.36572e+002           3.65724e+001           6.57244e+000           5.72437e-001           7.24375e-002           2.43746e-003           4.37461e-004
                  180.60    436.57006                                0.00000             81.750                                        4.36570e+002           3.65701e+001           6.57006e+000           5.70058e-001           7.00584e-002           5.83813e-005           5.83813e-005
                  180.70    436.64160                                0.00000             81.750                                        4.36642e+002           3.66416e+001           6.64160e+000           6.41597e-001           4.15974e-002           1.59738e-003           5.97382e-004
                  180.80    436.65238                                0.00000             81.750                                        4.36652e+002           3.66524e+001           6.65238e+000           6.52379e-001           5.23792e-002           2.37916e-003           3.79161e-004
                  180.90    436.58123                                0.00000             81.750                                        4.36581e+002           3.65812e+001           6.58123e+000           5.81232e-001           8.12321e-002           1.23214e-003           2.32140e-004
                  181.00    436.57524                                0.00000             81.750                                        4.36575e+002           3.65752e+001           6.57524e+000           5.75237e-001           7.52369e-002           5.23685e-003           2.36854e-004
                  181.10    436.63904                                0.00000             81.750                                        4.36639e+002           3.66390e+001           6.63904e+000           6.39044e-001           3.90444e-002           9.04438e-003           4.43755e-005
                  181.20    436.65225                                0.00000             81.750                                        4.36652e+002           3.66522e+001           6.65225e+000           6.52246e-001           5.22458e-002           2.24583e-003           2.45831e-004
