~VERSION INFORMATION
VERS                    .            2.0                                    :CWLS LOG ASCII STANDARD
WRAP                    .            NO                                     :ONE LINE PER TIME STEP


~WELL INFORMATION
#MNEM                   .UNIT        DATA                                    DESCRIPTION
#________________________________________________________________________________________
STRTTIME                .HH/MM/SS    03:28:02                               :START TIME
STOPTIME                .HH/MM/SS    03:30:44                               :STOP TIME
STRT                    .s           2.10                                   :START DATA
STOP                    .s           160.80                                 :STOP DATA
STEP                    .s           0.10                                   :MEASUREMENT TIME INTERVAL
NULL                    .            -999.25                                :NULL VALUE
COMP                    .            Statoil ASA                            :COMPANY
FLD                     .            Volve                                  :FIELD
WELL                    .            15/9-F-1 C                             :WELL
RUN                     .            4                                      :RUN
LOC                     .                                                   :LOCATION
PROV                    .            na                                     :PROVINCE
SRVC                    .            Baker Hughes INTEQ                     :SERVICE COMPANY
DATE                    .YY/MM/DD    14/03/15                               :LOG DATE
UWI                     .                                                   :UNIQUE WELL ID
DEPTHMD                 .m           3493.0                                 :MEASURED DEPTH
DEPTHTVD                .m           2980.2                                 :TRUE VERTICAL DEPTH


~CURVE INFORMATION
#MNEM                   .UNIT        API CODES                               DESCRIPTION
#________________________________________________________________________________________
TIME                    .s                                                  :01 TIME
DD_PRESS                .bar                                                :02 DRAW DOWN PRESSURE
DD_VOLUME               .cm3                                                :03 INCREMENTAL DRAW DOWN VOLUME
TEMP                    .degC                                               :04 TRANSDUCER TEMPERATURE
DD_PRESS_MOD_1000       .bar                                                :05 DRAW DOWN PRESSURE MOD 1000
DD_PRESS_MOD_100        .bar                                                :06 DRAW DOWN PRESSURE MOD 100
DD_PRESS_MOD_10         .bar                                                :07 DRAW DOWN PRESSURE MOD 10
DD_PRESS_MOD_1          .bar                                                :08 DRAW DOWN PRESSURE MOD 1
DD_PRESS_MOD_01         .bar                                                :09 DRAW DOWN PRESSURE MOD 01
DD_PRESS_MOD_001        .bar                                                :10 DRAW DOWN PRESSURE MOD 001
DD_PRESS_MOD_0001       .bar                                                :11 DRAW DOWN PRESSURE MOD 0001


~PARAMETER INFORMATION
#MNEM                   .UNIT        VALUE                                   DESCRIPTION
#________________________________________________________________________________________
TOOLFACE                .deg         89.6                                   :01 TOOLFACE
PUMP_CAPACITY           .bar         400                                    :02 NOMINAL DRAW DOWN PUMP CAPACITY
PUMP_LIMIT              .bar         240                                    :03 DOWNLINK PUMP LIMIT
TIME_LIMIT              .min         10                                     :04 DOWNLINK MAX TIME
TEST_TYPE               .            REPEAT                                 :05 DOWNLINK
TEST_TYPE               .            HIGH MOBILITY                          :06 DOWNLINK
DD_PIST_A               .cm2         3.1416                                 :07 DRAW DOWN PISTON AREA
V_SYS                   .cm3         131.0000                               :08 SYSTEM VOLUME
PROBE_ID                .cm          1.2700                                 :09 TTK PROBE ID
G0                      .            4.6700                                 :10 GEOMETRY FACTOR


~A                  TIME     DD_PRESS                              DD_VOLUME               TEMP                                   DD_PRESS_MOD_1000       DD_PRESS_MOD_100        DD_PRESS_MOD_10         DD_PRESS_MOD_1        DD_PRESS_MOD_01       DD_PRESS_MOD_001      DD_PRESS_MOD_0001
# ...
                  158.90    422.13697                                0.00000             83.688                                        4.22137e+002           2.21370e+001           2.13697e+000           1.36974e-001           3.69742e-002           6.97424e-003           9.74243e-004
                  159.00    422.12250                                0.00000             83.688                                        4.22122e+002           2.21225e+001           2.12250e+000           1.22496e-001           2.24959e-002           2.49591e-003           4.95912e-004
                  159.10    422.12291                                0.00000             83.688                                        4.22123e+002           2.21229e+001           2.12291e+000           1.22910e-001           2.29104e-002           2.91037e-003           9.10372e-004
                  159.20    422.14063                                0.00000             83.685                                        4.22141e+002           2.21406e+001           2.14063e+000           1.40632e-001           4.06320e-002           6.32020e-004           6.32020e-004
                  159.30    422.15001                                0.00000             83.682                                        4.22150e+002           2.21500e+001           2.15001e+000           1.50006e-001           5.00062e-002           6.21480e-006           6.21480e-006
                  159.40    422.13300                                0.00000             83.680                                        4.22133e+002           2.21330e+001           2.13300e+000           1.33003e-001           3.30033e-002           3.00332e-003           3.32350e-006
                  159.50    422.11203                                0.00000             83.680                                        4.22112e+002           2.21120e+001           2.11203e+000           1.12028e-001           1.20285e-002           2.02850e-003           2.84996e-005
                  159.60    422.11610                                0.00000             83.680                                        4.22116e+002           2.21161e+001           2.11610e+000           1.16096e-001           1.60957e-002           6.09571e-003           9.57102e-005
                  159.70    422.13941                                0.00000             83.680                                        4.22139e+002           2.21394e+001           2.13941e+000           1.39412e-001           3.94119e-002           9.41194e-003           4.11943e-004
                  159.80    422.13817                                0.00000             83.680                                        4.22138e+002           2.21382e+001           2.13817e+000           1.38167e-001           3.81674e-002           8.16743e-003           1.67426e-004
                  159.90    422.12146                                0.00000             83.680                                        4.22121e+002           2.21215e+001           2.12146e+000           1.21461e-001           2.14614e-002           1.46144e-003           4.61439e-004
                  160.00    422.11573                                0.00000             83.680                                        4.22116e+002           2.21157e+001           2.11573e+000           1.15730e-001           1.57301e-002           5.73011e-003           7.30114e-004
                  160.10    422.12753                                0.00000             83.680                                        4.22128e+002           2.21275e+001           2.12753e+000           1.27527e-001           2.75274e-002           7.52742e-003           5.27423e-004
                  160.20    422.14118                                0.00000             83.680                                        4.22141e+002           2.21412e+001           2.14118e+000           1.41178e-001           4.11776e-002           1.17757e-003           1.77570e-004
                  160.30    422.13760                                0.00000             83.680                                        4.22138e+002           2.21376e+001           2.13760e+000           1.37598e-001           3.75984e-002           7.59845e-003           5.98447e-004
                  160.40    422.12330                                0.00000             83.680                                        4.22123e+002           2.21233e+001           2.12330e+000           1.23300e-001           2.33003e-002           3.30034e-003           3.00341e-004
                  160.50    422.12167                                0.00000             83.680                                        4.22122e+002           2.21217e+001           2.12167e+000           1.21674e-001           2.16742e-002           1.67416e-003           6.74164e-004
                  160.60    422.13131                                0.00000             83.680                                        4.22131e+002           2.21313e+001           2.13131e+000           1.31306e-001           3.13057e-002           1.30567e-003           3.05671e-004
                  160.70    422.14789                                0.00000             83.680                                        4.22148e+002           2.21479e+001           2.14789e+000           1.47893e-001           4.78934e-002           7.89338e-003           8.93380e-004
                  160.80    422.15252                                0.00000             83.680                                        4.22153e+002           2.21525e+001           2.15252e+000           1.52523e-001           5.25231e-002           2.52313e-003           5.23133e-004
