~VERSION INFORMATION
VERS                    .            2.0                                    :CWLS LOG ASCII STANDARD
WRAP                    .            NO                                     :ONE LINE PER TIME STEP


~WELL INFORMATION
#MNEM                   .UNIT        DATA                                    DESCRIPTION
#________________________________________________________________________________________
STRTTIME                .HH/MM/SS    23:13:04                               :START TIME
STOPTIME                .HH/MM/SS    23:16:31                               :STOP TIME
STRT                    .s           2.10                                   :START DATA
STOP                    .s           205.60                                 :STOP DATA
STEP                    .s           0.10                                   :MEASUREMENT TIME INTERVAL
NULL                    .            -999.25                                :NULL VALUE
COMP                    .            Statoil ASA                            :COMPANY
FLD                     .            Volve                                  :FIELD
WELL                    .            15/9-F-1 C                             :WELL
RUN                     .            4                                      :RUN
LOC                     .                                                   :LOCATION
PROV                    .            na                                     :PROVINCE
SRVC                    .            Baker Hughes INTEQ                     :SERVICE COMPANY
DATE                    .YY/MM/DD    14/03/14                               :LOG DATE
UWI                     .                                                   :UNIQUE WELL ID
DEPTHMD                 .m           3858.0                                 :MEASURED DEPTH
DEPTHTVD                .m           3096.5                                 :TRUE VERTICAL DEPTH


~CURVE INFORMATION
#MNEM                   .UNIT        API CODES                               DESCRIPTION
#________________________________________________________________________________________
TIME                    .s                                                  :01 TIME
DD_PRESS                .bar                                                :02 DRAW DOWN PRESSURE
DD_VOLUME               .cm3                                                :03 INCREMENTAL DRAW DOWN VOLUME
TEMP                    .degC                                               :04 TRANSDUCER TEMPERATURE
DD_PRESS_MOD_1000       .bar                                                :05 DRAW DOWN PRESSURE MOD 1000
DD_PRESS_MOD_100        .bar                                                :06 DRAW DOWN PRESSURE MOD 100
DD_PRESS_MOD_10         .bar                                                :07 DRAW DOWN PRESSURE MOD 10
DD_PRESS_MOD_1          .bar                                                :08 DRAW DOWN PRESSURE MOD 1
DD_PRESS_MOD_01         .bar                                                :09 DRAW DOWN PRESSURE MOD 01
DD_PRESS_MOD_001        .bar                                                :10 DRAW DOWN PRESSURE MOD 001
DD_PRESS_MOD_0001       .bar                                                :11 DRAW DOWN PRESSURE MOD 0001


~PARAMETER INFORMATION
#MNEM                   .UNIT        VALUE                                   DESCRIPTION
#________________________________________________________________________________________
TOOLFACE                .deg         88.6                                   :01 TOOLFACE
PUMP_CAPACITY           .bar         400                                    :02 NOMINAL DRAW DOWN PUMP CAPACITY
PUMP_LIMIT              .bar         240                                    :03 DOWNLINK PUMP LIMIT
TIME_LIMIT              .min         10                                     :04 DOWNLINK MAX TIME
TEST_TYPE               .            HIGH MOBILITY                          :05 DOWNLINK
DD_PIST_A               .cm2         3.1416                                 :06 DRAW DOWN PISTON AREA
V_SYS                   .cm3         131.0000                               :07 SYSTEM VOLUME
PROBE_ID                .cm          1.2700                                 :08 TTK PROBE ID
G0                      .            4.6700                                 :09 GEOMETRY FACTOR


~A                  TIME     DD_PRESS                              DD_VOLUME               TEMP                                   DD_PRESS_MOD_1000       DD_PRESS_MOD_100        DD_PRESS_MOD_10         DD_PRESS_MOD_1        DD_PRESS_MOD_01       DD_PRESS_MOD_001      DD_PRESS_MOD_0001
# ...
                  203.70    441.18892                                0.00000             89.977                                        4.41189e+002           4.11889e+001           1.18892e+000           1.88922e-001           8.89216e-002           8.92165e-003           9.21648e-004
                  203.80    441.17295                                0.00000             89.977                                        4.41173e+002           4.11730e+001           1.17295e+000           1.72952e-001           7.29523e-002           2.95227e-003           9.52271e-004
                  203.90    441.15632                                0.00000             89.977                                        4.41156e+002           4.11563e+001           1.15632e+000           1.56319e-001           5.63194e-002           6.31938e-003           3.19385e-004
                  204.00    441.16346                                0.00000             89.977                                        4.41163e+002           4.11635e+001           1.16346e+000           1.63458e-001           6.34576e-002           3.45759e-003           4.57591e-004
                  204.10    441.17915                                0.00000             89.977                                        4.41179e+002           4.11792e+001           1.17915e+000           1.79152e-001           7.91516e-002           9.15159e-003           1.51586e-004
                  204.20    441.17735                                0.00000             89.977                                        4.41177e+002           4.11773e+001           1.17735e+000           1.77346e-001           7.73461e-002           7.34610e-003           3.46105e-004
                  204.30    441.16900                                0.00000             89.977                                        4.41169e+002           4.11690e+001           1.16900e+000           1.68995e-001           6.89952e-002           8.99519e-003           9.95186e-004
                  204.40    441.17556                                0.00000             89.977                                        4.41176e+002           4.11756e+001           1.17556e+000           1.75562e-001           7.55621e-002           5.56207e-003           5.62073e-004
                  204.50    441.19201                                0.00000             89.977                                        4.41192e+002           4.11920e+001           1.19201e+000           1.92015e-001           9.20146e-002           2.01457e-003           1.45700e-005
                  204.60    441.19537                                0.00000             89.977                                        4.41195e+002           4.11954e+001           1.19537e+000           1.95374e-001           9.53744e-002           5.37441e-003           3.74409e-004
                  204.70    441.18194                                0.00000             89.977                                        4.41182e+002           4.11819e+001           1.18194e+000           1.81940e-001           8.19403e-002           1.94031e-003           9.40306e-004
                  204.80    441.17690                                0.00000             89.977                                        4.41177e+002           4.11769e+001           1.17690e+000           1.76904e-001           7.69042e-002           6.90424e-003           9.04244e-004
                  204.90    441.18849                                0.00000             89.977                                        4.41188e+002           4.11885e+001           1.18849e+000           1.88492e-001           8.84918e-002           8.49183e-003           4.91829e-004
                  205.00    441.18860                                0.00000             89.977                                        4.41189e+002           4.11886e+001           1.18860e+000           1.88604e-001           8.86041e-002           8.60409e-003           6.04085e-004
                  205.10    441.17879                                0.00000             89.977                                        4.41179e+002           4.11788e+001           1.17879e+000           1.78785e-001           7.87851e-002           8.78509e-003           7.85093e-004
                  205.20    441.18002                                0.00000             89.977                                        4.41180e+002           4.11800e+001           1.18002e+000           1.80017e-001           8.00171e-002           1.71160e-005           1.71160e-005
                  205.30    441.18752                                0.00000             89.977                                        4.41188e+002           4.11875e+001           1.18752e+000           1.87525e-001           8.75246e-002           7.52455e-003           5.24554e-004
                  205.40    441.18748                                0.00000             89.977                                        4.41187e+002           4.11875e+001           1.18748e+000           1.87477e-001           8.74766e-002           7.47661e-003           4.76610e-004
                  205.50    441.17611                                0.00000             89.977                                        4.41176e+002           4.11761e+001           1.17611e+000           1.76113e-001           7.61129e-002           6.11294e-003           1.12936e-004
                  205.60    441.16419                                0.00000             89.974                                        4.41164e+002           4.11642e+001           1.16419e+000           1.64195e-001           6.41948e-002           4.19479e-003           1.94794e-004
