~VERSION INFORMATION
VERS                    .            2.0                                    :CWLS LOG ASCII STANDARD
WRAP                    .            NO                                     :ONE LINE PER TIME STEP


~WELL INFORMATION
#MNEM                   .UNIT        DATA                                    DESCRIPTION
#________________________________________________________________________________________
STRTTIME                .HH/MM/SS    23:13:04                               :START TIME
STOPTIME                .HH/MM/SS    23:16:31                               :STOP TIME
STRT                    .s           2.10                                   :START DATA
STOP                    .s           205.60                                 :STOP DATA
STEP                    .s           0.10                                   :MEASUREMENT TIME INTERVAL
NULL                    .            -999.25                                :NULL VALUE
COMP                    .            Statoil ASA                            :COMPANY
FLD                     .            Volve                                  :FIELD
WELL                    .            15/9-F-1 C                             :WELL
RUN                     .            4                                      :RUN
LOC                     .                                                   :LOCATION
PROV                    .            na                                     :PROVINCE
SRVC                    .            Baker Hughes INTEQ                     :SERVICE COMPANY
DATE                    .YY/MM/DD    14/03/14                               :LOG DATE
UWI                     .                                                   :UNIQUE WELL ID
DEPTHMD                 .m           3858.0                                 :MEASURED DEPTH
DEPTHTVD                .m           3096.5                                 :TRUE VERTICAL DEPTH


~CURVE INFORMATION
#MNEM                   .UNIT        API CODES                               DESCRIPTION
#________________________________________________________________________________________
TIME                    .s                                                  :01 TIME
DD_PRESS                .bar                                                :02 DRAW DOWN PRESSURE
DD_VOLUME               .cm3                                                :03 INCREMENTAL DRAW DOWN VOLUME
TEMP                    .degC                                               :04 TRANSDUCER TEMPERATURE
DD_PRESS_MOD_1000       .bar                                                :05 DRAW DOWN PRESSURE MOD 1000
DD_PRESS_MOD_100        .bar                                                :06 DRAW DOWN PRESSURE MOD 100
DD_PRESS_MOD_10         .bar                                                :07 DRAW DOWN PRESSURE MOD 10
DD_PRESS_MOD_1          .bar                                                :08 DRAW DOWN PRESSURE MOD 1
DD_PRESS_MOD_01         .bar                                                :09 DRAW DOWN PRESSURE MOD 01
DD_PRESS_MOD_001        .bar                                                :10 DRAW DOWN PRESSURE MOD 001
DD_PRESS_MOD_0001       .bar                                                :11 DRAW DOWN PRESSURE MOD 0001


~PARAMETER INFORMATION
#MNEM                   .UNIT        VALUE                                   DESCRIPTION
#________________________________________________________________________________________
TOOLFACE                .deg         88.6                                   :01 TOOLFACE
PUMP_CAPACITY           .bar         400                                    :02 NOMINAL DRAW DOWN PUMP CAPACITY
PUMP_LIMIT              .bar         240                                    :03 DOWNLINK PUMP LIMIT
TIME_LIMIT              .min         10                                     :04 DOWNLINK MAX TIME
TEST_TYPE               .            HIGH MOBILITY                          :05 DOWNLINK
DD_PIST_A               .cm2         3.1416                                 :06 DRAW DOWN PISTON AREA
V_SYS                   .cm3         131.0000                               :07 SYSTEM VOLUME
PROBE_ID                .cm          1.2700                                 :08 TTK PROBE ID
G0                      .            4.6700                                 :09 GEOMETRY FACTOR


~A                  TIME     DD_PRESS                              DD_VOLUME               TEMP                                   DD_PRESS_MOD_1000       DD_PRESS_MOD_100        DD_PRESS_MOD_10         DD_PRESS_MOD_1        DD_PRESS_MOD_01       DD_PRESS_MOD_001      DD_PRESS_MOD_0001
# ...
                   83.30    352.21325                               10.56513             90.063                                        3.52213e+002           5.22132e+001           2.21325e+000           2.13248e-001           1.32480e-002           3.24804e-003           2.48044e-004
                   83.40    352.19234                               10.56587             90.063                                        3.52192e+002           5.21923e+001           2.19234e+000           1.92339e-001           9.23387e-002           2.33866e-003           3.38656e-004
                   83.50    352.14857                               10.56688             90.063                                        3.52149e+002           5.21486e+001           2.14857e+000           1.48572e-001           4.85720e-002           8.57203e-003           5.72032e-004
                   83.60    352.09325                               10.56856             90.063                                        3.52093e+002           5.20932e+001           2.09325e+000           9.32472e-002           9.32472e-002           3.24719e-003           2.47187e-004
                   83.70    352.04005                               10.57059             90.063                                        3.52040e+002           5.20400e+001           2.04005e+000           4.00487e-002           4.00487e-002           4.86840e-005           4.86840e-005
                   83.80    351.98685                               10.57310             90.063                                        3.51987e+002           5.19869e+001           1.98685e+000           9.86852e-001           8.68517e-002           6.85169e-003           8.51693e-004
                   83.90    351.92171                               10.57627             90.063                                        3.51922e+002           5.19217e+001           1.92171e+000           9.21708e-001           2.17075e-002           1.70751e-003           7.07511e-004
                   84.00    351.83991                               10.58021             90.063                                        3.51840e+002           5.18399e+001           1.83991e+000           8.39911e-001           3.99106e-002           9.91057e-003           9.10572e-004
                   84.10    351.74321                               10.58508             90.063                                        3.51743e+002           5.17432e+001           1.74321e+000           7.43208e-001           4.32084e-002           3.20839e-003           2.08388e-004
                   84.20    351.64714                               10.59086             90.063                                        3.51647e+002           5.16471e+001           1.64714e+000           6.47143e-001           4.71430e-002           7.14296e-003           1.42961e-004
                   84.30    351.55132                               10.59747             90.063                                        3.51551e+002           5.15513e+001           1.55132e+000           5.51318e-001           5.13184e-002           1.31839e-003           3.18395e-004
                   84.40    351.44263                               10.60492             90.063                                        3.51443e+002           5.14426e+001           1.44263e+000           4.42632e-001           4.26320e-002           2.63199e-003           6.31995e-004
                   84.50    351.32280                               10.61350             90.063                                        3.51323e+002           5.13228e+001           1.32280e+000           3.22803e-001           2.28025e-002           2.80251e-003           8.02510e-004
                   84.60    351.19309                               10.62358             90.063                                        3.51193e+002           5.11931e+001           1.19309e+000           1.93086e-001           9.30857e-002           3.08573e-003           8.57334e-005
                   84.70    351.05469                               10.63511             90.063                                        3.51055e+002           5.10547e+001           1.05469e+000           5.46873e-002           5.46873e-002           4.68729e-003           6.87291e-004
                   84.80    350.90516                               10.64788             90.063                                        3.50905e+002           5.09052e+001           9.05162e-001           9.05162e-001           5.16226e-003           5.16226e-003           1.62263e-004
                   84.90    350.75438                               10.66201             90.063                                        3.50754e+002           5.07544e+001           7.54378e-001           7.54378e-001           5.43783e-002           4.37832e-003           3.78316e-004
                   85.00    350.60221                               10.67749             90.063                                        3.50602e+002           5.06022e+001           6.02210e-001           6.02210e-001           2.21047e-003           2.21047e-003           2.10465e-004
                   85.10    350.43193                               10.69464             90.063                                        3.50432e+002           5.04319e+001           4.31935e-001           4.31935e-001           3.19350e-002           1.93499e-003           9.34987e-004
                   85.20    350.24582                               10.71372             90.063                                        3.50246e+002           5.02458e+001           2.45824e-001           2.45824e-001           4.58242e-002           5.82423e-003           8.24227e-004
                   85.30    350.05585                               10.73480             90.063                                        3.50056e+002           5.00558e+001           5.58454e-002           5.58454e-002           5.58454e-002           5.84541e-003           8.45409e-004
                   85.40    349.86102                               10.75769             90.063                                        3.49861e+002           4.98610e+001           9.86102e+000           8.61017e-001           6.10172e-002           1.01725e-003           1.72467e-005
                   85.50    349.66707                               10.78253             90.063                                        3.49667e+002           4.96671e+001           9.66707e+000           6.67071e-001           6.70715e-002           7.07147e-003           7.14746e-005
                   85.60    349.46870                               10.80935             90.063                                        3.49469e+002           4.94687e+001           9.46870e+000           4.68703e-001           6.87032e-002           8.70323e-003           7.03233e-004
                   85.70    349.25511                               10.83809             90.063                                        3.49255e+002           4.92551e+001           9.25511e+000           2.55112e-001           5.51118e-002           5.11181e-003           1.11813e-004
                   85.80    349.02945                               10.86881             90.063                                        3.49029e+002           4.90294e+001           9.02945e+000           2.94456e-002           2.94456e-002           9.44563e-003           4.45627e-004
                   85.90    348.79338                               10.90183             90.063                                        3.48793e+002           4.87934e+001           8.79338e+000           7.93382e-001           9.33815e-002           3.38153e-003           3.81531e-004
                   86.00    348.55761                               10.93714             90.063                                        3.48558e+002           4.85576e+001           8.55761e+000           5.57610e-001           5.76096e-002           7.60959e-003           6.09590e-004
