~VERSION INFORMATION
VERS                    .            2.0                                    :CWLS LOG ASCII STANDARD
WRAP                    .            NO                                     :ONE LINE PER TIME STEP


~WELL INFORMATION
#MNEM                   .UNIT        DATA                                    DESCRIPTION
#________________________________________________________________________________________
STRTTIME                .HH/MM/SS    09:08:53                               :START TIME
STOPTIME                .HH/MM/SS    09:11:57                               :STOP TIME
STRT                    .s           2.10                                   :START DATA
STOP                    .s           182.80                                 :STOP DATA
STEP                    .s           0.10                                   :MEASUREMENT TIME INTERVAL
NULL                    .            -999.25                                :NULL VALUE
COMP                    .            Statoil ASA                            :COMPANY
FLD                     .            Volve                                  :FIELD
WELL                    .            15/9-F-11 A                            :WELL
RUN                     .            8                                      :RUN
LOC                     .            Maersk Inspirer                        :LOCATION
PROV                    .            na                                     :PROVINCE
SRVC                    .            Baker Hughes INTEQ                     :SERVICE COMPANY
DATE                    .YY/MM/DD    13/05/21                               :LOG DATE
UWI                     .                                                   :UNIQUE WELL ID
DEPTHMD                 .m           3671.1                                 :MEASURED DEPTH
DEPTHTVD                .m           3056.7                                 :TRUE VERTICAL DEPTH


~CURVE INFORMATION
#MNEM                   .UNIT        API CODES                               DESCRIPTION
#________________________________________________________________________________________
TIME                    .s                                                  :01 TIME
DD_PRESS                .bar                                                :02 DRAW DOWN PRESSURE
DD_VOLUME               .cm3                                                :03 INCREMENTAL DRAW DOWN VOLUME
TEMP                    .degC                                               :04 TRANSDUCER TEMPERATURE
DD_PRESS_MOD_1000       .bar                                                :05 DRAW DOWN PRESSURE MOD 1000
DD_PRESS_MOD_100        .bar                                                :06 DRAW DOWN PRESSURE MOD 100
DD_PRESS_MOD_10         .bar                                                :07 DRAW DOWN PRESSURE MOD 10
DD_PRESS_MOD_1          .bar                                                :08 DRAW DOWN PRESSURE MOD 1
DD_PRESS_MOD_01         .bar                                                :09 DRAW DOWN PRESSURE MOD 01
DD_PRESS_MOD_001        .bar                                                :10 DRAW DOWN PRESSURE MOD 001
DD_PRESS_MOD_0001       .bar                                                :11 DRAW DOWN PRESSURE MOD 0001


~PARAMETER INFORMATION
#MNEM                   .UNIT        VALUE                                   DESCRIPTION
#________________________________________________________________________________________
TOOLFACE                .deg         -56.2                                  :01 TOOLFACE
PUMP_CAPACITY           .bar         400                                    :02 NOMINAL DRAW DOWN PUMP CAPACITY
PUMP_LIMIT              .bar         240                                    :03 DOWNLINK PUMP LIMIT
TIME_LIMIT              .min         10                                     :04 DOWNLINK MAX TIME
TEST_TYPE               .            REPEAT                                 :05 DOWNLINK
TEST_TYPE               .            HIGH MOBILITY                          :06 DOWNLINK
DD_PIST_A               .cm2         3.1416                                 :07 DRAW DOWN PISTON AREA
V_SYS                   .cm3         131.0000                               :08 SYSTEM VOLUME
PROBE_ID                .cm          1.2700                                 :09 TTK PROBE ID
G0                      .            4.6700                                 :10 GEOMETRY FACTOR


~A                  TIME     DD_PRESS                              DD_VOLUME               TEMP                                   DD_PRESS_MOD_1000       DD_PRESS_MOD_100        DD_PRESS_MOD_10         DD_PRESS_MOD_1        DD_PRESS_MOD_01       DD_PRESS_MOD_001      DD_PRESS_MOD_0001
# ...
                  122.50    325.24861                               21.73159             82.398                                        3.25249e+002           2.52486e+001           5.24861e+000           2.48613e-001           4.86130e-002           8.61298e-003           6.12976e-004
                  122.60    325.22532                               21.85922             82.398                                        3.25225e+002           2.52253e+001           5.22532e+000           2.25318e-001           2.53176e-002           5.31757e-003           3.17574e-004
                  122.70    325.20786                               21.98707             82.398                                        3.25208e+002           2.52079e+001           5.20786e+000           2.07861e-001           7.86146e-003           7.86146e-003           8.61459e-004
                  122.80    325.18263                               22.11507             82.398                                        3.25183e+002           2.51826e+001           5.18263e+000           1.82631e-001           8.26315e-002           2.63149e-003           6.31487e-004
                  122.90    325.16392                               22.24296             82.398                                        3.25164e+002           2.51639e+001           5.16392e+000           1.63923e-001           6.39229e-002           3.92286e-003           9.22859e-004
                  123.00    325.15753                               22.37099             82.398                                        3.25158e+002           2.51575e+001           5.15753e+000           1.57528e-001           5.75282e-002           7.52818e-003           5.28175e-004
                  123.10    325.14001                               22.49922             82.398                                        3.25140e+002           2.51400e+001           5.14001e+000           1.40012e-001           4.00117e-002           1.17106e-005           1.17106e-005
                  123.20    325.12490                               22.62733             82.398                                        3.25125e+002           2.51249e+001           5.12490e+000           1.24898e-001           2.48977e-002           4.89774e-003           8.97741e-004
                  123.30    325.12056                               22.75543             82.398                                        3.25121e+002           2.51206e+001           5.12056e+000           1.20558e-001           2.05581e-002           5.58074e-004           5.58074e-004
                  123.40    325.11577                               22.88382             82.398                                        3.25116e+002           2.51158e+001           5.11577e+000           1.15772e-001           1.57717e-002           5.77174e-003           7.71737e-004
                  123.50    325.10955                               23.01227             82.398                                        3.25110e+002           2.51096e+001           5.10955e+000           1.09552e-001           9.55188e-003           9.55188e-003           5.51876e-004
                  123.60    325.10771                               23.14075             82.398                                        3.25108e+002           2.51077e+001           5.10771e+000           1.07706e-001           7.70595e-003           7.70595e-003           7.05946e-004
                  123.70    325.10118                               23.26943             82.398                                        3.25101e+002           2.51012e+001           5.10118e+000           1.01182e-001           1.18191e-003           1.18191e-003           1.81906e-004
                  123.80    325.08185                               23.39819             82.398                                        3.25082e+002           2.50818e+001           5.08185e+000           8.18479e-002           8.18479e-002           1.84788e-003           8.47879e-004
                  123.90    325.06857                               23.52672             82.398                                        3.25069e+002           2.50686e+001           5.06857e+000           6.85719e-002           6.85719e-002           8.57187e-003           5.71874e-004
                  124.00    325.06740                               23.65513             82.398                                        3.25067e+002           2.50674e+001           5.06740e+000           6.74006e-002           6.74006e-002           7.40057e-003           4.00571e-004
                  124.10    325.06333                               23.78368             82.398                                        3.25063e+002           2.50633e+001           5.06333e+000           6.33344e-002           6.33344e-002           3.33439e-003           3.34387e-004
                  124.20    325.05629                               23.91219             82.398                                        3.25056e+002           2.50563e+001           5.05629e+000           5.62938e-002           5.62938e-002           6.29381e-003           2.93813e-004
                  124.30    325.05706                               24.04072             82.398                                        3.25057e+002           2.50571e+001           5.05706e+000           5.70646e-002           5.70646e-002           7.06459e-003           6.45875e-005
                  124.40    325.06310                               24.16938             82.398                                        3.25063e+002           2.50631e+001           5.06310e+000           6.31023e-002           6.31023e-002           3.10230e-003           1.02298e-004
                  124.50    325.06421                               24.29831             82.398                                        3.25064e+002           2.50642e+001           5.06421e+000           6.42139e-002           6.42139e-002           4.21392e-003           2.13918e-004
                  124.60    325.06196                               24.42713             82.398                                        3.25062e+002           2.50620e+001           5.06196e+000           6.19600e-002           6.19600e-002           1.96003e-003           9.60030e-004
                  124.70    325.05793                               24.55595             82.398                                        3.25058e+002           2.50579e+001           5.05793e+000           5.79327e-002           5.79327e-002           7.93272e-003           9.32719e-004
                  124.80    325.05514                               24.68479             82.398                                        3.25055e+002           2.50551e+001           5.05514e+000           5.51440e-002           5.51440e-002           5.14403e-003           1.44030e-004
                  124.90    325.04835                               24.81362             82.398                                        3.25048e+002           2.50484e+001           5.04835e+000           4.83522e-002           4.83522e-002           8.35218e-003           3.52183e-004
                  125.00    325.04294                               24.94224             82.398                                        3.25043e+002           2.50429e+001           5.04294e+000           4.29449e-002           4.29449e-002           2.94486e-003           9.44861e-004
                  125.10    325.04484                               25.07072             82.398                                        3.25045e+002           2.50448e+001           5.04484e+000           4.48354e-002           4.48354e-002           4.83544e-003           8.35436e-004
                  125.20    325.05455                               25.19932             82.398                                        3.25055e+002           2.50545e+001           5.05455e+000           5.45499e-002           5.45499e-002           4.54988e-003           5.49881e-004
