~VERSION INFORMATION
VERS                    .            2.0                                    :CWLS LOG ASCII STANDARD
WRAP                    .            NO                                     :ONE LINE PER TIME STEP


~WELL INFORMATION
#MNEM                   .UNIT        DATA                                    DESCRIPTION
#________________________________________________________________________________________
STRTTIME                .HH/MM/SS    23:39:21                               :START TIME
STOPTIME                .HH/MM/SS    23:43:19                               :STOP TIME
STRT                    .s           2.10                                   :START DATA
STOP                    .s           236.60                                 :STOP DATA
STEP                    .s           0.10                                   :MEASUREMENT TIME INTERVAL
NULL                    .            -999.25                                :NULL VALUE
COMP                    .            Statoil                                :COMPANY
FLD                     .            Volve                                  :FIELD
WELL                    .            15/9-F-11 T2                           :WELL
RUN                     .            7                                      :RUN
LOC                     .            Maersk Inspirer                        :LOCATION
PROV                    .            na                                     :PROVINCE
SRVC                    .            Baker Hughes INTEQ                     :SERVICE COMPANY
DATE                    .YY/MM/DD    13/05/04                               :LOG DATE
UWI                     .                                                   :UNIQUE WELL ID
DEPTHMD                 .m           4417.0                                 :MEASURED DEPTH
DEPTHTVD                .m           3257.6                                 :TRUE VERTICAL DEPTH


~CURVE INFORMATION
#MNEM                   .UNIT        API CODES                               DESCRIPTION
#________________________________________________________________________________________
TIME                    .s                                                  :01 TIME
DD_PRESS                .bar                                                :02 DRAW DOWN PRESSURE
DD_VOLUME               .cm3                                                :03 INCREMENTAL DRAW DOWN VOLUME
TEMP                    .degC                                               :04 TRANSDUCER TEMPERATURE
DD_PRESS_MOD_1000       .bar                                                :05 DRAW DOWN PRESSURE MOD 1000
DD_PRESS_MOD_100        .bar                                                :06 DRAW DOWN PRESSURE MOD 100
DD_PRESS_MOD_10         .bar                                                :07 DRAW DOWN PRESSURE MOD 10
DD_PRESS_MOD_1          .bar                                                :08 DRAW DOWN PRESSURE MOD 1
DD_PRESS_MOD_01         .bar                                                :09 DRAW DOWN PRESSURE MOD 01
DD_PRESS_MOD_001        .bar                                                :10 DRAW DOWN PRESSURE MOD 001
DD_PRESS_MOD_0001       .bar                                                :11 DRAW DOWN PRESSURE MOD 0001


~PARAMETER INFORMATION
#MNEM                   .UNIT        VALUE                                   DESCRIPTION
#________________________________________________________________________________________
TOOLFACE                .deg         na                                     :01 TOOLFACE
PUMP_CAPACITY           .bar         400                                    :02 NOMINAL DRAW DOWN PUMP CAPACITY
PUMP_LIMIT              .bar         240                                    :03 DOWNLINK PUMP LIMIT
TIME_LIMIT              .min         10                                     :04 DOWNLINK MAX TIME
TEST_TYPE               .            REPEAT                                 :05 DOWNLINK
TEST_TYPE               .            HIGH MOBILITY                          :06 DOWNLINK
DD_PIST_A               .cm2         3.1416                                 :07 DRAW DOWN PISTON AREA
V_SYS                   .cm3         131.0000                               :08 SYSTEM VOLUME
PROBE_ID                .cm          1.2700                                 :09 TTK PROBE ID
G0                      .            4.6700                                 :10 GEOMETRY FACTOR


~A                  TIME     DD_PRESS                              DD_VOLUME               TEMP                                   DD_PRESS_MOD_1000       DD_PRESS_MOD_100        DD_PRESS_MOD_10         DD_PRESS_MOD_1        DD_PRESS_MOD_01       DD_PRESS_MOD_001      DD_PRESS_MOD_0001
# ...
                   32.90    295.07184                                5.57550             96.094                                        2.95072e+002           9.50718e+001           5.07184e+000           7.18405e-002           7.18405e-002           1.84055e-003           8.40548e-004
                   33.00    294.21820                                5.67470             96.094                                        2.94218e+002           9.42182e+001           4.21820e+000           2.18197e-001           1.81973e-002           8.19730e-003           1.97302e-004
                   33.10    293.63489                                5.77397             96.094                                        2.93635e+002           9.36349e+001           3.63489e+000           6.34889e-001           3.48892e-002           4.88915e-003           8.89153e-004
                   33.20    293.24871                                5.87335             96.091                                        2.93249e+002           9.32487e+001           3.24871e+000           2.48712e-001           4.87117e-002           8.71171e-003           7.11709e-004
                   33.30    292.80160                                5.97296             96.088                                        2.92802e+002           9.28016e+001           2.80160e+000           8.01597e-001           1.59724e-003           1.59724e-003           5.97245e-004
                   33.40    292.33918                                6.07262             96.086                                        2.92339e+002           9.23392e+001           2.33918e+000           3.39184e-001           3.91843e-002           9.18431e-003           1.84308e-004
                   33.50    292.04180                                6.17222             96.086                                        2.92042e+002           9.20418e+001           2.04180e+000           4.18045e-002           4.18045e-002           1.80451e-003           8.04508e-004
                   33.60    291.94444                                6.27182             96.086                                        2.91944e+002           9.19444e+001           1.94444e+000           9.44441e-001           4.44415e-002           4.44149e-003           4.41493e-004
                   33.70    291.93020                                6.37140             96.086                                        2.91930e+002           9.19302e+001           1.93020e+000           9.30197e-001           3.01969e-002           1.96908e-004           1.96908e-004
                   33.80    291.76296                                6.47081             96.084                                        2.91763e+002           9.17630e+001           1.76296e+000           7.62961e-001           6.29613e-002           2.96134e-003           9.61338e-004
                   33.90    291.43442                                6.57006             96.080                                        2.91434e+002           9.14344e+001           1.43442e+000           4.34416e-001           3.44156e-002           4.41564e-003           4.15644e-004
                   34.00    291.07949                                6.66919             96.078                                        2.91079e+002           9.10795e+001           1.07949e+000           7.94862e-002           7.94862e-002           9.48618e-003           4.86182e-004
                   34.10    290.77065                                6.76808             96.078                                        2.90771e+002           9.07707e+001           7.70655e-001           7.70655e-001           7.06550e-002           6.54988e-004           6.54988e-004
                   34.20    290.55092                                6.86664             96.078                                        2.90551e+002           9.05509e+001           5.50918e-001           5.50918e-001           5.09180e-002           9.17989e-004           9.17989e-004
                   34.30    290.33404                                6.96490             96.078                                        2.90334e+002           9.03340e+001           3.34043e-001           3.34043e-001           3.40433e-002           4.04327e-003           4.32713e-005
                   34.40    289.99595                                7.06285             96.078                                        2.89996e+002           8.99960e+001           9.99595e+000           9.95953e-001           9.59534e-002           5.95341e-003           9.53406e-004
                   34.50    289.61450                                7.16058             96.078                                        2.89615e+002           8.96145e+001           9.61450e+000           6.14503e-001           1.45032e-002           4.50321e-003           5.03206e-004
                   34.60    289.33050                                7.25769             96.078                                        2.89331e+002           8.93305e+001           9.33050e+000           3.30504e-001           3.05043e-002           5.04283e-004           5.04283e-004
                   34.70    289.11631                                7.35421             96.078                                        2.89116e+002           8.91163e+001           9.11631e+000           1.16308e-001           1.63084e-002           6.30837e-003           3.08370e-004
                   34.80    288.91262                                7.45040             96.076                                        2.88913e+002           8.89126e+001           8.91262e+000           9.12620e-001           1.26198e-002           2.61980e-003           6.19798e-004
                   34.90    288.82812                                7.54607             96.072                                        2.88828e+002           8.88281e+001           8.82812e+000           8.28124e-001           2.81240e-002           8.12405e-003           1.24049e-004
                   35.00    288.73722                                7.64111             96.070                                        2.88737e+002           8.87372e+001           8.73722e+000           7.37218e-001           3.72180e-002           7.21801e-003           2.18010e-004
                   35.10    288.49996                                7.73555             96.070                                        2.88500e+002           8.85000e+001           8.49996e+000           4.99956e-001           9.99563e-002           9.95627e-003           9.56272e-004
                   35.20    288.20824                                7.82936             96.070                                        2.88208e+002           8.82082e+001           8.20824e+000           2.08241e-001           8.24090e-003           8.24090e-003           2.40903e-004
                   35.30    288.10820                                7.92245             96.068                                        2.88108e+002           8.81082e+001           8.10820e+000           1.08201e-001           8.20072e-003           8.20072e-003           2.00718e-004
                   35.40    288.38268                                8.01480             96.064                                        2.88383e+002           8.83827e+001           8.38268e+000           3.82681e-001           8.26810e-002           2.68096e-003           6.80963e-004
                   35.50    288.87293                                8.10640             96.063                                        2.88873e+002           8.88729e+001           8.87293e+000           8.72929e-001           7.29287e-002           2.92869e-003           9.28692e-004
                   35.60    289.30854                                8.19724             96.063                                        2.89309e+002           8.93085e+001           9.30854e+000           3.08539e-001           8.53856e-003           8.53856e-003           5.38564e-004
