~VERSION INFORMATION
VERS                    .            2.0                                    :CWLS LOG ASCII STANDARD
WRAP                    .            NO                                     :ONE LINE PER TIME STEP


~WELL INFORMATION
#MNEM                   .UNIT        DATA                                    DESCRIPTION
#________________________________________________________________________________________
STRTTIME                .HH/MM/SS    18:50:18                               :START TIME
STOPTIME                .HH/MM/SS    18:53:14                               :STOP TIME
STRT                    .s           2.10                                   :START DATA
STOP                    .s           174.80                                 :STOP DATA
STEP                    .s           0.10                                   :MEASUREMENT TIME INTERVAL
NULL                    .            -999.25                                :NULL VALUE
COMP                    .            Statoil ASA                            :COMPANY
FLD                     .            Volve                                  :FIELD
WELL                    .            15/9-F-11 A                            :WELL
RUN                     .            8                                      :RUN
LOC                     .            Maersk Inspirer                        :LOCATION
PROV                    .            na                                     :PROVINCE
SRVC                    .            Baker Hughes INTEQ                     :SERVICE COMPANY
DATE                    .YY/MM/DD    13/05/23                               :LOG DATE
UWI                     .                                                   :UNIQUE WELL ID
DEPTHMD                 .m           3651.0                                 :MEASURED DEPTH
DEPTHTVD                .m           3041.4                                 :TRUE VERTICAL DEPTH


~CURVE INFORMATION
#MNEM                   .UNIT        API CODES                               DESCRIPTION
#________________________________________________________________________________________
TIME                    .s                                                  :01 TIME
DD_PRESS                .bar                                                :02 DRAW DOWN PRESSURE
DD_VOLUME               .cm3                                                :03 INCREMENTAL DRAW DOWN VOLUME
TEMP                    .degC                                               :04 TRANSDUCER TEMPERATURE
DD_PRESS_MOD_1000       .bar                                                :05 DRAW DOWN PRESSURE MOD 1000
DD_PRESS_MOD_100        .bar                                                :06 DRAW DOWN PRESSURE MOD 100
DD_PRESS_MOD_10         .bar                                                :07 DRAW DOWN PRESSURE MOD 10
DD_PRESS_MOD_1          .bar                                                :08 DRAW DOWN PRESSURE MOD 1
DD_PRESS_MOD_01         .bar                                                :09 DRAW DOWN PRESSURE MOD 01
DD_PRESS_MOD_001        .bar                                                :10 DRAW DOWN PRESSURE MOD 001
DD_PRESS_MOD_0001       .bar                                                :11 DRAW DOWN PRESSURE MOD 0001


~PARAMETER INFORMATION
#MNEM                   .UNIT        VALUE                                   DESCRIPTION
#________________________________________________________________________________________
TOOLFACE                .deg         -39.7                                  :01 TOOLFACE
PUMP_CAPACITY           .bar         400                                    :02 NOMINAL DRAW DOWN PUMP CAPACITY
PUMP_LIMIT              .bar         240                                    :03 DOWNLINK PUMP LIMIT
TIME_LIMIT              .min         10                                     :04 DOWNLINK MAX TIME
TEST_TYPE               .            REPEAT                                 :05 DOWNLINK
TEST_TYPE               .            HIGH MOBILITY                          :06 DOWNLINK
DD_PIST_A               .cm2         3.1416                                 :07 DRAW DOWN PISTON AREA
V_SYS                   .cm3         131.0000                               :08 SYSTEM VOLUME
PROBE_ID                .cm          1.2700                                 :09 TTK PROBE ID
G0                      .            4.6700                                 :10 GEOMETRY FACTOR


~A                  TIME     DD_PRESS                              DD_VOLUME               TEMP                                   DD_PRESS_MOD_1000       DD_PRESS_MOD_100        DD_PRESS_MOD_10         DD_PRESS_MOD_1        DD_PRESS_MOD_01       DD_PRESS_MOD_001      DD_PRESS_MOD_0001
# ...
                   46.90    343.38546                               10.67962             73.461                                        3.43385e+002           4.33855e+001           3.38546e+000           3.85465e-001           8.54646e-002           5.46457e-003           4.64571e-004
                   47.00    343.38596                               10.67962             73.461                                        3.43386e+002           4.33860e+001           3.38596e+000           3.85963e-001           8.59634e-002           5.96343e-003           9.63430e-004
                   47.10    343.38636                               10.67962             73.461                                        3.43386e+002           4.33864e+001           3.38636e+000           3.86358e-001           8.63583e-002           6.35832e-003           3.58317e-004
                   47.20    343.38746                               10.67962             73.461                                        3.43387e+002           4.33875e+001           3.38746e+000           3.87459e-001           8.74586e-002           7.45859e-003           4.58589e-004
                   47.30    343.38940                               10.67962             73.461                                        3.43389e+002           4.33894e+001           3.38940e+000           3.89399e-001           8.93988e-002           9.39883e-003           3.98833e-004
                   47.40    343.38957                               10.67962             73.461                                        3.43390e+002           4.33896e+001           3.38957e+000           3.89568e-001           8.95676e-002           9.56755e-003           5.67553e-004
                   47.50    343.38725                               10.67962             73.461                                        3.43387e+002           4.33873e+001           3.38725e+000           3.87255e-001           8.72547e-002           7.25468e-003           2.54676e-004
                   47.60    343.38572                               10.67962             73.461                                        3.43386e+002           4.33857e+001           3.38572e+000           3.85722e-001           8.57223e-002           5.72230e-003           7.22301e-004
                   47.70    343.38563                               10.67962             73.461                                        3.43386e+002           4.33856e+001           3.38563e+000           3.85630e-001           8.56303e-002           5.63032e-003           6.30324e-004
                   47.80    343.38329                               10.67962             73.461                                        3.43383e+002           4.33833e+001           3.38329e+000           3.83294e-001           8.32940e-002           3.29400e-003           2.94003e-004
                   47.90    343.38408                               10.67962             73.461                                        3.43384e+002           4.33841e+001           3.38408e+000           3.84076e-001           8.40760e-002           4.07600e-003           7.59971e-005
                   48.00    343.38699                               10.67962             73.459                                        3.43387e+002           4.33870e+001           3.38699e+000           3.86988e-001           8.69879e-002           6.98785e-003           9.87852e-004
                   48.10    343.38728                               10.67962             73.455                                        3.43387e+002           4.33873e+001           3.38728e+000           3.87283e-001           8.72831e-002           7.28309e-003           2.83091e-004
                   48.20    343.38651                               10.67962             73.453                                        3.43387e+002           4.33865e+001           3.38651e+000           3.86509e-001           8.65086e-002           6.50863e-003           5.08634e-004
                   48.30    343.38800                               10.67962             73.453                                        3.43388e+002           4.33880e+001           3.38800e+000           3.88004e-001           8.80045e-002           8.00448e-003           4.48488e-006
                   48.40    343.38940                               10.67962             73.453                                        3.43389e+002           4.33894e+001           3.38940e+000           3.89395e-001           8.93953e-002           9.39533e-003           3.95325e-004
                   48.50    343.38882                               10.67962             73.453                                        3.43389e+002           4.33888e+001           3.38882e+000           3.88823e-001           8.88229e-002           8.82291e-003           8.22906e-004
                   48.60    343.38837                               10.67962             73.453                                        3.43388e+002           4.33884e+001           3.38837e+000           3.88371e-001           8.83713e-002           8.37133e-003           3.71331e-004
                   48.70    343.38922                               10.67962             73.453                                        3.43389e+002           4.33892e+001           3.38922e+000           3.89219e-001           8.92190e-002           9.21905e-003           2.19050e-004
                   48.80    343.38847                               10.67962             73.453                                        3.43388e+002           4.33885e+001           3.38847e+000           3.88474e-001           8.84744e-002           8.47443e-003           4.74434e-004
                   48.90    343.38668                               10.67962             73.453                                        3.43387e+002           4.33867e+001           3.38668e+000           3.86682e-001           8.66815e-002           6.68154e-003           6.81542e-004
                   49.00    343.38372                               10.67962             73.453                                        3.43384e+002           4.33837e+001           3.38372e+000           3.83719e-001           8.37194e-002           3.71937e-003           7.19372e-004
                   49.10    343.38377                               10.67962             73.453                                        3.43384e+002           4.33838e+001           3.38377e+000           3.83772e-001           8.37720e-002           3.77197e-003           7.71972e-004
                   49.20    343.38469                               10.67962             73.453                                        3.43385e+002           4.33847e+001           3.38469e+000           3.84689e-001           8.46890e-002           4.68896e-003           6.88957e-004
                   49.30    343.38479                               10.67962             73.453                                        3.43385e+002           4.33848e+001           3.38479e+000           3.84788e-001           8.47880e-002           4.78796e-003           7.87964e-004
                   49.40    343.38167                               10.67962             73.453                                        3.43382e+002           4.33817e+001           3.38167e+000           3.81672e-001           8.16718e-002           1.67176e-003           6.71757e-004
                   49.50    343.38257                               10.67962             73.453                                        3.43383e+002           4.33826e+001           3.38257e+000           3.82565e-001           8.25651e-002           2.56512e-003           5.65117e-004
                   49.60    343.38816                               10.67962             73.453                                        3.43388e+002           4.33882e+001           3.38816e+000           3.88157e-001           8.81573e-002           8.15729e-003           1.57294e-004
