~VERSION INFORMATION
VERS                    .            2.0                                    :CWLS LOG ASCII STANDARD
WRAP                    .            NO                                     :ONE LINE PER TIME STEP


~WELL INFORMATION
#MNEM                   .UNIT        DATA                                    DESCRIPTION
#________________________________________________________________________________________
STRTTIME                .HH/MM/SS    14:04:48                               :START TIME
STOPTIME                .HH/MM/SS    14:07:57                               :STOP TIME
STRT                    .s           2.10                                   :START DATA
STOP                    .s           187.50                                 :STOP DATA
STEP                    .s           0.10                                   :MEASUREMENT TIME INTERVAL
NULL                    .            -999.25                                :NULL VALUE
COMP                    .            Statoil ASA                            :COMPANY
FLD                     .            Volve                                  :FIELD
WELL                    .            15/9-F-1 B                             :WELL
RUN                     .            7                                      :RUN
LOC                     .            Maersk Inspirer                        :LOCATION
PROV                    .            na                                     :PROVINCE
SRVC                    .            Baker Hughes INTEQ                     :SERVICE COMPANY
DATE                    .YY/MM/DD    13/09/06                               :LOG DATE
UWI                     .                                                   :UNIQUE WELL ID
DEPTHMD                 .m           3296.0                                 :MEASURED DEPTH
DEPTHTVD                .m           3091.5                                 :TRUE VERTICAL DEPTH


~CURVE INFORMATION
#MNEM                   .UNIT        API CODES                               DESCRIPTION
#________________________________________________________________________________________
TIME                    .s                                                  :01 TIME
DD_PRESS                .bar                                                :02 DRAW DOWN PRESSURE
DD_VOLUME               .cm3                                                :03 INCREMENTAL DRAW DOWN VOLUME
TEMP                    .degC                                               :04 TRANSDUCER TEMPERATURE
DD_PRESS_MOD_1000       .bar                                                :05 DRAW DOWN PRESSURE MOD 1000
DD_PRESS_MOD_100        .bar                                                :06 DRAW DOWN PRESSURE MOD 100
DD_PRESS_MOD_10         .bar                                                :07 DRAW DOWN PRESSURE MOD 10
DD_PRESS_MOD_1          .bar                                                :08 DRAW DOWN PRESSURE MOD 1
DD_PRESS_MOD_01         .bar                                                :09 DRAW DOWN PRESSURE MOD 01
DD_PRESS_MOD_001        .bar                                                :10 DRAW DOWN PRESSURE MOD 001
DD_PRESS_MOD_0001       .bar                                                :11 DRAW DOWN PRESSURE MOD 0001


~PARAMETER INFORMATION
#MNEM                   .UNIT        VALUE                                   DESCRIPTION
#________________________________________________________________________________________
TOOLFACE                .deg         na                                     :01 TOOLFACE
PUMP_CAPACITY           .bar         400                                    :02 NOMINAL DRAW DOWN PUMP CAPACITY
PUMP_LIMIT              .bar         400                                    :03 DOWNLINK PUMP LIMIT
TIME_LIMIT              .min         10                                     :04 DOWNLINK MAX TIME
TEST_TYPE               .            LOW MOBILITY                           :05 DOWNLINK
DD_PIST_A               .cm2         3.1416                                 :06 DRAW DOWN PISTON AREA
V_SYS                   .cm3         131.0000                               :07 SYSTEM VOLUME
PROBE_ID                .cm          1.2700                                 :08 TTK PROBE ID
G0                      .            4.6700                                 :09 GEOMETRY FACTOR


~A                  TIME     DD_PRESS                              DD_VOLUME               TEMP                                   DD_PRESS_MOD_1000       DD_PRESS_MOD_100        DD_PRESS_MOD_10         DD_PRESS_MOD_1        DD_PRESS_MOD_01       DD_PRESS_MOD_001      DD_PRESS_MOD_0001
# ...
                   63.70    348.64746                               11.00622             83.305                                        3.48647e+002           4.86475e+001           8.64746e+000           6.47464e-001           4.74642e-002           7.46419e-003           4.64186e-004
                   63.80    348.63325                               11.00622             83.305                                        3.48633e+002           4.86333e+001           8.63325e+000           6.33251e-001           3.32508e-002           3.25079e-003           2.50786e-004
                   63.90    348.63367                               11.00622             83.305                                        3.48634e+002           4.86337e+001           8.63367e+000           6.33671e-001           3.36707e-002           3.67067e-003           6.70670e-004
                   64.00    348.64179                               11.00622             83.305                                        3.48642e+002           4.86418e+001           8.64179e+000           6.41788e-001           4.17879e-002           1.78793e-003           7.87928e-004
                   64.10    348.65765                               11.00622             83.305                                        3.48658e+002           4.86576e+001           8.65765e+000           6.57646e-001           5.76461e-002           7.64608e-003           6.46077e-004
                   64.20    348.66343                               11.00622             83.305                                        3.48663e+002           4.86634e+001           8.66343e+000           6.63435e-001           6.34346e-002           3.43459e-003           4.34591e-004
                   64.30    348.64745                               11.00622             83.305                                        3.48647e+002           4.86474e+001           8.64745e+000           6.47445e-001           4.74454e-002           7.44538e-003           4.45380e-004
                   64.40    348.62793                               11.00622             83.305                                        3.48628e+002           4.86279e+001           8.62793e+000           6.27931e-001           2.79305e-002           7.93053e-003           9.30529e-004
                   64.50    348.62332                               11.00622             83.305                                        3.48623e+002           4.86233e+001           8.62332e+000           6.23320e-001           2.33204e-002           3.32037e-003           3.20371e-004
                   64.60    348.63603                               11.00622             83.305                                        3.48636e+002           4.86360e+001           8.63603e+000           6.36028e-001           3.60280e-002           6.02800e-003           2.79965e-005
                   64.70    348.64428                               11.00622             83.305                                        3.48644e+002           4.86443e+001           8.64428e+000           6.44276e-001           4.42759e-002           4.27586e-003           2.75861e-004
                   64.80    348.63093                               11.00622             83.305                                        3.48631e+002           4.86309e+001           8.63093e+000           6.30926e-001           3.09258e-002           9.25753e-004           9.25753e-004
                   64.90    348.63692                               11.00622             83.305                                        3.48637e+002           4.86369e+001           8.63692e+000           6.36919e-001           3.69190e-002           6.91897e-003           9.18970e-004
                   65.00    348.64592                               11.00622             83.305                                        3.48646e+002           4.86459e+001           8.64592e+000           6.45921e-001           4.59211e-002           5.92113e-003           9.21132e-004
                   65.10    348.61805                               11.00622             83.305                                        3.48618e+002           4.86181e+001           8.61805e+000           6.18054e-001           1.80538e-002           8.05376e-003           5.37591e-005
                   65.20    348.60960                               11.00622             83.305                                        3.48610e+002           4.86096e+001           8.60960e+000           6.09597e-001           9.59720e-003           9.59720e-003           5.97203e-004
                   65.30    348.64931                               11.00622             83.305                                        3.48649e+002           4.86493e+001           8.64931e+000           6.49314e-001           4.93144e-002           9.31441e-003           3.14413e-004
                   65.40    348.67070                               11.00622             83.305                                        3.48671e+002           4.86707e+001           8.67070e+000           6.70698e-001           7.06978e-002           6.97828e-004           6.97828e-004
                   65.50    348.65357                               11.00622             83.305                                        3.48654e+002           4.86536e+001           8.65357e+000           6.53575e-001           5.35745e-002           3.57452e-003           5.74516e-004
                   65.60    348.62287                               11.00622             83.305                                        3.48623e+002           4.86229e+001           8.62287e+000           6.22870e-001           2.28698e-002           2.86979e-003           8.69788e-004
                   65.70    348.61610                               11.00622             83.305                                        3.48616e+002           4.86161e+001           8.61610e+000           6.16095e-001           1.60952e-002           6.09525e-003           9.52460e-005
                   65.80    348.63557                               11.00622             83.305                                        3.48636e+002           4.86356e+001           8.63557e+000           6.35568e-001           3.55680e-002           5.56804e-003           5.68041e-004
                   65.90    348.64243                               11.00622             83.305                                        3.48642e+002           4.86424e+001           8.64243e+000           6.42430e-001           4.24299e-002           2.42993e-003           4.29932e-004
                   66.00    348.64337                               11.00622             83.302                                        3.48643e+002           4.86434e+001           8.64337e+000           6.43368e-001           4.33684e-002           3.36838e-003           3.68376e-004
                   66.10    348.66518                               11.00622             83.299                                        3.48665e+002           4.86652e+001           8.66518e+000           6.65182e-001           6.51823e-002           5.18229e-003           1.82288e-004
                   66.20    348.65042                               11.00622             83.297                                        3.48650e+002           4.86504e+001           8.65042e+000           6.50418e-001           5.04181e-002           4.18129e-004           4.18129e-004
                   66.30    348.61965                               11.00622             83.299                                        3.48620e+002           4.86197e+001           8.61965e+000           6.19653e-001           1.96531e-002           9.65306e-003           6.53060e-004
                   66.40    348.63044                               11.00622             83.300                                        3.48630e+002           4.86304e+001           8.63044e+000           6.30439e-001           3.04386e-002           4.38604e-004           4.38604e-004
