~VERSION INFORMATION
VERS                    .            2.0                                    :CWLS LOG ASCII STANDARD
WRAP                    .            NO                                     :ONE LINE PER TIME STEP


~WELL INFORMATION
#MNEM                   .UNIT        DATA                                    DESCRIPTION
#________________________________________________________________________________________
STRTTIME                .HH/MM/SS    18:50:18                               :START TIME
STOPTIME                .HH/MM/SS    18:53:14                               :STOP TIME
STRT                    .s           2.10                                   :START DATA
STOP                    .s           174.80                                 :STOP DATA
STEP                    .s           0.10                                   :MEASUREMENT TIME INTERVAL
NULL                    .            -999.25                                :NULL VALUE
COMP                    .            Statoil ASA                            :COMPANY
FLD                     .            Volve                                  :FIELD
WELL                    .            15/9-F-11 A                            :WELL
RUN                     .            8                                      :RUN
LOC                     .            Maersk Inspirer                        :LOCATION
PROV                    .            na                                     :PROVINCE
SRVC                    .            Baker Hughes INTEQ                     :SERVICE COMPANY
DATE                    .YY/MM/DD    13/05/23                               :LOG DATE
UWI                     .                                                   :UNIQUE WELL ID
DEPTHMD                 .m           3651.0                                 :MEASURED DEPTH
DEPTHTVD                .m           3041.4                                 :TRUE VERTICAL DEPTH


~CURVE INFORMATION
#MNEM                   .UNIT        API CODES                               DESCRIPTION
#________________________________________________________________________________________
TIME                    .s                                                  :01 TIME
DD_PRESS                .bar                                                :02 DRAW DOWN PRESSURE
DD_VOLUME               .cm3                                                :03 INCREMENTAL DRAW DOWN VOLUME
TEMP                    .degC                                               :04 TRANSDUCER TEMPERATURE
DD_PRESS_MOD_1000       .bar                                                :05 DRAW DOWN PRESSURE MOD 1000
DD_PRESS_MOD_100        .bar                                                :06 DRAW DOWN PRESSURE MOD 100
DD_PRESS_MOD_10         .bar                                                :07 DRAW DOWN PRESSURE MOD 10
DD_PRESS_MOD_1          .bar                                                :08 DRAW DOWN PRESSURE MOD 1
DD_PRESS_MOD_01         .bar                                                :09 DRAW DOWN PRESSURE MOD 01
DD_PRESS_MOD_001        .bar                                                :10 DRAW DOWN PRESSURE MOD 001
DD_PRESS_MOD_0001       .bar                                                :11 DRAW DOWN PRESSURE MOD 0001


~PARAMETER INFORMATION
#MNEM                   .UNIT        VALUE                                   DESCRIPTION
#________________________________________________________________________________________
TOOLFACE                .deg         -39.7                                  :01 TOOLFACE
PUMP_CAPACITY           .bar         400                                    :02 NOMINAL DRAW DOWN PUMP CAPACITY
PUMP_LIMIT              .bar         240                                    :03 DOWNLINK PUMP LIMIT
TIME_LIMIT              .min         10                                     :04 DOWNLINK MAX TIME
TEST_TYPE               .            REPEAT                                 :05 DOWNLINK
TEST_TYPE               .            HIGH MOBILITY                          :06 DOWNLINK
DD_PIST_A               .cm2         3.1416                                 :07 DRAW DOWN PISTON AREA
V_SYS                   .cm3         131.0000                               :08 SYSTEM VOLUME
PROBE_ID                .cm          1.2700                                 :09 TTK PROBE ID
G0                      .            4.6700                                 :10 GEOMETRY FACTOR


~A                  TIME     DD_PRESS                              DD_VOLUME               TEMP                                   DD_PRESS_MOD_1000       DD_PRESS_MOD_100        DD_PRESS_MOD_10         DD_PRESS_MOD_1        DD_PRESS_MOD_01       DD_PRESS_MOD_001      DD_PRESS_MOD_0001
# ...
                   80.50    343.29824                               10.91515             73.398                                        3.43298e+002           4.32982e+001           3.29824e+000           2.98244e-001           9.82442e-002           8.24418e-003           2.44179e-004
                   80.60    343.28246                               10.97168             73.398                                        3.43282e+002           4.32825e+001           3.28246e+000           2.82462e-001           8.24621e-002           2.46206e-003           4.62057e-004
                   80.70    343.26346                               11.03720             73.398                                        3.43263e+002           4.32635e+001           3.26346e+000           2.63464e-001           6.34643e-002           3.46431e-003           4.64306e-004
                   80.80    343.23987                               11.11294             73.398                                        3.43240e+002           4.32399e+001           3.23987e+000           2.39874e-001           3.98740e-002           9.87402e-003           8.74023e-004
                   80.90    343.21462                               11.19979             73.398                                        3.43215e+002           4.32146e+001           3.21462e+000           2.14615e-001           1.46150e-002           4.61502e-003           6.15019e-004
                   81.00    343.18797                               11.29828             73.398                                        3.43188e+002           4.31880e+001           3.18797e+000           1.87974e-001           8.79742e-002           7.97422e-003           9.74225e-004
                   81.10    343.15778                               11.40898             73.398                                        3.43158e+002           4.31578e+001           3.15778e+000           1.57777e-001           5.77770e-002           7.77705e-003           7.77049e-004
                   81.20    343.12146                               11.53290             73.398                                        3.43121e+002           4.31215e+001           3.12146e+000           1.21457e-001           2.14566e-002           1.45656e-003           4.56563e-004
                   81.30    343.07889                               11.67127             73.398                                        3.43079e+002           4.30789e+001           3.07889e+000           7.88891e-002           7.88891e-002           8.88915e-003           8.89150e-004
                   81.40    343.03289                               11.82461             73.398                                        3.43033e+002           4.30329e+001           3.03289e+000           3.28865e-002           3.28865e-002           2.88651e-003           8.86514e-004
                   81.50    342.98079                               11.99373             73.398                                        3.42981e+002           4.29808e+001           2.98079e+000           9.80789e-001           8.07891e-002           7.89095e-004           7.89095e-004
                   81.60    342.92334                               12.17941             73.398                                        3.42923e+002           4.29233e+001           2.92334e+000           9.23341e-001           2.33411e-002           3.34111e-003           3.41109e-004
                   81.70    342.86437                               12.38246             73.398                                        3.42864e+002           4.28644e+001           2.86437e+000           8.64373e-001           6.43731e-002           4.37314e-003           3.73138e-004
                   81.80    342.80779                               12.60397             73.398                                        3.42808e+002           4.28078e+001           2.80779e+000           8.07793e-001           7.79332e-003           7.79332e-003           7.93325e-004
                   81.90    342.74709                               12.84516             73.398                                        3.42747e+002           4.27471e+001           2.74709e+000           7.47087e-001           4.70867e-002           7.08665e-003           8.66517e-005
                   82.00    342.68197                               13.10681             73.398                                        3.42682e+002           4.26820e+001           2.68197e+000           6.81966e-001           8.19662e-002           1.96618e-003           9.66181e-004
                   82.10    342.63474                               13.38738             73.398                                        3.42635e+002           4.26347e+001           2.63474e+000           6.34735e-001           3.47354e-002           4.73535e-003           7.35354e-004
                   82.20    342.61622                               13.67927             73.398                                        3.42616e+002           4.26162e+001           2.61622e+000           6.16223e-001           1.62226e-002           6.22256e-003           2.22562e-004
                   82.30    342.61033                               13.97415             73.398                                        3.42610e+002           4.26103e+001           2.61033e+000           6.10330e-001           1.03303e-002           3.30268e-004           3.30268e-004
                   82.40    342.60479                               14.26909             73.398                                        3.42605e+002           4.26048e+001           2.60479e+000           6.04792e-001           4.79158e-003           4.79158e-003           7.91577e-004
                   82.50    342.59933                               14.56405             73.398                                        3.42599e+002           4.25993e+001           2.59933e+000           5.99330e-001           9.93303e-002           9.33035e-003           3.30345e-004
                   82.60    342.59271                               14.85902             73.398                                        3.42593e+002           4.25927e+001           2.59271e+000           5.92706e-001           9.27057e-002           2.70567e-003           7.05675e-004
                   82.70    342.59796                               15.15394             73.398                                        3.42598e+002           4.25980e+001           2.59796e+000           5.97963e-001           9.79633e-002           7.96332e-003           9.63320e-004
                   82.80    342.61204                               15.44892             73.398                                        3.42612e+002           4.26120e+001           2.61204e+000           6.12043e-001           1.20429e-002           2.04289e-003           4.28857e-005
                   82.90    342.61946                               15.74386             73.396                                        3.42619e+002           4.26195e+001           2.61946e+000           6.19462e-001           1.94624e-002           9.46236e-003           4.62364e-004
                   83.00    342.61575                               16.03875             73.395                                        3.42616e+002           4.26157e+001           2.61575e+000           6.15748e-001           1.57484e-002           5.74844e-003           7.48435e-004
                   83.10    342.61374                               16.33373             73.394                                        3.42614e+002           4.26137e+001           2.61374e+000           6.13735e-001           1.37354e-002           3.73541e-003           7.35415e-004
                   83.20    342.61417                               16.62867             73.395                                        3.42614e+002           4.26142e+001           2.61417e+000           6.14172e-001           1.41722e-002           4.17223e-003           1.72234e-004
