~VERSION INFORMATION
VERS                    .            2.0                                    :CWLS LOG ASCII STANDARD
WRAP                    .            NO                                     :ONE LINE PER TIME STEP


~WELL INFORMATION
#MNEM                   .UNIT        DATA                                    DESCRIPTION
#________________________________________________________________________________________
STRTTIME                .HH/MM/SS    10:22:55                               :START TIME
STOPTIME                .HH/MM/SS    10:26:06                               :STOP TIME
STRT                    .s           2.10                                   :START DATA
STOP                    .s           189.80                                 :STOP DATA
STEP                    .s           0.10                                   :MEASUREMENT TIME INTERVAL
NULL                    .            -999.25                                :NULL VALUE
COMP                    .            Statoil ASA                            :COMPANY
FLD                     .            Volve                                  :FIELD
WELL                    .            15/9-F-11 A                            :WELL
RUN                     .            8                                      :RUN
LOC                     .            Maersk Inspirer                        :LOCATION
PROV                    .            na                                     :PROVINCE
SRVC                    .            Baker Hughes INTEQ                     :SERVICE COMPANY
DATE                    .YY/MM/DD    13/05/21                               :LOG DATE
UWI                     .                                                   :UNIQUE WELL ID
DEPTHMD                 .m           3651.0                                 :MEASURED DEPTH
DEPTHTVD                .m           3041.4                                 :TRUE VERTICAL DEPTH


~CURVE INFORMATION
#MNEM                   .UNIT        API CODES                               DESCRIPTION
#________________________________________________________________________________________
TIME                    .s                                                  :01 TIME
DD_PRESS                .bar                                                :02 DRAW DOWN PRESSURE
DD_VOLUME               .cm3                                                :03 INCREMENTAL DRAW DOWN VOLUME
TEMP                    .degC                                               :04 TRANSDUCER TEMPERATURE
DD_PRESS_MOD_1000       .bar                                                :05 DRAW DOWN PRESSURE MOD 1000
DD_PRESS_MOD_100        .bar                                                :06 DRAW DOWN PRESSURE MOD 100
DD_PRESS_MOD_10         .bar                                                :07 DRAW DOWN PRESSURE MOD 10
DD_PRESS_MOD_1          .bar                                                :08 DRAW DOWN PRESSURE MOD 1
DD_PRESS_MOD_01         .bar                                                :09 DRAW DOWN PRESSURE MOD 01
DD_PRESS_MOD_001        .bar                                                :10 DRAW DOWN PRESSURE MOD 001
DD_PRESS_MOD_0001       .bar                                                :11 DRAW DOWN PRESSURE MOD 0001


~PARAMETER INFORMATION
#MNEM                   .UNIT        VALUE                                   DESCRIPTION
#________________________________________________________________________________________
TOOLFACE                .deg         61.5                                   :01 TOOLFACE
PUMP_CAPACITY           .bar         400                                    :02 NOMINAL DRAW DOWN PUMP CAPACITY
PUMP_LIMIT              .bar         240                                    :03 DOWNLINK PUMP LIMIT
TIME_LIMIT              .min         10                                     :04 DOWNLINK MAX TIME
TEST_TYPE               .            REPEAT                                 :05 DOWNLINK
TEST_TYPE               .            HIGH MOBILITY                          :06 DOWNLINK
DD_PIST_A               .cm2         3.1416                                 :07 DRAW DOWN PISTON AREA
V_SYS                   .cm3         131.0000                               :08 SYSTEM VOLUME
PROBE_ID                .cm          1.2700                                 :09 TTK PROBE ID
G0                      .            4.6700                                 :10 GEOMETRY FACTOR


~A                  TIME     DD_PRESS                              DD_VOLUME               TEMP                                   DD_PRESS_MOD_1000       DD_PRESS_MOD_100        DD_PRESS_MOD_10         DD_PRESS_MOD_1        DD_PRESS_MOD_01       DD_PRESS_MOD_001      DD_PRESS_MOD_0001
# ...
                   74.90    343.52016                               11.14650             81.063                                        3.43520e+002           4.35202e+001           3.52016e+000           5.20163e-001           2.01634e-002           1.63430e-004           1.63430e-004
                   75.00    343.47921                               11.23855             81.063                                        3.43479e+002           4.34792e+001           3.47921e+000           4.79209e-001           7.92088e-002           9.20880e-003           2.08799e-004
                   75.10    343.43367                               11.34200             81.063                                        3.43434e+002           4.34337e+001           3.43367e+000           4.33673e-001           3.36733e-002           3.67330e-003           6.73300e-004
                   75.20    343.38202                               11.45754             81.063                                        3.43382e+002           4.33820e+001           3.38202e+000           3.82021e-001           8.20212e-002           2.02123e-003           2.12278e-005
                   75.30    343.32084                               11.58594             81.063                                        3.43321e+002           4.33208e+001           3.32084e+000           3.20844e-001           2.08445e-002           8.44477e-004           8.44477e-004
                   75.40    343.25492                               11.72805             81.063                                        3.43255e+002           4.32549e+001           3.25492e+000           2.54923e-001           5.49230e-002           4.92297e-003           9.22965e-004
                   75.50    343.19046                               11.88442             81.063                                        3.43190e+002           4.31905e+001           3.19046e+000           1.90463e-001           9.04630e-002           4.62990e-004           4.62990e-004
                   75.60    343.12576                               12.05608             81.063                                        3.43126e+002           4.31258e+001           3.12576e+000           1.25758e-001           2.57575e-002           5.75752e-003           7.57516e-004
                   75.70    343.05810                               12.24427             81.063                                        3.43058e+002           4.30581e+001           3.05810e+000           5.81005e-002           5.81005e-002           8.10055e-003           1.00546e-004
                   75.80    342.98971                               12.44973             81.063                                        3.42990e+002           4.29897e+001           2.98971e+000           9.89710e-001           8.97096e-002           9.70958e-003           7.09579e-004
                   75.90    342.92385                               12.67343             81.063                                        3.42924e+002           4.29239e+001           2.92385e+000           9.23851e-001           2.38513e-002           3.85127e-003           8.51272e-004
                   76.00    342.85547                               12.91646             81.063                                        3.42855e+002           4.28555e+001           2.85547e+000           8.55470e-001           5.54698e-002           5.46975e-003           4.69754e-004
                   76.10    342.78091                               13.17969             81.063                                        3.42781e+002           4.27809e+001           2.78091e+000           7.80910e-001           8.09099e-002           9.09906e-004           9.09906e-004
                   76.20    342.72806                               13.46128             81.063                                        3.42728e+002           4.27281e+001           2.72806e+000           7.28056e-001           2.80558e-002           8.05584e-003           5.58394e-005
                   76.30    342.70889                               13.75360             81.063                                        3.42709e+002           4.27089e+001           2.70889e+000           7.08892e-001           8.89225e-003           8.89225e-003           8.92247e-004
                   76.40    342.70808                               14.04860             81.063                                        3.42708e+002           4.27081e+001           2.70808e+000           7.08077e-001           8.07743e-003           8.07743e-003           7.74324e-005
                   76.50    342.70259                               14.34358             81.063                                        3.42703e+002           4.27026e+001           2.70259e+000           7.02588e-001           2.58767e-003           2.58767e-003           5.87670e-004
                   76.60    342.70617                               14.63852             81.063                                        3.42706e+002           4.27062e+001           2.70617e+000           7.06173e-001           6.17274e-003           6.17274e-003           1.72743e-004
                   76.70    342.74645                               14.93345             81.063                                        3.42746e+002           4.27465e+001           2.74645e+000           7.46453e-001           4.64533e-002           6.45326e-003           4.53261e-004
                   76.80    342.79254                               15.22842             81.063                                        3.42793e+002           4.27925e+001           2.79254e+000           7.92539e-001           9.25394e-002           2.53938e-003           5.39376e-004
                   76.90    342.80306                               15.52338             81.063                                        3.42803e+002           4.28031e+001           2.80306e+000           8.03061e-001           3.06073e-003           3.06073e-003           6.07312e-005
                   77.00    342.79612                               15.81828             81.063                                        3.42796e+002           4.27961e+001           2.79612e+000           7.96122e-001           9.61223e-002           6.12231e-003           1.22305e-004
                   77.10    342.78798                               16.11322             81.063                                        3.42788e+002           4.27880e+001           2.78798e+000           7.87977e-001           8.79770e-002           7.97698e-003           9.76984e-004
                   77.20    342.78441                               16.40819             81.063                                        3.42784e+002           4.27844e+001           2.78441e+000           7.84412e-001           8.44121e-002           4.41215e-003           4.12147e-004
                   77.30    342.78630                               16.70310             81.063                                        3.42786e+002           4.27863e+001           2.78630e+000           7.86295e-001           8.62951e-002           6.29513e-003           2.95127e-004
                   77.40    342.78870                               16.99806             81.063                                        3.42789e+002           4.27887e+001           2.78870e+000           7.88703e-001           8.87028e-002           8.70280e-003           7.02796e-004
                   77.50    342.78914                               17.29297             81.063                                        3.42789e+002           4.27891e+001           2.78914e+000           7.89136e-001           8.91355e-002           9.13551e-003           1.35512e-004
                   77.60    342.79088                               17.58779             81.063                                        3.42791e+002           4.27909e+001           2.79088e+000           7.90880e-001           9.08802e-002           8.80203e-004           8.80203e-004
