~VERSION INFORMATION
VERS                    .            2.0                                    :CWLS LOG ASCII STANDARD
WRAP                    .            NO                                     :ONE LINE PER TIME STEP


~WELL INFORMATION
#MNEM                   .UNIT        DATA                                    DESCRIPTION
#________________________________________________________________________________________
STRTTIME                .HH/MM/SS    04:27:44                               :START TIME
STOPTIME                .HH/MM/SS    04:30:31                               :STOP TIME
STRT                    .s           2.10                                   :START DATA
STOP                    .s           165.30                                 :STOP DATA
STEP                    .s           0.10                                   :MEASUREMENT TIME INTERVAL
NULL                    .            -999.25                                :NULL VALUE
COMP                    .            Statoil ASA                            :COMPANY
FLD                     .            Volve                                  :FIELD
WELL                    .            15/9-F-1 C                             :WELL
RUN                     .            4                                      :RUN
LOC                     .                                                   :LOCATION
PROV                    .            na                                     :PROVINCE
SRVC                    .            Baker Hughes INTEQ                     :SERVICE COMPANY
DATE                    .YY/MM/DD    14/03/15                               :LOG DATE
UWI                     .                                                   :UNIQUE WELL ID
DEPTHMD                 .m           3273.1                                 :MEASURED DEPTH
DEPTHTVD                .m           2948.3                                 :TRUE VERTICAL DEPTH


~CURVE INFORMATION
#MNEM                   .UNIT        API CODES                               DESCRIPTION
#________________________________________________________________________________________
TIME                    .s                                                  :01 TIME
DD_PRESS                .bar                                                :02 DRAW DOWN PRESSURE
DD_VOLUME               .cm3                                                :03 INCREMENTAL DRAW DOWN VOLUME
TEMP                    .degC                                               :04 TRANSDUCER TEMPERATURE
DD_PRESS_MOD_1000       .bar                                                :05 DRAW DOWN PRESSURE MOD 1000
DD_PRESS_MOD_100        .bar                                                :06 DRAW DOWN PRESSURE MOD 100
DD_PRESS_MOD_10         .bar                                                :07 DRAW DOWN PRESSURE MOD 10
DD_PRESS_MOD_1          .bar                                                :08 DRAW DOWN PRESSURE MOD 1
DD_PRESS_MOD_01         .bar                                                :09 DRAW DOWN PRESSURE MOD 01
DD_PRESS_MOD_001        .bar                                                :10 DRAW DOWN PRESSURE MOD 001
DD_PRESS_MOD_0001       .bar                                                :11 DRAW DOWN PRESSURE MOD 0001


~PARAMETER INFORMATION
#MNEM                   .UNIT        VALUE                                   DESCRIPTION
#________________________________________________________________________________________
TOOLFACE                .deg         76.8                                   :01 TOOLFACE
PUMP_CAPACITY           .bar         400                                    :02 NOMINAL DRAW DOWN PUMP CAPACITY
PUMP_LIMIT              .bar         240                                    :03 DOWNLINK PUMP LIMIT
TIME_LIMIT              .min         10                                     :04 DOWNLINK MAX TIME
TEST_TYPE               .            REPEAT                                 :05 DOWNLINK
TEST_TYPE               .            HIGH MOBILITY                          :06 DOWNLINK
DD_PIST_A               .cm2         3.1416                                 :07 DRAW DOWN PISTON AREA
V_SYS                   .cm3         131.0000                               :08 SYSTEM VOLUME
PROBE_ID                .cm          1.2700                                 :09 TTK PROBE ID
G0                      .            4.6700                                 :10 GEOMETRY FACTOR


~A                  TIME     DD_PRESS                              DD_VOLUME               TEMP                                   DD_PRESS_MOD_1000       DD_PRESS_MOD_100        DD_PRESS_MOD_10         DD_PRESS_MOD_1        DD_PRESS_MOD_01       DD_PRESS_MOD_001      DD_PRESS_MOD_0001
# ...
                   66.50    338.17635                               10.49385             85.008                                        3.38176e+002           3.81763e+001           8.17635e+000           1.76345e-001           7.63452e-002           6.34517e-003           3.45172e-004
                   66.60    338.17513                               10.49385             85.008                                        3.38175e+002           3.81751e+001           8.17513e+000           1.75130e-001           7.51300e-002           5.13000e-003           1.30000e-004
                   66.70    338.17243                               10.49385             85.008                                        3.38172e+002           3.81724e+001           8.17243e+000           1.72429e-001           7.24289e-002           2.42887e-003           4.28871e-004
                   66.80    338.17171                               10.49385             85.008                                        3.38172e+002           3.81717e+001           8.17171e+000           1.71714e-001           7.17140e-002           1.71400e-003           7.13998e-004
                   66.90    338.17353                               10.49385             85.008                                        3.38174e+002           3.81735e+001           8.17353e+000           1.73530e-001           7.35296e-002           3.52963e-003           5.29632e-004
                   67.00    338.17421                               10.49385             85.008                                        3.38174e+002           3.81742e+001           8.17421e+000           1.74214e-001           7.42140e-002           4.21403e-003           2.14031e-004
                   67.10    338.17466                               10.49385             85.005                                        3.38175e+002           3.81747e+001           8.17466e+000           1.74659e-001           7.46588e-002           4.65885e-003           6.58849e-004
                   67.20    338.17620                               10.49385             85.002                                        3.38176e+002           3.81762e+001           8.17620e+000           1.76197e-001           7.61969e-002           6.19689e-003           1.96886e-004
                   67.30    338.17771                               10.49385             85.000                                        3.38178e+002           3.81777e+001           8.17771e+000           1.77706e-001           7.77059e-002           7.70590e-003           7.05897e-004
                   67.40    338.17579                               10.49385             85.000                                        3.38176e+002           3.81758e+001           8.17579e+000           1.75793e-001           7.57931e-002           5.79305e-003           7.93052e-004
                   67.50    338.17349                               10.49385             85.000                                        3.38173e+002           3.81735e+001           8.17349e+000           1.73491e-001           7.34910e-002           3.49100e-003           4.90996e-004
                   67.60    338.17395                               10.49385             85.000                                        3.38174e+002           3.81740e+001           8.17395e+000           1.73954e-001           7.39539e-002           3.95392e-003           9.53924e-004
                   67.70    338.17280                               10.49385             85.000                                        3.38173e+002           3.81728e+001           8.17280e+000           1.72803e-001           7.28027e-002           2.80269e-003           8.02692e-004
                   67.80    338.17305                               10.49385             85.000                                        3.38173e+002           3.81730e+001           8.17305e+000           1.73047e-001           7.30468e-002           3.04675e-003           4.67506e-005
                   67.90    338.17561                               10.49385             85.000                                        3.38176e+002           3.81756e+001           8.17561e+000           1.75613e-001           7.56127e-002           5.61272e-003           6.12716e-004
                   68.00    338.17670                               10.49385             85.000                                        3.38177e+002           3.81767e+001           8.17670e+000           1.76704e-001           7.67038e-002           6.70382e-003           7.03821e-004
                   68.10    338.17592                               10.49385             85.000                                        3.38176e+002           3.81759e+001           8.17592e+000           1.75915e-001           7.59154e-002           5.91541e-003           9.15411e-004
                   68.20    338.17672                               10.49385             85.000                                        3.38177e+002           3.81767e+001           8.17672e+000           1.76717e-001           7.67166e-002           6.71662e-003           7.16615e-004
                   68.30    338.17780                               10.49385             85.000                                        3.38178e+002           3.81778e+001           8.17780e+000           1.77795e-001           7.77954e-002           7.79537e-003           7.95367e-004
                   68.40    338.17632                               10.49385             85.000                                        3.38176e+002           3.81763e+001           8.17632e+000           1.76319e-001           7.63192e-002           6.31916e-003           3.19157e-004
                   68.50    338.17500                               10.49385             85.000                                        3.38175e+002           3.81750e+001           8.17500e+000           1.75003e-001           7.50033e-002           5.00332e-003           3.32300e-006
                   68.60    338.17579                               10.49385             85.000                                        3.38176e+002           3.81758e+001           8.17579e+000           1.75786e-001           7.57861e-002           5.78610e-003           7.86096e-004
                   68.70    338.17657                               10.49385             85.000                                        3.38177e+002           3.81766e+001           8.17657e+000           1.76572e-001           7.65715e-002           6.57155e-003           5.71547e-004
                   68.80    338.17550                               10.49385             85.000                                        3.38176e+002           3.81755e+001           8.17550e+000           1.75503e-001           7.55034e-002           5.50335e-003           5.03352e-004
                   68.90    338.17472                               10.49385             85.000                                        3.38175e+002           3.81747e+001           8.17472e+000           1.74722e-001           7.47223e-002           4.72234e-003           7.22337e-004
                   69.00    338.17534                               10.49385             85.000                                        3.38175e+002           3.81753e+001           8.17534e+000           1.75335e-001           7.53350e-002           5.33500e-003           3.35005e-004
                   69.10    338.17571                               10.49385             85.000                                        3.38176e+002           3.81757e+001           8.17571e+000           1.75709e-001           7.57087e-002           5.70867e-003           7.08673e-004
                   69.20    338.17520                               10.49385             85.000                                        3.38175e+002           3.81752e+001           8.17520e+000           1.75196e-001           7.51965e-002           5.19647e-003           1.96474e-004
