~VERSION INFORMATION
VERS                    .            2.0                                    :CWLS LOG ASCII STANDARD
WRAP                    .            NO                                     :ONE LINE PER TIME STEP


~WELL INFORMATION
#MNEM                   .UNIT        DATA                                    DESCRIPTION
#________________________________________________________________________________________
STRTTIME                .HH/MM/SS    03:28:02                               :START TIME
STOPTIME                .HH/MM/SS    03:30:44                               :STOP TIME
STRT                    .s           2.10                                   :START DATA
STOP                    .s           160.80                                 :STOP DATA
STEP                    .s           0.10                                   :MEASUREMENT TIME INTERVAL
NULL                    .            -999.25                                :NULL VALUE
COMP                    .            Statoil ASA                            :COMPANY
FLD                     .            Volve                                  :FIELD
WELL                    .            15/9-F-1 C                             :WELL
RUN                     .            4                                      :RUN
LOC                     .                                                   :LOCATION
PROV                    .            na                                     :PROVINCE
SRVC                    .            Baker Hughes INTEQ                     :SERVICE COMPANY
DATE                    .YY/MM/DD    14/03/15                               :LOG DATE
UWI                     .                                                   :UNIQUE WELL ID
DEPTHMD                 .m           3493.0                                 :MEASURED DEPTH
DEPTHTVD                .m           2980.2                                 :TRUE VERTICAL DEPTH


~CURVE INFORMATION
#MNEM                   .UNIT        API CODES                               DESCRIPTION
#________________________________________________________________________________________
TIME                    .s                                                  :01 TIME
DD_PRESS                .bar                                                :02 DRAW DOWN PRESSURE
DD_VOLUME               .cm3                                                :03 INCREMENTAL DRAW DOWN VOLUME
TEMP                    .degC                                               :04 TRANSDUCER TEMPERATURE
DD_PRESS_MOD_1000       .bar                                                :05 DRAW DOWN PRESSURE MOD 1000
DD_PRESS_MOD_100        .bar                                                :06 DRAW DOWN PRESSURE MOD 100
DD_PRESS_MOD_10         .bar                                                :07 DRAW DOWN PRESSURE MOD 10
DD_PRESS_MOD_1          .bar                                                :08 DRAW DOWN PRESSURE MOD 1
DD_PRESS_MOD_01         .bar                                                :09 DRAW DOWN PRESSURE MOD 01
DD_PRESS_MOD_001        .bar                                                :10 DRAW DOWN PRESSURE MOD 001
DD_PRESS_MOD_0001       .bar                                                :11 DRAW DOWN PRESSURE MOD 0001


~PARAMETER INFORMATION
#MNEM                   .UNIT        VALUE                                   DESCRIPTION
#________________________________________________________________________________________
TOOLFACE                .deg         89.6                                   :01 TOOLFACE
PUMP_CAPACITY           .bar         400                                    :02 NOMINAL DRAW DOWN PUMP CAPACITY
PUMP_LIMIT              .bar         240                                    :03 DOWNLINK PUMP LIMIT
TIME_LIMIT              .min         10                                     :04 DOWNLINK MAX TIME
TEST_TYPE               .            REPEAT                                 :05 DOWNLINK
TEST_TYPE               .            HIGH MOBILITY                          :06 DOWNLINK
DD_PIST_A               .cm2         3.1416                                 :07 DRAW DOWN PISTON AREA
V_SYS                   .cm3         131.0000                               :08 SYSTEM VOLUME
PROBE_ID                .cm          1.2700                                 :09 TTK PROBE ID
G0                      .            4.6700                                 :10 GEOMETRY FACTOR


~A                  TIME     DD_PRESS                              DD_VOLUME               TEMP                                   DD_PRESS_MOD_1000       DD_PRESS_MOD_100        DD_PRESS_MOD_10         DD_PRESS_MOD_1        DD_PRESS_MOD_01       DD_PRESS_MOD_001      DD_PRESS_MOD_0001
# ...
                  139.30    421.86238                                0.00000             83.672                                        4.21862e+002           2.18624e+001           1.86238e+000           8.62378e-001           6.23780e-002           2.37800e-003           3.78002e-004
                  139.40    421.88025                                0.00000             83.672                                        4.21880e+002           2.18803e+001           1.88025e+000           8.80253e-001           8.02530e-002           2.53035e-004           2.53035e-004
                  139.50    421.87867                                0.00000             83.672                                        4.21879e+002           2.18787e+001           1.87867e+000           8.78675e-001           7.86749e-002           8.67488e-003           6.74883e-004
                  139.60    421.87182                                0.00000             83.672                                        4.21872e+002           2.18718e+001           1.87182e+000           8.71817e-001           7.18175e-002           1.81747e-003           8.17471e-004
                  139.70    421.88909                                0.00000             83.672                                        4.21889e+002           2.18891e+001           1.88909e+000           8.89093e-001           8.90928e-002           9.09277e-003           9.27729e-005
                  139.80    421.91398                                0.00000             83.672                                        4.21914e+002           2.19140e+001           1.91398e+000           9.13982e-001           1.39816e-002           3.98156e-003           9.81564e-004
                  139.90    421.92694                                0.00000             83.672                                        4.21927e+002           2.19269e+001           1.92694e+000           9.26944e-001           2.69438e-002           6.94377e-003           9.43774e-004
                  140.00    421.92596                                0.00000             83.672                                        4.21926e+002           2.19260e+001           1.92596e+000           9.25958e-001           2.59580e-002           5.95800e-003           9.58003e-004
                  140.10    421.93348                                0.00000             83.672                                        4.21933e+002           2.19335e+001           1.93348e+000           9.33480e-001           3.34799e-002           3.47994e-003           4.79940e-004
                  140.20    421.95787                                0.00000             83.672                                        4.21958e+002           2.19579e+001           1.95787e+000           9.57869e-001           5.78692e-002           7.86919e-003           8.69185e-004
                  140.30    421.98303                                0.00000             83.672                                        4.21983e+002           2.19830e+001           1.98303e+000           9.83030e-001           8.30301e-002           3.03014e-003           3.01402e-005
                  140.40    421.98804                                0.00000             83.672                                        4.21988e+002           2.19880e+001           1.98804e+000           9.88040e-001           8.80398e-002           8.03978e-003           3.97846e-005
                  140.50    421.98460                                0.00000             83.672                                        4.21985e+002           2.19846e+001           1.98460e+000           9.84598e-001           8.45979e-002           4.59790e-003           5.97903e-004
                  140.60    421.99468                                0.00000             83.672                                        4.21995e+002           2.19947e+001           1.99468e+000           9.94678e-001           9.46782e-002           4.67824e-003           6.78236e-004
                  140.70    422.01762                                0.00000             83.672                                        4.22018e+002           2.20176e+001           2.01762e+000           1.76206e-002           1.76206e-002           7.62059e-003           6.20590e-004
                  140.80    422.02154                                0.00000             83.674                                        4.22022e+002           2.20215e+001           2.02154e+000           2.15359e-002           2.15359e-002           1.53590e-003           5.35895e-004
                  140.90    422.01428                                0.00000             83.678                                        4.22014e+002           2.20143e+001           2.01428e+000           1.42772e-002           1.42772e-002           4.27723e-003           2.77226e-004
                  141.00    422.02043                                0.00000             83.680                                        4.22020e+002           2.20204e+001           2.02043e+000           2.04327e-002           2.04327e-002           4.32716e-004           4.32716e-004
                  141.10    422.04444                                0.00000             83.680                                        4.22044e+002           2.20444e+001           2.04444e+000           4.44420e-002           4.44420e-002           4.44196e-003           4.41959e-004
                  141.20    422.06506                                0.00000             83.680                                        4.22065e+002           2.20651e+001           2.06506e+000           6.50573e-002           6.50573e-002           5.05727e-003           5.72740e-005
                  141.30    422.06945                                0.00000             83.680                                        4.22069e+002           2.20694e+001           2.06945e+000           6.94482e-002           6.94482e-002           9.44823e-003           4.48233e-004
                  141.40    422.05693                                0.00000             83.680                                        4.22057e+002           2.20569e+001           2.05693e+000           5.69299e-002           5.69299e-002           6.92994e-003           9.29942e-004
                  141.50    422.05693                                0.00000             83.680                                        4.22057e+002           2.20569e+001           2.05693e+000           5.69345e-002           5.69345e-002           6.93450e-003           9.34499e-004
                  141.60    422.06910                                0.00000             83.680                                        4.22069e+002           2.20691e+001           2.06910e+000           6.91041e-002           6.91041e-002           9.10409e-003           1.04088e-004
                  141.70    422.08474                                0.00000             83.680                                        4.22085e+002           2.20847e+001           2.08474e+000           8.47381e-002           8.47381e-002           4.73810e-003           7.38101e-004
                  141.80    422.09244                                0.00000             83.680                                        4.22092e+002           2.20924e+001           2.09244e+000           9.24434e-002           9.24434e-002           2.44336e-003           4.43362e-004
                  141.90    422.09540                                0.00000             83.680                                        4.22095e+002           2.20954e+001           2.09540e+000           9.53997e-002           9.53997e-002           5.39974e-003           3.99741e-004
                  142.00    422.09746                                0.00000             83.680                                        4.22097e+002           2.20975e+001           2.09746e+000           9.74618e-002           9.74618e-002           7.46175e-003           4.61753e-004
