~VERSION INFORMATION
VERS                    .            2.0                                    :CWLS LOG ASCII STANDARD
WRAP                    .            NO                                     :ONE LINE PER TIME STEP


~WELL INFORMATION
#MNEM                   .UNIT        DATA                                    DESCRIPTION
#________________________________________________________________________________________
STRTTIME                .HH/MM/SS    02:14:19                               :START TIME
STOPTIME                .HH/MM/SS    02:17:23                               :STOP TIME
STRT                    .s           2.10                                   :START DATA
STOP                    .s           182.70                                 :STOP DATA
STEP                    .s           0.10                                   :MEASUREMENT TIME INTERVAL
NULL                    .            -999.25                                :NULL VALUE
COMP                    .            Statoil ASA                            :COMPANY
FLD                     .            Volve                                  :FIELD
WELL                    .            15/9-F-1 C                             :WELL
RUN                     .            4                                      :RUN
LOC                     .                                                   :LOCATION
PROV                    .            na                                     :PROVINCE
SRVC                    .            Baker Hughes INTEQ                     :SERVICE COMPANY
DATE                    .YY/MM/DD    14/03/15                               :LOG DATE
UWI                     .                                                   :UNIQUE WELL ID
DEPTHMD                 .m           3603.0                                 :MEASURED DEPTH
DEPTHTVD                .m           3006.7                                 :TRUE VERTICAL DEPTH


~CURVE INFORMATION
#MNEM                   .UNIT        API CODES                               DESCRIPTION
#________________________________________________________________________________________
TIME                    .s                                                  :01 TIME
DD_PRESS                .bar                                                :02 DRAW DOWN PRESSURE
DD_VOLUME               .cm3                                                :03 INCREMENTAL DRAW DOWN VOLUME
TEMP                    .degC                                               :04 TRANSDUCER TEMPERATURE
DD_PRESS_MOD_1000       .bar                                                :05 DRAW DOWN PRESSURE MOD 1000
DD_PRESS_MOD_100        .bar                                                :06 DRAW DOWN PRESSURE MOD 100
DD_PRESS_MOD_10         .bar                                                :07 DRAW DOWN PRESSURE MOD 10
DD_PRESS_MOD_1          .bar                                                :08 DRAW DOWN PRESSURE MOD 1
DD_PRESS_MOD_01         .bar                                                :09 DRAW DOWN PRESSURE MOD 01
DD_PRESS_MOD_001        .bar                                                :10 DRAW DOWN PRESSURE MOD 001
DD_PRESS_MOD_0001       .bar                                                :11 DRAW DOWN PRESSURE MOD 0001


~PARAMETER INFORMATION
#MNEM                   .UNIT        VALUE                                   DESCRIPTION
#________________________________________________________________________________________
TOOLFACE                .deg         109.6                                  :01 TOOLFACE
PUMP_CAPACITY           .bar         400                                    :02 NOMINAL DRAW DOWN PUMP CAPACITY
PUMP_LIMIT              .bar         240                                    :03 DOWNLINK PUMP LIMIT
TIME_LIMIT              .min         10                                     :04 DOWNLINK MAX TIME
TEST_TYPE               .            REPEAT                                 :05 DOWNLINK
TEST_TYPE               .            HIGH MOBILITY                          :06 DOWNLINK
DD_PIST_A               .cm2         3.1416                                 :07 DRAW DOWN PISTON AREA
V_SYS                   .cm3         131.0000                               :08 SYSTEM VOLUME
PROBE_ID                .cm          1.2700                                 :09 TTK PROBE ID
G0                      .            4.6700                                 :10 GEOMETRY FACTOR


~A                  TIME     DD_PRESS                              DD_VOLUME               TEMP                                   DD_PRESS_MOD_1000       DD_PRESS_MOD_100        DD_PRESS_MOD_10         DD_PRESS_MOD_1        DD_PRESS_MOD_01       DD_PRESS_MOD_001      DD_PRESS_MOD_0001
# ...
                  144.90    345.38058                               29.46609             86.031                                        3.45381e+002           4.53806e+001           5.38058e+000           3.80580e-001           8.05803e-002           5.80291e-004           5.80291e-004
                  145.00    345.37514                               29.46609             86.031                                        3.45375e+002           4.53751e+001           5.37514e+000           3.75144e-001           7.51439e-002           5.14393e-003           1.43926e-004
                  145.10    345.37427                               29.46609             86.031                                        3.45374e+002           4.53743e+001           5.37427e+000           3.74266e-001           7.42655e-002           4.26553e-003           2.65532e-004
                  145.20    345.37860                               29.46609             86.031                                        3.45379e+002           4.53786e+001           5.37860e+000           3.78599e-001           7.85990e-002           8.59905e-003           5.99048e-004
                  145.30    345.38194                               29.46609             86.031                                        3.45382e+002           4.53819e+001           5.38194e+000           3.81939e-001           8.19392e-002           1.93922e-003           9.39222e-004
                  145.40    345.38441                               29.46609             86.031                                        3.45384e+002           4.53844e+001           5.38441e+000           3.84413e-001           8.44132e-002           4.41319e-003           4.13188e-004
                  145.50    345.38435                               29.46609             86.031                                        3.45384e+002           4.53844e+001           5.38435e+000           3.84350e-001           8.43504e-002           4.35036e-003           3.50358e-004
                  145.60    345.38239                               29.46609             86.031                                        3.45382e+002           4.53824e+001           5.38239e+000           3.82388e-001           8.23884e-002           2.38844e-003           3.88443e-004
                  145.70    345.37822                               29.46609             86.031                                        3.45378e+002           4.53782e+001           5.37822e+000           3.78220e-001           7.82204e-002           8.22044e-003           2.20441e-004
                  145.80    345.38075                               29.46609             86.031                                        3.45381e+002           4.53807e+001           5.38075e+000           3.80747e-001           8.07468e-002           7.46811e-004           7.46811e-004
                  145.90    345.38240                               29.46609             86.031                                        3.45382e+002           4.53824e+001           5.38240e+000           3.82405e-001           8.24049e-002           2.40487e-003           4.04874e-004
                  146.00    345.38115                               29.46609             86.031                                        3.45381e+002           4.53812e+001           5.38115e+000           3.81152e-001           8.11523e-002           1.15234e-003           1.52339e-004
                  146.10    345.38140                               29.46609             86.031                                        3.45381e+002           4.53814e+001           5.38140e+000           3.81396e-001           8.13962e-002           1.39616e-003           3.96163e-004
                  146.20    345.38366                               29.46609             86.031                                        3.45384e+002           4.53837e+001           5.38366e+000           3.83656e-001           8.36562e-002           3.65621e-003           6.56214e-004
                  146.30    345.37955                               29.46609             86.031                                        3.45380e+002           4.53795e+001           5.37955e+000           3.79547e-001           7.95470e-002           9.54699e-003           5.46990e-004
                  146.40    345.37627                               29.46609             86.031                                        3.45376e+002           4.53763e+001           5.37627e+000           3.76267e-001           7.62674e-002           6.26738e-003           2.67378e-004
                  146.50    345.38002                               29.46609             86.031                                        3.45380e+002           4.53800e+001           5.38002e+000           3.80021e-001           8.00211e-002           2.10721e-005           2.10721e-005
                  146.60    345.38304                               29.46609             86.031                                        3.45383e+002           4.53830e+001           5.38304e+000           3.83043e-001           8.30432e-002           3.04316e-003           4.31571e-005
                  146.70    345.38497                               29.46609             86.031                                        3.45385e+002           4.53850e+001           5.38497e+000           3.84972e-001           8.49718e-002           4.97179e-003           9.71786e-004
                  146.80    345.38350                               29.46609             86.031                                        3.45383e+002           4.53835e+001           5.38350e+000           3.83497e-001           8.34969e-002           3.49690e-003           4.96896e-004
                  146.90    345.38006                               29.46609             86.031                                        3.45380e+002           4.53801e+001           5.38006e+000           3.80056e-001           8.00556e-002           5.56400e-005           5.56400e-005
                  147.00    345.37864                               29.46609             86.031                                        3.45379e+002           4.53786e+001           5.37864e+000           3.78640e-001           7.86401e-002           8.64009e-003           6.40090e-004
                  147.10    345.37872                               29.46609             86.031                                        3.45379e+002           4.53787e+001           5.37872e+000           3.78718e-001           7.87181e-002           8.71811e-003           7.18106e-004
                  147.20    345.37820                               29.46609             86.031                                        3.45378e+002           4.53782e+001           5.37820e+000           3.78198e-001           7.81982e-002           8.19822e-003           1.98225e-004
                  147.30    345.38007                               29.46609             86.031                                        3.45380e+002           4.53801e+001           5.38007e+000           3.80071e-001           8.00709e-002           7.09248e-005           7.09248e-005
                  147.40    345.38170                               29.46609             86.031                                        3.45382e+002           4.53817e+001           5.38170e+000           3.81704e-001           8.17036e-002           1.70355e-003           7.03555e-004
                  147.50    345.38462                               29.46609             86.031                                        3.45385e+002           4.53846e+001           5.38462e+000           3.84623e-001           8.46226e-002           4.62258e-003           6.22576e-004
                  147.60    345.38591                               29.46609             86.031                                        3.45386e+002           4.53859e+001           5.38591e+000           3.85908e-001           8.59076e-002           5.90757e-003           9.07569e-004
