~VERSION INFORMATION
VERS                    .            2.0                                    :CWLS LOG ASCII STANDARD
WRAP                    .            NO                                     :ONE LINE PER TIME STEP


~WELL INFORMATION
#MNEM                   .UNIT        DATA                                    DESCRIPTION
#________________________________________________________________________________________
STRTTIME                .HH/MM/SS    08:08:34                               :START TIME
STOPTIME                .HH/MM/SS    08:11:25                               :STOP TIME
STRT                    .s           2.10                                   :START DATA
STOP                    .s           169.10                                 :STOP DATA
STEP                    .s           0.10                                   :MEASUREMENT TIME INTERVAL
NULL                    .            -999.25                                :NULL VALUE
COMP                    .            Statoil ASA                            :COMPANY
FLD                     .            Volve                                  :FIELD
WELL                    .            15/9-F-11 A                            :WELL
RUN                     .            8                                      :RUN
LOC                     .            Maersk Inspirer                        :LOCATION
PROV                    .            na                                     :PROVINCE
SRVC                    .            Baker Hughes INTEQ                     :SERVICE COMPANY
DATE                    .YY/MM/DD    13/05/21                               :LOG DATE
UWI                     .                                                   :UNIQUE WELL ID
DEPTHMD                 .m           3694.5                                 :MEASURED DEPTH
DEPTHTVD                .m           3074.7                                 :TRUE VERTICAL DEPTH


~CURVE INFORMATION
#MNEM                   .UNIT        API CODES                               DESCRIPTION
#________________________________________________________________________________________
TIME                    .s                                                  :01 TIME
DD_PRESS                .bar                                                :02 DRAW DOWN PRESSURE
DD_VOLUME               .cm3                                                :03 INCREMENTAL DRAW DOWN VOLUME
TEMP                    .degC                                               :04 TRANSDUCER TEMPERATURE
DD_PRESS_MOD_1000       .bar                                                :05 DRAW DOWN PRESSURE MOD 1000
DD_PRESS_MOD_100        .bar                                                :06 DRAW DOWN PRESSURE MOD 100
DD_PRESS_MOD_10         .bar                                                :07 DRAW DOWN PRESSURE MOD 10
DD_PRESS_MOD_1          .bar                                                :08 DRAW DOWN PRESSURE MOD 1
DD_PRESS_MOD_01         .bar                                                :09 DRAW DOWN PRESSURE MOD 01
DD_PRESS_MOD_001        .bar                                                :10 DRAW DOWN PRESSURE MOD 001
DD_PRESS_MOD_0001       .bar                                                :11 DRAW DOWN PRESSURE MOD 0001


~PARAMETER INFORMATION
#MNEM                   .UNIT        VALUE                                   DESCRIPTION
#________________________________________________________________________________________
TOOLFACE                .deg         -107.9                                 :01 TOOLFACE
PUMP_CAPACITY           .bar         400                                    :02 NOMINAL DRAW DOWN PUMP CAPACITY
PUMP_LIMIT              .bar         240                                    :03 DOWNLINK PUMP LIMIT
TIME_LIMIT              .min         10                                     :04 DOWNLINK MAX TIME
TEST_TYPE               .            HIGH MOBILITY                          :05 DOWNLINK
DD_PIST_A               .cm2         3.1416                                 :06 DRAW DOWN PISTON AREA
V_SYS                   .cm3         131.0000                               :07 SYSTEM VOLUME
PROBE_ID                .cm          1.2700                                 :08 TTK PROBE ID
G0                      .            4.6700                                 :09 GEOMETRY FACTOR


~A                  TIME     DD_PRESS                              DD_VOLUME               TEMP                                   DD_PRESS_MOD_1000       DD_PRESS_MOD_100        DD_PRESS_MOD_10         DD_PRESS_MOD_1        DD_PRESS_MOD_01       DD_PRESS_MOD_001      DD_PRESS_MOD_0001
# ...
                   46.90    346.41294                               10.52664             84.875                                        3.46413e+002           4.64129e+001           6.41294e+000           4.12937e-001           1.29365e-002           2.93654e-003           9.36544e-004
                   47.00    346.41198                               10.52664             84.875                                        3.46412e+002           4.64120e+001           6.41198e+000           4.11975e-001           1.19750e-002           1.97501e-003           9.75007e-004
                   47.10    346.40747                               10.52664             84.875                                        3.46407e+002           4.64075e+001           6.40747e+000           4.07472e-001           7.47154e-003           7.47154e-003           4.71544e-004
                   47.20    346.41308                               10.52664             84.875                                        3.46413e+002           4.64131e+001           6.41308e+000           4.13080e-001           1.30804e-002           3.08038e-003           8.03809e-005
                   47.30    346.42115                               10.52664             84.875                                        3.46421e+002           4.64211e+001           6.42115e+000           4.21146e-001           2.11461e-002           1.14611e-003           1.46112e-004
                   47.40    346.41709                               10.52664             84.875                                        3.46417e+002           4.64171e+001           6.41709e+000           4.17089e-001           1.70894e-002           7.08940e-003           8.94011e-005
                   47.50    346.40638                               10.52664             84.875                                        3.46406e+002           4.64064e+001           6.40638e+000           4.06383e-001           6.38317e-003           6.38317e-003           3.83170e-004
                   47.60    346.41076                               10.52664             84.875                                        3.46411e+002           4.64108e+001           6.41076e+000           4.10764e-001           1.07644e-002           7.64448e-004           7.64448e-004
                   47.70    346.41823                               10.52664             84.875                                        3.46418e+002           4.64182e+001           6.41823e+000           4.18225e-001           1.82251e-002           8.22507e-003           2.25073e-004
                   47.80    346.41459                               10.52664             84.875                                        3.46415e+002           4.64146e+001           6.41459e+000           4.14589e-001           1.45889e-002           4.58893e-003           5.88930e-004
                   47.90    346.40661                               10.52664             84.875                                        3.46407e+002           4.64066e+001           6.40661e+000           4.06610e-001           6.60990e-003           6.60990e-003           6.09895e-004
                   48.00    346.41029                               10.52664             84.875                                        3.46410e+002           4.64103e+001           6.41029e+000           4.10291e-001           1.02907e-002           2.90703e-004           2.90703e-004
                   48.10    346.41702                               10.52664             84.875                                        3.46417e+002           4.64170e+001           6.41702e+000           4.17015e-001           1.70150e-002           7.01505e-003           1.50470e-005
                   48.20    346.41654                               10.52664             84.875                                        3.46417e+002           4.64165e+001           6.41654e+000           4.16539e-001           1.65393e-002           6.53927e-003           5.39265e-004
                   48.30    346.40905                               10.52664             84.875                                        3.46409e+002           4.64090e+001           6.40905e+000           4.09047e-001           9.04688e-003           9.04688e-003           4.68758e-005
                   48.40    346.40532                               10.52664             84.875                                        3.46405e+002           4.64053e+001           6.40532e+000           4.05324e-001           5.32368e-003           5.32368e-003           3.23681e-004
                   48.50    346.41079                               10.52664             84.875                                        3.46411e+002           4.64108e+001           6.41079e+000           4.10794e-001           1.07942e-002           7.94153e-004           7.94153e-004
                   48.60    346.41488                               10.52664             84.875                                        3.46415e+002           4.64149e+001           6.41488e+000           4.14882e-001           1.48817e-002           4.88171e-003           8.81709e-004
                   48.70    346.41315                               10.52664             84.875                                        3.46413e+002           4.64131e+001           6.41315e+000           4.13148e-001           1.31480e-002           3.14799e-003           1.47992e-004
                   48.80    346.41004                               10.52664             84.875                                        3.46410e+002           4.64100e+001           6.41004e+000           4.10041e-001           1.00414e-002           4.13993e-005           4.13993e-005
                   48.90    346.40947                               10.52664             84.875                                        3.46409e+002           4.64095e+001           6.40947e+000           4.09465e-001           9.46531e-003           9.46531e-003           4.65314e-004
                   49.00    346.41116                               10.52664             84.875                                        3.46411e+002           4.64112e+001           6.41116e+000           4.11163e-001           1.11631e-002           1.16313e-003           1.63131e-004
                   49.10    346.41373                               10.52664             84.875                                        3.46414e+002           4.64137e+001           6.41373e+000           4.13728e-001           1.37278e-002           3.72776e-003           7.27755e-004
                   49.20    346.41410                               10.52664             84.875                                        3.46414e+002           4.64141e+001           6.41410e+000           4.14099e-001           1.40995e-002           4.09946e-003           9.94571e-005
                   49.30    346.41505                               10.52664             84.875                                        3.46415e+002           4.64150e+001           6.41505e+000           4.15050e-001           1.50498e-002           5.04981e-003           4.98062e-005
                   49.40    346.41984                               10.52664             84.875                                        3.46420e+002           4.64198e+001           6.41984e+000           4.19839e-001           1.98391e-002           9.83910e-003           8.39100e-004
                   49.50    346.41923                               10.52664             84.875                                        3.46419e+002           4.64192e+001           6.41923e+000           4.19229e-001           1.92289e-002           9.22888e-003           2.28877e-004
                   49.60    346.41339                               10.52664             84.875                                        3.46413e+002           4.64134e+001           6.41339e+000           4.13395e-001           1.33949e-002           3.39490e-003           3.94904e-004
