~VERSION INFORMATION
VERS                    .            2.0                                    :CWLS LOG ASCII STANDARD
WRAP                    .            NO                                     :ONE LINE PER TIME STEP


~WELL INFORMATION
#MNEM                   .UNIT        DATA                                    DESCRIPTION
#________________________________________________________________________________________
STRTTIME                .HH/MM/SS    15:31:36                               :START TIME
STOPTIME                .HH/MM/SS    15:34:21                               :STOP TIME
STRT                    .s           2.10                                   :START DATA
STOP                    .s           163.50                                 :STOP DATA
STEP                    .s           0.10                                   :MEASUREMENT TIME INTERVAL
NULL                    .            -999.25                                :NULL VALUE
COMP                    .            Statoil ASA                            :COMPANY
FLD                     .            Volve                                  :FIELD
WELL                    .            15/9-F-11 A                            :WELL
RUN                     .            8                                      :RUN
LOC                     .            Maersk Inspirer                        :LOCATION
PROV                    .            na                                     :PROVINCE
SRVC                    .            Baker Hughes INTEQ                     :SERVICE COMPANY
DATE                    .YY/MM/DD    13/05/21                               :LOG DATE
UWI                     .                                                   :UNIQUE WELL ID
DEPTHMD                 .m           3617.2                                 :MEASURED DEPTH
DEPTHTVD                .m           3015.5                                 :TRUE VERTICAL DEPTH


~CURVE INFORMATION
#MNEM                   .UNIT        API CODES                               DESCRIPTION
#________________________________________________________________________________________
TIME                    .s                                                  :01 TIME
DD_PRESS                .bar                                                :02 DRAW DOWN PRESSURE
DD_VOLUME               .cm3                                                :03 INCREMENTAL DRAW DOWN VOLUME
TEMP                    .degC                                               :04 TRANSDUCER TEMPERATURE
DD_PRESS_MOD_1000       .bar                                                :05 DRAW DOWN PRESSURE MOD 1000
DD_PRESS_MOD_100        .bar                                                :06 DRAW DOWN PRESSURE MOD 100
DD_PRESS_MOD_10         .bar                                                :07 DRAW DOWN PRESSURE MOD 10
DD_PRESS_MOD_1          .bar                                                :08 DRAW DOWN PRESSURE MOD 1
DD_PRESS_MOD_01         .bar                                                :09 DRAW DOWN PRESSURE MOD 01
DD_PRESS_MOD_001        .bar                                                :10 DRAW DOWN PRESSURE MOD 001
DD_PRESS_MOD_0001       .bar                                                :11 DRAW DOWN PRESSURE MOD 0001


~PARAMETER INFORMATION
#MNEM                   .UNIT        VALUE                                   DESCRIPTION
#________________________________________________________________________________________
TOOLFACE                .deg         63.0                                   :01 TOOLFACE
PUMP_CAPACITY           .bar         400                                    :02 NOMINAL DRAW DOWN PUMP CAPACITY
PUMP_LIMIT              .bar         240                                    :03 DOWNLINK PUMP LIMIT
TIME_LIMIT              .min         10                                     :04 DOWNLINK MAX TIME
TEST_TYPE               .            HIGH MOBILITY                          :05 DOWNLINK
DD_PIST_A               .cm2         3.1416                                 :06 DRAW DOWN PISTON AREA
V_SYS                   .cm3         131.0000                               :07 SYSTEM VOLUME
PROBE_ID                .cm          1.2700                                 :08 TTK PROBE ID
G0                      .            4.6700                                 :09 GEOMETRY FACTOR


~A                  TIME     DD_PRESS                              DD_VOLUME               TEMP                                   DD_PRESS_MOD_1000       DD_PRESS_MOD_100        DD_PRESS_MOD_10         DD_PRESS_MOD_1        DD_PRESS_MOD_01       DD_PRESS_MOD_001      DD_PRESS_MOD_0001
# ...
                  139.30    342.53834                                0.00000             80.266                                        3.42538e+002           4.25383e+001           2.53834e+000           5.38340e-001           3.83398e-002           8.33985e-003           3.39849e-004
                  139.40    342.59773                                0.00000             80.266                                        3.42598e+002           4.25977e+001           2.59773e+000           5.97731e-001           9.77308e-002           7.73075e-003           7.30750e-004
                  139.50    342.62494                                0.00000             80.266                                        3.42625e+002           4.26249e+001           2.62494e+000           6.24936e-001           2.49364e-002           4.93638e-003           9.36376e-004
                  139.60    342.60805                                0.00000             80.266                                        3.42608e+002           4.26080e+001           2.60805e+000           6.08048e-001           8.04781e-003           8.04781e-003           4.78079e-005
                  139.70    342.64877                                0.00000             80.268                                        3.42649e+002           4.26488e+001           2.64877e+000           6.48765e-001           4.87654e-002           8.76545e-003           7.65449e-004
                  139.80    342.72094                                0.00000             80.269                                        3.42721e+002           4.27209e+001           2.72094e+000           7.20937e-001           2.09369e-002           9.36910e-004           9.36910e-004
                  139.90    342.71836                                0.00000             80.268                                        3.42718e+002           4.27184e+001           2.71836e+000           7.18355e-001           1.83553e-002           8.35531e-003           3.55308e-004
                  140.00    342.71891                                0.00000             80.266                                        3.42719e+002           4.27189e+001           2.71891e+000           7.18906e-001           1.89062e-002           8.90617e-003           9.06166e-004
                  140.10    342.79324                                0.00000             80.268                                        3.42793e+002           4.27932e+001           2.79324e+000           7.93239e-001           9.32389e-002           3.23888e-003           2.38883e-004
                  140.20    342.82606                                0.00000             80.271                                        3.42826e+002           4.28261e+001           2.82606e+000           8.26062e-001           2.60623e-002           6.06228e-003           6.22815e-005
                  140.30    342.84554                                0.00000             80.273                                        3.42846e+002           4.28455e+001           2.84554e+000           8.45536e-001           4.55357e-002           5.53571e-003           5.35707e-004
                  140.40    342.91826                                0.00000             80.273                                        3.42918e+002           4.29183e+001           2.91826e+000           9.18264e-001           1.82641e-002           8.26413e-003           2.64133e-004
                  140.50    342.94280                                0.00000             80.273                                        3.42943e+002           4.29428e+001           2.94280e+000           9.42795e-001           4.27952e-002           2.79522e-003           7.95221e-004
                  140.60    342.92809                                0.00000             80.273                                        3.42928e+002           4.29281e+001           2.92809e+000           9.28092e-001           2.80915e-002           8.09151e-003           9.15076e-005
                  140.70    342.99492                                0.00000             80.273                                        3.42995e+002           4.29949e+001           2.99492e+000           9.94920e-001           9.49195e-002           4.91953e-003           9.19534e-004
                  140.80    343.04574                                0.00000             80.273                                        3.43046e+002           4.30457e+001           3.04574e+000           4.57359e-002           4.57359e-002           5.73594e-003           7.35940e-004
                  140.90    343.03370                                0.00000             80.273                                        3.43034e+002           4.30337e+001           3.03370e+000           3.36997e-002           3.36997e-002           3.69965e-003           6.99652e-004
                  141.00    343.06991                                0.00000             80.273                                        3.43070e+002           4.30699e+001           3.06991e+000           6.99055e-002           6.99055e-002           9.90555e-003           9.05549e-004
                  141.10    343.14914                                0.00000             80.273                                        3.43149e+002           4.31491e+001           3.14914e+000           1.49140e-001           4.91398e-002           9.13976e-003           1.39756e-004
                  141.20    343.12932                                0.00000             80.273                                        3.43129e+002           4.31293e+001           3.12932e+000           1.29321e-001           2.93212e-002           9.32125e-003           3.21249e-004
                  141.30    343.14261                                0.00000             80.273                                        3.43143e+002           4.31426e+001           3.14261e+000           1.42609e-001           4.26089e-002           2.60889e-003           6.08888e-004
                  141.40    343.24620                                0.00000             80.273                                        3.43246e+002           4.32462e+001           3.24620e+000           2.46203e-001           4.62034e-002           6.20342e-003           2.03416e-004
                  141.50    343.29450                                0.00000             80.273                                        3.43294e+002           4.32945e+001           3.29450e+000           2.94496e-001           9.44957e-002           4.49575e-003           4.95748e-004
                  141.60    343.42648                                0.00000             80.273                                        3.43426e+002           4.34265e+001           3.42648e+000           4.26483e-001           2.64834e-002           6.48336e-003           4.83362e-004
                  141.70    346.12702                                0.00000             80.273                                        3.46127e+002           4.61270e+001           6.12702e+000           1.27023e-001           2.70231e-002           7.02306e-003           2.30577e-005
                  141.80    369.91260                                0.00000             80.273                                        3.69913e+002           6.99126e+001           9.91260e+000           9.12597e-001           1.25974e-002           2.59740e-003           5.97398e-004
                  141.90    400.55177                                0.00000             80.273                                        4.00552e+002           5.51771e-001           5.51771e-001           5.51771e-001           5.17707e-002           1.77075e-003           7.70747e-004
                  142.00    414.80936                                0.00000             80.273                                        4.14809e+002           1.48094e+001           4.80936e+000           8.09359e-001           9.35900e-003           9.35900e-003           3.58999e-004
