~VERSION INFORMATION
VERS                    .            2.0                                    :CWLS LOG ASCII STANDARD
WRAP                    .            NO                                     :ONE LINE PER TIME STEP


~WELL INFORMATION
#MNEM                   .UNIT        DATA                                    DESCRIPTION
#________________________________________________________________________________________
STRTTIME                .HH/MM/SS    09:43:23                               :START TIME
STOPTIME                .HH/MM/SS    09:46:50                               :STOP TIME
STRT                    .s           2.10                                   :START DATA
STOP                    .s           205.20                                 :STOP DATA
STEP                    .s           0.10                                   :MEASUREMENT TIME INTERVAL
NULL                    .            -999.25                                :NULL VALUE
COMP                    .            Statoil ASA                            :COMPANY
FLD                     .            Volve                                  :FIELD
WELL                    .            15/9-F-11 A                            :WELL
RUN                     .            8                                      :RUN
LOC                     .            Maersk Inspirer                        :LOCATION
PROV                    .            na                                     :PROVINCE
SRVC                    .            Baker Hughes INTEQ                     :SERVICE COMPANY
DATE                    .YY/MM/DD    13/05/21                               :LOG DATE
UWI                     .                                                   :UNIQUE WELL ID
DEPTHMD                 .m           3665.9                                 :MEASURED DEPTH
DEPTHTVD                .m           3052.8                                 :TRUE VERTICAL DEPTH


~CURVE INFORMATION
#MNEM                   .UNIT        API CODES                               DESCRIPTION
#________________________________________________________________________________________
TIME                    .s                                                  :01 TIME
DD_PRESS                .bar                                                :02 DRAW DOWN PRESSURE
DD_VOLUME               .cm3                                                :03 INCREMENTAL DRAW DOWN VOLUME
TEMP                    .degC                                               :04 TRANSDUCER TEMPERATURE
DD_PRESS_MOD_1000       .bar                                                :05 DRAW DOWN PRESSURE MOD 1000
DD_PRESS_MOD_100        .bar                                                :06 DRAW DOWN PRESSURE MOD 100
DD_PRESS_MOD_10         .bar                                                :07 DRAW DOWN PRESSURE MOD 10
DD_PRESS_MOD_1          .bar                                                :08 DRAW DOWN PRESSURE MOD 1
DD_PRESS_MOD_01         .bar                                                :09 DRAW DOWN PRESSURE MOD 01
DD_PRESS_MOD_001        .bar                                                :10 DRAW DOWN PRESSURE MOD 001
DD_PRESS_MOD_0001       .bar                                                :11 DRAW DOWN PRESSURE MOD 0001


~PARAMETER INFORMATION
#MNEM                   .UNIT        VALUE                                   DESCRIPTION
#________________________________________________________________________________________
TOOLFACE                .deg         60.0                                   :01 TOOLFACE
PUMP_CAPACITY           .bar         400                                    :02 NOMINAL DRAW DOWN PUMP CAPACITY
PUMP_LIMIT              .bar         240                                    :03 DOWNLINK PUMP LIMIT
TIME_LIMIT              .min         10                                     :04 DOWNLINK MAX TIME
TEST_TYPE               .            REPEAT                                 :05 DOWNLINK
TEST_TYPE               .            HIGH MOBILITY                          :06 DOWNLINK
DD_PIST_A               .cm2         3.1416                                 :07 DRAW DOWN PISTON AREA
V_SYS                   .cm3         131.0000                               :08 SYSTEM VOLUME
PROBE_ID                .cm          1.2700                                 :09 TTK PROBE ID
G0                      .            4.6700                                 :10 GEOMETRY FACTOR


~A                  TIME     DD_PRESS                              DD_VOLUME               TEMP                                   DD_PRESS_MOD_1000       DD_PRESS_MOD_100        DD_PRESS_MOD_10         DD_PRESS_MOD_1        DD_PRESS_MOD_01       DD_PRESS_MOD_001      DD_PRESS_MOD_0001
# ...
                  122.50    344.70847                               13.01806             83.141                                        3.44708e+002           4.47085e+001           4.70847e+000           7.08474e-001           8.47445e-003           8.47445e-003           4.74453e-004
                  122.60    344.71024                               13.01806             83.141                                        3.44710e+002           4.47102e+001           4.71024e+000           7.10237e-001           1.02367e-002           2.36690e-004           2.36690e-004
                  122.70    344.71241                               13.01806             83.141                                        3.44712e+002           4.47124e+001           4.71241e+000           7.12411e-001           1.24112e-002           2.41124e-003           4.11240e-004
                  122.80    344.71206                               13.01806             83.141                                        3.44712e+002           4.47121e+001           4.71206e+000           7.12059e-001           1.20591e-002           2.05915e-003           5.91469e-005
                  122.90    344.71032                               13.01806             83.141                                        3.44710e+002           4.47103e+001           4.71032e+000           7.10318e-001           1.03182e-002           3.18170e-004           3.18170e-004
                  123.00    344.70910                               13.01806             83.141                                        3.44709e+002           4.47091e+001           4.70910e+000           7.09103e-001           9.10304e-003           9.10304e-003           1.03036e-004
                  123.10    344.71153                               13.01806             83.141                                        3.44712e+002           4.47115e+001           4.71153e+000           7.11528e-001           1.15284e-002           1.52838e-003           5.28380e-004
                  123.20    344.71365                               13.01806             83.141                                        3.44714e+002           4.47137e+001           4.71365e+000           7.13652e-001           1.36515e-002           3.65152e-003           6.51515e-004
                  123.30    344.71684                               13.01806             83.141                                        3.44717e+002           4.47168e+001           4.71684e+000           7.16841e-001           1.68405e-002           6.84052e-003           8.40519e-004
                  123.40    344.72290                               13.01806             83.141                                        3.44723e+002           4.47229e+001           4.72290e+000           7.22902e-001           2.29018e-002           2.90182e-003           9.01822e-004
                  123.50    344.72405                               13.01806             83.141                                        3.44724e+002           4.47241e+001           4.72405e+000           7.24053e-001           2.40530e-002           4.05301e-003           5.30107e-005
                  123.60    344.72190                               13.01806             83.141                                        3.44722e+002           4.47219e+001           4.72190e+000           7.21896e-001           2.18962e-002           1.89622e-003           8.96216e-004
                  123.70    344.72041                               13.01806             83.141                                        3.44720e+002           4.47204e+001           4.72041e+000           7.20408e-001           2.04077e-002           4.07671e-004           4.07671e-004
                  123.80    344.71562                               13.01806             83.141                                        3.44716e+002           4.47156e+001           4.71562e+000           7.15622e-001           1.56216e-002           5.62158e-003           6.21582e-004
                  123.90    344.71116                               13.01806             83.141                                        3.44711e+002           4.47112e+001           4.71116e+000           7.11162e-001           1.11620e-002           1.16197e-003           1.61972e-004
                  124.00    344.71749                               13.01806             83.141                                        3.44717e+002           4.47175e+001           4.71749e+000           7.17492e-001           1.74921e-002           7.49210e-003           4.92096e-004
                  124.10    344.71508                               13.01806             83.141                                        3.44715e+002           4.47151e+001           4.71508e+000           7.15084e-001           1.50842e-002           5.08425e-003           8.42486e-005
                  124.20    344.71018                               13.01806             83.141                                        3.44710e+002           4.47102e+001           4.71018e+000           7.10177e-001           1.01766e-002           1.76589e-004           1.76589e-004
                  124.30    344.71159                               13.01806             83.141                                        3.44712e+002           4.47116e+001           4.71159e+000           7.11586e-001           1.15859e-002           1.58585e-003           5.85850e-004
                  124.40    344.72296                               13.01806             83.141                                        3.44723e+002           4.47230e+001           4.72296e+000           7.22963e-001           2.29626e-002           2.96260e-003           9.62600e-004
                  124.50    344.73255                               13.01806             83.141                                        3.44733e+002           4.47325e+001           4.73255e+000           7.32545e-001           3.25453e-002           2.54527e-003           5.45267e-004
                  124.60    344.72572                               13.01806             83.141                                        3.44726e+002           4.47257e+001           4.72572e+000           7.25722e-001           2.57217e-002           5.72173e-003           7.21726e-004
                  124.70    344.71254                               13.01806             83.141                                        3.44713e+002           4.47125e+001           4.71254e+000           7.12544e-001           1.25436e-002           2.54364e-003           5.43641e-004
                  124.80    344.70779                               13.01806             83.141                                        3.44708e+002           4.47078e+001           4.70779e+000           7.07786e-001           7.78633e-003           7.78633e-003           7.86331e-004
                  124.90    344.71112                               13.01806             83.141                                        3.44711e+002           4.47111e+001           4.71112e+000           7.11124e-001           1.11235e-002           1.12353e-003           1.23535e-004
                  125.00    344.71278                               13.01806             83.141                                        3.44713e+002           4.47128e+001           4.71278e+000           7.12776e-001           1.27765e-002           2.77647e-003           7.76472e-004
                  125.10    344.71114                               13.01806             83.141                                        3.44711e+002           4.47111e+001           4.71114e+000           7.11140e-001           1.11403e-002           1.14034e-003           1.40343e-004
                  125.20    344.71432                               13.01806             83.141                                        3.44714e+002           4.47143e+001           4.71432e+000           7.14323e-001           1.43232e-002           4.32317e-003           3.23173e-004
