~VERSION INFORMATION
VERS                    .            2.0                                    :CWLS LOG ASCII STANDARD
WRAP                    .            NO                                     :ONE LINE PER TIME STEP


~WELL INFORMATION
#MNEM                   .UNIT        DATA                                    DESCRIPTION
#________________________________________________________________________________________
STRTTIME                .HH/MM/SS    18:50:18                               :START TIME
STOPTIME                .HH/MM/SS    18:53:14                               :STOP TIME
STRT                    .s           2.10                                   :START DATA
STOP                    .s           174.80                                 :STOP DATA
STEP                    .s           0.10                                   :MEASUREMENT TIME INTERVAL
NULL                    .            -999.25                                :NULL VALUE
COMP                    .            Statoil ASA                            :COMPANY
FLD                     .            Volve                                  :FIELD
WELL                    .            15/9-F-11 A                            :WELL
RUN                     .            8                                      :RUN
LOC                     .            Maersk Inspirer                        :LOCATION
PROV                    .            na                                     :PROVINCE
SRVC                    .            Baker Hughes INTEQ                     :SERVICE COMPANY
DATE                    .YY/MM/DD    13/05/23                               :LOG DATE
UWI                     .                                                   :UNIQUE WELL ID
DEPTHMD                 .m           3651.0                                 :MEASURED DEPTH
DEPTHTVD                .m           3041.4                                 :TRUE VERTICAL DEPTH


~CURVE INFORMATION
#MNEM                   .UNIT        API CODES                               DESCRIPTION
#________________________________________________________________________________________
TIME                    .s                                                  :01 TIME
DD_PRESS                .bar                                                :02 DRAW DOWN PRESSURE
DD_VOLUME               .cm3                                                :03 INCREMENTAL DRAW DOWN VOLUME
TEMP                    .degC                                               :04 TRANSDUCER TEMPERATURE
DD_PRESS_MOD_1000       .bar                                                :05 DRAW DOWN PRESSURE MOD 1000
DD_PRESS_MOD_100        .bar                                                :06 DRAW DOWN PRESSURE MOD 100
DD_PRESS_MOD_10         .bar                                                :07 DRAW DOWN PRESSURE MOD 10
DD_PRESS_MOD_1          .bar                                                :08 DRAW DOWN PRESSURE MOD 1
DD_PRESS_MOD_01         .bar                                                :09 DRAW DOWN PRESSURE MOD 01
DD_PRESS_MOD_001        .bar                                                :10 DRAW DOWN PRESSURE MOD 001
DD_PRESS_MOD_0001       .bar                                                :11 DRAW DOWN PRESSURE MOD 0001


~PARAMETER INFORMATION
#MNEM                   .UNIT        VALUE                                   DESCRIPTION
#________________________________________________________________________________________
TOOLFACE                .deg         -39.7                                  :01 TOOLFACE
PUMP_CAPACITY           .bar         400                                    :02 NOMINAL DRAW DOWN PUMP CAPACITY
PUMP_LIMIT              .bar         240                                    :03 DOWNLINK PUMP LIMIT
TIME_LIMIT              .min         10                                     :04 DOWNLINK MAX TIME
TEST_TYPE               .            REPEAT                                 :05 DOWNLINK
TEST_TYPE               .            HIGH MOBILITY                          :06 DOWNLINK
DD_PIST_A               .cm2         3.1416                                 :07 DRAW DOWN PISTON AREA
V_SYS                   .cm3         131.0000                               :08 SYSTEM VOLUME
PROBE_ID                .cm          1.2700                                 :09 TTK PROBE ID
G0                      .            4.6700                                 :10 GEOMETRY FACTOR


~A                  TIME     DD_PRESS                              DD_VOLUME               TEMP                                   DD_PRESS_MOD_1000       DD_PRESS_MOD_100        DD_PRESS_MOD_10         DD_PRESS_MOD_1        DD_PRESS_MOD_01       DD_PRESS_MOD_001      DD_PRESS_MOD_0001
# ...
                  139.30    343.38786                               29.44302             73.297                                        3.43388e+002           4.33879e+001           3.38786e+000           3.87860e-001           8.78599e-002           7.85994e-003           8.59936e-004
                  139.40    343.38778                               29.44302             73.297                                        3.43388e+002           4.33878e+001           3.38778e+000           3.87785e-001           8.77847e-002           7.78465e-003           7.84651e-004
                  139.50    343.38655                               29.44302             73.297                                        3.43387e+002           4.33865e+001           3.38655e+000           3.86546e-001           8.65462e-002           6.54620e-003           5.46204e-004
                  139.60    343.38467                               29.44302             73.297                                        3.43385e+002           4.33847e+001           3.38467e+000           3.84674e-001           8.46736e-002           4.67363e-003           6.73628e-004
                  139.70    343.38521                               29.44302             73.297                                        3.43385e+002           4.33852e+001           3.38521e+000           3.85213e-001           8.52134e-002           5.21344e-003           2.13440e-004
                  139.80    343.38649                               29.44302             73.297                                        3.43386e+002           4.33865e+001           3.38649e+000           3.86491e-001           8.64912e-002           6.49118e-003           4.91180e-004
                  139.90    343.38618                               29.44302             73.297                                        3.43386e+002           4.33862e+001           3.38618e+000           3.86177e-001           8.61771e-002           6.17712e-003           1.77123e-004
                  140.00    343.38504                               29.44302             73.297                                        3.43385e+002           4.33850e+001           3.38504e+000           3.85044e-001           8.50436e-002           5.04355e-003           4.35548e-005
                  140.10    343.38463                               29.44302             73.297                                        3.43385e+002           4.33846e+001           3.38463e+000           3.84628e-001           8.46280e-002           4.62801e-003           6.28011e-004
                  140.20    343.38448                               29.44302             73.297                                        3.43384e+002           4.33845e+001           3.38448e+000           3.84481e-001           8.44805e-002           4.48054e-003           4.80538e-004
                  140.30    343.38469                               29.44302             73.297                                        3.43385e+002           4.33847e+001           3.38469e+000           3.84686e-001           8.46858e-002           4.68584e-003           6.85842e-004
                  140.40    343.38564                               29.44302             73.297                                        3.43386e+002           4.33856e+001           3.38564e+000           3.85637e-001           8.56369e-002           5.63695e-003           6.36948e-004
                  140.50    343.38455                               29.44302             73.297                                        3.43385e+002           4.33845e+001           3.38455e+000           3.84547e-001           8.45475e-002           4.54748e-003           5.47477e-004
                  140.60    343.38549                               29.44302             73.297                                        3.43385e+002           4.33855e+001           3.38549e+000           3.85491e-001           8.54906e-002           5.49057e-003           4.90571e-004
                  140.70    343.38719                               29.44302             73.297                                        3.43387e+002           4.33872e+001           3.38719e+000           3.87194e-001           8.71943e-002           7.19430e-003           1.94298e-004
                  140.80    343.38624                               29.44302             73.295                                        3.43386e+002           4.33862e+001           3.38624e+000           3.86237e-001           8.62374e-002           6.23745e-003           2.37447e-004
                  140.90    343.38572                               29.44302             73.291                                        3.43386e+002           4.33857e+001           3.38572e+000           3.85723e-001           8.57234e-002           5.72337e-003           7.23374e-004
                  141.00    343.38583                               29.44302             73.289                                        3.43386e+002           4.33858e+001           3.38583e+000           3.85829e-001           8.58290e-002           5.82904e-003           8.29039e-004
                  141.10    343.38529                               29.44302             73.289                                        3.43385e+002           4.33853e+001           3.38529e+000           3.85289e-001           8.52887e-002           5.28866e-003           2.88655e-004
                  141.20    343.38452                               29.44302             73.289                                        3.43385e+002           4.33845e+001           3.38452e+000           3.84525e-001           8.45250e-002           4.52496e-003           5.24957e-004
                  141.30    343.38563                               29.44302             73.289                                        3.43386e+002           4.33856e+001           3.38563e+000           3.85634e-001           8.56336e-002           5.63364e-003           6.33644e-004
                  141.40    343.38764                               29.44302             73.289                                        3.43388e+002           4.33876e+001           3.38764e+000           3.87635e-001           8.76353e-002           7.63534e-003           6.35335e-004
                  141.50    343.38711                               29.44302             73.289                                        3.43387e+002           4.33871e+001           3.38711e+000           3.87113e-001           8.71133e-002           7.11328e-003           1.13284e-004
                  141.60    343.38405                               29.44302             73.289                                        3.43384e+002           4.33840e+001           3.38405e+000           3.84045e-001           8.40452e-002           4.04524e-003           4.52371e-005
                  141.70    343.38499                               29.44302             73.289                                        3.43385e+002           4.33850e+001           3.38499e+000           3.84986e-001           8.49864e-002           4.98640e-003           9.86402e-004
                  141.80    343.38671                               29.44302             73.289                                        3.43387e+002           4.33867e+001           3.38671e+000           3.86709e-001           8.67093e-002           6.70928e-003           7.09280e-004
                  141.90    343.38660                               29.44302             73.289                                        3.43387e+002           4.33866e+001           3.38660e+000           3.86595e-001           8.65950e-002           6.59501e-003           5.95005e-004
                  142.00    343.38588                               29.44302             73.289                                        3.43386e+002           4.33859e+001           3.38588e+000           3.85875e-001           8.58755e-002           5.87548e-003           8.75477e-004
