~VERSION INFORMATION
VERS                    .            2.0                                    :CWLS LOG ASCII STANDARD
WRAP                    .            NO                                     :ONE LINE PER TIME STEP


~WELL INFORMATION
#MNEM                   .UNIT        DATA                                    DESCRIPTION
#________________________________________________________________________________________
STRTTIME                .HH/MM/SS    16:02:11                               :START TIME
STOPTIME                .HH/MM/SS    16:05:47                               :STOP TIME
STRT                    .s           2.10                                   :START DATA
STOP                    .s           214.40                                 :STOP DATA
STEP                    .s           0.10                                   :MEASUREMENT TIME INTERVAL
NULL                    .            -999.25                                :NULL VALUE
COMP                    .            Statoil ASA                            :COMPANY
FLD                     .            Volve                                  :FIELD
WELL                    .            15/9-F-1 B                             :WELL
RUN                     .            7                                      :RUN
LOC                     .            Maersk Inspirer                        :LOCATION
PROV                    .            na                                     :PROVINCE
SRVC                    .            Baker Hughes INTEQ                     :SERVICE COMPANY
DATE                    .YY/MM/DD    13/09/06                               :LOG DATE
UWI                     .                                                   :UNIQUE WELL ID
DEPTHMD                 .m           3261.0                                 :MEASURED DEPTH
DEPTHTVD                .m           3057.0                                 :TRUE VERTICAL DEPTH


~CURVE INFORMATION
#MNEM                   .UNIT        API CODES                               DESCRIPTION
#________________________________________________________________________________________
TIME                    .s                                                  :01 TIME
DD_PRESS                .bar                                                :02 DRAW DOWN PRESSURE
DD_VOLUME               .cm3                                                :03 INCREMENTAL DRAW DOWN VOLUME
TEMP                    .degC                                               :04 TRANSDUCER TEMPERATURE
DD_PRESS_MOD_1000       .bar                                                :05 DRAW DOWN PRESSURE MOD 1000
DD_PRESS_MOD_100        .bar                                                :06 DRAW DOWN PRESSURE MOD 100
DD_PRESS_MOD_10         .bar                                                :07 DRAW DOWN PRESSURE MOD 10
DD_PRESS_MOD_1          .bar                                                :08 DRAW DOWN PRESSURE MOD 1
DD_PRESS_MOD_01         .bar                                                :09 DRAW DOWN PRESSURE MOD 01
DD_PRESS_MOD_001        .bar                                                :10 DRAW DOWN PRESSURE MOD 001
DD_PRESS_MOD_0001       .bar                                                :11 DRAW DOWN PRESSURE MOD 0001


~PARAMETER INFORMATION
#MNEM                   .UNIT        VALUE                                   DESCRIPTION
#________________________________________________________________________________________
TOOLFACE                .deg         na                                     :01 TOOLFACE
PUMP_CAPACITY           .bar         400                                    :02 NOMINAL DRAW DOWN PUMP CAPACITY
PUMP_LIMIT              .bar         400                                    :03 DOWNLINK PUMP LIMIT
TIME_LIMIT              .min         10                                     :04 DOWNLINK MAX TIME
TEST_TYPE               .            LOW MOBILITY                           :05 DOWNLINK
DD_PIST_A               .cm2         3.1416                                 :06 DRAW DOWN PISTON AREA
V_SYS                   .cm3         131.0000                               :07 SYSTEM VOLUME
PROBE_ID                .cm          1.2700                                 :08 TTK PROBE ID
G0                      .            4.6700                                 :09 GEOMETRY FACTOR


~A                  TIME     DD_PRESS                              DD_VOLUME               TEMP                                   DD_PRESS_MOD_1000       DD_PRESS_MOD_100        DD_PRESS_MOD_10         DD_PRESS_MOD_1        DD_PRESS_MOD_01       DD_PRESS_MOD_001      DD_PRESS_MOD_0001
# ...
                   44.10    345.58769                               10.91395             82.109                                        3.45588e+002           4.55877e+001           5.58769e+000           5.87690e-001           8.76903e-002           7.69034e-003           6.90337e-004
                   44.20    345.59223                               10.91395             82.109                                        3.45592e+002           4.55922e+001           5.59223e+000           5.92230e-001           9.22302e-002           2.23019e-003           2.30191e-004
                   44.30    345.58061                               10.91395             82.109                                        3.45581e+002           4.55806e+001           5.58061e+000           5.80613e-001           8.06125e-002           6.12521e-004           6.12521e-004
                   44.40    345.57984                               10.91395             82.109                                        3.45580e+002           4.55798e+001           5.57984e+000           5.79839e-001           7.98386e-002           9.83861e-003           8.38612e-004
                   44.50    345.59400                               10.91395             82.109                                        3.45594e+002           4.55940e+001           5.59400e+000           5.94003e-001           9.40033e-002           4.00328e-003           3.27730e-006
                   44.60    345.59653                               10.91395             82.109                                        3.45597e+002           4.55965e+001           5.59653e+000           5.96527e-001           9.65273e-002           6.52731e-003           5.27312e-004
                   44.70    345.57991                               10.91395             82.109                                        3.45580e+002           4.55799e+001           5.57991e+000           5.79911e-001           7.99114e-002           9.91137e-003           9.11371e-004
                   44.80    345.57411                               10.91395             82.109                                        3.45574e+002           4.55741e+001           5.57411e+000           5.74108e-001           7.41084e-002           4.10845e-003           1.08449e-004
                   44.90    345.59187                               10.91395             82.109                                        3.45592e+002           4.55919e+001           5.59187e+000           5.91871e-001           9.18706e-002           1.87062e-003           8.70618e-004
                   45.00    345.60087                               10.91395             82.109                                        3.45601e+002           4.56009e+001           5.60087e+000           6.00870e-001           8.69502e-004           8.69502e-004           8.69502e-004
                   45.10    345.58378                               10.91395             82.109                                        3.45584e+002           4.55838e+001           5.58378e+000           5.83779e-001           8.37787e-002           3.77873e-003           7.78732e-004
                   45.20    345.58069                               10.91395             82.109                                        3.45581e+002           4.55807e+001           5.58069e+000           5.80689e-001           8.06895e-002           6.89476e-004           6.89476e-004
                   45.30    345.59481                               10.91395             82.109                                        3.45595e+002           4.55948e+001           5.59481e+000           5.94806e-001           9.48059e-002           4.80586e-003           8.05863e-004
                   45.40    345.59445                               10.91395             82.109                                        3.45594e+002           4.55945e+001           5.59445e+000           5.94451e-001           9.44514e-002           4.45144e-003           4.51438e-004
                   45.50    345.57966                               10.91395             82.109                                        3.45580e+002           4.55797e+001           5.57966e+000           5.79664e-001           7.96644e-002           9.66443e-003           6.64432e-004
                   45.60    345.57444                               10.91395             82.109                                        3.45574e+002           4.55744e+001           5.57444e+000           5.74439e-001           7.44385e-002           4.43850e-003           4.38503e-004
                   45.70    345.58556                               10.91395             82.109                                        3.45586e+002           4.55856e+001           5.58556e+000           5.85557e-001           8.55570e-002           5.55695e-003           5.56955e-004
                   45.80    345.59445                               10.91395             82.112                                        3.45594e+002           4.55945e+001           5.59445e+000           5.94453e-001           9.44526e-002           4.45258e-003           4.52584e-004
                   45.90    345.58460                               10.91395             82.113                                        3.45585e+002           4.55846e+001           5.58460e+000           5.84596e-001           8.45957e-002           4.59568e-003           5.95681e-004
                   46.00    345.58134                               10.91395             82.111                                        3.45581e+002           4.55813e+001           5.58134e+000           5.81342e-001           8.13418e-002           1.34182e-003           3.41823e-004
                   46.10    345.59960                               10.91395             82.109                                        3.45600e+002           4.55996e+001           5.59960e+000           5.99603e-001           9.96031e-002           9.60312e-003           6.03116e-004
                   46.20    345.59923                               10.91395             82.109                                        3.45599e+002           4.55992e+001           5.59923e+000           5.99230e-001           9.92302e-002           9.23020e-003           2.30200e-004
                   46.30    345.58279                               10.91395             82.109                                        3.45583e+002           4.55828e+001           5.58279e+000           5.82795e-001           8.27946e-002           2.79460e-003           7.94601e-004
                   46.40    345.58575                               10.91395             82.109                                        3.45586e+002           4.55858e+001           5.58575e+000           5.85755e-001           8.57547e-002           5.75470e-003           7.54698e-004
                   46.50    345.60493                               10.91395             82.112                                        3.45605e+002           4.56049e+001           5.60493e+000           6.04930e-001           4.93049e-003           4.93049e-003           9.30487e-004
                   46.60    345.60038                               10.91395             82.115                                        3.45600e+002           4.56004e+001           5.60038e+000           6.00381e-001           3.80813e-004           3.80813e-004           3.80813e-004
                   46.70    345.58117                               10.91395             82.117                                        3.45581e+002           4.55812e+001           5.58117e+000           5.81171e-001           8.11714e-002           1.17143e-003           1.71430e-004
                   46.80    345.58418                               10.91395             82.115                                        3.45584e+002           4.55842e+001           5.58418e+000           5.84183e-001           8.41825e-002           4.18251e-003           1.82507e-004
