~VERSION INFORMATION
VERS                    .            2.0                                    :CWLS LOG ASCII STANDARD
WRAP                    .            NO                                     :ONE LINE PER TIME STEP


~WELL INFORMATION
#MNEM                   .UNIT        DATA                                    DESCRIPTION
#________________________________________________________________________________________
STRTTIME                .HH/MM/SS    13:32:32                               :START TIME
STOPTIME                .HH/MM/SS    13:36:23                               :STOP TIME
STRT                    .s           2.10                                   :START DATA
STOP                    .s           229.20                                 :STOP DATA
STEP                    .s           0.10                                   :MEASUREMENT TIME INTERVAL
NULL                    .            -999.25                                :NULL VALUE
COMP                    .            Statoil ASA                            :COMPANY
FLD                     .            Volve                                  :FIELD
WELL                    .            15/9-F-1 B                             :WELL
RUN                     .            7                                      :RUN
LOC                     .            Maersk Inspirer                        :LOCATION
PROV                    .            na                                     :PROVINCE
SRVC                    .            Baker Hughes INTEQ                     :SERVICE COMPANY
DATE                    .YY/MM/DD    13/09/06                               :LOG DATE
UWI                     .                                                   :UNIQUE WELL ID
DEPTHMD                 .m           3301.5                                 :MEASURED DEPTH
DEPTHTVD                .m           3096.9                                 :TRUE VERTICAL DEPTH


~CURVE INFORMATION
#MNEM                   .UNIT        API CODES                               DESCRIPTION
#________________________________________________________________________________________
TIME                    .s                                                  :01 TIME
DD_PRESS                .bar                                                :02 DRAW DOWN PRESSURE
DD_VOLUME               .cm3                                                :03 INCREMENTAL DRAW DOWN VOLUME
TEMP                    .degC                                               :04 TRANSDUCER TEMPERATURE
DD_PRESS_MOD_1000       .bar                                                :05 DRAW DOWN PRESSURE MOD 1000
DD_PRESS_MOD_100        .bar                                                :06 DRAW DOWN PRESSURE MOD 100
DD_PRESS_MOD_10         .bar                                                :07 DRAW DOWN PRESSURE MOD 10
DD_PRESS_MOD_1          .bar                                                :08 DRAW DOWN PRESSURE MOD 1
DD_PRESS_MOD_01         .bar                                                :09 DRAW DOWN PRESSURE MOD 01
DD_PRESS_MOD_001        .bar                                                :10 DRAW DOWN PRESSURE MOD 001
DD_PRESS_MOD_0001       .bar                                                :11 DRAW DOWN PRESSURE MOD 0001


~PARAMETER INFORMATION
#MNEM                   .UNIT        VALUE                                   DESCRIPTION
#________________________________________________________________________________________
TOOLFACE                .deg         na                                     :01 TOOLFACE
PUMP_CAPACITY           .bar         400                                    :02 NOMINAL DRAW DOWN PUMP CAPACITY
PUMP_LIMIT              .bar         400                                    :03 DOWNLINK PUMP LIMIT
TIME_LIMIT              .min         10                                     :04 DOWNLINK MAX TIME
TEST_TYPE               .            LOW MOBILITY                           :05 DOWNLINK
DD_PIST_A               .cm2         3.1416                                 :06 DRAW DOWN PISTON AREA
V_SYS                   .cm3         131.0000                               :07 SYSTEM VOLUME
PROBE_ID                .cm          1.2700                                 :08 TTK PROBE ID
G0                      .            4.6700                                 :09 GEOMETRY FACTOR


~A                  TIME     DD_PRESS                              DD_VOLUME               TEMP                                   DD_PRESS_MOD_1000       DD_PRESS_MOD_100        DD_PRESS_MOD_10         DD_PRESS_MOD_1        DD_PRESS_MOD_01       DD_PRESS_MOD_001      DD_PRESS_MOD_0001
# ...
                   91.70    347.93461                               14.61724             85.391                                        3.47935e+002           4.79346e+001           7.93461e+000           9.34605e-001           3.46054e-002           4.60539e-003           6.05388e-004
                   91.80    348.12520                               14.61724             85.391                                        3.48125e+002           4.81252e+001           8.12520e+000           1.25200e-001           2.51997e-002           5.19973e-003           1.99728e-004
                   91.90    348.27129                               14.61724             85.391                                        3.48271e+002           4.82713e+001           8.27129e+000           2.71287e-001           7.12867e-002           1.28668e-003           2.86676e-004
                   92.00    348.40048                               14.61724             85.391                                        3.48400e+002           4.84005e+001           8.40048e+000           4.00477e-001           4.77303e-004           4.77303e-004           4.77303e-004
                   92.10    348.55377                               14.61724             85.391                                        3.48554e+002           4.85538e+001           8.55377e+000           5.53774e-001           5.37744e-002           3.77439e-003           7.74390e-004
                   92.20    348.68592                               14.61724             85.391                                        3.48686e+002           4.86859e+001           8.68592e+000           6.85920e-001           8.59200e-002           5.91998e-003           9.19982e-004
                   92.30    348.72593                               14.61724             85.391                                        3.48726e+002           4.87259e+001           8.72593e+000           7.25929e-001           2.59287e-002           5.92867e-003           9.28669e-004
                   92.40    348.76833                               14.61724             85.391                                        3.48768e+002           4.87683e+001           8.76833e+000           7.68333e-001           6.83334e-002           8.33343e-003           3.33428e-004
                   92.50    348.86927                               14.61724             85.391                                        3.48869e+002           4.88693e+001           8.86927e+000           8.69271e-001           6.92706e-002           9.27060e-003           2.70599e-004
                   92.60    348.94120                               14.61724             85.391                                        3.48941e+002           4.89412e+001           8.94120e+000           9.41199e-001           4.11990e-002           1.19902e-003           1.99018e-004
                   92.70    348.95074                               14.61724             85.391                                        3.48951e+002           4.89507e+001           8.95074e+000           9.50737e-001           5.07375e-002           7.37455e-004           7.37455e-004
                   92.80    348.99466                               14.61724             85.391                                        3.48995e+002           4.89947e+001           8.99466e+000           9.94664e-001           9.46644e-002           4.66444e-003           6.64441e-004
                   92.90    349.06018                               14.61724             85.391                                        3.49060e+002           4.90602e+001           9.06018e+000           6.01800e-002           6.01800e-002           1.80049e-004           1.80049e-004
                   93.00    349.09160                               14.61724             85.391                                        3.49092e+002           4.90916e+001           9.09160e+000           9.16008e-002           9.16008e-002           1.60085e-003           6.00848e-004
                   93.10    349.11443                               14.61724             85.391                                        3.49114e+002           4.91144e+001           9.11443e+000           1.14425e-001           1.44251e-002           4.42511e-003           4.25113e-004
                   93.20    349.15184                               14.61724             85.391                                        3.49152e+002           4.91518e+001           9.15184e+000           1.51843e-001           5.18431e-002           1.84311e-003           8.43111e-004
                   93.30    349.18184                               14.61724             85.391                                        3.49182e+002           4.91818e+001           9.18184e+000           1.81843e-001           8.18433e-002           1.84327e-003           8.43266e-004
                   93.40    349.18790                               14.61724             85.391                                        3.49188e+002           4.91879e+001           9.18790e+000           1.87902e-001           8.79023e-002           7.90232e-003           9.02316e-004
                   93.50    349.17766                               14.61724             85.391                                        3.49178e+002           4.91777e+001           9.17766e+000           1.77662e-001           7.76622e-002           7.66221e-003           6.62206e-004
                   93.60    349.18160                               14.61724             85.391                                        3.49182e+002           4.91816e+001           9.18160e+000           1.81596e-001           8.15961e-002           1.59608e-003           5.96079e-004
                   93.70    349.21581                               14.61724             85.391                                        3.49216e+002           4.92158e+001           9.21581e+000           2.15806e-001           1.58064e-002           5.80640e-003           8.06400e-004
                   93.80    349.23829                               14.61724             85.391                                        3.49238e+002           4.92383e+001           9.23829e+000           2.38295e-001           3.82949e-002           8.29495e-003           2.94949e-004
                   93.90    349.23325                               14.61724             85.391                                        3.49233e+002           4.92333e+001           9.23325e+000           2.33254e-001           3.32536e-002           3.25363e-003           2.53630e-004
                   94.00    349.24432                               14.61724             85.391                                        3.49244e+002           4.92443e+001           9.24432e+000           2.44322e-001           4.43222e-002           4.32222e-003           3.22222e-004
                   94.10    349.27533                               14.61724             85.391                                        3.49275e+002           4.92753e+001           9.27533e+000           2.75330e-001           7.53299e-002           5.32990e-003           3.29896e-004
                   94.20    349.27189                               14.61724             85.391                                        3.49272e+002           4.92719e+001           9.27189e+000           2.71889e-001           7.18892e-002           1.88919e-003           8.89190e-004
                   94.30    349.24657                               14.61724             85.391                                        3.49247e+002           4.92466e+001           9.24657e+000           2.46569e-001           4.65692e-002           6.56923e-003           5.69228e-004
                   94.40    349.24351                               14.61724             85.391                                        3.49244e+002           4.92435e+001           9.24351e+000           2.43514e-001           4.35142e-002           3.51424e-003           5.14236e-004
