~VERSION INFORMATION
VERS                    .            2.0                                    :CWLS LOG ASCII STANDARD
WRAP                    .            NO                                     :ONE LINE PER TIME STEP


~WELL INFORMATION
#MNEM                   .UNIT        DATA                                    DESCRIPTION
#________________________________________________________________________________________
STRTTIME                .HH/MM/SS    22:05:32                               :START TIME
STOPTIME                .HH/MM/SS    22:09:32                               :STOP TIME
STRT                    .s           2.10                                   :START DATA
STOP                    .s           238.90                                 :STOP DATA
STEP                    .s           0.10                                   :MEASUREMENT TIME INTERVAL
NULL                    .            -999.25                                :NULL VALUE
COMP                    .            Statoil                                :COMPANY
FLD                     .            Volve                                  :FIELD
WELL                    .            15/9-F-11 T2                           :WELL
RUN                     .            7                                      :RUN
LOC                     .            Maersk Inspirer                        :LOCATION
PROV                    .            na                                     :PROVINCE
SRVC                    .            Baker Hughes INTEQ                     :SERVICE COMPANY
DATE                    .YY/MM/DD    13/05/04                               :LOG DATE
UWI                     .                                                   :UNIQUE WELL ID
DEPTHMD                 .m           4490.1                                 :MEASURED DEPTH
DEPTHTVD                .m           3328.5                                 :TRUE VERTICAL DEPTH


~CURVE INFORMATION
#MNEM                   .UNIT        API CODES                               DESCRIPTION
#________________________________________________________________________________________
TIME                    .s                                                  :01 TIME
DD_PRESS                .bar                                                :02 DRAW DOWN PRESSURE
DD_VOLUME               .cm3                                                :03 INCREMENTAL DRAW DOWN VOLUME
TEMP                    .degC                                               :04 TRANSDUCER TEMPERATURE
DD_PRESS_MOD_1000       .bar                                                :05 DRAW DOWN PRESSURE MOD 1000
DD_PRESS_MOD_100        .bar                                                :06 DRAW DOWN PRESSURE MOD 100
DD_PRESS_MOD_10         .bar                                                :07 DRAW DOWN PRESSURE MOD 10
DD_PRESS_MOD_1          .bar                                                :08 DRAW DOWN PRESSURE MOD 1
DD_PRESS_MOD_01         .bar                                                :09 DRAW DOWN PRESSURE MOD 01
DD_PRESS_MOD_001        .bar                                                :10 DRAW DOWN PRESSURE MOD 001
DD_PRESS_MOD_0001       .bar                                                :11 DRAW DOWN PRESSURE MOD 0001


~PARAMETER INFORMATION
#MNEM                   .UNIT        VALUE                                   DESCRIPTION
#________________________________________________________________________________________
TOOLFACE                .deg         na                                     :01 TOOLFACE
PUMP_CAPACITY           .bar         400                                    :02 NOMINAL DRAW DOWN PUMP CAPACITY
PUMP_LIMIT              .bar         240                                    :03 DOWNLINK PUMP LIMIT
TIME_LIMIT              .min         10                                     :04 DOWNLINK MAX TIME
TEST_TYPE               .            HIGH MOBILITY                          :05 DOWNLINK
DD_PIST_A               .cm2         3.1416                                 :06 DRAW DOWN PISTON AREA
V_SYS                   .cm3         131.0000                               :07 SYSTEM VOLUME
PROBE_ID                .cm          1.2700                                 :08 TTK PROBE ID
G0                      .            4.6700                                 :09 GEOMETRY FACTOR


~A                  TIME     DD_PRESS                              DD_VOLUME               TEMP                                   DD_PRESS_MOD_1000       DD_PRESS_MOD_100        DD_PRESS_MOD_10         DD_PRESS_MOD_1        DD_PRESS_MOD_01       DD_PRESS_MOD_001      DD_PRESS_MOD_0001
# ...
                   49.70    367.46458                               11.09486             97.281                                        3.67465e+002           6.74646e+001           7.46458e+000           4.64577e-001           6.45773e-002           4.57732e-003           5.77317e-004
                   49.80    367.45171                               11.09486             97.281                                        3.67452e+002           6.74517e+001           7.45171e+000           4.51707e-001           5.17069e-002           1.70692e-003           7.06916e-004
                   49.90    367.49234                               11.09486             97.281                                        3.67492e+002           6.74923e+001           7.49234e+000           4.92343e-001           9.23433e-002           2.34327e-003           3.43272e-004
                   50.00    367.50710                               11.09486             97.281                                        3.67507e+002           6.75071e+001           7.50710e+000           5.07100e-001           7.10024e-003           7.10024e-003           1.00236e-004
                   50.10    367.45159                               11.09486             97.281                                        3.67452e+002           6.74516e+001           7.45159e+000           4.51590e-001           5.15902e-002           1.59015e-003           5.90152e-004
                   50.20    367.40572                               11.09486             97.281                                        3.67406e+002           6.74057e+001           7.40572e+000           4.05716e-001           5.71609e-003           5.71609e-003           7.16088e-004
                   50.30    367.43754                               11.09486             97.281                                        3.67438e+002           6.74375e+001           7.43754e+000           4.37541e-001           3.75413e-002           7.54126e-003           5.41258e-004
                   50.40    367.46973                               11.09486             97.281                                        3.67470e+002           6.74697e+001           7.46973e+000           4.69727e-001           6.97270e-002           9.72702e-003           7.27021e-004
                   50.50    367.45833                               11.09486             97.281                                        3.67458e+002           6.74583e+001           7.45833e+000           4.58332e-001           5.83325e-002           8.33250e-003           3.32495e-004
                   50.60    367.44793                               11.09486             97.281                                        3.67448e+002           6.74479e+001           7.44793e+000           4.47933e-001           4.79326e-002           7.93262e-003           9.32620e-004
                   50.70    367.47362                               11.09486             97.281                                        3.67474e+002           6.74736e+001           7.47362e+000           4.73621e-001           7.36210e-002           3.62104e-003           6.21037e-004
                   50.80    367.50735                               11.09486             97.281                                        3.67507e+002           6.75073e+001           7.50735e+000           5.07349e-001           7.34880e-003           7.34880e-003           3.48798e-004
                   50.90    367.47926                               11.09486             97.281                                        3.67479e+002           6.74793e+001           7.47926e+000           4.79263e-001           7.92625e-002           9.26252e-003           2.62525e-004
                   51.00    367.43768                               11.09486             97.281                                        3.67438e+002           6.74377e+001           7.43768e+000           4.37678e-001           3.76782e-002           7.67822e-003           6.78222e-004
                   51.10    367.46048                               11.09486             97.281                                        3.67460e+002           6.74605e+001           7.46048e+000           4.60479e-001           6.04786e-002           4.78582e-004           4.78582e-004
                   51.20    367.50901                               11.09486             97.281                                        3.67509e+002           6.75090e+001           7.50901e+000           5.09009e-001           9.00928e-003           9.00928e-003           9.28048e-006
                   51.30    367.51311                               11.09486             97.281                                        3.67513e+002           6.75131e+001           7.51311e+000           5.13115e-001           1.31150e-002           3.11496e-003           1.14961e-004
                   51.40    367.47958                               11.09486             97.281                                        3.67480e+002           6.74796e+001           7.47958e+000           4.79576e-001           7.95760e-002           9.57604e-003           5.76043e-004
                   51.50    367.47351                               11.09486             97.281                                        3.67474e+002           6.74735e+001           7.47351e+000           4.73506e-001           7.35064e-002           3.50643e-003           5.06434e-004
                   51.60    367.49223                               11.09486             97.281                                        3.67492e+002           6.74922e+001           7.49223e+000           4.92233e-001           9.22331e-002           2.23306e-003           2.33062e-004
                   51.70    367.45131                               11.09486             97.281                                        3.67451e+002           6.74513e+001           7.45131e+000           4.51313e-001           5.13129e-002           1.31288e-003           3.12881e-004
                   51.80    367.36394                               11.09486             97.281                                        3.67364e+002           6.73639e+001           7.36394e+000           3.63935e-001           6.39353e-002           3.93533e-003           9.35326e-004
                   51.90    367.38106                               11.09486             97.281                                        3.67381e+002           6.73811e+001           7.38106e+000           3.81061e-001           8.10611e-002           1.06106e-003           6.10577e-005
                   52.00    367.47635                               11.09486             97.281                                        3.67476e+002           6.74764e+001           7.47635e+000           4.76351e-001           7.63514e-002           6.35135e-003           3.51350e-004
                   52.10    367.50103                               11.09486             97.281                                        3.67501e+002           6.75010e+001           7.50103e+000           5.01025e-001           1.02531e-003           1.02531e-003           2.53054e-005
                   52.20    367.45012                               11.09486             97.281                                        3.67450e+002           6.74501e+001           7.45012e+000           4.50122e-001           5.01220e-002           1.21967e-004           1.21967e-004
                   52.30    367.44255                               11.09486             97.281                                        3.67443e+002           6.74425e+001           7.44255e+000           4.42549e-001           4.25486e-002           2.54859e-003           5.48594e-004
                   52.40    367.50029                               11.09486             97.281                                        3.67500e+002           6.75003e+001           7.50029e+000           5.00292e-001           2.92176e-004           2.92176e-004           2.92176e-004
