~VERSION INFORMATION
VERS                    .            2.0                                    :CWLS LOG ASCII STANDARD
WRAP                    .            NO                                     :ONE LINE PER TIME STEP


~WELL INFORMATION
#MNEM                   .UNIT        DATA                                    DESCRIPTION
#________________________________________________________________________________________
STRTTIME                .HH/MM/SS    00:10:18                               :START TIME
STOPTIME                .HH/MM/SS    00:13:47                               :STOP TIME
STRT                    .s           2.10                                   :START DATA
STOP                    .s           207.40                                 :STOP DATA
STEP                    .s           0.10                                   :MEASUREMENT TIME INTERVAL
NULL                    .            -999.25                                :NULL VALUE
COMP                    .            Statoil ASA                            :COMPANY
FLD                     .            Volve                                  :FIELD
WELL                    .            15/9-F-1                               :WELL
RUN                     .            4                                      :RUN
LOC                     .            Maersk Inspirer                        :LOCATION
PROV                    .            na                                     :PROVINCE
SRVC                    .            Baker Hughes INTEQ                     :SERVICE COMPANY
DATE                    .YY/MM/DD    13/08/19                               :LOG DATE
UWI                     .                                                   :UNIQUE WELL ID
DEPTHMD                 .m           3332.4                                 :MEASURED DEPTH
DEPTHTVD                .m           3056.0                                 :TRUE VERTICAL DEPTH


~CURVE INFORMATION
#MNEM                   .UNIT        API CODES                               DESCRIPTION
#________________________________________________________________________________________
TIME                    .s                                                  :01 TIME
DD_PRESS                .bar                                                :02 DRAW DOWN PRESSURE
DD_VOLUME               .cm3                                                :03 INCREMENTAL DRAW DOWN VOLUME
TEMP                    .degC                                               :04 TRANSDUCER TEMPERATURE
DD_PRESS_MOD_1000       .bar                                                :05 DRAW DOWN PRESSURE MOD 1000
DD_PRESS_MOD_100        .bar                                                :06 DRAW DOWN PRESSURE MOD 100
DD_PRESS_MOD_10         .bar                                                :07 DRAW DOWN PRESSURE MOD 10
DD_PRESS_MOD_1          .bar                                                :08 DRAW DOWN PRESSURE MOD 1
DD_PRESS_MOD_01         .bar                                                :09 DRAW DOWN PRESSURE MOD 01
DD_PRESS_MOD_001        .bar                                                :10 DRAW DOWN PRESSURE MOD 001
DD_PRESS_MOD_0001       .bar                                                :11 DRAW DOWN PRESSURE MOD 0001


~PARAMETER INFORMATION
#MNEM                   .UNIT        VALUE                                   DESCRIPTION
#________________________________________________________________________________________
TOOLFACE                .deg         78.2                                   :01 TOOLFACE
PUMP_CAPACITY           .bar         400                                    :02 NOMINAL DRAW DOWN PUMP CAPACITY
PUMP_LIMIT              .bar         240                                    :03 DOWNLINK PUMP LIMIT
TIME_LIMIT              .min         10                                     :04 DOWNLINK MAX TIME
TEST_TYPE               .            LOW MOBILITY                           :05 DOWNLINK
DD_PIST_A               .cm2         3.1416                                 :06 DRAW DOWN PISTON AREA
V_SYS                   .cm3         131.0000                               :07 SYSTEM VOLUME
PROBE_ID                .cm          1.2700                                 :08 TTK PROBE ID
G0                      .            4.6700                                 :09 GEOMETRY FACTOR


~A                  TIME     DD_PRESS                              DD_VOLUME               TEMP                                   DD_PRESS_MOD_1000       DD_PRESS_MOD_100        DD_PRESS_MOD_10         DD_PRESS_MOD_1        DD_PRESS_MOD_01       DD_PRESS_MOD_001      DD_PRESS_MOD_0001
# ...
                  189.70    410.05279                                0.00000             74.750                                        4.10053e+002           1.00528e+001           5.27917e-002           5.27917e-002           5.27917e-002           2.79172e-003           7.91724e-004
                  189.80    410.04739                                0.00000             74.750                                        4.10047e+002           1.00474e+001           4.73868e-002           4.73868e-002           4.73868e-002           7.38679e-003           3.86787e-004
                  189.90    410.05684                                0.00000             74.750                                        4.10057e+002           1.00568e+001           5.68428e-002           5.68428e-002           5.68428e-002           6.84277e-003           8.42768e-004
                  190.00    410.07000                                0.00000             74.750                                        4.10070e+002           1.00700e+001           6.99965e-002           6.99965e-002           6.99965e-002           9.99655e-003           9.96545e-004
                  190.10    410.05244                                0.00000             74.750                                        4.10052e+002           1.00524e+001           5.24376e-002           5.24376e-002           5.24376e-002           2.43757e-003           4.37572e-004
                  190.20    410.05198                                0.00000             74.752                                        4.10052e+002           1.00520e+001           5.19759e-002           5.19759e-002           5.19759e-002           1.97591e-003           9.75906e-004
                  190.30    410.05056                                0.00000             74.756                                        4.10051e+002           1.00506e+001           5.05624e-002           5.05624e-002           5.05624e-002           5.62375e-004           5.62375e-004
                  190.40    410.05307                                0.00000             74.758                                        4.10053e+002           1.00531e+001           5.30677e-002           5.30677e-002           5.30677e-002           3.06768e-003           6.76840e-005
                  190.50    410.04682                                0.00000             74.758                                        4.10047e+002           1.00468e+001           4.68186e-002           4.68186e-002           4.68186e-002           6.81859e-003           8.18593e-004
                  190.60    410.03998                                0.00000             74.758                                        4.10040e+002           1.00400e+001           3.99780e-002           3.99780e-002           3.99780e-002           9.97798e-003           9.77984e-004
                  190.70    410.03653                                0.00000             74.758                                        4.10037e+002           1.00365e+001           3.65295e-002           3.65295e-002           3.65295e-002           6.52955e-003           5.29549e-004
                  190.80    410.04438                                0.00000             74.758                                        4.10044e+002           1.00444e+001           4.43788e-002           4.43788e-002           4.43788e-002           4.37875e-003           3.78754e-004
                  190.90    410.04314                                0.00000             74.758                                        4.10043e+002           1.00431e+001           4.31419e-002           4.31419e-002           4.31419e-002           3.14191e-003           1.41914e-004
                  191.00    410.04635                                0.00000             74.758                                        4.10046e+002           1.00464e+001           4.63503e-002           4.63503e-002           4.63503e-002           6.35027e-003           3.50273e-004
                  191.10    410.03952                                0.00000             74.758                                        4.10040e+002           1.00395e+001           3.95156e-002           3.95156e-002           3.95156e-002           9.51560e-003           5.15605e-004
                  191.20    410.04785                                0.00000             74.758                                        4.10048e+002           1.00478e+001           4.78482e-002           4.78482e-002           4.78482e-002           7.84819e-003           8.48194e-004
                  191.30    410.04007                                0.00000             74.758                                        4.10040e+002           1.00401e+001           4.00702e-002           4.00702e-002           4.00702e-002           7.02391e-005           7.02391e-005
                  191.40    410.03819                                0.00000             74.758                                        4.10038e+002           1.00382e+001           3.81950e-002           3.81950e-002           3.81950e-002           8.19498e-003           1.94983e-004
                  191.50    410.04772                                0.00000             74.758                                        4.10048e+002           1.00477e+001           4.77202e-002           4.77202e-002           4.77202e-002           7.72019e-003           7.20188e-004
                  191.60    410.06189                                0.00000             74.758                                        4.10062e+002           1.00619e+001           6.18894e-002           6.18894e-002           6.18894e-002           1.88943e-003           8.89428e-004
                  191.70    410.05689                                0.00000             74.758                                        4.10057e+002           1.00569e+001           5.68896e-002           5.68896e-002           5.68896e-002           6.88960e-003           8.89599e-004
                  191.80    410.05040                                0.00000             74.758                                        4.10050e+002           1.00504e+001           5.04011e-002           5.04011e-002           5.04011e-002           4.01113e-004           4.01113e-004
                  191.90    410.05250                                0.00000             74.758                                        4.10053e+002           1.00525e+001           5.25039e-002           5.25039e-002           5.25039e-002           2.50389e-003           5.03890e-004
                  192.00    410.06218                                0.00000             74.758                                        4.10062e+002           1.00622e+001           6.21840e-002           6.21840e-002           6.21840e-002           2.18403e-003           1.84025e-004
                  192.10    410.05649                                0.00000             74.758                                        4.10056e+002           1.00565e+001           5.64864e-002           5.64864e-002           5.64864e-002           6.48643e-003           4.86430e-004
                  192.20    410.06269                                0.00000             74.758                                        4.10063e+002           1.00627e+001           6.26944e-002           6.26944e-002           6.26944e-002           2.69441e-003           6.94410e-004
                  192.30    410.06133                                0.00000             74.758                                        4.10061e+002           1.00613e+001           6.13263e-002           6.13263e-002           6.13263e-002           1.32635e-003           3.26348e-004
                  192.40    410.06133                                0.00000             74.758                                        4.10061e+002           1.00613e+001           6.13264e-002           6.13264e-002           6.13264e-002           1.32642e-003           3.26416e-004
