~VERSION INFORMATION
VERS                    .            2.0                                    :CWLS LOG ASCII STANDARD
WRAP                    .            NO                                     :ONE LINE PER TIME STEP


~WELL INFORMATION
#MNEM                   .UNIT        DATA                                    DESCRIPTION
#________________________________________________________________________________________
STRTTIME                .HH/MM/SS    16:37:30                               :START TIME
STOPTIME                .HH/MM/SS    16:40:36                               :STOP TIME
STRT                    .s           2.10                                   :START DATA
STOP                    .s           184.70                                 :STOP DATA
STEP                    .s           0.10                                   :MEASUREMENT TIME INTERVAL
NULL                    .            -999.25                                :NULL VALUE
COMP                    .            Statoil ASA                            :COMPANY
FLD                     .            Volve                                  :FIELD
WELL                    .            15/9-F-1 B                             :WELL
RUN                     .            7                                      :RUN
LOC                     .            Maersk Inspirer                        :LOCATION
PROV                    .            na                                     :PROVINCE
SRVC                    .            Baker Hughes INTEQ                     :SERVICE COMPANY
DATE                    .YY/MM/DD    13/09/06                               :LOG DATE
UWI                     .                                                   :UNIQUE WELL ID
DEPTHMD                 .m           3247.0                                 :MEASURED DEPTH
DEPTHTVD                .m           3043.3                                 :TRUE VERTICAL DEPTH


~CURVE INFORMATION
#MNEM                   .UNIT        API CODES                               DESCRIPTION
#________________________________________________________________________________________
TIME                    .s                                                  :01 TIME
DD_PRESS                .bar                                                :02 DRAW DOWN PRESSURE
DD_VOLUME               .cm3                                                :03 INCREMENTAL DRAW DOWN VOLUME
TEMP                    .degC                                               :04 TRANSDUCER TEMPERATURE
DD_PRESS_MOD_1000       .bar                                                :05 DRAW DOWN PRESSURE MOD 1000
DD_PRESS_MOD_100        .bar                                                :06 DRAW DOWN PRESSURE MOD 100
DD_PRESS_MOD_10         .bar                                                :07 DRAW DOWN PRESSURE MOD 10
DD_PRESS_MOD_1          .bar                                                :08 DRAW DOWN PRESSURE MOD 1
DD_PRESS_MOD_01         .bar                                                :09 DRAW DOWN PRESSURE MOD 01
DD_PRESS_MOD_001        .bar                                                :10 DRAW DOWN PRESSURE MOD 001
DD_PRESS_MOD_0001       .bar                                                :11 DRAW DOWN PRESSURE MOD 0001


~PARAMETER INFORMATION
#MNEM                   .UNIT        VALUE                                   DESCRIPTION
#________________________________________________________________________________________
TOOLFACE                .deg         na                                     :01 TOOLFACE
PUMP_CAPACITY           .bar         400                                    :02 NOMINAL DRAW DOWN PUMP CAPACITY
PUMP_LIMIT              .bar         400                                    :03 DOWNLINK PUMP LIMIT
TIME_LIMIT              .min         10                                     :04 DOWNLINK MAX TIME
TEST_TYPE               .            LOW MOBILITY                           :05 DOWNLINK
DD_PIST_A               .cm2         3.1416                                 :06 DRAW DOWN PISTON AREA
V_SYS                   .cm3         131.0000                               :07 SYSTEM VOLUME
PROBE_ID                .cm          1.2700                                 :08 TTK PROBE ID
G0                      .            4.6700                                 :09 GEOMETRY FACTOR


~A                  TIME     DD_PRESS                              DD_VOLUME               TEMP                                   DD_PRESS_MOD_1000       DD_PRESS_MOD_100        DD_PRESS_MOD_10         DD_PRESS_MOD_1        DD_PRESS_MOD_01       DD_PRESS_MOD_001      DD_PRESS_MOD_0001
# ...
                   49.70    344.56215                               10.98828             81.553                                        3.44562e+002           4.45622e+001           4.56215e+000           5.62152e-001           6.21524e-002           2.15241e-003           1.52411e-004
                   49.80    344.56339                               10.98828             81.555                                        3.44563e+002           4.45634e+001           4.56339e+000           5.63386e-001           6.33862e-002           3.38619e-003           3.86189e-004
                   49.90    344.56612                               10.98828             81.555                                        3.44566e+002           4.45661e+001           4.56612e+000           5.66123e-001           6.61229e-002           6.12288e-003           1.22884e-004
                   50.00    344.56001                               10.98828             81.555                                        3.44560e+002           4.45600e+001           4.56001e+000           5.60006e-001           6.00056e-002           5.55839e-006           5.55839e-006
                   50.10    344.54760                               10.98828             81.555                                        3.44548e+002           4.45476e+001           4.54760e+000           5.47599e-001           4.75988e-002           7.59877e-003           5.98771e-004
                   50.20    344.54862                               10.98828             81.555                                        3.44549e+002           4.45486e+001           4.54862e+000           5.48622e-001           4.86216e-002           8.62163e-003           6.21631e-004
                   50.30    344.56265                               10.98828             81.555                                        3.44563e+002           4.45626e+001           4.56265e+000           5.62647e-001           6.26468e-002           2.64677e-003           6.46771e-004
                   50.40    344.56645                               10.98828             81.555                                        3.44566e+002           4.45664e+001           4.56645e+000           5.66446e-001           6.64459e-002           6.44588e-003           4.45879e-004
                   50.50    344.55607                               10.98828             81.555                                        3.44556e+002           4.45561e+001           4.55607e+000           5.56069e-001           5.60691e-002           6.06909e-003           6.90898e-005
                   50.60    344.55689                               10.98828             81.552                                        3.44557e+002           4.45569e+001           4.55689e+000           5.56893e-001           5.68935e-002           6.89348e-003           8.93477e-004
                   50.70    344.56432                               10.98828             81.551                                        3.44564e+002           4.45643e+001           4.56432e+000           5.64324e-001           6.43238e-002           4.32377e-003           3.23767e-004
                   50.80    344.56426                               10.98828             81.553                                        3.44564e+002           4.45643e+001           4.56426e+000           5.64265e-001           6.42647e-002           4.26473e-003           2.64733e-004
                   50.90    344.56193                               10.98828             81.555                                        3.44562e+002           4.45619e+001           4.56193e+000           5.61933e-001           6.19325e-002           1.93254e-003           9.32544e-004
                   51.00    344.56029                               10.98828             81.555                                        3.44560e+002           4.45603e+001           4.56029e+000           5.60292e-001           6.02923e-002           2.92328e-004           2.92328e-004
                   51.10    344.55895                               10.98828             81.555                                        3.44559e+002           4.45589e+001           4.55895e+000           5.58947e-001           5.89473e-002           8.94725e-003           9.47254e-004
                   51.20    344.56507                               10.98828             81.552                                        3.44565e+002           4.45651e+001           4.56507e+000           5.65075e-001           6.50748e-002           5.07484e-003           7.48444e-005
                   51.30    344.56750                               10.98828             81.551                                        3.44567e+002           4.45675e+001           4.56750e+000           5.67499e-001           6.74990e-002           7.49899e-003           4.98987e-004
                   51.40    344.55702                               10.98828             81.553                                        3.44557e+002           4.45570e+001           4.55702e+000           5.57021e-001           5.70209e-002           7.02094e-003           2.09372e-005
                   51.50    344.54953                               10.98828             81.555                                        3.44550e+002           4.45495e+001           4.54953e+000           5.49530e-001           4.95301e-002           9.53012e-003           5.30120e-004
                   51.60    344.55204                               10.98828             81.555                                        3.44552e+002           4.45520e+001           4.55204e+000           5.52040e-001           5.20395e-002           2.03955e-003           3.95473e-005
                   51.70    344.55779                               10.98828             81.552                                        3.44558e+002           4.45578e+001           4.55779e+000           5.57795e-001           5.77947e-002           7.79466e-003           7.94663e-004
                   51.80    344.56053                               10.98828             81.549                                        3.44561e+002           4.45605e+001           4.56053e+000           5.60529e-001           6.05290e-002           5.29001e-004           5.29001e-004
                   51.90    344.55759                               10.98828             81.547                                        3.44558e+002           4.45576e+001           4.55759e+000           5.57590e-001           5.75899e-002           7.58991e-003           5.89907e-004
                   52.00    344.55666                               10.98828             81.547                                        3.44557e+002           4.45567e+001           4.55666e+000           5.56655e-001           5.66554e-002           6.65540e-003           6.55400e-004
                   52.10    344.55568                               10.98828             81.547                                        3.44556e+002           4.45557e+001           4.55568e+000           5.55678e-001           5.56779e-002           5.67794e-003           6.77941e-004
                   52.20    344.55662                               10.98828             81.547                                        3.44557e+002           4.45566e+001           4.55662e+000           5.56622e-001           5.66218e-002           6.62181e-003           6.21810e-004
                   52.30    344.55581                               10.98828             81.549                                        3.44556e+002           4.45558e+001           4.55581e+000           5.55811e-001           5.58107e-002           5.81068e-003           8.10676e-004
                   52.40    344.55514                               10.98828             81.553                                        3.44555e+002           4.45551e+001           4.55514e+000           5.55137e-001           5.51365e-002           5.13655e-003           1.36549e-004
