~VERSION INFORMATION
VERS                    .            2.0                                    :CWLS LOG ASCII STANDARD
WRAP                    .            NO                                     :ONE LINE PER TIME STEP


~WELL INFORMATION
#MNEM                   .UNIT        DATA                                    DESCRIPTION
#________________________________________________________________________________________
STRTTIME                .HH/MM/SS    11:07:04                               :START TIME
STOPTIME                .HH/MM/SS    11:10:49                               :STOP TIME
STRT                    .s           2.10                                   :START DATA
STOP                    .s           223.10                                 :STOP DATA
STEP                    .s           0.10                                   :MEASUREMENT TIME INTERVAL
NULL                    .            -999.25                                :NULL VALUE
COMP                    .            Statoil ASA                            :COMPANY
FLD                     .            Volve                                  :FIELD
WELL                    .            15/9-F-11 A                            :WELL
RUN                     .            8                                      :RUN
LOC                     .            Maersk Inspirer                        :LOCATION
PROV                    .            na                                     :PROVINCE
SRVC                    .            Baker Hughes INTEQ                     :SERVICE COMPANY
DATE                    .YY/MM/DD    13/05/21                               :LOG DATE
UWI                     .                                                   :UNIQUE WELL ID
DEPTHMD                 .m           3632.0                                 :MEASURED DEPTH
DEPTHTVD                .m           3026.9                                 :TRUE VERTICAL DEPTH


~CURVE INFORMATION
#MNEM                   .UNIT        API CODES                               DESCRIPTION
#________________________________________________________________________________________
TIME                    .s                                                  :01 TIME
DD_PRESS                .bar                                                :02 DRAW DOWN PRESSURE
DD_VOLUME               .cm3                                                :03 INCREMENTAL DRAW DOWN VOLUME
TEMP                    .degC                                               :04 TRANSDUCER TEMPERATURE
DD_PRESS_MOD_1000       .bar                                                :05 DRAW DOWN PRESSURE MOD 1000
DD_PRESS_MOD_100        .bar                                                :06 DRAW DOWN PRESSURE MOD 100
DD_PRESS_MOD_10         .bar                                                :07 DRAW DOWN PRESSURE MOD 10
DD_PRESS_MOD_1          .bar                                                :08 DRAW DOWN PRESSURE MOD 1
DD_PRESS_MOD_01         .bar                                                :09 DRAW DOWN PRESSURE MOD 01
DD_PRESS_MOD_001        .bar                                                :10 DRAW DOWN PRESSURE MOD 001
DD_PRESS_MOD_0001       .bar                                                :11 DRAW DOWN PRESSURE MOD 0001


~PARAMETER INFORMATION
#MNEM                   .UNIT        VALUE                                   DESCRIPTION
#________________________________________________________________________________________
TOOLFACE                .deg         66.7                                   :01 TOOLFACE
PUMP_CAPACITY           .bar         400                                    :02 NOMINAL DRAW DOWN PUMP CAPACITY
PUMP_LIMIT              .bar         240                                    :03 DOWNLINK PUMP LIMIT
TIME_LIMIT              .min         10                                     :04 DOWNLINK MAX TIME
TEST_TYPE               .            REPEAT                                 :05 DOWNLINK
TEST_TYPE               .            HIGH MOBILITY                          :06 DOWNLINK
DD_PIST_A               .cm2         3.1416                                 :07 DRAW DOWN PISTON AREA
V_SYS                   .cm3         131.0000                               :08 SYSTEM VOLUME
PROBE_ID                .cm          1.2700                                 :09 TTK PROBE ID
G0                      .            4.6700                                 :10 GEOMETRY FACTOR


~A                  TIME     DD_PRESS                              DD_VOLUME               TEMP                                   DD_PRESS_MOD_1000       DD_PRESS_MOD_100        DD_PRESS_MOD_10         DD_PRESS_MOD_1        DD_PRESS_MOD_01       DD_PRESS_MOD_001      DD_PRESS_MOD_0001
# ...
                   46.90    342.69159                               10.50478             80.609                                        3.42692e+002           4.26916e+001           2.69159e+000           6.91591e-001           9.15906e-002           1.59060e-003           5.90604e-004
                   47.00    342.70204                               10.50478             80.609                                        3.42702e+002           4.27020e+001           2.70204e+000           7.02044e-001           2.04399e-003           2.04399e-003           4.39898e-005
                   47.10    342.69789                               10.50478             80.609                                        3.42698e+002           4.26979e+001           2.69789e+000           6.97891e-001           9.78914e-002           7.89141e-003           8.91413e-004
                   47.20    342.68839                               10.50478             80.609                                        3.42688e+002           4.26884e+001           2.68839e+000           6.88386e-001           8.83858e-002           8.38576e-003           3.85762e-004
                   47.30    342.69195                               10.50478             80.609                                        3.42692e+002           4.26920e+001           2.69195e+000           6.91954e-001           9.19540e-002           1.95398e-003           9.53977e-004
                   47.40    342.68703                               10.50478             80.609                                        3.42687e+002           4.26870e+001           2.68703e+000           6.87027e-001           8.70266e-002           7.02660e-003           2.66006e-005
                   47.50    342.67083                               10.50478             80.609                                        3.42671e+002           4.26708e+001           2.67083e+000           6.70827e-001           7.08269e-002           8.26872e-004           8.26872e-004
                   47.60    342.66932                               10.50478             80.609                                        3.42669e+002           4.26693e+001           2.66932e+000           6.69323e-001           6.93232e-002           9.32323e-003           3.23235e-004
                   47.70    342.69207                               10.50478             80.609                                        3.42692e+002           4.26921e+001           2.69207e+000           6.92068e-001           9.20679e-002           2.06785e-003           6.78543e-005
                   47.80    342.70858                               10.50478             80.609                                        3.42709e+002           4.27086e+001           2.70858e+000           7.08577e-001           8.57710e-003           8.57710e-003           5.77099e-004
                   47.90    342.70895                               10.50478             80.609                                        3.42709e+002           4.27089e+001           2.70895e+000           7.08946e-001           8.94610e-003           8.94610e-003           9.46099e-004
                   48.00    342.70810                               10.50478             80.609                                        3.42708e+002           4.27081e+001           2.70810e+000           7.08097e-001           8.09723e-003           8.09723e-003           9.72259e-005
                   48.10    342.70570                               10.50478             80.609                                        3.42706e+002           4.27057e+001           2.70570e+000           7.05700e-001           5.69971e-003           5.69971e-003           6.99707e-004
                   48.20    342.70043                               10.50478             80.609                                        3.42700e+002           4.27004e+001           2.70043e+000           7.00435e-001           4.34822e-004           4.34822e-004           4.34822e-004
                   48.30    342.69814                               10.50478             80.609                                        3.42698e+002           4.26981e+001           2.69814e+000           6.98143e-001           9.81428e-002           8.14282e-003           1.42819e-004
                   48.40    342.70274                               10.50478             80.609                                        3.42703e+002           4.27027e+001           2.70274e+000           7.02739e-001           2.73909e-003           2.73909e-003           7.39087e-004
                   48.50    342.71189                               10.50478             80.609                                        3.42712e+002           4.27119e+001           2.71189e+000           7.11894e-001           1.18941e-002           1.89407e-003           8.94074e-004
                   48.60    342.71647                               10.50478             80.609                                        3.42716e+002           4.27165e+001           2.71647e+000           7.16466e-001           1.64659e-002           6.46594e-003           4.65942e-004
                   48.70    342.71028                               10.50478             80.609                                        3.42710e+002           4.27103e+001           2.71028e+000           7.10281e-001           1.02811e-002           2.81147e-004           2.81147e-004
                   48.80    342.70954                               10.50478             80.609                                        3.42710e+002           4.27095e+001           2.70954e+000           7.09540e-001           9.53992e-003           9.53992e-003           5.39917e-004
                   48.90    342.71397                               10.50478             80.609                                        3.42714e+002           4.27140e+001           2.71397e+000           7.13970e-001           1.39700e-002           3.97002e-003           9.70024e-004
                   49.00    342.71219                               10.50478             80.609                                        3.42712e+002           4.27122e+001           2.71219e+000           7.12194e-001           1.21938e-002           2.19380e-003           1.93802e-004
                   49.10    342.70968                               10.50478             80.609                                        3.42710e+002           4.27097e+001           2.70968e+000           7.09676e-001           9.67636e-003           9.67636e-003           6.76365e-004
                   49.20    342.71094                               10.50478             80.609                                        3.42711e+002           4.27109e+001           2.71094e+000           7.10939e-001           1.09391e-002           9.39103e-004           9.39103e-004
                   49.30    342.70138                               10.50478             80.609                                        3.42701e+002           4.27014e+001           2.70138e+000           7.01377e-001           1.37711e-003           1.37711e-003           3.77106e-004
                   49.40    342.69164                               10.50478             80.609                                        3.42692e+002           4.26916e+001           2.69164e+000           6.91636e-001           9.16356e-002           1.63563e-003           6.35634e-004
                   49.50    342.70023                               10.50478             80.609                                        3.42700e+002           4.27002e+001           2.70023e+000           7.00228e-001           2.27843e-004           2.27843e-004           2.27843e-004
                   49.60    342.70561                               10.50478             80.609                                        3.42706e+002           4.27056e+001           2.70561e+000           7.05608e-001           5.60775e-003           5.60775e-003           6.07748e-004
