~VERSION INFORMATION
VERS                    .            2.0                                    :CWLS LOG ASCII STANDARD
WRAP                    .            NO                                     :ONE LINE PER TIME STEP


~WELL INFORMATION
#MNEM                   .UNIT        DATA                                    DESCRIPTION
#________________________________________________________________________________________
STRTTIME                .HH/MM/SS    08:08:34                               :START TIME
STOPTIME                .HH/MM/SS    08:11:25                               :STOP TIME
STRT                    .s           2.10                                   :START DATA
STOP                    .s           169.10                                 :STOP DATA
STEP                    .s           0.10                                   :MEASUREMENT TIME INTERVAL
NULL                    .            -999.25                                :NULL VALUE
COMP                    .            Statoil ASA                            :COMPANY
FLD                     .            Volve                                  :FIELD
WELL                    .            15/9-F-11 A                            :WELL
RUN                     .            8                                      :RUN
LOC                     .            Maersk Inspirer                        :LOCATION
PROV                    .            na                                     :PROVINCE
SRVC                    .            Baker Hughes INTEQ                     :SERVICE COMPANY
DATE                    .YY/MM/DD    13/05/21                               :LOG DATE
UWI                     .                                                   :UNIQUE WELL ID
DEPTHMD                 .m           3694.5                                 :MEASURED DEPTH
DEPTHTVD                .m           3074.7                                 :TRUE VERTICAL DEPTH


~CURVE INFORMATION
#MNEM                   .UNIT        API CODES                               DESCRIPTION
#________________________________________________________________________________________
TIME                    .s                                                  :01 TIME
DD_PRESS                .bar                                                :02 DRAW DOWN PRESSURE
DD_VOLUME               .cm3                                                :03 INCREMENTAL DRAW DOWN VOLUME
TEMP                    .degC                                               :04 TRANSDUCER TEMPERATURE
DD_PRESS_MOD_1000       .bar                                                :05 DRAW DOWN PRESSURE MOD 1000
DD_PRESS_MOD_100        .bar                                                :06 DRAW DOWN PRESSURE MOD 100
DD_PRESS_MOD_10         .bar                                                :07 DRAW DOWN PRESSURE MOD 10
DD_PRESS_MOD_1          .bar                                                :08 DRAW DOWN PRESSURE MOD 1
DD_PRESS_MOD_01         .bar                                                :09 DRAW DOWN PRESSURE MOD 01
DD_PRESS_MOD_001        .bar                                                :10 DRAW DOWN PRESSURE MOD 001
DD_PRESS_MOD_0001       .bar                                                :11 DRAW DOWN PRESSURE MOD 0001


~PARAMETER INFORMATION
#MNEM                   .UNIT        VALUE                                   DESCRIPTION
#________________________________________________________________________________________
TOOLFACE                .deg         -107.9                                 :01 TOOLFACE
PUMP_CAPACITY           .bar         400                                    :02 NOMINAL DRAW DOWN PUMP CAPACITY
PUMP_LIMIT              .bar         240                                    :03 DOWNLINK PUMP LIMIT
TIME_LIMIT              .min         10                                     :04 DOWNLINK MAX TIME
TEST_TYPE               .            HIGH MOBILITY                          :05 DOWNLINK
DD_PIST_A               .cm2         3.1416                                 :06 DRAW DOWN PISTON AREA
V_SYS                   .cm3         131.0000                               :07 SYSTEM VOLUME
PROBE_ID                .cm          1.2700                                 :08 TTK PROBE ID
G0                      .            4.6700                                 :09 GEOMETRY FACTOR


~A                  TIME     DD_PRESS                              DD_VOLUME               TEMP                                   DD_PRESS_MOD_1000       DD_PRESS_MOD_100        DD_PRESS_MOD_10         DD_PRESS_MOD_1        DD_PRESS_MOD_01       DD_PRESS_MOD_001      DD_PRESS_MOD_0001
                    2.10    425.23761                                0.00000             84.938                                        4.25238e+002           2.52376e+001           5.23761e+000           2.37610e-001           3.76105e-002           7.61047e-003           6.10467e-004
                    2.20    425.24883                                0.00000             84.940                                        4.25249e+002           2.52488e+001           5.24883e+000           2.48834e-001           4.88336e-002           8.83361e-003           8.33606e-004
                    2.30    425.24352                                0.00000             84.943                                        4.25244e+002           2.52435e+001           5.24352e+000           2.43516e-001           4.35163e-002           3.51627e-003           5.16270e-004
                    2.40    425.22410                                0.00000             84.943                                        4.25224e+002           2.52241e+001           5.22410e+000           2.24095e-001           2.40951e-002           4.09509e-003           9.50884e-005
                    2.50    425.16936                                0.00000             84.939                                        4.25169e+002           2.51694e+001           5.16936e+000           1.69363e-001           6.93629e-002           9.36295e-003           3.62948e-004
                    2.60    425.09073                                0.00000             84.938                                        4.25091e+002           2.50907e+001           5.09073e+000           9.07281e-002           9.07281e-002           7.28079e-004           7.28079e-004
                    2.70    425.01345                                0.00000             84.938                                        4.25013e+002           2.50135e+001           5.01345e+000           1.34523e-002           1.34523e-002           3.45233e-003           4.52326e-004
                    2.80    424.95949                                0.00000             84.938                                        4.24959e+002           2.49595e+001           4.95949e+000           9.59489e-001           5.94891e-002           9.48908e-003           4.89083e-004
                    2.90    424.93189                                0.00000             84.938                                        4.24932e+002           2.49319e+001           4.93189e+000           9.31890e-001           3.18901e-002           1.89013e-003           8.90132e-004
                    3.00    424.94400                                0.00000             84.938                                        4.24944e+002           2.49440e+001           4.94400e+000           9.44004e-001           4.40043e-002           4.00434e-003           4.33825e-006
                    3.10    425.00368                                0.00000             84.938                                        4.25004e+002           2.50037e+001           5.00368e+000           3.67922e-003           3.67922e-003           3.67922e-003           6.79223e-004
                    3.20    425.08431                                0.00000             84.938                                        4.25084e+002           2.50843e+001           5.08431e+000           8.43149e-002           8.43149e-002           4.31494e-003           3.14937e-004
                    3.30    425.16314                                0.00000             84.938                                        4.25163e+002           2.51631e+001           5.16314e+000           1.63138e-001           6.31375e-002           3.13754e-003           1.37538e-004
                    3.40    425.22585                                0.00000             84.938                                        4.25226e+002           2.52258e+001           5.22585e+000           2.25847e-001           2.58468e-002           5.84679e-003           8.46788e-004
                    3.50    425.27757                                0.00000             84.938                                        4.25278e+002           2.52776e+001           5.27757e+000           2.77572e-001           7.75720e-002           7.57202e-003           5.72024e-004
                    3.60    425.31438                                0.00000             84.938                                        4.25314e+002           2.53144e+001           5.31438e+000           3.14379e-001           1.43787e-002           4.37866e-003           3.78656e-004
                    3.70    425.33623                                0.00000             84.938                                        4.25336e+002           2.53362e+001           5.33623e+000           3.36228e-001           3.62277e-002           6.22770e-003           2.27697e-004
                    3.80    425.33196                                0.00000             84.938                                        4.25332e+002           2.53320e+001           5.33196e+000           3.31960e-001           3.19604e-002           1.96043e-003           9.60431e-004
                    3.90    425.31500                                0.00000             84.938                                        4.25315e+002           2.53150e+001           5.31500e+000           3.14997e-001           1.49974e-002           4.99737e-003           9.97373e-004
                    4.00    425.26465                                0.00000             84.938                                        4.25265e+002           2.52647e+001           5.26465e+000           2.64650e-001           6.46503e-002           4.65030e-003           6.50301e-004
                    4.10    425.19465                                0.00000             84.938                                        4.25195e+002           2.51947e+001           5.19465e+000           1.94655e-001           9.46549e-002           4.65493e-003           6.54931e-004
                    4.20    425.11636                                0.00000             84.938                                        4.25116e+002           2.51164e+001           5.11636e+000           1.16359e-001           1.63593e-002           6.35927e-003           3.59266e-004
                    4.30    425.04871                                0.00000             84.938                                        4.25049e+002           2.50487e+001           5.04871e+000           4.87120e-002           4.87120e-002           8.71201e-003           7.12009e-004
                    4.40    424.99968                                0.00000             84.938                                        4.25000e+002           2.49997e+001           4.99968e+000           9.99679e-001           9.96789e-002           9.67894e-003           6.78939e-004
                    4.50    424.97081                                0.00000             84.938                                        4.24971e+002           2.49708e+001           4.97081e+000           9.70811e-001           7.08107e-002           8.10668e-004           8.10668e-004
                    4.60    424.97436                                0.00000             84.938                                        4.24974e+002           2.49744e+001           4.97436e+000           9.74362e-001           7.43621e-002           4.36207e-003           3.62075e-004
                    4.70    424.99824                                0.00000             84.938                                        4.24998e+002           2.49982e+001           4.99824e+000           9.98239e-001           9.82389e-002           8.23893e-003           2.38935e-004
                    4.80    425.01941                                0.00000             84.938                                        4.25019e+002           2.50194e+001           5.01941e+000           1.94063e-002           1.94063e-002           9.40631e-003           4.06309e-004
