~VERSION INFORMATION
VERS                    .            2.0                                    :CWLS LOG ASCII STANDARD
WRAP                    .            NO                                     :ONE LINE PER TIME STEP


~WELL INFORMATION
#MNEM                   .UNIT        DATA                                    DESCRIPTION
#________________________________________________________________________________________
STRTTIME                .HH/MM/SS    15:31:36                               :START TIME
STOPTIME                .HH/MM/SS    15:34:21                               :STOP TIME
STRT                    .s           2.10                                   :START DATA
STOP                    .s           163.50                                 :STOP DATA
STEP                    .s           0.10                                   :MEASUREMENT TIME INTERVAL
NULL                    .            -999.25                                :NULL VALUE
COMP                    .            Statoil ASA                            :COMPANY
FLD                     .            Volve                                  :FIELD
WELL                    .            15/9-F-11 A                            :WELL
RUN                     .            8                                      :RUN
LOC                     .            Maersk Inspirer                        :LOCATION
PROV                    .            na                                     :PROVINCE
SRVC                    .            Baker Hughes INTEQ                     :SERVICE COMPANY
DATE                    .YY/MM/DD    13/05/21                               :LOG DATE
UWI                     .                                                   :UNIQUE WELL ID
DEPTHMD                 .m           3617.2                                 :MEASURED DEPTH
DEPTHTVD                .m           3015.5                                 :TRUE VERTICAL DEPTH


~CURVE INFORMATION
#MNEM                   .UNIT        API CODES                               DESCRIPTION
#________________________________________________________________________________________
TIME                    .s                                                  :01 TIME
DD_PRESS                .bar                                                :02 DRAW DOWN PRESSURE
DD_VOLUME               .cm3                                                :03 INCREMENTAL DRAW DOWN VOLUME
TEMP                    .degC                                               :04 TRANSDUCER TEMPERATURE
DD_PRESS_MOD_1000       .bar                                                :05 DRAW DOWN PRESSURE MOD 1000
DD_PRESS_MOD_100        .bar                                                :06 DRAW DOWN PRESSURE MOD 100
DD_PRESS_MOD_10         .bar                                                :07 DRAW DOWN PRESSURE MOD 10
DD_PRESS_MOD_1          .bar                                                :08 DRAW DOWN PRESSURE MOD 1
DD_PRESS_MOD_01         .bar                                                :09 DRAW DOWN PRESSURE MOD 01
DD_PRESS_MOD_001        .bar                                                :10 DRAW DOWN PRESSURE MOD 001
DD_PRESS_MOD_0001       .bar                                                :11 DRAW DOWN PRESSURE MOD 0001


~PARAMETER INFORMATION
#MNEM                   .UNIT        VALUE                                   DESCRIPTION
#________________________________________________________________________________________
TOOLFACE                .deg         63.0                                   :01 TOOLFACE
PUMP_CAPACITY           .bar         400                                    :02 NOMINAL DRAW DOWN PUMP CAPACITY
PUMP_LIMIT              .bar         240                                    :03 DOWNLINK PUMP LIMIT
TIME_LIMIT              .min         10                                     :04 DOWNLINK MAX TIME
TEST_TYPE               .            HIGH MOBILITY                          :05 DOWNLINK
DD_PIST_A               .cm2         3.1416                                 :06 DRAW DOWN PISTON AREA
V_SYS                   .cm3         131.0000                               :07 SYSTEM VOLUME
PROBE_ID                .cm          1.2700                                 :08 TTK PROBE ID
G0                      .            4.6700                                 :09 GEOMETRY FACTOR


~A                  TIME     DD_PRESS                              DD_VOLUME               TEMP                                   DD_PRESS_MOD_1000       DD_PRESS_MOD_100        DD_PRESS_MOD_10         DD_PRESS_MOD_1        DD_PRESS_MOD_01       DD_PRESS_MOD_001      DD_PRESS_MOD_0001
# ...
                   55.30    341.69279                               10.92973             80.086                                        3.41693e+002           4.16928e+001           1.69279e+000           6.92786e-001           9.27860e-002           2.78596e-003           7.85956e-004
                   55.40    341.69198                               10.92973             80.086                                        3.41692e+002           4.16920e+001           1.69198e+000           6.91980e-001           9.19796e-002           1.97959e-003           9.79594e-004
                   55.50    341.69288                               10.92973             80.086                                        3.41693e+002           4.16929e+001           1.69288e+000           6.92880e-001           9.28801e-002           2.88008e-003           8.80079e-004
                   55.60    341.69584                               10.92973             80.086                                        3.41696e+002           4.16958e+001           1.69584e+000           6.95841e-001           9.58412e-002           5.84118e-003           8.41184e-004
                   55.70    341.69618                               10.92973             80.086                                        3.41696e+002           4.16962e+001           1.69618e+000           6.96180e-001           9.61802e-002           6.18022e-003           1.80217e-004
                   55.80    341.69560                               10.92973             80.086                                        3.41696e+002           4.16956e+001           1.69560e+000           6.95605e-001           9.56047e-002           5.60474e-003           6.04740e-004
                   55.90    341.69609                               10.92973             80.086                                        3.41696e+002           4.16961e+001           1.69609e+000           6.96091e-001           9.60910e-002           6.09096e-003           9.09631e-005
                   56.00    341.69548                               10.92973             80.086                                        3.41695e+002           4.16955e+001           1.69548e+000           6.95479e-001           9.54794e-002           5.47944e-003           4.79436e-004
                   56.10    341.69566                               10.92973             80.088                                        3.41696e+002           4.16957e+001           1.69566e+000           6.95658e-001           9.56578e-002           5.65781e-003           6.57808e-004
                   56.20    341.69641                               10.92973             80.092                                        3.41696e+002           4.16964e+001           1.69641e+000           6.96409e-001           9.64095e-002           6.40947e-003           4.09472e-004
                   56.30    341.69433                               10.92973             80.094                                        3.41694e+002           4.16943e+001           1.69433e+000           6.94332e-001           9.43319e-002           4.33194e-003           3.31939e-004
                   56.40    341.69420                               10.92973             80.094                                        3.41694e+002           4.16942e+001           1.69420e+000           6.94203e-001           9.42026e-002           4.20260e-003           2.02598e-004
                   56.50    341.69548                               10.92973             80.094                                        3.41695e+002           4.16955e+001           1.69548e+000           6.95480e-001           9.54804e-002           5.48038e-003           4.80381e-004
                   56.60    341.69668                               10.92973             80.094                                        3.41697e+002           4.16967e+001           1.69668e+000           6.96680e-001           9.66796e-002           6.67956e-003           6.79564e-004
                   56.70    341.69365                               10.92973             80.094                                        3.41694e+002           4.16937e+001           1.69365e+000           6.93650e-001           9.36503e-002           3.65034e-003           6.50336e-004
                   56.80    341.69309                               10.92973             80.094                                        3.41693e+002           4.16931e+001           1.69309e+000           6.93093e-001           9.30930e-002           3.09304e-003           9.30426e-005
                   56.90    341.69618                               10.92973             80.094                                        3.41696e+002           4.16962e+001           1.69618e+000           6.96175e-001           9.61750e-002           6.17502e-003           1.75022e-004
                   57.00    341.69719                               10.92973             80.094                                        3.41697e+002           4.16972e+001           1.69719e+000           6.97193e-001           9.71931e-002           7.19310e-003           1.93102e-004
                   57.10    341.69483                               10.92973             80.094                                        3.41695e+002           4.16948e+001           1.69483e+000           6.94831e-001           9.48306e-002           4.83061e-003           8.30608e-004
                   57.20    341.69391                               10.92973             80.094                                        3.41694e+002           4.16939e+001           1.69391e+000           6.93908e-001           9.39079e-002           3.90788e-003           9.07875e-004
                   57.30    341.69597                               10.92973             80.094                                        3.41696e+002           4.16960e+001           1.69597e+000           6.95972e-001           9.59723e-002           5.97231e-003           9.72315e-004
                   57.40    341.69551                               10.92973             80.094                                        3.41696e+002           4.16955e+001           1.69551e+000           6.95510e-001           9.55105e-002           5.51047e-003           5.10472e-004
                   57.50    341.69657                               10.92973             80.094                                        3.41697e+002           4.16966e+001           1.69657e+000           6.96575e-001           9.65747e-002           6.57472e-003           5.74716e-004
                   57.60    341.69726                               10.92973             80.094                                        3.41697e+002           4.16973e+001           1.69726e+000           6.97264e-001           9.72641e-002           7.26411e-003           2.64113e-004
                   57.70    341.69543                               10.92973             80.094                                        3.41695e+002           4.16954e+001           1.69543e+000           6.95428e-001           9.54279e-002           5.42788e-003           4.27880e-004
                   57.80    341.69287                               10.92973             80.094                                        3.41693e+002           4.16929e+001           1.69287e+000           6.92867e-001           9.28667e-002           2.86668e-003           8.66685e-004
                   57.90    341.69550                               10.92973             80.094                                        3.41696e+002           4.16955e+001           1.69550e+000           6.95503e-001           9.55034e-002           5.50338e-003           5.03376e-004
                   58.00    341.69713                               10.92973             80.094                                        3.41697e+002           4.16971e+001           1.69713e+000           6.97125e-001           9.71254e-002           7.12536e-003           1.25361e-004
