~VERSION INFORMATION
VERS                    .            2.0                                    :CWLS LOG ASCII STANDARD
WRAP                    .            NO                                     :ONE LINE PER TIME STEP


~WELL INFORMATION
#MNEM                   .UNIT        DATA                                    DESCRIPTION
#________________________________________________________________________________________
STRTTIME                .HH/MM/SS    02:14:19                               :START TIME
STOPTIME                .HH/MM/SS    02:17:23                               :STOP TIME
STRT                    .s           2.10                                   :START DATA
STOP                    .s           182.70                                 :STOP DATA
STEP                    .s           0.10                                   :MEASUREMENT TIME INTERVAL
NULL                    .            -999.25                                :NULL VALUE
COMP                    .            Statoil ASA                            :COMPANY
FLD                     .            Volve                                  :FIELD
WELL                    .            15/9-F-1 C                             :WELL
RUN                     .            4                                      :RUN
LOC                     .                                                   :LOCATION
PROV                    .            na                                     :PROVINCE
SRVC                    .            Baker Hughes INTEQ                     :SERVICE COMPANY
DATE                    .YY/MM/DD    14/03/15                               :LOG DATE
UWI                     .                                                   :UNIQUE WELL ID
DEPTHMD                 .m           3603.0                                 :MEASURED DEPTH
DEPTHTVD                .m           3006.7                                 :TRUE VERTICAL DEPTH


~CURVE INFORMATION
#MNEM                   .UNIT        API CODES                               DESCRIPTION
#________________________________________________________________________________________
TIME                    .s                                                  :01 TIME
DD_PRESS                .bar                                                :02 DRAW DOWN PRESSURE
DD_VOLUME               .cm3                                                :03 INCREMENTAL DRAW DOWN VOLUME
TEMP                    .degC                                               :04 TRANSDUCER TEMPERATURE
DD_PRESS_MOD_1000       .bar                                                :05 DRAW DOWN PRESSURE MOD 1000
DD_PRESS_MOD_100        .bar                                                :06 DRAW DOWN PRESSURE MOD 100
DD_PRESS_MOD_10         .bar                                                :07 DRAW DOWN PRESSURE MOD 10
DD_PRESS_MOD_1          .bar                                                :08 DRAW DOWN PRESSURE MOD 1
DD_PRESS_MOD_01         .bar                                                :09 DRAW DOWN PRESSURE MOD 01
DD_PRESS_MOD_001        .bar                                                :10 DRAW DOWN PRESSURE MOD 001
DD_PRESS_MOD_0001       .bar                                                :11 DRAW DOWN PRESSURE MOD 0001


~PARAMETER INFORMATION
#MNEM                   .UNIT        VALUE                                   DESCRIPTION
#________________________________________________________________________________________
TOOLFACE                .deg         109.6                                  :01 TOOLFACE
PUMP_CAPACITY           .bar         400                                    :02 NOMINAL DRAW DOWN PUMP CAPACITY
PUMP_LIMIT              .bar         240                                    :03 DOWNLINK PUMP LIMIT
TIME_LIMIT              .min         10                                     :04 DOWNLINK MAX TIME
TEST_TYPE               .            REPEAT                                 :05 DOWNLINK
TEST_TYPE               .            HIGH MOBILITY                          :06 DOWNLINK
DD_PIST_A               .cm2         3.1416                                 :07 DRAW DOWN PISTON AREA
V_SYS                   .cm3         131.0000                               :08 SYSTEM VOLUME
PROBE_ID                .cm          1.2700                                 :09 TTK PROBE ID
G0                      .            4.6700                                 :10 GEOMETRY FACTOR


~A                  TIME     DD_PRESS                              DD_VOLUME               TEMP                                   DD_PRESS_MOD_1000       DD_PRESS_MOD_100        DD_PRESS_MOD_10         DD_PRESS_MOD_1        DD_PRESS_MOD_01       DD_PRESS_MOD_001      DD_PRESS_MOD_0001
# ...
                   86.10    345.30422                               19.84763             86.094                                        3.45304e+002           4.53042e+001           5.30422e+000           3.04217e-001           4.21721e-003           4.21721e-003           2.17208e-004
                   86.20    345.31895                               19.84763             86.094                                        3.45319e+002           4.53190e+001           5.31895e+000           3.18952e-001           1.89515e-002           8.95153e-003           9.51534e-004
                   86.30    345.32503                               19.84763             86.094                                        3.45325e+002           4.53250e+001           5.32503e+000           3.25033e-001           2.50332e-002           5.03315e-003           3.31528e-005
                   86.40    345.32954                               19.84763             86.094                                        3.45330e+002           4.53295e+001           5.32954e+000           3.29544e-001           2.95442e-002           9.54420e-003           5.44198e-004
                   86.50    345.33499                               19.84763             86.094                                        3.45335e+002           4.53350e+001           5.33499e+000           3.34994e-001           3.49943e-002           4.99430e-003           9.94304e-004
                   86.60    345.33681                               19.84763             86.094                                        3.45337e+002           4.53368e+001           5.33681e+000           3.36806e-001           3.68060e-002           6.80604e-003           8.06037e-004
                   86.70    345.33740                               19.84763             86.094                                        3.45337e+002           4.53374e+001           5.33740e+000           3.37399e-001           3.73986e-002           7.39862e-003           3.98619e-004
                   86.80    345.34185                               19.84763             86.094                                        3.45342e+002           4.53418e+001           5.34185e+000           3.41845e-001           4.18452e-002           1.84522e-003           8.45223e-004
                   86.90    345.34446                               19.84763             86.094                                        3.45344e+002           4.53445e+001           5.34446e+000           3.44455e-001           4.44551e-002           4.45506e-003           4.55062e-004
                   87.00    345.34517                               19.84763             86.094                                        3.45345e+002           4.53452e+001           5.34517e+000           3.45175e-001           4.51747e-002           5.17470e-003           1.74699e-004
                   87.10    345.34613                               19.84763             86.094                                        3.45346e+002           4.53461e+001           5.34613e+000           3.46130e-001           4.61305e-002           6.13049e-003           1.30493e-004
                   87.20    345.34978                               19.84763             86.094                                        3.45350e+002           4.53498e+001           5.34978e+000           3.49783e-001           4.97831e-002           9.78310e-003           7.83102e-004
                   87.30    345.35523                               19.84763             86.094                                        3.45355e+002           4.53552e+001           5.35523e+000           3.55230e-001           5.52301e-002           5.23013e-003           2.30134e-004
                   87.40    345.35903                               19.84763             86.094                                        3.45359e+002           4.53590e+001           5.35903e+000           3.59030e-001           5.90302e-002           9.03019e-003           3.01928e-005
                   87.50    345.35902                               19.84763             86.094                                        3.45359e+002           4.53590e+001           5.35902e+000           3.59018e-001           5.90179e-002           9.01790e-003           1.78984e-005
                   87.60    345.35901                               19.84763             86.094                                        3.45359e+002           4.53590e+001           5.35901e+000           3.59015e-001           5.90148e-002           9.01475e-003           1.47506e-005
                   87.70    345.35956                               19.84763             86.094                                        3.45360e+002           4.53596e+001           5.35956e+000           3.59557e-001           5.95565e-002           9.55650e-003           5.56503e-004
                   87.80    345.36101                               19.84763             86.094                                        3.45361e+002           4.53610e+001           5.36101e+000           3.61012e-001           6.10122e-002           1.01222e-003           1.22232e-005
                   87.90    345.36252                               19.84763             86.094                                        3.45363e+002           4.53625e+001           5.36252e+000           3.62524e-001           6.25243e-002           2.52428e-003           5.24278e-004
                   88.00    345.36425                               19.84763             86.094                                        3.45364e+002           4.53642e+001           5.36425e+000           3.64246e-001           6.42458e-002           4.24577e-003           2.45774e-004
                   88.10    345.36424                               19.84763             86.094                                        3.45364e+002           4.53642e+001           5.36424e+000           3.64241e-001           6.42410e-002           4.24097e-003           2.40967e-004
                   88.20    345.36262                               19.84763             86.094                                        3.45363e+002           4.53626e+001           5.36262e+000           3.62621e-001           6.26207e-002           2.62073e-003           6.20733e-004
                   88.30    345.36663                               19.84763             86.094                                        3.45367e+002           4.53666e+001           5.36663e+000           3.66633e-001           6.66329e-002           6.63295e-003           6.32945e-004
                   88.40    345.37441                               19.84763             86.094                                        3.45374e+002           4.53744e+001           5.37441e+000           3.74406e-001           7.44062e-002           4.40622e-003           4.06225e-004
                   88.50    345.37913                               19.84763             86.094                                        3.45379e+002           4.53791e+001           5.37913e+000           3.79126e-001           7.91260e-002           9.12602e-003           1.26020e-004
                   88.60    345.37475                               19.84763             86.094                                        3.45375e+002           4.53748e+001           5.37475e+000           3.74753e-001           7.47534e-002           4.75338e-003           7.53375e-004
                   88.70    345.36782                               19.84763             86.094                                        3.45368e+002           4.53678e+001           5.36782e+000           3.67822e-001           6.78220e-002           7.82199e-003           8.21985e-004
                   88.80    345.36549                               19.84763             86.094                                        3.45365e+002           4.53655e+001           5.36549e+000           3.65493e-001           6.54927e-002           5.49267e-003           4.92671e-004
