~VERSION INFORMATION
VERS                    .            2.0                                    :CWLS LOG ASCII STANDARD
WRAP                    .            NO                                     :ONE LINE PER TIME STEP


~WELL INFORMATION
#MNEM                   .UNIT        DATA                                    DESCRIPTION
#________________________________________________________________________________________
STRTTIME                .HH/MM/SS    14:04:48                               :START TIME
STOPTIME                .HH/MM/SS    14:07:57                               :STOP TIME
STRT                    .s           2.10                                   :START DATA
STOP                    .s           187.50                                 :STOP DATA
STEP                    .s           0.10                                   :MEASUREMENT TIME INTERVAL
NULL                    .            -999.25                                :NULL VALUE
COMP                    .            Statoil ASA                            :COMPANY
FLD                     .            Volve                                  :FIELD
WELL                    .            15/9-F-1 B                             :WELL
RUN                     .            7                                      :RUN
LOC                     .            Maersk Inspirer                        :LOCATION
PROV                    .            na                                     :PROVINCE
SRVC                    .            Baker Hughes INTEQ                     :SERVICE COMPANY
DATE                    .YY/MM/DD    13/09/06                               :LOG DATE
UWI                     .                                                   :UNIQUE WELL ID
DEPTHMD                 .m           3296.0                                 :MEASURED DEPTH
DEPTHTVD                .m           3091.5                                 :TRUE VERTICAL DEPTH


~CURVE INFORMATION
#MNEM                   .UNIT        API CODES                               DESCRIPTION
#________________________________________________________________________________________
TIME                    .s                                                  :01 TIME
DD_PRESS                .bar                                                :02 DRAW DOWN PRESSURE
DD_VOLUME               .cm3                                                :03 INCREMENTAL DRAW DOWN VOLUME
TEMP                    .degC                                               :04 TRANSDUCER TEMPERATURE
DD_PRESS_MOD_1000       .bar                                                :05 DRAW DOWN PRESSURE MOD 1000
DD_PRESS_MOD_100        .bar                                                :06 DRAW DOWN PRESSURE MOD 100
DD_PRESS_MOD_10         .bar                                                :07 DRAW DOWN PRESSURE MOD 10
DD_PRESS_MOD_1          .bar                                                :08 DRAW DOWN PRESSURE MOD 1
DD_PRESS_MOD_01         .bar                                                :09 DRAW DOWN PRESSURE MOD 01
DD_PRESS_MOD_001        .bar                                                :10 DRAW DOWN PRESSURE MOD 001
DD_PRESS_MOD_0001       .bar                                                :11 DRAW DOWN PRESSURE MOD 0001


~PARAMETER INFORMATION
#MNEM                   .UNIT        VALUE                                   DESCRIPTION
#________________________________________________________________________________________
TOOLFACE                .deg         na                                     :01 TOOLFACE
PUMP_CAPACITY           .bar         400                                    :02 NOMINAL DRAW DOWN PUMP CAPACITY
PUMP_LIMIT              .bar         400                                    :03 DOWNLINK PUMP LIMIT
TIME_LIMIT              .min         10                                     :04 DOWNLINK MAX TIME
TEST_TYPE               .            LOW MOBILITY                           :05 DOWNLINK
DD_PIST_A               .cm2         3.1416                                 :06 DRAW DOWN PISTON AREA
V_SYS                   .cm3         131.0000                               :07 SYSTEM VOLUME
PROBE_ID                .cm          1.2700                                 :08 TTK PROBE ID
G0                      .            4.6700                                 :09 GEOMETRY FACTOR


~A                  TIME     DD_PRESS                              DD_VOLUME               TEMP                                   DD_PRESS_MOD_1000       DD_PRESS_MOD_100        DD_PRESS_MOD_10         DD_PRESS_MOD_1        DD_PRESS_MOD_01       DD_PRESS_MOD_001      DD_PRESS_MOD_0001
# ...
                   86.10    348.62341                               19.96297             83.281                                        3.48623e+002           4.86234e+001           8.62341e+000           6.23405e-001           2.34051e-002           3.40506e-003           4.05058e-004
                   86.20    348.64391                               19.96297             83.281                                        3.48644e+002           4.86439e+001           8.64391e+000           6.43914e-001           4.39138e-002           3.91378e-003           9.13782e-004
                   86.30    348.61766                               19.96297             83.281                                        3.48618e+002           4.86177e+001           8.61766e+000           6.17658e-001           1.76585e-002           7.65848e-003           6.58480e-004
                   86.40    348.59687                               19.96297             83.281                                        3.48597e+002           4.85969e+001           8.59687e+000           5.96874e-001           9.68736e-002           6.87355e-003           8.73552e-004
                   86.50    348.61998                               19.96297             83.281                                        3.48620e+002           4.86200e+001           8.61998e+000           6.19980e-001           1.99800e-002           9.98003e-003           9.80028e-004
                   86.60    348.62713                               19.96297             83.281                                        3.48627e+002           4.86271e+001           8.62713e+000           6.27131e-001           2.71307e-002           7.13071e-003           1.30707e-004
                   86.70    348.60944                               19.96297             83.281                                        3.48609e+002           4.86094e+001           8.60944e+000           6.09436e-001           9.43551e-003           9.43551e-003           4.35514e-004
                   86.80    348.62137                               19.96297             83.281                                        3.48621e+002           4.86214e+001           8.62137e+000           6.21366e-001           2.13662e-002           1.36617e-003           3.66166e-004
                   86.90    348.63401                               19.96297             83.281                                        3.48634e+002           4.86340e+001           8.63401e+000           6.34013e-001           3.40133e-002           4.01330e-003           1.32991e-005
                   87.00    348.61804                               19.96297             83.281                                        3.48618e+002           4.86180e+001           8.61804e+000           6.18040e-001           1.80399e-002           8.03993e-003           3.99334e-005
                   87.10    348.60520                               19.96297             83.281                                        3.48605e+002           4.86052e+001           8.60520e+000           6.05200e-001           5.20047e-003           5.20047e-003           2.00469e-004
                   87.20    348.61400                               19.96297             83.281                                        3.48614e+002           4.86140e+001           8.61400e+000           6.13998e-001           1.39979e-002           3.99786e-003           9.97856e-004
                   87.30    348.63812                               19.96297             83.281                                        3.48638e+002           4.86381e+001           8.63812e+000           6.38122e-001           3.81221e-002           8.12215e-003           1.22147e-004
                   87.40    348.63962                               19.96297             83.281                                        3.48640e+002           4.86396e+001           8.63962e+000           6.39620e-001           3.96196e-002           9.61962e-003           6.19623e-004
                   87.50    348.62001                               19.96297             83.281                                        3.48620e+002           4.86200e+001           8.62001e+000           6.20014e-001           2.00143e-002           1.43025e-005           1.43025e-005
                   87.60    348.61440                               19.96297             83.281                                        3.48614e+002           4.86144e+001           8.61440e+000           6.14401e-001           1.44009e-002           4.40095e-003           4.00946e-004
                   87.70    348.63347                               19.96297             83.281                                        3.48633e+002           4.86335e+001           8.63347e+000           6.33468e-001           3.34683e-002           3.46832e-003           4.68316e-004
                   87.80    348.63342                               19.96297             83.281                                        3.48633e+002           4.86334e+001           8.63342e+000           6.33424e-001           3.34243e-002           3.42427e-003           4.24270e-004
                   87.90    348.61709                               19.96297             83.281                                        3.48617e+002           4.86171e+001           8.61709e+000           6.17089e-001           1.70894e-002           7.08939e-003           8.93903e-005
                   88.00    348.61363                               19.96297             83.281                                        3.48614e+002           4.86136e+001           8.61363e+000           6.13634e-001           1.36344e-002           3.63443e-003           6.34431e-004
                   88.10    348.62164                               19.96297             83.281                                        3.48622e+002           4.86216e+001           8.62164e+000           6.21635e-001           2.16354e-002           1.63544e-003           6.35440e-004
                   88.20    348.62922                               19.96297             83.281                                        3.48629e+002           4.86292e+001           8.62922e+000           6.29222e-001           2.92222e-002           9.22216e-003           2.22162e-004
                   88.30    348.62273                               19.96297             83.281                                        3.48623e+002           4.86227e+001           8.62273e+000           6.22730e-001           2.27298e-002           2.72978e-003           7.29784e-004
                   88.40    348.61124                               19.96297             83.281                                        3.48611e+002           4.86112e+001           8.61124e+000           6.11238e-001           1.12380e-002           1.23799e-003           2.37992e-004
                   88.50    348.62838                               19.96297             83.281                                        3.48628e+002           4.86284e+001           8.62838e+000           6.28376e-001           2.83763e-002           8.37627e-003           3.76267e-004
                   88.60    348.63416                               19.96297             83.281                                        3.48634e+002           4.86342e+001           8.63416e+000           6.34164e-001           3.41635e-002           4.16354e-003           1.63540e-004
                   88.70    348.61398                               19.96297             83.281                                        3.48614e+002           4.86140e+001           8.61398e+000           6.13980e-001           1.39799e-002           3.97990e-003           9.79901e-004
                   88.80    348.62405                               19.96297             83.281                                        3.48624e+002           4.86241e+001           8.62405e+000           6.24055e-001           2.40549e-002           4.05487e-003           5.48718e-005
