~VERSION INFORMATION
VERS                    .            2.0                                    :CWLS LOG ASCII STANDARD
WRAP                    .            NO                                     :ONE LINE PER TIME STEP


~WELL INFORMATION
#MNEM                   .UNIT        DATA                                    DESCRIPTION
#________________________________________________________________________________________
STRTTIME                .HH/MM/SS    10:02:47                               :START TIME
STOPTIME                .HH/MM/SS    10:07:04                               :STOP TIME
STRT                    .s           2.10                                   :START DATA
STOP                    .s           255.20                                 :STOP DATA
STEP                    .s           0.10                                   :MEASUREMENT TIME INTERVAL
NULL                    .            -999.25                                :NULL VALUE
COMP                    .            Statoil ASA                            :COMPANY
FLD                     .            Volve                                  :FIELD
WELL                    .            15/9-F-11 A                            :WELL
RUN                     .            8                                      :RUN
LOC                     .            Maersk Inspirer                        :LOCATION
PROV                    .            na                                     :PROVINCE
SRVC                    .            Baker Hughes INTEQ                     :SERVICE COMPANY
DATE                    .YY/MM/DD    13/05/21                               :LOG DATE
UWI                     .                                                   :UNIQUE WELL ID
DEPTHMD                 .m           3657.3                                 :MEASURED DEPTH
DEPTHTVD                .m           3046.2                                 :TRUE VERTICAL DEPTH


~CURVE INFORMATION
#MNEM                   .UNIT        API CODES                               DESCRIPTION
#________________________________________________________________________________________
TIME                    .s                                                  :01 TIME
DD_PRESS                .bar                                                :02 DRAW DOWN PRESSURE
DD_VOLUME               .cm3                                                :03 INCREMENTAL DRAW DOWN VOLUME
TEMP                    .degC                                               :04 TRANSDUCER TEMPERATURE
DD_PRESS_MOD_1000       .bar                                                :05 DRAW DOWN PRESSURE MOD 1000
DD_PRESS_MOD_100        .bar                                                :06 DRAW DOWN PRESSURE MOD 100
DD_PRESS_MOD_10         .bar                                                :07 DRAW DOWN PRESSURE MOD 10
DD_PRESS_MOD_1          .bar                                                :08 DRAW DOWN PRESSURE MOD 1
DD_PRESS_MOD_01         .bar                                                :09 DRAW DOWN PRESSURE MOD 01
DD_PRESS_MOD_001        .bar                                                :10 DRAW DOWN PRESSURE MOD 001
DD_PRESS_MOD_0001       .bar                                                :11 DRAW DOWN PRESSURE MOD 0001


~PARAMETER INFORMATION
#MNEM                   .UNIT        VALUE                                   DESCRIPTION
#________________________________________________________________________________________
TOOLFACE                .deg         60.1                                   :01 TOOLFACE
PUMP_CAPACITY           .bar         400                                    :02 NOMINAL DRAW DOWN PUMP CAPACITY
PUMP_LIMIT              .bar         240                                    :03 DOWNLINK PUMP LIMIT
TIME_LIMIT              .min         10                                     :04 DOWNLINK MAX TIME
TEST_TYPE               .            REPEAT                                 :05 DOWNLINK
TEST_TYPE               .            HIGH MOBILITY                          :06 DOWNLINK
DD_PIST_A               .cm2         3.1416                                 :07 DRAW DOWN PISTON AREA
V_SYS                   .cm3         131.0000                               :08 SYSTEM VOLUME
PROBE_ID                .cm          1.2700                                 :09 TTK PROBE ID
G0                      .            4.6700                                 :10 GEOMETRY FACTOR


~A                  TIME     DD_PRESS                              DD_VOLUME               TEMP                                   DD_PRESS_MOD_1000       DD_PRESS_MOD_100        DD_PRESS_MOD_10         DD_PRESS_MOD_1        DD_PRESS_MOD_01       DD_PRESS_MOD_001      DD_PRESS_MOD_0001
# ...
                  251.30    420.06651                                0.00000             82.133                                        4.20067e+002           2.00665e+001           6.65125e-002           6.65125e-002           6.65125e-002           6.51249e-003           5.12488e-004
                  251.40    420.08237                                0.00000             82.133                                        4.20082e+002           2.00824e+001           8.23704e-002           8.23704e-002           8.23704e-002           2.37038e-003           3.70380e-004
                  251.50    420.08198                                0.00000             82.133                                        4.20082e+002           2.00820e+001           8.19769e-002           8.19769e-002           8.19769e-002           1.97692e-003           9.76919e-004
                  251.60    420.08318                                0.00000             82.133                                        4.20083e+002           2.00832e+001           8.31794e-002           8.31794e-002           8.31794e-002           3.17942e-003           1.79415e-004
                  251.70    420.08663                                0.00000             82.133                                        4.20087e+002           2.00866e+001           8.66253e-002           8.66253e-002           8.66253e-002           6.62531e-003           6.25307e-004
                  251.80    420.08712                                0.00000             82.133                                        4.20087e+002           2.00871e+001           8.71225e-002           8.71225e-002           8.71225e-002           7.12248e-003           1.22483e-004
                  251.90    420.07768                                0.00000             82.133                                        4.20078e+002           2.00777e+001           7.76844e-002           7.76844e-002           7.76844e-002           7.68439e-003           6.84388e-004
                  252.00    420.07595                                0.00000             82.133                                        4.20076e+002           2.00760e+001           7.59527e-002           7.59527e-002           7.59527e-002           5.95269e-003           9.52693e-004
                  252.10    420.07549                                0.00000             82.133                                        4.20075e+002           2.00755e+001           7.54933e-002           7.54933e-002           7.54933e-002           5.49330e-003           4.93301e-004
                  252.20    420.08259                                0.00000             82.133                                        4.20083e+002           2.00826e+001           8.25895e-002           8.25895e-002           8.25895e-002           2.58946e-003           5.89456e-004
                  252.30    420.08537                                0.00000             82.133                                        4.20085e+002           2.00854e+001           8.53748e-002           8.53748e-002           8.53748e-002           5.37476e-003           3.74759e-004
                  252.40    420.08654                                0.00000             82.133                                        4.20087e+002           2.00865e+001           8.65425e-002           8.65425e-002           8.65425e-002           6.54248e-003           5.42476e-004
                  252.50    420.08898                                0.00000             82.133                                        4.20089e+002           2.00890e+001           8.89832e-002           8.89832e-002           8.89832e-002           8.98323e-003           9.83232e-004
                  252.60    420.09604                                0.00000             82.133                                        4.20096e+002           2.00960e+001           9.60351e-002           9.60351e-002           9.60351e-002           6.03511e-003           3.51081e-005
                  252.70    420.09874                                0.00000             82.133                                        4.20099e+002           2.00987e+001           9.87413e-002           9.87413e-002           9.87413e-002           8.74125e-003           7.41251e-004
                  252.80    420.08858                                0.00000             82.133                                        4.20089e+002           2.00886e+001           8.85781e-002           8.85781e-002           8.85781e-002           8.57807e-003           5.78069e-004
                  252.90    420.06546                                0.00000             82.133                                        4.20065e+002           2.00655e+001           6.54599e-002           6.54599e-002           6.54599e-002           5.45992e-003           4.59923e-004
                  253.00    420.05543                                0.00000             82.133                                        4.20055e+002           2.00554e+001           5.54318e-002           5.54318e-002           5.54318e-002           5.43184e-003           4.31842e-004
                  253.10    420.07560                                0.00000             82.133                                        4.20076e+002           2.00756e+001           7.55966e-002           7.55966e-002           7.55966e-002           5.59659e-003           5.96593e-004
                  253.20    420.08967                                0.00000             82.133                                        4.20090e+002           2.00897e+001           8.96717e-002           8.96717e-002           8.96717e-002           9.67166e-003           6.71655e-004
                  253.30    420.07734                                0.00000             82.133                                        4.20077e+002           2.00773e+001           7.73373e-002           7.73373e-002           7.73373e-002           7.33734e-003           3.37340e-004
                  253.40    420.05645                                0.00000             82.133                                        4.20056e+002           2.00565e+001           5.64515e-002           5.64515e-002           5.64515e-002           6.45149e-003           4.51492e-004
                  253.50    420.05828                                0.00000             82.133                                        4.20058e+002           2.00583e+001           5.82846e-002           5.82846e-002           5.82846e-002           8.28461e-003           2.84612e-004
                  253.60    420.07305                                0.00000             82.133                                        4.20073e+002           2.00731e+001           7.30503e-002           7.30503e-002           7.30503e-002           3.05026e-003           5.02641e-005
                  253.70    420.09091                                0.00000             82.133                                        4.20091e+002           2.00909e+001           9.09056e-002           9.09056e-002           9.09056e-002           9.05606e-004           9.05606e-004
                  253.80    420.09232                                0.00000             82.133                                        4.20092e+002           2.00923e+001           9.23187e-002           9.23187e-002           9.23187e-002           2.31874e-003           3.18737e-004
                  253.90    420.08569                                0.00000             82.133                                        4.20086e+002           2.00857e+001           8.56853e-002           8.56853e-002           8.56853e-002           5.68530e-003           6.85296e-004
                  254.00    420.08213                                0.00000             82.133                                        4.20082e+002           2.00821e+001           8.21288e-002           8.21288e-002           8.21288e-002           2.12880e-003           1.28801e-004
