~VERSION INFORMATION
VERS                    .            2.0                                    :CWLS LOG ASCII STANDARD
WRAP                    .            NO                                     :ONE LINE PER TIME STEP


~WELL INFORMATION
#MNEM                   .UNIT        DATA                                    DESCRIPTION
#________________________________________________________________________________________
STRTTIME                .HH/MM/SS    16:02:11                               :START TIME
STOPTIME                .HH/MM/SS    16:05:47                               :STOP TIME
STRT                    .s           2.10                                   :START DATA
STOP                    .s           214.40                                 :STOP DATA
STEP                    .s           0.10                                   :MEASUREMENT TIME INTERVAL
NULL                    .            -999.25                                :NULL VALUE
COMP                    .            Statoil ASA                            :COMPANY
FLD                     .            Volve                                  :FIELD
WELL                    .            15/9-F-1 B                             :WELL
RUN                     .            7                                      :RUN
LOC                     .            Maersk Inspirer                        :LOCATION
PROV                    .            na                                     :PROVINCE
SRVC                    .            Baker Hughes INTEQ                     :SERVICE COMPANY
DATE                    .YY/MM/DD    13/09/06                               :LOG DATE
UWI                     .                                                   :UNIQUE WELL ID
DEPTHMD                 .m           3261.0                                 :MEASURED DEPTH
DEPTHTVD                .m           3057.0                                 :TRUE VERTICAL DEPTH


~CURVE INFORMATION
#MNEM                   .UNIT        API CODES                               DESCRIPTION
#________________________________________________________________________________________
TIME                    .s                                                  :01 TIME
DD_PRESS                .bar                                                :02 DRAW DOWN PRESSURE
DD_VOLUME               .cm3                                                :03 INCREMENTAL DRAW DOWN VOLUME
TEMP                    .degC                                               :04 TRANSDUCER TEMPERATURE
DD_PRESS_MOD_1000       .bar                                                :05 DRAW DOWN PRESSURE MOD 1000
DD_PRESS_MOD_100        .bar                                                :06 DRAW DOWN PRESSURE MOD 100
DD_PRESS_MOD_10         .bar                                                :07 DRAW DOWN PRESSURE MOD 10
DD_PRESS_MOD_1          .bar                                                :08 DRAW DOWN PRESSURE MOD 1
DD_PRESS_MOD_01         .bar                                                :09 DRAW DOWN PRESSURE MOD 01
DD_PRESS_MOD_001        .bar                                                :10 DRAW DOWN PRESSURE MOD 001
DD_PRESS_MOD_0001       .bar                                                :11 DRAW DOWN PRESSURE MOD 0001


~PARAMETER INFORMATION
#MNEM                   .UNIT        VALUE                                   DESCRIPTION
#________________________________________________________________________________________
TOOLFACE                .deg         na                                     :01 TOOLFACE
PUMP_CAPACITY           .bar         400                                    :02 NOMINAL DRAW DOWN PUMP CAPACITY
PUMP_LIMIT              .bar         400                                    :03 DOWNLINK PUMP LIMIT
TIME_LIMIT              .min         10                                     :04 DOWNLINK MAX TIME
TEST_TYPE               .            LOW MOBILITY                           :05 DOWNLINK
DD_PIST_A               .cm2         3.1416                                 :06 DRAW DOWN PISTON AREA
V_SYS                   .cm3         131.0000                               :07 SYSTEM VOLUME
PROBE_ID                .cm          1.2700                                 :08 TTK PROBE ID
G0                      .            4.6700                                 :09 GEOMETRY FACTOR


~A                  TIME     DD_PRESS                              DD_VOLUME               TEMP                                   DD_PRESS_MOD_1000       DD_PRESS_MOD_100        DD_PRESS_MOD_10         DD_PRESS_MOD_1        DD_PRESS_MOD_01       DD_PRESS_MOD_001      DD_PRESS_MOD_0001
# ...
                  212.10    437.46661                                0.00000             82.039                                        4.37467e+002           3.74666e+001           7.46661e+000           4.66611e-001           6.66108e-002           6.61080e-003           6.10800e-004
                  212.20    437.44829                                0.00000             82.039                                        4.37448e+002           3.74483e+001           7.44829e+000           4.48287e-001           4.82873e-002           8.28725e-003           2.87255e-004
                  212.30    437.42717                                0.00000             82.039                                        4.37427e+002           3.74272e+001           7.42717e+000           4.27172e-001           2.71720e-002           7.17199e-003           1.71994e-004
                  212.40    437.43252                                0.00000             82.039                                        4.37433e+002           3.74325e+001           7.43252e+000           4.32523e-001           3.25229e-002           2.52286e-003           5.22864e-004
                  212.50    437.45331                                0.00000             82.039                                        4.37453e+002           3.74533e+001           7.45331e+000           4.53308e-001           5.33081e-002           3.30814e-003           3.08138e-004
                  212.60    437.42903                                0.00000             82.039                                        4.37429e+002           3.74290e+001           7.42903e+000           4.29029e-001           2.90292e-002           9.02917e-003           2.91678e-005
                  212.70    437.41454                                0.00000             82.039                                        4.37415e+002           3.74145e+001           7.41454e+000           4.14544e-001           1.45439e-002           4.54394e-003           5.43944e-004
                  212.80    437.43017                                0.00000             82.039                                        4.37430e+002           3.74302e+001           7.43017e+000           4.30171e-001           3.01706e-002           1.70611e-004           1.70611e-004
                  212.90    437.45419                                0.00000             82.039                                        4.37454e+002           3.74542e+001           7.45419e+000           4.54192e-001           5.41922e-002           4.19224e-003           1.92235e-004
                  213.00    437.43268                                0.00000             82.039                                        4.37433e+002           3.74327e+001           7.43268e+000           4.32683e-001           3.26829e-002           2.68295e-003           6.82947e-004
                  213.10    437.41641                                0.00000             82.039                                        4.37416e+002           3.74164e+001           7.41641e+000           4.16410e-001           1.64104e-002           6.41037e-003           4.10368e-004
                  213.20    437.43048                                0.00000             82.039                                        4.37430e+002           3.74305e+001           7.43048e+000           4.30478e-001           3.04784e-002           4.78421e-004           4.78421e-004
                  213.30    437.45245                                0.00000             82.039                                        4.37452e+002           3.74524e+001           7.45245e+000           4.52448e-001           5.24477e-002           2.44769e-003           4.47692e-004
                  213.40    437.43948                                0.00000             82.039                                        4.37439e+002           3.74395e+001           7.43948e+000           4.39478e-001           3.94783e-002           9.47827e-003           4.78271e-004
                  213.50    437.42782                                0.00000             82.039                                        4.37428e+002           3.74278e+001           7.42782e+000           4.27817e-001           2.78173e-002           7.81725e-003           8.17252e-004
                  213.60    437.44000                                0.00000             82.039                                        4.37440e+002           3.74400e+001           7.44000e+000           4.39997e-001           3.99972e-002           9.99720e-003           9.97199e-004
                  213.70    437.45653                                0.00000             82.039                                        4.37457e+002           3.74565e+001           7.45653e+000           4.56526e-001           5.65262e-002           6.52620e-003           5.26196e-004
                  213.80    437.44351                                0.00000             82.039                                        4.37444e+002           3.74435e+001           7.44351e+000           4.43508e-001           4.35077e-002           3.50774e-003           5.07740e-004
                  213.90    437.42393                                0.00000             82.039                                        4.37424e+002           3.74239e+001           7.42393e+000           4.23925e-001           2.39251e-002           3.92515e-003           9.25145e-004
                  214.00    437.43064                                0.00000             82.039                                        4.37431e+002           3.74306e+001           7.43064e+000           4.30642e-001           3.06423e-002           6.42264e-004           6.42264e-004
                  214.10    437.45579                                0.00000             82.039                                        4.37456e+002           3.74558e+001           7.45579e+000           4.55790e-001           5.57899e-002           5.78988e-003           7.89881e-004
                  214.20    437.45018                                0.00000             82.039                                        4.37450e+002           3.74502e+001           7.45018e+000           4.50181e-001           5.01813e-002           1.81279e-004           1.81279e-004
                  214.30    437.43074                                0.00000             82.039                                        4.37431e+002           3.74307e+001           7.43074e+000           4.30736e-001           3.07362e-002           7.36183e-004           7.36183e-004
                  214.40    437.43458                                0.00000             82.039                                        4.37435e+002           3.74346e+001           7.43458e+000           4.34576e-001           3.45762e-002           4.57619e-003           5.76186e-004
