~VERSION INFORMATION
VERS                    .            2.0                                    :CWLS LOG ASCII STANDARD
WRAP                    .            NO                                     :ONE LINE PER TIME STEP


~WELL INFORMATION
#MNEM                   .UNIT        DATA                                    DESCRIPTION
#________________________________________________________________________________________
STRTTIME                .HH/MM/SS    02:42:03                               :START TIME
STOPTIME                .HH/MM/SS    02:44:56                               :STOP TIME
STRT                    .s           2.10                                   :START DATA
STOP                    .s           171.40                                 :STOP DATA
STEP                    .s           0.10                                   :MEASUREMENT TIME INTERVAL
NULL                    .            -999.25                                :NULL VALUE
COMP                    .            Statoil ASA                            :COMPANY
FLD                     .            Volve                                  :FIELD
WELL                    .            15/9-F-1 C                             :WELL
RUN                     .            4                                      :RUN
LOC                     .                                                   :LOCATION
PROV                    .            na                                     :PROVINCE
SRVC                    .            Baker Hughes INTEQ                     :SERVICE COMPANY
DATE                    .YY/MM/DD    14/03/15                               :LOG DATE
UWI                     .                                                   :UNIQUE WELL ID
DEPTHMD                 .m           3551.1                                 :MEASURED DEPTH
DEPTHTVD                .m           2992.9                                 :TRUE VERTICAL DEPTH


~CURVE INFORMATION
#MNEM                   .UNIT        API CODES                               DESCRIPTION
#________________________________________________________________________________________
TIME                    .s                                                  :01 TIME
DD_PRESS                .bar                                                :02 DRAW DOWN PRESSURE
DD_VOLUME               .cm3                                                :03 INCREMENTAL DRAW DOWN VOLUME
TEMP                    .degC                                               :04 TRANSDUCER TEMPERATURE
DD_PRESS_MOD_1000       .bar                                                :05 DRAW DOWN PRESSURE MOD 1000
DD_PRESS_MOD_100        .bar                                                :06 DRAW DOWN PRESSURE MOD 100
DD_PRESS_MOD_10         .bar                                                :07 DRAW DOWN PRESSURE MOD 10
DD_PRESS_MOD_1          .bar                                                :08 DRAW DOWN PRESSURE MOD 1
DD_PRESS_MOD_01         .bar                                                :09 DRAW DOWN PRESSURE MOD 01
DD_PRESS_MOD_001        .bar                                                :10 DRAW DOWN PRESSURE MOD 001
DD_PRESS_MOD_0001       .bar                                                :11 DRAW DOWN PRESSURE MOD 0001


~PARAMETER INFORMATION
#MNEM                   .UNIT        VALUE                                   DESCRIPTION
#________________________________________________________________________________________
TOOLFACE                .deg         84.6                                   :01 TOOLFACE
PUMP_CAPACITY           .bar         400                                    :02 NOMINAL DRAW DOWN PUMP CAPACITY
PUMP_LIMIT              .bar         240                                    :03 DOWNLINK PUMP LIMIT
TIME_LIMIT              .min         10                                     :04 DOWNLINK MAX TIME
TEST_TYPE               .            REPEAT                                 :05 DOWNLINK
TEST_TYPE               .            HIGH MOBILITY                          :06 DOWNLINK
DD_PIST_A               .cm2         3.1416                                 :07 DRAW DOWN PISTON AREA
V_SYS                   .cm3         131.0000                               :08 SYSTEM VOLUME
PROBE_ID                .cm          1.2700                                 :09 TTK PROBE ID
G0                      .            4.6700                                 :10 GEOMETRY FACTOR


~A                  TIME     DD_PRESS                              DD_VOLUME               TEMP                                   DD_PRESS_MOD_1000       DD_PRESS_MOD_100        DD_PRESS_MOD_10         DD_PRESS_MOD_1        DD_PRESS_MOD_01       DD_PRESS_MOD_001      DD_PRESS_MOD_0001
# ...
                   24.50    422.82012                                0.00000             85.211                                        4.22820e+002           2.28201e+001           2.82012e+000           8.20123e-001           2.01227e-002           1.22666e-004           1.22666e-004
                   24.60    422.81542                                0.00000             85.211                                        4.22815e+002           2.28154e+001           2.81542e+000           8.15419e-001           1.54185e-002           5.41854e-003           4.18538e-004
                   24.70    422.82000                                1.03895             85.211                                        4.22820e+002           2.28200e+001           2.82000e+000           8.19997e-001           1.99968e-002           9.99683e-003           9.96828e-004
                   24.80    422.82531                                1.03944             85.211                                        4.22825e+002           2.28253e+001           2.82531e+000           8.25309e-001           2.53093e-002           5.30928e-003           3.09281e-004
                   24.90    422.79758                                1.04055             85.211                                        4.22798e+002           2.27976e+001           2.79758e+000           7.97582e-001           9.75825e-002           7.58249e-003           5.82488e-004
                   25.00    422.69416                                1.04339             85.211                                        4.22694e+002           2.26942e+001           2.69416e+000           6.94162e-001           9.41618e-002           4.16179e-003           1.61793e-004
                   25.10    422.47512                                1.04824             85.211                                        4.22475e+002           2.24751e+001           2.47512e+000           4.75123e-001           7.51231e-002           5.12312e-003           1.23119e-004
                   25.20    422.11235                                1.05511             85.211                                        4.22112e+002           2.21123e+001           2.11235e+000           1.12349e-001           1.23490e-002           2.34895e-003           3.48953e-004
                   25.30    421.60201                                1.06398             85.211                                        4.21602e+002           2.16020e+001           1.60201e+000           6.02013e-001           2.01336e-003           2.01336e-003           1.33634e-005
                   25.40    420.97369                                1.07481             85.211                                        4.20974e+002           2.09737e+001           9.73688e-001           9.73688e-001           7.36884e-002           3.68840e-003           6.88402e-004
                   25.50    420.23663                                1.08756             85.211                                        4.20237e+002           2.02366e+001           2.36633e-001           2.36633e-001           3.66333e-002           6.63328e-003           6.33281e-004
                   25.60    419.37914                                1.10221             85.211                                        4.19379e+002           1.93791e+001           9.37914e+000           3.79143e-001           7.91430e-002           9.14301e-003           1.43012e-004
                   25.70    418.39022                                1.11891             85.211                                        4.18390e+002           1.83902e+001           8.39022e+000           3.90223e-001           9.02227e-002           2.22684e-004           2.22684e-004
                   25.80    417.27114                                1.13751             85.211                                        4.17271e+002           1.72711e+001           7.27114e+000           2.71137e-001           7.11369e-002           1.13689e-003           1.36886e-004
                   25.90    416.03511                                1.15807             85.211                                        4.16035e+002           1.60351e+001           6.03511e+000           3.51145e-002           3.51145e-002           5.11446e-003           1.14463e-004
                   26.00    414.68901                                1.18068             85.211                                        4.14689e+002           1.46890e+001           4.68901e+000           6.89013e-001           8.90134e-002           9.01338e-003           1.33792e-005
                   26.10    413.23081                                1.20520             85.211                                        4.13231e+002           1.32308e+001           3.23081e+000           2.30807e-001           3.08068e-002           8.06775e-004           8.06775e-004
                   26.20    411.64484                                1.23164             85.211                                        4.11645e+002           1.16448e+001           1.64484e+000           6.44842e-001           4.48417e-002           4.84166e-003           8.41659e-004
                   26.30    409.90619                                1.25993             85.211                                        4.09906e+002           9.90619e+000           9.90619e+000           9.06187e-001           6.18716e-003           6.18716e-003           1.87158e-004
                   26.40    408.01281                                1.29011             85.211                                        4.08013e+002           8.01281e+000           8.01281e+000           1.28096e-002           1.28096e-002           2.80959e-003           8.09588e-004
                   26.50    405.97580                                1.32212             85.211                                        4.05976e+002           5.97580e+000           5.97580e+000           9.75801e-001           7.58011e-002           5.80107e-003           8.01068e-004
                   26.60    403.79685                                1.35603             85.211                                        4.03797e+002           3.79685e+000           3.79685e+000           7.96851e-001           9.68506e-002           6.85063e-003           8.50632e-004
                   26.70    401.47765                                1.39182             85.211                                        4.01478e+002           1.47765e+000           1.47765e+000           4.77653e-001           7.76528e-002           7.65282e-003           6.52816e-004
                   26.80    399.01566                                1.42954             85.211                                        3.99016e+002           9.90157e+001           9.01566e+000           1.56619e-002           1.56619e-002           5.66185e-003           6.61851e-004
                   26.90    396.41520                                1.46911             85.211                                        3.96415e+002           9.64152e+001           6.41520e+000           4.15198e-001           1.51981e-002           5.19811e-003           1.98109e-004
                   27.00    393.68007                                1.51041             85.211                                        3.93680e+002           9.36801e+001           3.68007e+000           6.80072e-001           8.00721e-002           7.21463e-005           7.21463e-005
                   27.10    390.81714                                1.55350             85.211                                        3.90817e+002           9.08171e+001           8.17144e-001           8.17144e-001           1.71442e-002           7.14420e-003           1.44202e-004
                   27.20    387.82342                                1.59843             85.211                                        3.87823e+002           8.78234e+001           7.82342e+000           8.23420e-001           2.34197e-002           3.41971e-003           4.19711e-004
