~VERSION INFORMATION
VERS                    .            2.0                                    :CWLS LOG ASCII STANDARD
WRAP                    .            NO                                     :ONE LINE PER TIME STEP


~WELL INFORMATION
#MNEM                   .UNIT        DATA                                    DESCRIPTION
#________________________________________________________________________________________
STRTTIME                .HH/MM/SS    08:31:17                               :START TIME
STOPTIME                .HH/MM/SS    08:34:03                               :STOP TIME
STRT                    .s           2.10                                   :START DATA
STOP                    .s           164.70                                 :STOP DATA
STEP                    .s           0.10                                   :MEASUREMENT TIME INTERVAL
NULL                    .            -999.25                                :NULL VALUE
COMP                    .            Statoil ASA                            :COMPANY
FLD                     .            Volve                                  :FIELD
WELL                    .            15/9-F-11 A                            :WELL
RUN                     .            8                                      :RUN
LOC                     .            Maersk Inspirer                        :LOCATION
PROV                    .            na                                     :PROVINCE
SRVC                    .            Baker Hughes INTEQ                     :SERVICE COMPANY
DATE                    .YY/MM/DD    13/05/21                               :LOG DATE
UWI                     .                                                   :UNIQUE WELL ID
DEPTHMD                 .m           3688.1                                 :MEASURED DEPTH
DEPTHTVD                .m           3069.8                                 :TRUE VERTICAL DEPTH


~CURVE INFORMATION
#MNEM                   .UNIT        API CODES                               DESCRIPTION
#________________________________________________________________________________________
TIME                    .s                                                  :01 TIME
DD_PRESS                .bar                                                :02 DRAW DOWN PRESSURE
DD_VOLUME               .cm3                                                :03 INCREMENTAL DRAW DOWN VOLUME
TEMP                    .degC                                               :04 TRANSDUCER TEMPERATURE
DD_PRESS_MOD_1000       .bar                                                :05 DRAW DOWN PRESSURE MOD 1000
DD_PRESS_MOD_100        .bar                                                :06 DRAW DOWN PRESSURE MOD 100
DD_PRESS_MOD_10         .bar                                                :07 DRAW DOWN PRESSURE MOD 10
DD_PRESS_MOD_1          .bar                                                :08 DRAW DOWN PRESSURE MOD 1
DD_PRESS_MOD_01         .bar                                                :09 DRAW DOWN PRESSURE MOD 01
DD_PRESS_MOD_001        .bar                                                :10 DRAW DOWN PRESSURE MOD 001
DD_PRESS_MOD_0001       .bar                                                :11 DRAW DOWN PRESSURE MOD 0001


~PARAMETER INFORMATION
#MNEM                   .UNIT        VALUE                                   DESCRIPTION
#________________________________________________________________________________________
TOOLFACE                .deg         -78.9                                  :01 TOOLFACE
PUMP_CAPACITY           .bar         400                                    :02 NOMINAL DRAW DOWN PUMP CAPACITY
PUMP_LIMIT              .bar         240                                    :03 DOWNLINK PUMP LIMIT
TIME_LIMIT              .min         10                                     :04 DOWNLINK MAX TIME
TEST_TYPE               .            REPEAT                                 :05 DOWNLINK
TEST_TYPE               .            HIGH MOBILITY                          :06 DOWNLINK
DD_PIST_A               .cm2         3.1416                                 :07 DRAW DOWN PISTON AREA
V_SYS                   .cm3         131.0000                               :08 SYSTEM VOLUME
PROBE_ID                .cm          1.2700                                 :09 TTK PROBE ID
G0                      .            4.6700                                 :10 GEOMETRY FACTOR


~A                  TIME     DD_PRESS                              DD_VOLUME               TEMP                                   DD_PRESS_MOD_1000       DD_PRESS_MOD_100        DD_PRESS_MOD_10         DD_PRESS_MOD_1        DD_PRESS_MOD_01       DD_PRESS_MOD_001      DD_PRESS_MOD_0001
# ...
                  161.70    424.83330                                0.00000             83.266                                        4.24833e+002           2.48333e+001           4.83330e+000           8.33299e-001           3.32988e-002           3.29877e-003           2.98775e-004
                  161.80    424.82878                                0.00000             83.266                                        4.24829e+002           2.48288e+001           4.82878e+000           8.28778e-001           2.87783e-002           8.77828e-003           7.78277e-004
                  161.90    424.82771                                0.00000             83.266                                        4.24828e+002           2.48277e+001           4.82771e+000           8.27713e-001           2.77126e-002           7.71255e-003           7.12552e-004
                  162.00    424.84225                                0.00000             83.266                                        4.24842e+002           2.48423e+001           4.84225e+000           8.42254e-001           4.22536e-002           2.25355e-003           2.53553e-004
                  162.10    424.84821                                0.00000             83.266                                        4.24848e+002           2.48482e+001           4.84821e+000           8.48208e-001           4.82077e-002           8.20775e-003           2.07747e-004
                  162.20    424.85794                                0.00000             83.266                                        4.24858e+002           2.48579e+001           4.85794e+000           8.57943e-001           5.79427e-002           7.94272e-003           9.42722e-004
                  162.30    424.85480                                0.00000             83.266                                        4.24855e+002           2.48548e+001           4.85480e+000           8.54796e-001           5.47962e-002           4.79624e-003           7.96238e-004
                  162.40    424.84987                                0.00000             83.266                                        4.24850e+002           2.48499e+001           4.84987e+000           8.49871e-001           4.98715e-002           9.87149e-003           8.71485e-004
                  162.50    424.85277                                0.00000             83.266                                        4.24853e+002           2.48528e+001           4.85277e+000           8.52774e-001           5.27743e-002           2.77428e-003           7.74275e-004
                  162.60    424.85898                                0.00000             83.266                                        4.24859e+002           2.48590e+001           4.85898e+000           8.58977e-001           5.89775e-002           8.97750e-003           9.77496e-004
                  162.70    424.84011                                0.00000             83.266                                        4.24840e+002           2.48401e+001           4.84011e+000           8.40113e-001           4.01132e-002           1.13170e-004           1.13170e-004
                  162.80    424.82950                                0.00000             83.266                                        4.24830e+002           2.48295e+001           4.82950e+000           8.29502e-001           2.95017e-002           9.50170e-003           5.01700e-004
                  162.90    424.83358                                0.00000             83.266                                        4.24834e+002           2.48336e+001           4.83358e+000           8.33581e-001           3.35808e-002           3.58076e-003           5.80761e-004
                  163.00    424.85101                                0.00000             83.266                                        4.24851e+002           2.48510e+001           4.85101e+000           8.51006e-001           5.10059e-002           1.00587e-003           5.86582e-006
                  163.10    424.84649                                0.00000             83.266                                        4.24846e+002           2.48465e+001           4.84649e+000           8.46487e-001           4.64873e-002           6.48735e-003           4.87347e-004
                  163.20    424.84124                                0.00000             83.266                                        4.24841e+002           2.48412e+001           4.84124e+000           8.41242e-001           4.12421e-002           1.24215e-003           2.42148e-004
                  163.30    424.85908                                0.00000             83.266                                        4.24859e+002           2.48591e+001           4.85908e+000           8.59083e-001           5.90828e-002           9.08282e-003           8.28182e-005
                  163.40    424.87842                                0.00000             83.266                                        4.24878e+002           2.48784e+001           4.87842e+000           8.78423e-001           7.84234e-002           8.42344e-003           4.23435e-004
                  163.50    424.86942                                0.00000             83.266                                        4.24869e+002           2.48694e+001           4.86942e+000           8.69419e-001           6.94188e-002           9.41881e-003           4.18809e-004
                  163.60    424.85835                                0.00000             83.266                                        4.24858e+002           2.48583e+001           4.85835e+000           8.58345e-001           5.83452e-002           8.34518e-003           3.45179e-004
                  163.70    424.85618                                0.00000             83.266                                        4.24856e+002           2.48562e+001           4.85618e+000           8.56180e-001           5.61801e-002           6.18011e-003           1.80113e-004
                  163.80    424.85621                                0.00000             83.266                                        4.24856e+002           2.48562e+001           4.85621e+000           8.56208e-001           5.62075e-002           6.20755e-003           2.07547e-004
                  163.90    424.85753                                0.00000             83.266                                        4.24858e+002           2.48575e+001           4.85753e+000           8.57527e-001           5.75273e-002           7.52733e-003           5.27325e-004
                  164.00    424.86371                                0.00000             83.266                                        4.24864e+002           2.48637e+001           4.86371e+000           8.63709e-001           6.37086e-002           3.70864e-003           7.08638e-004
                  164.10    424.87244                                0.00000             83.266                                        4.24872e+002           2.48724e+001           4.87244e+000           8.72445e-001           7.24447e-002           2.44472e-003           4.44722e-004
                  164.20    424.86442                                0.00000             83.266                                        4.24864e+002           2.48644e+001           4.86442e+000           8.64416e-001           6.44164e-002           4.41643e-003           4.16430e-004
                  164.30    424.84863                                0.00000             83.266                                        4.24849e+002           2.48486e+001           4.84863e+000           8.48629e-001           4.86294e-002           8.62936e-003           6.29358e-004
                  164.40    424.84362                                0.00000             83.266                                        4.24844e+002           2.48436e+001           4.84362e+000           8.43616e-001           4.36159e-002           3.61592e-003           6.15921e-004
