~VERSION INFORMATION
VERS                    .            2.0                                    :CWLS LOG ASCII STANDARD
WRAP                    .            NO                                     :ONE LINE PER TIME STEP


~WELL INFORMATION
#MNEM                   .UNIT        DATA                                    DESCRIPTION
#________________________________________________________________________________________
STRTTIME                .HH/MM/SS    01:44:52                               :START TIME
STOPTIME                .HH/MM/SS    01:47:47                               :STOP TIME
STRT                    .s           2.10                                   :START DATA
STOP                    .s           173.40                                 :STOP DATA
STEP                    .s           0.10                                   :MEASUREMENT TIME INTERVAL
NULL                    .            -999.25                                :NULL VALUE
COMP                    .            Statoil ASA                            :COMPANY
FLD                     .            Volve                                  :FIELD
WELL                    .            15/9-F-1 C                             :WELL
RUN                     .            4                                      :RUN
LOC                     .                                                   :LOCATION
PROV                    .            na                                     :PROVINCE
SRVC                    .            Baker Hughes INTEQ                     :SERVICE COMPANY
DATE                    .YY/MM/DD    14/03/15                               :LOG DATE
UWI                     .                                                   :UNIQUE WELL ID
DEPTHMD                 .m           3620.2                                 :MEASURED DEPTH
DEPTHTVD                .m           3012.3                                 :TRUE VERTICAL DEPTH


~CURVE INFORMATION
#MNEM                   .UNIT        API CODES                               DESCRIPTION
#________________________________________________________________________________________
TIME                    .s                                                  :01 TIME
DD_PRESS                .bar                                                :02 DRAW DOWN PRESSURE
DD_VOLUME               .cm3                                                :03 INCREMENTAL DRAW DOWN VOLUME
TEMP                    .degC                                               :04 TRANSDUCER TEMPERATURE
DD_PRESS_MOD_1000       .bar                                                :05 DRAW DOWN PRESSURE MOD 1000
DD_PRESS_MOD_100        .bar                                                :06 DRAW DOWN PRESSURE MOD 100
DD_PRESS_MOD_10         .bar                                                :07 DRAW DOWN PRESSURE MOD 10
DD_PRESS_MOD_1          .bar                                                :08 DRAW DOWN PRESSURE MOD 1
DD_PRESS_MOD_01         .bar                                                :09 DRAW DOWN PRESSURE MOD 01
DD_PRESS_MOD_001        .bar                                                :10 DRAW DOWN PRESSURE MOD 001
DD_PRESS_MOD_0001       .bar                                                :11 DRAW DOWN PRESSURE MOD 0001


~PARAMETER INFORMATION
#MNEM                   .UNIT        VALUE                                   DESCRIPTION
#________________________________________________________________________________________
TOOLFACE                .deg         108.7                                  :01 TOOLFACE
PUMP_CAPACITY           .bar         400                                    :02 NOMINAL DRAW DOWN PUMP CAPACITY
PUMP_LIMIT              .bar         240                                    :03 DOWNLINK PUMP LIMIT
TIME_LIMIT              .min         10                                     :04 DOWNLINK MAX TIME
TEST_TYPE               .            REPEAT                                 :05 DOWNLINK
TEST_TYPE               .            HIGH MOBILITY                          :06 DOWNLINK
DD_PIST_A               .cm2         3.1416                                 :07 DRAW DOWN PISTON AREA
V_SYS                   .cm3         131.0000                               :08 SYSTEM VOLUME
PROBE_ID                .cm          1.2700                                 :09 TTK PROBE ID
G0                      .            4.6700                                 :10 GEOMETRY FACTOR


~A                  TIME     DD_PRESS                              DD_VOLUME               TEMP                                   DD_PRESS_MOD_1000       DD_PRESS_MOD_100        DD_PRESS_MOD_10         DD_PRESS_MOD_1        DD_PRESS_MOD_01       DD_PRESS_MOD_001      DD_PRESS_MOD_0001
# ...
                   13.30    428.67694                                0.00000             87.231                                        4.28677e+002           2.86769e+001           8.67694e+000           6.76940e-001           7.69400e-002           6.93998e-003           9.39985e-004
                   13.40    428.67153                                0.00000             87.232                                        4.28672e+002           2.86715e+001           8.67153e+000           6.71534e-001           7.15340e-002           1.53396e-003           5.33965e-004
                   13.50    428.66036                                0.00000             87.234                                        4.28660e+002           2.86604e+001           8.66036e+000           6.60364e-001           6.03635e-002           3.63536e-004           3.63536e-004
                   13.60    428.66740                                0.00000             87.234                                        4.28667e+002           2.86674e+001           8.66740e+000           6.67397e-001           6.73975e-002           7.39748e-003           3.97477e-004
                   13.70    428.68358                                0.00000             87.232                                        4.28684e+002           2.86836e+001           8.68358e+000           6.83579e-001           8.35791e-002           3.57907e-003           5.79073e-004
                   13.80    428.68723                                0.00000             87.229                                        4.28687e+002           2.86872e+001           8.68723e+000           6.87231e-001           8.72311e-002           7.23114e-003           2.31135e-004
                   13.90    428.66006                                0.00000             87.227                                        4.28660e+002           2.86601e+001           8.66006e+000           6.60060e-001           6.00601e-002           6.00957e-005           6.00957e-005
                   14.00    428.64668                                0.00000             87.227                                        4.28647e+002           2.86467e+001           8.64668e+000           6.46684e-001           4.66840e-002           6.68403e-003           6.84032e-004
                   14.10    428.66960                                0.00000             87.227                                        4.28670e+002           2.86696e+001           8.66960e+000           6.69603e-001           6.96027e-002           9.60272e-003           6.02717e-004
                   14.20    428.69090                                0.00000             87.227                                        4.28691e+002           2.86909e+001           8.69090e+000           6.90903e-001           9.09027e-002           9.02656e-004           9.02656e-004
                   14.30    428.67752                                0.00000             87.227                                        4.28678e+002           2.86775e+001           8.67752e+000           6.77516e-001           7.75162e-002           7.51615e-003           5.16151e-004
                   14.40    428.65422                                0.00000             87.227                                        4.28654e+002           2.86542e+001           8.65422e+000           6.54223e-001           5.42226e-002           4.22258e-003           2.22584e-004
                   14.50    428.65387                                0.00000             87.227                                        4.28654e+002           2.86539e+001           8.65387e+000           6.53871e-001           5.38708e-002           3.87082e-003           8.70823e-004
                   14.60    428.67375                                0.00000             87.227                                        4.28674e+002           2.86738e+001           8.67375e+000           6.73752e-001           7.37524e-002           3.75245e-003           7.52449e-004
                   14.70    428.68324                                0.00000             87.227                                        4.28683e+002           2.86832e+001           8.68324e+000           6.83241e-001           8.32409e-002           3.24089e-003           2.40891e-004
                   14.80    428.66978                                0.00000             87.227                                        4.28670e+002           2.86698e+001           8.66978e+000           6.69776e-001           6.97761e-002           9.77608e-003           7.76077e-004
                   14.90    428.66735                                0.00000             87.227                                        4.28667e+002           2.86674e+001           8.66735e+000           6.67351e-001           6.73506e-002           7.35059e-003           3.50586e-004
                   15.00    428.68080                                0.00000             87.227                                        4.28681e+002           2.86808e+001           8.68080e+000           6.80800e-001           8.08004e-002           8.00384e-004           8.00384e-004
                   15.10    428.69697                                0.00000             87.227                                        4.28697e+002           2.86970e+001           8.69697e+000           6.96969e-001           9.69688e-002           6.96876e-003           9.68761e-004
                   15.20    428.70313                                0.00000             87.227                                        4.28703e+002           2.87031e+001           8.70313e+000           7.03129e-001           3.12937e-003           3.12937e-003           1.29366e-004
                   15.30    428.70027                                0.00000             87.227                                        4.28700e+002           2.87003e+001           8.70027e+000           7.00268e-001           2.67876e-004           2.67876e-004           2.67876e-004
                   15.40    428.69698                                0.00000             87.227                                        4.28697e+002           2.86970e+001           8.69698e+000           6.96977e-001           9.69767e-002           6.97670e-003           9.76701e-004
                   15.50    428.70460                                0.00000             87.227                                        4.28705e+002           2.87046e+001           8.70460e+000           7.04603e-001           4.60263e-003           4.60263e-003           6.02633e-004
                   15.60    428.71748                                0.00000             87.227                                        4.28717e+002           2.87175e+001           8.71748e+000           7.17481e-001           1.74806e-002           7.48060e-003           4.80603e-004
                   15.70    428.70801                                0.00000             87.227                                        4.28708e+002           2.87080e+001           8.70801e+000           7.08013e-001           8.01259e-003           8.01259e-003           1.25872e-005
                   15.80    428.70472                                0.00000             87.227                                        4.28705e+002           2.87047e+001           8.70472e+000           7.04720e-001           4.71996e-003           4.71996e-003           7.19959e-004
                   15.90    428.71682                                0.00000             87.227                                        4.28717e+002           2.87168e+001           8.71682e+000           7.16824e-001           1.68239e-002           6.82393e-003           8.23927e-004
                   16.00    428.71329                                0.00000             87.227                                        4.28713e+002           2.87133e+001           8.71329e+000           7.13294e-001           1.32942e-002           3.29415e-003           2.94153e-004
