~VERSION INFORMATION
VERS                    .            2.0                                    :CWLS LOG ASCII STANDARD
WRAP                    .            NO                                     :ONE LINE PER TIME STEP


~WELL INFORMATION
#MNEM                   .UNIT        DATA                                    DESCRIPTION
#________________________________________________________________________________________
STRTTIME                .HH/MM/SS    02:14:19                               :START TIME
STOPTIME                .HH/MM/SS    02:17:23                               :STOP TIME
STRT                    .s           2.10                                   :START DATA
STOP                    .s           182.70                                 :STOP DATA
STEP                    .s           0.10                                   :MEASUREMENT TIME INTERVAL
NULL                    .            -999.25                                :NULL VALUE
COMP                    .            Statoil ASA                            :COMPANY
FLD                     .            Volve                                  :FIELD
WELL                    .            15/9-F-1 C                             :WELL
RUN                     .            4                                      :RUN
LOC                     .                                                   :LOCATION
PROV                    .            na                                     :PROVINCE
SRVC                    .            Baker Hughes INTEQ                     :SERVICE COMPANY
DATE                    .YY/MM/DD    14/03/15                               :LOG DATE
UWI                     .                                                   :UNIQUE WELL ID
DEPTHMD                 .m           3603.0                                 :MEASURED DEPTH
DEPTHTVD                .m           3006.7                                 :TRUE VERTICAL DEPTH


~CURVE INFORMATION
#MNEM                   .UNIT        API CODES                               DESCRIPTION
#________________________________________________________________________________________
TIME                    .s                                                  :01 TIME
DD_PRESS                .bar                                                :02 DRAW DOWN PRESSURE
DD_VOLUME               .cm3                                                :03 INCREMENTAL DRAW DOWN VOLUME
TEMP                    .degC                                               :04 TRANSDUCER TEMPERATURE
DD_PRESS_MOD_1000       .bar                                                :05 DRAW DOWN PRESSURE MOD 1000
DD_PRESS_MOD_100        .bar                                                :06 DRAW DOWN PRESSURE MOD 100
DD_PRESS_MOD_10         .bar                                                :07 DRAW DOWN PRESSURE MOD 10
DD_PRESS_MOD_1          .bar                                                :08 DRAW DOWN PRESSURE MOD 1
DD_PRESS_MOD_01         .bar                                                :09 DRAW DOWN PRESSURE MOD 01
DD_PRESS_MOD_001        .bar                                                :10 DRAW DOWN PRESSURE MOD 001
DD_PRESS_MOD_0001       .bar                                                :11 DRAW DOWN PRESSURE MOD 0001


~PARAMETER INFORMATION
#MNEM                   .UNIT        VALUE                                   DESCRIPTION
#________________________________________________________________________________________
TOOLFACE                .deg         109.6                                  :01 TOOLFACE
PUMP_CAPACITY           .bar         400                                    :02 NOMINAL DRAW DOWN PUMP CAPACITY
PUMP_LIMIT              .bar         240                                    :03 DOWNLINK PUMP LIMIT
TIME_LIMIT              .min         10                                     :04 DOWNLINK MAX TIME
TEST_TYPE               .            REPEAT                                 :05 DOWNLINK
TEST_TYPE               .            HIGH MOBILITY                          :06 DOWNLINK
DD_PIST_A               .cm2         3.1416                                 :07 DRAW DOWN PISTON AREA
V_SYS                   .cm3         131.0000                               :08 SYSTEM VOLUME
PROBE_ID                .cm          1.2700                                 :09 TTK PROBE ID
G0                      .            4.6700                                 :10 GEOMETRY FACTOR


~A                  TIME     DD_PRESS                              DD_VOLUME               TEMP                                   DD_PRESS_MOD_1000       DD_PRESS_MOD_100        DD_PRESS_MOD_10         DD_PRESS_MOD_1        DD_PRESS_MOD_01       DD_PRESS_MOD_001      DD_PRESS_MOD_0001
# ...
                  108.50    345.38039                               19.84763             86.070                                        3.45380e+002           4.53804e+001           5.38039e+000           3.80386e-001           8.03861e-002           3.86097e-004           3.86097e-004
                  108.60    345.37938                               19.84763             86.070                                        3.45379e+002           4.53794e+001           5.37938e+000           3.79378e-001           7.93784e-002           9.37844e-003           3.78436e-004
                  108.70    345.38271                               19.84763             86.070                                        3.45383e+002           4.53827e+001           5.38271e+000           3.82706e-001           8.27058e-002           2.70581e-003           7.05811e-004
                  108.80    345.38599                               19.84763             86.070                                        3.45386e+002           4.53860e+001           5.38599e+000           3.85993e-001           8.59930e-002           5.99303e-003           9.93028e-004
                  108.90    345.38461                               19.84763             86.070                                        3.45385e+002           4.53846e+001           5.38461e+000           3.84610e-001           8.46099e-002           4.60986e-003           6.09858e-004
                  109.00    345.38540                               19.84763             86.070                                        3.45385e+002           4.53854e+001           5.38540e+000           3.85402e-001           8.54017e-002           5.40167e-003           4.01666e-004
                  109.10    345.38476                               19.84763             86.070                                        3.45385e+002           4.53848e+001           5.38476e+000           3.84758e-001           8.47584e-002           4.75837e-003           7.58370e-004
                  109.20    345.37909                               19.84763             86.070                                        3.45379e+002           4.53791e+001           5.37909e+000           3.79093e-001           7.90933e-002           9.09328e-003           9.32799e-005
                  109.30    345.38026                               19.84763             86.070                                        3.45380e+002           4.53803e+001           5.38026e+000           3.80257e-001           8.02569e-002           2.56945e-004           2.56945e-004
                  109.40    345.38590                               19.84763             86.070                                        3.45386e+002           4.53859e+001           5.38590e+000           3.85897e-001           8.58972e-002           5.89715e-003           8.97153e-004
                  109.50    345.38579                               19.84763             86.070                                        3.45386e+002           4.53858e+001           5.38579e+000           3.85786e-001           8.57864e-002           5.78636e-003           7.86355e-004
                  109.60    345.37992                               19.84763             86.070                                        3.45380e+002           4.53799e+001           5.37992e+000           3.79918e-001           7.99177e-002           9.91774e-003           9.17740e-004
                  109.70    345.37486                               19.84763             86.070                                        3.45375e+002           4.53749e+001           5.37486e+000           3.74859e-001           7.48587e-002           4.85875e-003           8.58747e-004
                  109.80    345.37408                               19.84763             86.070                                        3.45374e+002           4.53741e+001           5.37408e+000           3.74084e-001           7.40841e-002           4.08410e-003           8.41015e-005
                  109.90    345.37424                               19.84763             86.070                                        3.45374e+002           4.53742e+001           5.37424e+000           3.74239e-001           7.42386e-002           4.23862e-003           2.38615e-004
                  110.00    345.37884                               19.84763             86.070                                        3.45379e+002           4.53788e+001           5.37884e+000           3.78842e-001           7.88418e-002           8.84184e-003           8.41841e-004
                  110.10    345.38440                               19.84763             86.070                                        3.45384e+002           4.53844e+001           5.38440e+000           3.84395e-001           8.43951e-002           4.39508e-003           3.95078e-004
                  110.20    345.38449                               19.84763             86.070                                        3.45384e+002           4.53845e+001           5.38449e+000           3.84486e-001           8.44859e-002           4.48587e-003           4.85875e-004
                  110.30    345.37930                               19.84763             86.070                                        3.45379e+002           4.53793e+001           5.37930e+000           3.79301e-001           7.93010e-002           9.30100e-003           3.00995e-004
                  110.40    345.37963                               19.84763             86.070                                        3.45380e+002           4.53796e+001           5.37963e+000           3.79629e-001           7.96286e-002           9.62861e-003           6.28609e-004
                  110.50    345.38436                               19.84763             86.070                                        3.45384e+002           4.53844e+001           5.38436e+000           3.84357e-001           8.43573e-002           4.35731e-003           3.57308e-004
                  110.60    345.38586                               19.84763             86.070                                        3.45386e+002           4.53859e+001           5.38586e+000           3.85857e-001           8.58573e-002           5.85728e-003           8.57280e-004
                  110.70    345.38652                               19.84763             86.070                                        3.45387e+002           4.53865e+001           5.38652e+000           3.86519e-001           8.65188e-002           6.51878e-003           5.18780e-004
                  110.80    345.38545                               19.84763             86.070                                        3.45385e+002           4.53855e+001           5.38545e+000           3.85450e-001           8.54504e-002           5.45036e-003           4.50355e-004
                  110.90    345.38137                               19.84763             86.070                                        3.45381e+002           4.53814e+001           5.38137e+000           3.81370e-001           8.13704e-002           1.37042e-003           3.70418e-004
                  111.00    345.37845                               19.84763             86.070                                        3.45378e+002           4.53785e+001           5.37845e+000           3.78451e-001           7.84514e-002           8.45141e-003           4.51405e-004
                  111.10    345.37772                               19.84763             86.070                                        3.45378e+002           4.53777e+001           5.37772e+000           3.77717e-001           7.77167e-002           7.71671e-003           7.16706e-004
                  111.20    345.38095                               19.84763             86.070                                        3.45381e+002           4.53810e+001           5.38095e+000           3.80954e-001           8.09540e-002           9.53966e-004           9.53966e-004
