~VERSION INFORMATION
VERS                    .            2.0                                    :CWLS LOG ASCII STANDARD
WRAP                    .            NO                                     :ONE LINE PER TIME STEP


~WELL INFORMATION
#MNEM                   .UNIT        DATA                                    DESCRIPTION
#________________________________________________________________________________________
STRTTIME                .HH/MM/SS    02:14:19                               :START TIME
STOPTIME                .HH/MM/SS    02:17:23                               :STOP TIME
STRT                    .s           2.10                                   :START DATA
STOP                    .s           182.70                                 :STOP DATA
STEP                    .s           0.10                                   :MEASUREMENT TIME INTERVAL
NULL                    .            -999.25                                :NULL VALUE
COMP                    .            Statoil ASA                            :COMPANY
FLD                     .            Volve                                  :FIELD
WELL                    .            15/9-F-1 C                             :WELL
RUN                     .            4                                      :RUN
LOC                     .                                                   :LOCATION
PROV                    .            na                                     :PROVINCE
SRVC                    .            Baker Hughes INTEQ                     :SERVICE COMPANY
DATE                    .YY/MM/DD    14/03/15                               :LOG DATE
UWI                     .                                                   :UNIQUE WELL ID
DEPTHMD                 .m           3603.0                                 :MEASURED DEPTH
DEPTHTVD                .m           3006.7                                 :TRUE VERTICAL DEPTH


~CURVE INFORMATION
#MNEM                   .UNIT        API CODES                               DESCRIPTION
#________________________________________________________________________________________
TIME                    .s                                                  :01 TIME
DD_PRESS                .bar                                                :02 DRAW DOWN PRESSURE
DD_VOLUME               .cm3                                                :03 INCREMENTAL DRAW DOWN VOLUME
TEMP                    .degC                                               :04 TRANSDUCER TEMPERATURE
DD_PRESS_MOD_1000       .bar                                                :05 DRAW DOWN PRESSURE MOD 1000
DD_PRESS_MOD_100        .bar                                                :06 DRAW DOWN PRESSURE MOD 100
DD_PRESS_MOD_10         .bar                                                :07 DRAW DOWN PRESSURE MOD 10
DD_PRESS_MOD_1          .bar                                                :08 DRAW DOWN PRESSURE MOD 1
DD_PRESS_MOD_01         .bar                                                :09 DRAW DOWN PRESSURE MOD 01
DD_PRESS_MOD_001        .bar                                                :10 DRAW DOWN PRESSURE MOD 001
DD_PRESS_MOD_0001       .bar                                                :11 DRAW DOWN PRESSURE MOD 0001


~PARAMETER INFORMATION
#MNEM                   .UNIT        VALUE                                   DESCRIPTION
#________________________________________________________________________________________
TOOLFACE                .deg         109.6                                  :01 TOOLFACE
PUMP_CAPACITY           .bar         400                                    :02 NOMINAL DRAW DOWN PUMP CAPACITY
PUMP_LIMIT              .bar         240                                    :03 DOWNLINK PUMP LIMIT
TIME_LIMIT              .min         10                                     :04 DOWNLINK MAX TIME
TEST_TYPE               .            REPEAT                                 :05 DOWNLINK
TEST_TYPE               .            HIGH MOBILITY                          :06 DOWNLINK
DD_PIST_A               .cm2         3.1416                                 :07 DRAW DOWN PISTON AREA
V_SYS                   .cm3         131.0000                               :08 SYSTEM VOLUME
PROBE_ID                .cm          1.2700                                 :09 TTK PROBE ID
G0                      .            4.6700                                 :10 GEOMETRY FACTOR


~A                  TIME     DD_PRESS                              DD_VOLUME               TEMP                                   DD_PRESS_MOD_1000       DD_PRESS_MOD_100        DD_PRESS_MOD_10         DD_PRESS_MOD_1        DD_PRESS_MOD_01       DD_PRESS_MOD_001      DD_PRESS_MOD_0001
# ...
                   60.90    345.38799                               10.76461             86.125                                        3.45388e+002           4.53880e+001           5.38799e+000           3.87988e-001           8.79877e-002           7.98773e-003           9.87726e-004
                   61.00    345.38679                               10.76461             86.125                                        3.45387e+002           4.53868e+001           5.38679e+000           3.86790e-001           8.67903e-002           6.79027e-003           7.90270e-004
                   61.10    345.38603                               10.76461             86.125                                        3.45386e+002           4.53860e+001           5.38603e+000           3.86031e-001           8.60308e-002           6.03080e-003           3.07968e-005
                   61.20    345.38677                               10.76461             86.125                                        3.45387e+002           4.53868e+001           5.38677e+000           3.86766e-001           8.67661e-002           6.76611e-003           7.66108e-004
                   61.30    345.38797                               10.76461             86.125                                        3.45388e+002           4.53880e+001           5.38797e+000           3.87973e-001           8.79726e-002           7.97257e-003           9.72572e-004
                   61.40    345.38960                               10.76461             86.125                                        3.45390e+002           4.53896e+001           5.38960e+000           3.89600e-001           8.95997e-002           9.59970e-003           5.99700e-004
                   61.50    345.38813                               10.76461             86.125                                        3.45388e+002           4.53881e+001           5.38813e+000           3.88125e-001           8.81252e-002           8.12521e-003           1.25210e-004
                   61.60    345.38418                               10.76461             86.125                                        3.45384e+002           4.53842e+001           5.38418e+000           3.84180e-001           8.41803e-002           4.18035e-003           1.80348e-004
                   61.70    345.39202                               10.76461             86.125                                        3.45392e+002           4.53920e+001           5.39202e+000           3.92018e-001           9.20184e-002           2.01841e-003           1.84114e-005
                   61.80    345.40781                               10.76461             86.125                                        3.45408e+002           4.54078e+001           5.40781e+000           4.07808e-001           7.80778e-003           7.80778e-003           8.07780e-004
                   61.90    345.41095                               10.76461             86.125                                        3.45411e+002           4.54110e+001           5.41095e+000           4.10951e-001           1.09510e-002           9.51004e-004           9.51004e-004
                   62.00    345.40708                               10.76461             86.125                                        3.45407e+002           4.54071e+001           5.40708e+000           4.07085e-001           7.08452e-003           7.08452e-003           8.45217e-005
                   62.10    345.39864                               10.76461             86.125                                        3.45399e+002           4.53986e+001           5.39864e+000           3.98644e-001           9.86439e-002           8.64392e-003           6.43918e-004
                   62.20    345.39506                               10.76461             86.125                                        3.45395e+002           4.53951e+001           5.39506e+000           3.95062e-001           9.50616e-002           5.06157e-003           6.15715e-005
                   62.30    345.39882                               10.76461             86.125                                        3.45399e+002           4.53988e+001           5.39882e+000           3.98824e-001           9.88241e-002           8.82414e-003           8.24141e-004
                   62.40    345.39712                               10.76461             86.125                                        3.45397e+002           4.53971e+001           5.39712e+000           3.97115e-001           9.71155e-002           7.11547e-003           1.15468e-004
                   62.50    345.38920                               10.76461             86.125                                        3.45389e+002           4.53892e+001           5.38920e+000           3.89198e-001           8.91979e-002           9.19786e-003           1.97859e-004
                   62.60    345.38693                               10.76461             86.125                                        3.45387e+002           4.53869e+001           5.38693e+000           3.86925e-001           8.69255e-002           6.92548e-003           9.25477e-004
                   62.70    345.39026                               10.76461             86.125                                        3.45390e+002           4.53903e+001           5.39026e+000           3.90261e-001           9.02613e-002           2.61254e-004           2.61254e-004
                   62.80    345.39067                               10.76461             86.125                                        3.45391e+002           4.53907e+001           5.39067e+000           3.90669e-001           9.06692e-002           6.69225e-004           6.69225e-004
                   62.90    345.38894                               10.76461             86.125                                        3.45389e+002           4.53889e+001           5.38894e+000           3.88939e-001           8.89394e-002           8.93944e-003           9.39436e-004
                   63.00    345.38762                               10.76461             86.125                                        3.45388e+002           4.53876e+001           5.38762e+000           3.87624e-001           8.76244e-002           7.62436e-003           6.24356e-004
                   63.10    345.38758                               10.76461             86.125                                        3.45388e+002           4.53876e+001           5.38758e+000           3.87583e-001           8.75825e-002           7.58253e-003           5.82532e-004
                   63.20    345.39046                               10.76461             86.125                                        3.45390e+002           4.53905e+001           5.39046e+000           3.90455e-001           9.04551e-002           4.55123e-004           4.55123e-004
                   63.30    345.39122                               10.76461             86.125                                        3.45391e+002           4.53912e+001           5.39122e+000           3.91218e-001           9.12183e-002           1.21829e-003           2.18292e-004
                   63.40    345.38726                               10.76461             86.125                                        3.45387e+002           4.53873e+001           5.38726e+000           3.87264e-001           8.72638e-002           7.26382e-003           2.63816e-004
                   63.50    345.38624                               10.76461             86.125                                        3.45386e+002           4.53862e+001           5.38624e+000           3.86244e-001           8.62443e-002           6.24434e-003           2.44342e-004
                   63.60    345.38754                               10.76461             86.125                                        3.45388e+002           4.53875e+001           5.38754e+000           3.87540e-001           8.75403e-002           7.54032e-003           5.40318e-004
