~VERSION INFORMATION
VERS                    .            2.0                                    :CWLS LOG ASCII STANDARD
WRAP                    .            NO                                     :ONE LINE PER TIME STEP


~WELL INFORMATION
#MNEM                   .UNIT        DATA                                    DESCRIPTION
#________________________________________________________________________________________
STRTTIME                .HH/MM/SS    13:32:32                               :START TIME
STOPTIME                .HH/MM/SS    13:36:23                               :STOP TIME
STRT                    .s           2.10                                   :START DATA
STOP                    .s           229.20                                 :STOP DATA
STEP                    .s           0.10                                   :MEASUREMENT TIME INTERVAL
NULL                    .            -999.25                                :NULL VALUE
COMP                    .            Statoil ASA                            :COMPANY
FLD                     .            Volve                                  :FIELD
WELL                    .            15/9-F-1 B                             :WELL
RUN                     .            7                                      :RUN
LOC                     .            Maersk Inspirer                        :LOCATION
PROV                    .            na                                     :PROVINCE
SRVC                    .            Baker Hughes INTEQ                     :SERVICE COMPANY
DATE                    .YY/MM/DD    13/09/06                               :LOG DATE
UWI                     .                                                   :UNIQUE WELL ID
DEPTHMD                 .m           3301.5                                 :MEASURED DEPTH
DEPTHTVD                .m           3096.9                                 :TRUE VERTICAL DEPTH


~CURVE INFORMATION
#MNEM                   .UNIT        API CODES                               DESCRIPTION
#________________________________________________________________________________________
TIME                    .s                                                  :01 TIME
DD_PRESS                .bar                                                :02 DRAW DOWN PRESSURE
DD_VOLUME               .cm3                                                :03 INCREMENTAL DRAW DOWN VOLUME
TEMP                    .degC                                               :04 TRANSDUCER TEMPERATURE
DD_PRESS_MOD_1000       .bar                                                :05 DRAW DOWN PRESSURE MOD 1000
DD_PRESS_MOD_100        .bar                                                :06 DRAW DOWN PRESSURE MOD 100
DD_PRESS_MOD_10         .bar                                                :07 DRAW DOWN PRESSURE MOD 10
DD_PRESS_MOD_1          .bar                                                :08 DRAW DOWN PRESSURE MOD 1
DD_PRESS_MOD_01         .bar                                                :09 DRAW DOWN PRESSURE MOD 01
DD_PRESS_MOD_001        .bar                                                :10 DRAW DOWN PRESSURE MOD 001
DD_PRESS_MOD_0001       .bar                                                :11 DRAW DOWN PRESSURE MOD 0001


~PARAMETER INFORMATION
#MNEM                   .UNIT        VALUE                                   DESCRIPTION
#________________________________________________________________________________________
TOOLFACE                .deg         na                                     :01 TOOLFACE
PUMP_CAPACITY           .bar         400                                    :02 NOMINAL DRAW DOWN PUMP CAPACITY
PUMP_LIMIT              .bar         400                                    :03 DOWNLINK PUMP LIMIT
TIME_LIMIT              .min         10                                     :04 DOWNLINK MAX TIME
TEST_TYPE               .            LOW MOBILITY                           :05 DOWNLINK
DD_PIST_A               .cm2         3.1416                                 :06 DRAW DOWN PISTON AREA
V_SYS                   .cm3         131.0000                               :07 SYSTEM VOLUME
PROBE_ID                .cm          1.2700                                 :08 TTK PROBE ID
G0                      .            4.6700                                 :09 GEOMETRY FACTOR


~A                  TIME     DD_PRESS                              DD_VOLUME               TEMP                                   DD_PRESS_MOD_1000       DD_PRESS_MOD_100        DD_PRESS_MOD_10         DD_PRESS_MOD_1        DD_PRESS_MOD_01       DD_PRESS_MOD_001      DD_PRESS_MOD_0001
# ...
                  226.20    442.91312                                0.00000             85.297                                        4.42913e+002           4.29131e+001           2.91312e+000           9.13124e-001           1.31244e-002           3.12438e-003           1.24383e-004
                  226.30    442.95394                                0.00000             85.297                                        4.42954e+002           4.29539e+001           2.95394e+000           9.53940e-001           5.39402e-002           3.94024e-003           9.40239e-004
                  226.40    442.98937                                0.00000             85.295                                        4.42989e+002           4.29894e+001           2.98937e+000           9.89368e-001           8.93680e-002           9.36802e-003           3.68016e-004
                  226.50    442.94882                                0.00000             85.293                                        4.42949e+002           4.29488e+001           2.94882e+000           9.48821e-001           4.88207e-002           8.82070e-003           8.20704e-004
                  226.60    442.91901                                0.00000             85.295                                        4.42919e+002           4.29190e+001           2.91901e+000           9.19006e-001           1.90059e-002           9.00594e-003           5.94493e-006
                  226.70    442.97431                                0.00000             85.297                                        4.42974e+002           4.29743e+001           2.97431e+000           9.74314e-001           7.43144e-002           4.31444e-003           3.14445e-004
                  226.80    443.00438                                0.00000             85.297                                        4.43004e+002           4.30044e+001           3.00438e+000           4.37707e-003           4.37707e-003           4.37707e-003           3.77072e-004
                  226.90    442.96040                                0.00000             85.297                                        4.42960e+002           4.29604e+001           2.96040e+000           9.60400e-001           6.03998e-002           3.99752e-004           3.99752e-004
                  227.00    442.92285                                0.00000             85.295                                        4.42923e+002           4.29228e+001           2.92285e+000           9.22849e-001           2.28492e-002           2.84925e-003           8.49248e-004
                  227.10    442.96805                                0.00000             85.291                                        4.42968e+002           4.29681e+001           2.96805e+000           9.68051e-001           6.80506e-002           8.05057e-003           5.05734e-005
                  227.20    442.99945                                0.00000             85.289                                        4.42999e+002           4.29994e+001           2.99945e+000           9.99446e-001           9.94457e-002           9.44566e-003           4.45659e-004
                  227.30    442.96184                                0.00000             85.289                                        4.42962e+002           4.29618e+001           2.96184e+000           9.61844e-001           6.18441e-002           1.84406e-003           8.44059e-004
                  227.40    442.93311                                0.00000             85.289                                        4.42933e+002           4.29331e+001           2.93311e+000           9.33110e-001           3.31105e-002           3.11050e-003           1.10496e-004
                  227.50    442.98703                                0.00000             85.289                                        4.42987e+002           4.29870e+001           2.98703e+000           9.87034e-001           8.70338e-002           7.03384e-003           3.38391e-005
                  227.60    443.01520                                0.00000             85.289                                        4.43015e+002           4.30152e+001           3.01520e+000           1.51954e-002           1.51954e-002           5.19543e-003           1.95429e-004
                  227.70    442.96121                                0.00000             85.289                                        4.42961e+002           4.29612e+001           2.96121e+000           9.61214e-001           6.12143e-002           1.21426e-003           2.14265e-004
                  227.80    442.91732                                0.00000             85.289                                        4.42917e+002           4.29173e+001           2.91732e+000           9.17323e-001           1.73226e-002           7.32264e-003           3.22643e-004
                  227.90    442.97163                                0.00000             85.289                                        4.42972e+002           4.29716e+001           2.97163e+000           9.71626e-001           7.16257e-002           1.62565e-003           6.25655e-004
                  228.00    443.00315                                0.00000             85.289                                        4.43003e+002           4.30031e+001           3.00315e+000           3.14803e-003           3.14803e-003           3.14803e-003           1.48027e-004
                  228.10    442.96091                                0.00000             85.289                                        4.42961e+002           4.29609e+001           2.96091e+000           9.60907e-001           6.09074e-002           9.07441e-004           9.07441e-004
                  228.20    442.93837                                0.00000             85.289                                        4.42938e+002           4.29384e+001           2.93837e+000           9.38375e-001           3.83750e-002           8.37499e-003           3.74993e-004
                  228.30    442.98464                                0.00000             85.289                                        4.42985e+002           4.29846e+001           2.98464e+000           9.84638e-001           8.46380e-002           4.63797e-003           6.37969e-004
                  228.40    443.00165                                0.00000             85.289                                        4.43002e+002           4.30016e+001           3.00165e+000           1.64929e-003           1.64929e-003           1.64929e-003           6.49289e-004
                  228.50    442.95762                                0.00000             85.289                                        4.42958e+002           4.29576e+001           2.95762e+000           9.57617e-001           5.76173e-002           7.61732e-003           6.17315e-004
                  228.60    442.93462                                0.00000             85.289                                        4.42935e+002           4.29346e+001           2.93462e+000           9.34621e-001           3.46206e-002           4.62061e-003           6.20607e-004
                  228.70    442.98249                                0.00000             85.289                                        4.42982e+002           4.29825e+001           2.98249e+000           9.82494e-001           8.24938e-002           2.49383e-003           4.93829e-004
                  228.80    442.99867                                0.00000             85.289                                        4.42999e+002           4.29987e+001           2.99867e+000           9.98674e-001           9.86740e-002           8.67400e-003           6.74002e-004
                  228.90    442.94622                                0.00000             85.289                                        4.42946e+002           4.29462e+001           2.94622e+000           9.46223e-001           4.62233e-002           6.22332e-003           2.23318e-004
