~VERSION INFORMATION
VERS                    .            2.0                                    :CWLS LOG ASCII STANDARD
WRAP                    .            NO                                     :ONE LINE PER TIME STEP


~WELL INFORMATION
#MNEM                   .UNIT        DATA                                    DESCRIPTION
#________________________________________________________________________________________
STRTTIME                .HH/MM/SS    19:52:58                               :START TIME
STOPTIME                .HH/MM/SS    19:58:21                               :STOP TIME
STRT                    .s           2.10                                   :START DATA
STOP                    .s           321.30                                 :STOP DATA
STEP                    .s           0.10                                   :MEASUREMENT TIME INTERVAL
NULL                    .            -999.25                                :NULL VALUE
COMP                    .            Statoil ASA                            :COMPANY
FLD                     .            Volve                                  :FIELD
WELL                    .            15/9-F-11 A                            :WELL
RUN                     .            8                                      :RUN
LOC                     .            Maersk Inspirer                        :LOCATION
PROV                    .            na                                     :PROVINCE
SRVC                    .            Baker Hughes INTEQ                     :SERVICE COMPANY
DATE                    .YY/MM/DD    13/05/23                               :LOG DATE
UWI                     .                                                   :UNIQUE WELL ID
DEPTHMD                 .m           3602.0                                 :MEASURED DEPTH
DEPTHTVD                .m           3003.9                                 :TRUE VERTICAL DEPTH


~CURVE INFORMATION
#MNEM                   .UNIT        API CODES                               DESCRIPTION
#________________________________________________________________________________________
TIME                    .s                                                  :01 TIME
DD_PRESS                .bar                                                :02 DRAW DOWN PRESSURE
DD_VOLUME               .cm3                                                :03 INCREMENTAL DRAW DOWN VOLUME
TEMP                    .degC                                               :04 TRANSDUCER TEMPERATURE
DD_PRESS_MOD_1000       .bar                                                :05 DRAW DOWN PRESSURE MOD 1000
DD_PRESS_MOD_100        .bar                                                :06 DRAW DOWN PRESSURE MOD 100
DD_PRESS_MOD_10         .bar                                                :07 DRAW DOWN PRESSURE MOD 10
DD_PRESS_MOD_1          .bar                                                :08 DRAW DOWN PRESSURE MOD 1
DD_PRESS_MOD_01         .bar                                                :09 DRAW DOWN PRESSURE MOD 01
DD_PRESS_MOD_001        .bar                                                :10 DRAW DOWN PRESSURE MOD 001
DD_PRESS_MOD_0001       .bar                                                :11 DRAW DOWN PRESSURE MOD 0001


~PARAMETER INFORMATION
#MNEM                   .UNIT        VALUE                                   DESCRIPTION
#________________________________________________________________________________________
TOOLFACE                .deg         -40.9                                  :01 TOOLFACE
PUMP_CAPACITY           .bar         400                                    :02 NOMINAL DRAW DOWN PUMP CAPACITY
PUMP_LIMIT              .bar         240                                    :03 DOWNLINK PUMP LIMIT
TIME_LIMIT              .min         10                                     :04 DOWNLINK MAX TIME
TEST_TYPE               .            REPEAT                                 :05 DOWNLINK
TEST_TYPE               .            HIGH MOBILITY                          :06 DOWNLINK
DD_PIST_A               .cm2         3.1416                                 :07 DRAW DOWN PISTON AREA
V_SYS                   .cm3         131.0000                               :08 SYSTEM VOLUME
PROBE_ID                .cm          1.2700                                 :09 TTK PROBE ID
G0                      .            4.6700                                 :10 GEOMETRY FACTOR


~A                  TIME     DD_PRESS                              DD_VOLUME               TEMP                                   DD_PRESS_MOD_1000       DD_PRESS_MOD_100        DD_PRESS_MOD_10         DD_PRESS_MOD_1        DD_PRESS_MOD_01       DD_PRESS_MOD_001      DD_PRESS_MOD_0001
                    2.10    417.46694                                0.00000             71.016                                        4.17467e+002           1.74669e+001           7.46694e+000           4.66940e-001           6.69400e-002           6.93996e-003           9.39956e-004
                    2.20    417.48816                                0.00000             71.016                                        4.17488e+002           1.74882e+001           7.48816e+000           4.88157e-001           8.81571e-002           8.15714e-003           1.57141e-004
                    2.30    417.47188                                0.00000             71.016                                        4.17472e+002           1.74719e+001           7.47188e+000           4.71876e-001           7.18761e-002           1.87607e-003           8.76074e-004
                    2.40    417.41214                                0.00000             71.016                                        4.17412e+002           1.74121e+001           7.41214e+000           4.12136e-001           1.21364e-002           2.13640e-003           1.36400e-004
                    2.50    417.38944                                0.00000             71.016                                        4.17389e+002           1.73894e+001           7.38944e+000           3.89442e-001           8.94420e-002           9.44204e-003           4.42042e-004
                    2.60    417.42129                                0.00000             71.016                                        4.17421e+002           1.74213e+001           7.42129e+000           4.21294e-001           2.12940e-002           1.29398e-003           2.93983e-004
                    2.70    417.44113                                0.00000             71.016                                        4.17441e+002           1.74411e+001           7.44113e+000           4.41128e-001           4.11281e-002           1.12811e-003           1.28105e-004
                    2.80    417.42487                                0.00000             71.016                                        4.17425e+002           1.74249e+001           7.42487e+000           4.24872e-001           2.48716e-002           4.87164e-003           8.71644e-004
                    2.90    417.44501                                0.00000             71.016                                        4.17445e+002           1.74450e+001           7.44501e+000           4.45009e-001           4.50089e-002           5.00894e-003           8.94005e-006
                    3.00    417.50432                                0.00000             71.016                                        4.17504e+002           1.75043e+001           7.50432e+000           5.04320e-001           4.32013e-003           4.32013e-003           3.20131e-004
                    3.10    417.54069                                0.00000             71.016                                        4.17541e+002           1.75407e+001           7.54069e+000           5.40692e-001           4.06918e-002           6.91819e-004           6.91819e-004
                    3.20    417.55166                                0.00000             71.016                                        4.17552e+002           1.75517e+001           7.55166e+000           5.51662e-001           5.16622e-002           1.66224e-003           6.62238e-004
                    3.30    417.60451                                0.00000             71.016                                        4.17605e+002           1.76045e+001           7.60451e+000           6.04513e-001           4.51251e-003           4.51251e-003           5.12507e-004
                    3.40    417.65842                                0.00000             71.016                                        4.17658e+002           1.76584e+001           7.65842e+000           6.58421e-001           5.84209e-002           8.42086e-003           4.20858e-004
                    3.50    417.65117                                0.00000             71.016                                        4.17651e+002           1.76512e+001           7.65117e+000           6.51171e-001           5.11710e-002           1.17099e-003           1.70992e-004
                    3.60    417.61545                                0.00000             71.016                                        4.17615e+002           1.76154e+001           7.61545e+000           6.15449e-001           1.54487e-002           5.44873e-003           4.48729e-004
                    3.70    417.59750                                0.00000             71.016                                        4.17597e+002           1.75975e+001           7.59750e+000           5.97496e-001           9.74957e-002           7.49569e-003           4.95690e-004
                    3.80    417.57751                                0.00000             71.016                                        4.17578e+002           1.75775e+001           7.57751e+000           5.77514e-001           7.75141e-002           7.51415e-003           5.14145e-004
                    3.90    417.52170                                0.00000             71.016                                        4.17522e+002           1.75217e+001           7.52170e+000           5.21703e-001           2.17033e-002           1.70334e-003           7.03336e-004
                    4.00    417.46936                                0.00000             71.016                                        4.17469e+002           1.74694e+001           7.46936e+000           4.69356e-001           6.93559e-002           9.35587e-003           3.55865e-004
                    4.10    417.42699                                0.00000             71.016                                        4.17427e+002           1.74270e+001           7.42699e+000           4.26989e-001           2.69895e-002           6.98949e-003           9.89495e-004
                    4.20    417.39741                                0.00000             71.016                                        4.17397e+002           1.73974e+001           7.39741e+000           3.97412e-001           9.74115e-002           7.41154e-003           4.11543e-004
                    4.30    417.38648                                0.00000             71.016                                        4.17386e+002           1.73865e+001           7.38648e+000           3.86483e-001           8.64829e-002           6.48286e-003           4.82855e-004
                    4.40    417.39166                                0.00000             71.016                                        4.17392e+002           1.73917e+001           7.39166e+000           3.91657e-001           9.16575e-002           1.65749e-003           6.57495e-004
                    4.50    417.38113                                0.00000             71.016                                        4.17381e+002           1.73811e+001           7.38113e+000           3.81128e-001           8.11285e-002           1.12848e-003           1.28477e-004
                    4.60    417.37814                                0.00000             71.016                                        4.17378e+002           1.73781e+001           7.37814e+000           3.78145e-001           7.81446e-002           8.14464e-003           1.44640e-004
                    4.70    417.39789                                0.00000             71.016                                        4.17398e+002           1.73979e+001           7.39789e+000           3.97891e-001           9.78910e-002           7.89096e-003           8.90963e-004
                    4.80    417.42273                                0.00000             71.016                                        4.17423e+002           1.74227e+001           7.42273e+000           4.22730e-001           2.27298e-002           2.72980e-003           7.29801e-004
