~VERSION INFORMATION
VERS                    .            2.0                                    :CWLS LOG ASCII STANDARD
WRAP                    .            NO                                     :ONE LINE PER TIME STEP


~WELL INFORMATION
#MNEM                   .UNIT        DATA                                    DESCRIPTION
#________________________________________________________________________________________
STRTTIME                .HH/MM/SS    14:04:48                               :START TIME
STOPTIME                .HH/MM/SS    14:07:57                               :STOP TIME
STRT                    .s           2.10                                   :START DATA
STOP                    .s           187.50                                 :STOP DATA
STEP                    .s           0.10                                   :MEASUREMENT TIME INTERVAL
NULL                    .            -999.25                                :NULL VALUE
COMP                    .            Statoil ASA                            :COMPANY
FLD                     .            Volve                                  :FIELD
WELL                    .            15/9-F-1 B                             :WELL
RUN                     .            7                                      :RUN
LOC                     .            Maersk Inspirer                        :LOCATION
PROV                    .            na                                     :PROVINCE
SRVC                    .            Baker Hughes INTEQ                     :SERVICE COMPANY
DATE                    .YY/MM/DD    13/09/06                               :LOG DATE
UWI                     .                                                   :UNIQUE WELL ID
DEPTHMD                 .m           3296.0                                 :MEASURED DEPTH
DEPTHTVD                .m           3091.5                                 :TRUE VERTICAL DEPTH


~CURVE INFORMATION
#MNEM                   .UNIT        API CODES                               DESCRIPTION
#________________________________________________________________________________________
TIME                    .s                                                  :01 TIME
DD_PRESS                .bar                                                :02 DRAW DOWN PRESSURE
DD_VOLUME               .cm3                                                :03 INCREMENTAL DRAW DOWN VOLUME
TEMP                    .degC                                               :04 TRANSDUCER TEMPERATURE
DD_PRESS_MOD_1000       .bar                                                :05 DRAW DOWN PRESSURE MOD 1000
DD_PRESS_MOD_100        .bar                                                :06 DRAW DOWN PRESSURE MOD 100
DD_PRESS_MOD_10         .bar                                                :07 DRAW DOWN PRESSURE MOD 10
DD_PRESS_MOD_1          .bar                                                :08 DRAW DOWN PRESSURE MOD 1
DD_PRESS_MOD_01         .bar                                                :09 DRAW DOWN PRESSURE MOD 01
DD_PRESS_MOD_001        .bar                                                :10 DRAW DOWN PRESSURE MOD 001
DD_PRESS_MOD_0001       .bar                                                :11 DRAW DOWN PRESSURE MOD 0001


~PARAMETER INFORMATION
#MNEM                   .UNIT        VALUE                                   DESCRIPTION
#________________________________________________________________________________________
TOOLFACE                .deg         na                                     :01 TOOLFACE
PUMP_CAPACITY           .bar         400                                    :02 NOMINAL DRAW DOWN PUMP CAPACITY
PUMP_LIMIT              .bar         400                                    :03 DOWNLINK PUMP LIMIT
TIME_LIMIT              .min         10                                     :04 DOWNLINK MAX TIME
TEST_TYPE               .            LOW MOBILITY                           :05 DOWNLINK
DD_PIST_A               .cm2         3.1416                                 :06 DRAW DOWN PISTON AREA
V_SYS                   .cm3         131.0000                               :07 SYSTEM VOLUME
PROBE_ID                .cm          1.2700                                 :08 TTK PROBE ID
G0                      .            4.6700                                 :09 GEOMETRY FACTOR


~A                  TIME     DD_PRESS                              DD_VOLUME               TEMP                                   DD_PRESS_MOD_1000       DD_PRESS_MOD_100        DD_PRESS_MOD_10         DD_PRESS_MOD_1        DD_PRESS_MOD_01       DD_PRESS_MOD_001      DD_PRESS_MOD_0001
# ...
                   74.90    346.55355                               11.17784             83.297                                        3.46554e+002           4.65536e+001           6.55355e+000           5.53553e-001           5.35527e-002           3.55265e-003           5.52652e-004
                   75.00    346.31836                               11.20134             83.297                                        3.46318e+002           4.63184e+001           6.31836e+000           3.18364e-001           1.83642e-002           8.36421e-003           3.64213e-004
                   75.10    346.11011                               11.22637             83.297                                        3.46110e+002           4.61101e+001           6.11011e+000           1.10106e-001           1.01060e-002           1.05987e-004           1.05987e-004
                   75.20    345.94336                               11.25349             83.297                                        3.45943e+002           4.59434e+001           5.94336e+000           9.43358e-001           4.33578e-002           3.35780e-003           3.57801e-004
                   75.30    345.75090                               11.28286             83.297                                        3.45751e+002           4.57509e+001           5.75090e+000           7.50905e-001           5.09048e-002           9.04751e-004           9.04751e-004
                   75.40    345.52927                               11.31458             83.297                                        3.45529e+002           4.55293e+001           5.52927e+000           5.29267e-001           2.92673e-002           9.26730e-003           2.67297e-004
                   75.50    345.28829                               11.34867             83.297                                        3.45288e+002           4.52883e+001           5.28829e+000           2.88289e-001           8.82886e-002           8.28861e-003           2.88607e-004
                   75.60    345.03643                               11.38498             83.297                                        3.45036e+002           4.50364e+001           5.03643e+000           3.64287e-002           3.64287e-002           6.42871e-003           4.28709e-004
                   75.70    344.78850                               11.42367             83.297                                        3.44789e+002           4.47885e+001           4.78850e+000           7.88504e-001           8.85037e-002           8.50368e-003           5.03677e-004
                   75.80    344.53758                               11.46454             83.297                                        3.44538e+002           4.45376e+001           4.53758e+000           5.37575e-001           3.75755e-002           7.57548e-003           5.75481e-004
                   75.90    344.29541                               11.50788             83.297                                        3.44295e+002           4.42954e+001           4.29541e+000           2.95408e-001           9.54083e-002           5.40830e-003           4.08297e-004
                   76.00    344.04384                               11.55432             83.297                                        3.44044e+002           4.40438e+001           4.04384e+000           4.38392e-002           4.38392e-002           3.83919e-003           8.39194e-004
                   76.10    343.77572                               11.60373             83.297                                        3.43776e+002           4.37757e+001           3.77572e+000           7.75725e-001           7.57245e-002           5.72451e-003           7.24506e-004
                   76.20    343.50524                               11.65548             83.297                                        3.43505e+002           4.35052e+001           3.50524e+000           5.05243e-001           5.24346e-003           5.24346e-003           2.43464e-004
                   76.30    343.23112                               11.70980             83.297                                        3.43231e+002           4.32311e+001           3.23112e+000           2.31119e-001           3.11187e-002           1.11870e-003           1.18699e-004
                   76.40    342.93770                               11.76699             83.297                                        3.42938e+002           4.29377e+001           2.93770e+000           9.37698e-001           3.76977e-002           7.69767e-003           6.97675e-004
                   76.50    342.65590                               11.82682             83.297                                        3.42656e+002           4.26559e+001           2.65590e+000           6.55899e-001           5.58989e-002           5.89889e-003           8.98887e-004
                   76.60    342.37883                               11.88945             83.297                                        3.42379e+002           4.23788e+001           2.37883e+000           3.78826e-001           7.88262e-002           8.82622e-003           8.26221e-004
                   76.70    342.09256                               11.95518             83.297                                        3.42093e+002           4.20926e+001           2.09256e+000           9.25581e-002           9.25581e-002           2.55805e-003           5.58053e-004
                   76.80    341.79404                               12.02405             83.297                                        3.41794e+002           4.17940e+001           1.79404e+000           7.94037e-001           9.40372e-002           4.03724e-003           3.72402e-005
                   76.90    341.50202                               12.09602             83.297                                        3.41502e+002           4.15020e+001           1.50202e+000           5.02016e-001           2.01563e-003           2.01563e-003           1.56254e-005
                   77.00    341.19538                               12.17054             83.297                                        3.41195e+002           4.11954e+001           1.19538e+000           1.95376e-001           9.53759e-002           5.37591e-003           3.75907e-004
                   77.10    340.89688                               12.24764             83.297                                        3.40897e+002           4.08969e+001           8.96878e-001           8.96878e-001           9.68780e-002           6.87801e-003           8.78011e-004
                   77.20    340.60941                               12.32774             83.297                                        3.40609e+002           4.06094e+001           6.09409e-001           6.09409e-001           9.40905e-003           9.40905e-003           4.09047e-004
                   77.30    340.30757                               12.41098             83.295                                        3.40308e+002           4.03076e+001           3.07566e-001           3.07566e-001           7.56599e-003           7.56599e-003           5.65995e-004
                   77.40    340.00424                               12.49730             83.291                                        3.40004e+002           4.00042e+001           4.24025e-003           4.24025e-003           4.24025e-003           4.24025e-003           2.40246e-004
                   77.50    339.69981                               12.58678             83.289                                        3.39700e+002           3.96998e+001           9.69981e+000           6.99809e-001           9.98094e-002           9.80940e-003           8.09402e-004
                   77.60    339.39020                               12.67939             83.289                                        3.39390e+002           3.93902e+001           9.39020e+000           3.90205e-001           9.02047e-002           2.04653e-004           2.04653e-004
