~VERSION INFORMATION
VERS                    .            2.0                                    :CWLS LOG ASCII STANDARD
WRAP                    .            NO                                     :ONE LINE PER TIME STEP


~WELL INFORMATION
#MNEM                   .UNIT        DATA                                    DESCRIPTION
#________________________________________________________________________________________
STRTTIME                .HH/MM/SS    15:44:09                               :START TIME
STOPTIME                .HH/MM/SS    15:46:59                               :STOP TIME
STRT                    .s           2.10                                   :START DATA
STOP                    .s           168.10                                 :STOP DATA
STEP                    .s           0.10                                   :MEASUREMENT TIME INTERVAL
NULL                    .            -999.25                                :NULL VALUE
COMP                    .            Statoil ASA                            :COMPANY
FLD                     .            Volve                                  :FIELD
WELL                    .            15/9-F-1 B                             :WELL
RUN                     .            7                                      :RUN
LOC                     .            Maersk Inspirer                        :LOCATION
PROV                    .            na                                     :PROVINCE
SRVC                    .            Baker Hughes INTEQ                     :SERVICE COMPANY
DATE                    .YY/MM/DD    13/09/06                               :LOG DATE
UWI                     .                                                   :UNIQUE WELL ID
DEPTHMD                 .m           3266.5                                 :MEASURED DEPTH
DEPTHTVD                .m           3062.4                                 :TRUE VERTICAL DEPTH


~CURVE INFORMATION
#MNEM                   .UNIT        API CODES                               DESCRIPTION
#________________________________________________________________________________________
TIME                    .s                                                  :01 TIME
DD_PRESS                .bar                                                :02 DRAW DOWN PRESSURE
DD_VOLUME               .cm3                                                :03 INCREMENTAL DRAW DOWN VOLUME
TEMP                    .degC                                               :04 TRANSDUCER TEMPERATURE
DD_PRESS_MOD_1000       .bar                                                :05 DRAW DOWN PRESSURE MOD 1000
DD_PRESS_MOD_100        .bar                                                :06 DRAW DOWN PRESSURE MOD 100
DD_PRESS_MOD_10         .bar                                                :07 DRAW DOWN PRESSURE MOD 10
DD_PRESS_MOD_1          .bar                                                :08 DRAW DOWN PRESSURE MOD 1
DD_PRESS_MOD_01         .bar                                                :09 DRAW DOWN PRESSURE MOD 01
DD_PRESS_MOD_001        .bar                                                :10 DRAW DOWN PRESSURE MOD 001
DD_PRESS_MOD_0001       .bar                                                :11 DRAW DOWN PRESSURE MOD 0001


~PARAMETER INFORMATION
#MNEM                   .UNIT        VALUE                                   DESCRIPTION
#________________________________________________________________________________________
TOOLFACE                .deg         na                                     :01 TOOLFACE
PUMP_CAPACITY           .bar         400                                    :02 NOMINAL DRAW DOWN PUMP CAPACITY
PUMP_LIMIT              .bar         400                                    :03 DOWNLINK PUMP LIMIT
TIME_LIMIT              .min         10                                     :04 DOWNLINK MAX TIME
TEST_TYPE               .            LOW MOBILITY                           :05 DOWNLINK
DD_PIST_A               .cm2         3.1416                                 :06 DRAW DOWN PISTON AREA
V_SYS                   .cm3         131.0000                               :07 SYSTEM VOLUME
PROBE_ID                .cm          1.2700                                 :08 TTK PROBE ID
G0                      .            4.6700                                 :09 GEOMETRY FACTOR


~A                  TIME     DD_PRESS                              DD_VOLUME               TEMP                                   DD_PRESS_MOD_1000       DD_PRESS_MOD_100        DD_PRESS_MOD_10         DD_PRESS_MOD_1        DD_PRESS_MOD_01       DD_PRESS_MOD_001      DD_PRESS_MOD_0001
# ...
                   77.70    346.52123                               10.82155             82.539                                        3.46521e+002           4.65212e+001           6.52123e+000           5.21226e-001           2.12257e-002           1.22568e-003           2.25682e-004
                   77.80    346.52108                               10.82209             82.539                                        3.46521e+002           4.65211e+001           6.52108e+000           5.21075e-001           2.10750e-002           1.07503e-003           7.50278e-005
                   77.90    346.52103                               10.82399             82.539                                        3.46521e+002           4.65210e+001           6.52103e+000           5.21033e-001           2.10328e-002           1.03279e-003           3.27900e-005
                   78.00    346.52108                               10.82751             82.539                                        3.46521e+002           4.65211e+001           6.52108e+000           5.21084e-001           2.10843e-002           1.08429e-003           8.42940e-005
                   78.10    346.51770                               10.83305             82.539                                        3.46518e+002           4.65177e+001           6.51770e+000           5.17701e-001           1.77009e-002           7.70094e-003           7.00937e-004
                   78.20    346.51186                               10.84072             82.539                                        3.46512e+002           4.65119e+001           6.51186e+000           5.11864e-001           1.18640e-002           1.86397e-003           8.63966e-004
                   78.30    346.50325                               10.85065             82.539                                        3.46503e+002           4.65033e+001           6.50325e+000           5.03254e-001           3.25392e-003           3.25392e-003           2.53915e-004
                   78.40    346.49213                               10.86364             82.539                                        3.46492e+002           4.64921e+001           6.49213e+000           4.92132e-001           9.21322e-002           2.13223e-003           1.32227e-004
                   78.50    346.47772                               10.88054             82.539                                        3.46478e+002           4.64777e+001           6.47772e+000           4.77715e-001           7.77152e-002           7.71521e-003           7.15215e-004
                   78.60    346.45692                               10.90176             82.539                                        3.46457e+002           4.64569e+001           6.45692e+000           4.56923e-001           5.69230e-002           6.92297e-003           9.22966e-004
                   78.70    346.42663                               10.92760             82.539                                        3.46427e+002           4.64266e+001           6.42663e+000           4.26634e-001           2.66335e-002           6.63353e-003           6.33527e-004
                   78.80    346.39034                               10.95868             82.539                                        3.46390e+002           4.63903e+001           6.39034e+000           3.90342e-001           9.03423e-002           3.42295e-004           3.42295e-004
                   78.90    346.35244                               10.99542             82.539                                        3.46352e+002           4.63524e+001           6.35244e+000           3.52439e-001           5.24392e-002           2.43918e-003           4.39183e-004
                   79.00    346.30723                               11.03808             82.539                                        3.46307e+002           4.63072e+001           6.30723e+000           3.07226e-001           7.22615e-003           7.22615e-003           2.26150e-004
                   79.10    346.25237                               11.08716             82.539                                        3.46252e+002           4.62524e+001           6.25237e+000           2.52368e-001           5.23683e-002           2.36830e-003           3.68302e-004
                   79.20    346.18298                               11.14321             82.539                                        3.46183e+002           4.61830e+001           6.18298e+000           1.82980e-001           8.29804e-002           2.98038e-003           9.80379e-004
                   79.30    346.08186                               11.20637             82.539                                        3.46082e+002           4.60819e+001           6.08186e+000           8.18633e-002           8.18633e-002           1.86325e-003           8.63251e-004
                   79.40    345.95762                               11.27614             82.539                                        3.45958e+002           4.59576e+001           5.95762e+000           9.57624e-001           5.76237e-002           7.62374e-003           6.23741e-004
                   79.50    345.83957                               11.35251             82.539                                        3.45840e+002           4.58396e+001           5.83957e+000           8.39571e-001           3.95705e-002           9.57052e-003           5.70518e-004
                   79.60    345.75243                               11.43676             82.539                                        3.45752e+002           4.57524e+001           5.75243e+000           7.52435e-001           5.24349e-002           2.43485e-003           4.34852e-004
                   79.70    345.64512                               11.53010             82.539                                        3.45645e+002           4.56451e+001           5.64512e+000           6.45116e-001           4.51159e-002           5.11586e-003           1.15864e-004
                   79.80    345.53787                               11.63256             82.539                                        3.45538e+002           4.55379e+001           5.53787e+000           5.37871e-001           3.78706e-002           7.87061e-003           8.70612e-004
                   79.90    345.47701                               11.74569             82.539                                        3.45477e+002           4.54770e+001           5.47701e+000           4.77010e-001           7.70099e-002           7.00986e-003           9.86423e-006
                   80.00    345.41115                               11.87126             82.539                                        3.45411e+002           4.54112e+001           5.41115e+000           4.11152e-001           1.11516e-002           1.15160e-003           1.51599e-004
                   80.10    345.29097                               12.00871             82.539                                        3.45291e+002           4.52910e+001           5.29097e+000           2.90967e-001           9.09667e-002           9.66717e-004           9.66717e-004
                   80.20    345.17783                               12.15774             82.539                                        3.45178e+002           4.51778e+001           5.17783e+000           1.77835e-001           7.78347e-002           7.83473e-003           8.34734e-004
                   80.30    345.11608                               12.31983             82.539                                        3.45116e+002           4.51161e+001           5.11608e+000           1.16081e-001           1.60812e-002           6.08116e-003           8.11561e-005
                   80.40    345.14814                               12.49863             82.539                                        3.45148e+002           4.51481e+001           5.14814e+000           1.48136e-001           4.81362e-002           8.13621e-003           1.36210e-004
