~VERSION INFORMATION
VERS                    .            2.0                                    :CWLS LOG ASCII STANDARD
WRAP                    .            NO                                     :ONE LINE PER TIME STEP


~WELL INFORMATION
#MNEM                   .UNIT        DATA                                    DESCRIPTION
#________________________________________________________________________________________
STRTTIME                .HH/MM/SS    03:28:02                               :START TIME
STOPTIME                .HH/MM/SS    03:30:44                               :STOP TIME
STRT                    .s           2.10                                   :START DATA
STOP                    .s           160.80                                 :STOP DATA
STEP                    .s           0.10                                   :MEASUREMENT TIME INTERVAL
NULL                    .            -999.25                                :NULL VALUE
COMP                    .            Statoil ASA                            :COMPANY
FLD                     .            Volve                                  :FIELD
WELL                    .            15/9-F-1 C                             :WELL
RUN                     .            4                                      :RUN
LOC                     .                                                   :LOCATION
PROV                    .            na                                     :PROVINCE
SRVC                    .            Baker Hughes INTEQ                     :SERVICE COMPANY
DATE                    .YY/MM/DD    14/03/15                               :LOG DATE
UWI                     .                                                   :UNIQUE WELL ID
DEPTHMD                 .m           3493.0                                 :MEASURED DEPTH
DEPTHTVD                .m           2980.2                                 :TRUE VERTICAL DEPTH


~CURVE INFORMATION
#MNEM                   .UNIT        API CODES                               DESCRIPTION
#________________________________________________________________________________________
TIME                    .s                                                  :01 TIME
DD_PRESS                .bar                                                :02 DRAW DOWN PRESSURE
DD_VOLUME               .cm3                                                :03 INCREMENTAL DRAW DOWN VOLUME
TEMP                    .degC                                               :04 TRANSDUCER TEMPERATURE
DD_PRESS_MOD_1000       .bar                                                :05 DRAW DOWN PRESSURE MOD 1000
DD_PRESS_MOD_100        .bar                                                :06 DRAW DOWN PRESSURE MOD 100
DD_PRESS_MOD_10         .bar                                                :07 DRAW DOWN PRESSURE MOD 10
DD_PRESS_MOD_1          .bar                                                :08 DRAW DOWN PRESSURE MOD 1
DD_PRESS_MOD_01         .bar                                                :09 DRAW DOWN PRESSURE MOD 01
DD_PRESS_MOD_001        .bar                                                :10 DRAW DOWN PRESSURE MOD 001
DD_PRESS_MOD_0001       .bar                                                :11 DRAW DOWN PRESSURE MOD 0001


~PARAMETER INFORMATION
#MNEM                   .UNIT        VALUE                                   DESCRIPTION
#________________________________________________________________________________________
TOOLFACE                .deg         89.6                                   :01 TOOLFACE
PUMP_CAPACITY           .bar         400                                    :02 NOMINAL DRAW DOWN PUMP CAPACITY
PUMP_LIMIT              .bar         240                                    :03 DOWNLINK PUMP LIMIT
TIME_LIMIT              .min         10                                     :04 DOWNLINK MAX TIME
TEST_TYPE               .            REPEAT                                 :05 DOWNLINK
TEST_TYPE               .            HIGH MOBILITY                          :06 DOWNLINK
DD_PIST_A               .cm2         3.1416                                 :07 DRAW DOWN PISTON AREA
V_SYS                   .cm3         131.0000                               :08 SYSTEM VOLUME
PROBE_ID                .cm          1.2700                                 :09 TTK PROBE ID
G0                      .            4.6700                                 :10 GEOMETRY FACTOR


~A                  TIME     DD_PRESS                              DD_VOLUME               TEMP                                   DD_PRESS_MOD_1000       DD_PRESS_MOD_100        DD_PRESS_MOD_10         DD_PRESS_MOD_1        DD_PRESS_MOD_01       DD_PRESS_MOD_001      DD_PRESS_MOD_0001
# ...
                   55.30    340.45085                               10.76582             83.750                                        3.40451e+002           4.04509e+001           4.50855e-001           4.50855e-001           5.08548e-002           8.54847e-004           8.54847e-004
                   55.40    340.45116                               10.76582             83.750                                        3.40451e+002           4.04512e+001           4.51159e-001           4.51159e-001           5.11592e-002           1.15924e-003           1.59241e-004
                   55.50    340.45246                               10.76582             83.750                                        3.40452e+002           4.04525e+001           4.52460e-001           4.52460e-001           5.24596e-002           2.45957e-003           4.59568e-004
                   55.60    340.45379                               10.76582             83.750                                        3.40454e+002           4.04538e+001           4.53795e-001           4.53795e-001           5.37946e-002           3.79458e-003           7.94578e-004
                   55.70    340.45417                               10.76582             83.750                                        3.40454e+002           4.04542e+001           4.54166e-001           4.54166e-001           5.41657e-002           4.16568e-003           1.65679e-004
                   55.80    340.45378                               10.76582             83.750                                        3.40454e+002           4.04538e+001           4.53775e-001           4.53775e-001           5.37754e-002           3.77545e-003           7.75448e-004
                   55.90    340.45318                               10.76582             83.750                                        3.40453e+002           4.04532e+001           4.53177e-001           4.53177e-001           5.31765e-002           3.17652e-003           1.76521e-004
                   56.00    340.45369                               10.76582             83.750                                        3.40454e+002           4.04537e+001           4.53688e-001           4.53688e-001           5.36875e-002           3.68750e-003           6.87503e-004
                   56.10    340.45287                               10.76582             83.750                                        3.40453e+002           4.04529e+001           4.52869e-001           4.52869e-001           5.28687e-002           2.86870e-003           8.68704e-004
                   56.20    340.45162                               10.76582             83.750                                        3.40452e+002           4.04516e+001           4.51618e-001           4.51618e-001           5.16177e-002           1.61774e-003           6.17737e-004
                   56.30    340.45113                               10.76582             83.750                                        3.40451e+002           4.04511e+001           4.51134e-001           4.51134e-001           5.11341e-002           1.13411e-003           1.34107e-004
                   56.40    340.45149                               10.76582             83.750                                        3.40451e+002           4.04515e+001           4.51494e-001           4.51494e-001           5.14944e-002           1.49442e-003           4.94416e-004
                   56.50    340.45146                               10.76582             83.750                                        3.40451e+002           4.04515e+001           4.51460e-001           4.51460e-001           5.14598e-002           1.45982e-003           4.59818e-004
                   56.60    340.45313                               10.76582             83.750                                        3.40453e+002           4.04531e+001           4.53130e-001           4.53130e-001           5.31297e-002           3.12966e-003           1.29657e-004
                   56.70    340.45331                               10.76582             83.750                                        3.40453e+002           4.04533e+001           4.53308e-001           4.53308e-001           5.33081e-002           3.30811e-003           3.08113e-004
                   56.80    340.45160                               10.76582             83.750                                        3.40452e+002           4.04516e+001           4.51600e-001           4.51600e-001           5.15999e-002           1.59985e-003           5.99853e-004
                   56.90    340.45069                               10.76582             83.750                                        3.40451e+002           4.04507e+001           4.50690e-001           4.50690e-001           5.06897e-002           6.89699e-004           6.89699e-004
                   57.00    340.45069                               10.76582             83.750                                        3.40451e+002           4.04507e+001           4.50692e-001           4.50692e-001           5.06924e-002           6.92392e-004           6.92392e-004
                   57.10    340.45073                               10.76582             83.750                                        3.40451e+002           4.04507e+001           4.50734e-001           4.50734e-001           5.07338e-002           7.33768e-004           7.33768e-004
                   57.20    340.45108                               10.76582             83.750                                        3.40451e+002           4.04511e+001           4.51079e-001           4.51079e-001           5.10786e-002           1.07858e-003           7.85766e-005
                   57.30    340.45030                               10.76582             83.750                                        3.40450e+002           4.04503e+001           4.50296e-001           4.50296e-001           5.02960e-002           2.96012e-004           2.96012e-004
                   57.40    340.44976                               10.76582             83.750                                        3.40450e+002           4.04498e+001           4.49758e-001           4.49758e-001           4.97579e-002           9.75788e-003           7.57876e-004
                   57.50    340.45064                               10.76582             83.750                                        3.40451e+002           4.04506e+001           4.50643e-001           4.50643e-001           5.06430e-002           6.42959e-004           6.42959e-004
                   57.60    340.45168                               10.76582             83.750                                        3.40452e+002           4.04517e+001           4.51684e-001           4.51684e-001           5.16845e-002           1.68446e-003           6.84459e-004
                   57.70    340.45181                               10.76582             83.750                                        3.40452e+002           4.04518e+001           4.51811e-001           4.51811e-001           5.18107e-002           1.81068e-003           8.10677e-004
                   57.80    340.45149                               10.76582             83.750                                        3.40451e+002           4.04515e+001           4.51492e-001           4.51492e-001           5.14920e-002           1.49196e-003           4.91959e-004
                   57.90    340.45142                               10.76582             83.750                                        3.40451e+002           4.04514e+001           4.51419e-001           4.51419e-001           5.14185e-002           1.41854e-003           4.18536e-004
                   58.00    340.45134                               10.76582             83.750                                        3.40451e+002           4.04513e+001           4.51344e-001           4.51344e-001           5.13442e-002           1.34422e-003           3.44224e-004
