~VERSION INFORMATION
VERS                    .            2.0                                    :CWLS LOG ASCII STANDARD
WRAP                    .            NO                                     :ONE LINE PER TIME STEP


~WELL INFORMATION
#MNEM                   .UNIT        DATA                                    DESCRIPTION
#________________________________________________________________________________________
STRTTIME                .HH/MM/SS    22:39:37                               :START TIME
STOPTIME                .HH/MM/SS    22:43:03                               :STOP TIME
STRT                    .s           2.10                                   :START DATA
STOP                    .s           204.10                                 :STOP DATA
STEP                    .s           0.10                                   :MEASUREMENT TIME INTERVAL
NULL                    .            -999.25                                :NULL VALUE
COMP                    .            Statoil ASA                            :COMPANY
FLD                     .            Volve                                  :FIELD
WELL                    .            15/9-F-1 C                             :WELL
RUN                     .            4                                      :RUN
LOC                     .                                                   :LOCATION
PROV                    .            na                                     :PROVINCE
SRVC                    .            Baker Hughes INTEQ                     :SERVICE COMPANY
DATE                    .YY/MM/DD    14/03/14                               :LOG DATE
UWI                     .                                                   :UNIQUE WELL ID
DEPTHMD                 .m           3925.1                                 :MEASURED DEPTH
DEPTHTVD                .m           3120.2                                 :TRUE VERTICAL DEPTH


~CURVE INFORMATION
#MNEM                   .UNIT        API CODES                               DESCRIPTION
#________________________________________________________________________________________
TIME                    .s                                                  :01 TIME
DD_PRESS                .bar                                                :02 DRAW DOWN PRESSURE
DD_VOLUME               .cm3                                                :03 INCREMENTAL DRAW DOWN VOLUME
TEMP                    .degC                                               :04 TRANSDUCER TEMPERATURE
DD_PRESS_MOD_1000       .bar                                                :05 DRAW DOWN PRESSURE MOD 1000
DD_PRESS_MOD_100        .bar                                                :06 DRAW DOWN PRESSURE MOD 100
DD_PRESS_MOD_10         .bar                                                :07 DRAW DOWN PRESSURE MOD 10
DD_PRESS_MOD_1          .bar                                                :08 DRAW DOWN PRESSURE MOD 1
DD_PRESS_MOD_01         .bar                                                :09 DRAW DOWN PRESSURE MOD 01
DD_PRESS_MOD_001        .bar                                                :10 DRAW DOWN PRESSURE MOD 001
DD_PRESS_MOD_0001       .bar                                                :11 DRAW DOWN PRESSURE MOD 0001


~PARAMETER INFORMATION
#MNEM                   .UNIT        VALUE                                   DESCRIPTION
#________________________________________________________________________________________
TOOLFACE                .deg         -7.4                                   :01 TOOLFACE
PUMP_CAPACITY           .bar         400                                    :02 NOMINAL DRAW DOWN PUMP CAPACITY
PUMP_LIMIT              .bar         240                                    :03 DOWNLINK PUMP LIMIT
TIME_LIMIT              .min         10                                     :04 DOWNLINK MAX TIME
TEST_TYPE               .            HIGH MOBILITY                          :05 DOWNLINK
DD_PIST_A               .cm2         3.1416                                 :06 DRAW DOWN PISTON AREA
V_SYS                   .cm3         131.0000                               :07 SYSTEM VOLUME
PROBE_ID                .cm          1.2700                                 :08 TTK PROBE ID
G0                      .            4.6700                                 :09 GEOMETRY FACTOR


~A                  TIME     DD_PRESS                              DD_VOLUME               TEMP                                   DD_PRESS_MOD_1000       DD_PRESS_MOD_100        DD_PRESS_MOD_10         DD_PRESS_MOD_1        DD_PRESS_MOD_01       DD_PRESS_MOD_001      DD_PRESS_MOD_0001
# ...
                   80.50    353.18440                               10.80103             91.359                                        3.53184e+002           5.31844e+001           3.18440e+000           1.84400e-001           8.44001e-002           4.40014e-003           4.00142e-004
                   80.60    353.17985                               10.80103             91.359                                        3.53180e+002           5.31798e+001           3.17985e+000           1.79849e-001           7.98490e-002           9.84900e-003           8.48998e-004
                   80.70    353.17676                               10.80103             91.359                                        3.53177e+002           5.31768e+001           3.17676e+000           1.76757e-001           7.67568e-002           6.75683e-003           7.56834e-004
                   80.80    353.17734                               10.80103             91.359                                        3.53177e+002           5.31773e+001           3.17734e+000           1.77340e-001           7.73399e-002           7.33987e-003           3.39870e-004
                   80.90    353.17954                               10.80103             91.359                                        3.53180e+002           5.31795e+001           3.17954e+000           1.79543e-001           7.95432e-002           9.54322e-003           5.43216e-004
                   81.00    353.17855                               10.80103             91.359                                        3.53179e+002           5.31785e+001           3.17855e+000           1.78548e-001           7.85476e-002           8.54758e-003           5.47580e-004
                   81.10    353.17348                               10.80103             91.359                                        3.53173e+002           5.31735e+001           3.17348e+000           1.73476e-001           7.34759e-002           3.47594e-003           4.75937e-004
                   81.20    353.16904                               10.80103             91.359                                        3.53169e+002           5.31690e+001           3.16904e+000           1.69037e-001           6.90367e-002           9.03669e-003           3.66879e-005
                   81.30    353.16955                               10.80103             91.359                                        3.53170e+002           5.31696e+001           3.16955e+000           1.69553e-001           6.95526e-002           9.55261e-003           5.52609e-004
                   81.40    353.17214                               10.80103             91.359                                        3.53172e+002           5.31721e+001           3.17214e+000           1.72137e-001           7.21374e-002           2.13744e-003           1.37442e-004
                   81.50    353.17484                               10.80103             91.359                                        3.53175e+002           5.31748e+001           3.17484e+000           1.74844e-001           7.48441e-002           4.84412e-003           8.44116e-004
                   81.60    353.17408                               10.80103             91.359                                        3.53174e+002           5.31741e+001           3.17408e+000           1.74076e-001           7.40759e-002           4.07595e-003           7.59461e-005
                   81.70    353.17332                               10.80103             91.359                                        3.53173e+002           5.31733e+001           3.17332e+000           1.73315e-001           7.33152e-002           3.31523e-003           3.15227e-004
                   81.80    353.17161                               10.80103             91.359                                        3.53172e+002           5.31716e+001           3.17161e+000           1.71614e-001           7.16141e-002           1.61410e-003           6.14102e-004
                   81.90    353.17049                               10.80103             91.359                                        3.53170e+002           5.31705e+001           3.17049e+000           1.70490e-001           7.04905e-002           4.90481e-004           4.90481e-004
                   82.00    353.17074                               10.80103             91.359                                        3.53171e+002           5.31707e+001           3.17074e+000           1.70738e-001           7.07381e-002           7.38064e-004           7.38064e-004
                   82.10    353.17600                               10.80103             91.359                                        3.53176e+002           5.31760e+001           3.17600e+000           1.76004e-001           7.60043e-002           6.00432e-003           4.31638e-006
                   82.20    353.17466                               10.80103             91.359                                        3.53175e+002           5.31747e+001           3.17466e+000           1.74657e-001           7.46571e-002           4.65708e-003           6.57084e-004
                   82.30    353.16680                               10.80103             91.359                                        3.53167e+002           5.31668e+001           3.16680e+000           1.66803e-001           6.68031e-002           6.80311e-003           8.03113e-004
                   82.40    353.16520                               10.80103             91.359                                        3.53165e+002           5.31652e+001           3.16520e+000           1.65202e-001           6.52024e-002           5.20241e-003           2.02413e-004
                   82.50    353.17117                               10.80103             91.359                                        3.53171e+002           5.31712e+001           3.17117e+000           1.71173e-001           7.11732e-002           1.17320e-003           1.73203e-004
                   82.60    353.17321                               10.80103             91.359                                        3.53173e+002           5.31732e+001           3.17321e+000           1.73209e-001           7.32092e-002           3.20919e-003           2.09190e-004
                   82.70    353.17023                               10.80103             91.359                                        3.53170e+002           5.31702e+001           3.17023e+000           1.70234e-001           7.02337e-002           2.33672e-004           2.33672e-004
                   82.80    353.16702                               10.80103             91.359                                        3.53167e+002           5.31670e+001           3.16702e+000           1.67020e-001           6.70195e-002           7.01953e-003           1.95299e-005
                   82.90    353.16972                               10.80103             91.359                                        3.53170e+002           5.31697e+001           3.16972e+000           1.69717e-001           6.97165e-002           9.71653e-003           7.16530e-004
                   83.00    353.17465                               10.80103             91.359                                        3.53175e+002           5.31747e+001           3.17465e+000           1.74651e-001           7.46513e-002           4.65135e-003           6.51348e-004
                   83.10    353.17390                               10.80103             91.359                                        3.53174e+002           5.31739e+001           3.17390e+000           1.73898e-001           7.38982e-002           3.89819e-003           8.98192e-004
                   83.20    353.16555                               10.80103             91.359                                        3.53166e+002           5.31656e+001           3.16555e+000           1.65551e-001           6.55510e-002           5.55100e-003           5.50997e-004
