~VERSION INFORMATION
VERS                    .            2.0                                    :CWLS LOG ASCII STANDARD
WRAP                    .            NO                                     :ONE LINE PER TIME STEP


~WELL INFORMATION
#MNEM                   .UNIT        DATA                                    DESCRIPTION
#________________________________________________________________________________________
STRTTIME                .HH/MM/SS    09:43:23                               :START TIME
STOPTIME                .HH/MM/SS    09:46:50                               :STOP TIME
STRT                    .s           2.10                                   :START DATA
STOP                    .s           205.20                                 :STOP DATA
STEP                    .s           0.10                                   :MEASUREMENT TIME INTERVAL
NULL                    .            -999.25                                :NULL VALUE
COMP                    .            Statoil ASA                            :COMPANY
FLD                     .            Volve                                  :FIELD
WELL                    .            15/9-F-11 A                            :WELL
RUN                     .            8                                      :RUN
LOC                     .            Maersk Inspirer                        :LOCATION
PROV                    .            na                                     :PROVINCE
SRVC                    .            Baker Hughes INTEQ                     :SERVICE COMPANY
DATE                    .YY/MM/DD    13/05/21                               :LOG DATE
UWI                     .                                                   :UNIQUE WELL ID
DEPTHMD                 .m           3665.9                                 :MEASURED DEPTH
DEPTHTVD                .m           3052.8                                 :TRUE VERTICAL DEPTH


~CURVE INFORMATION
#MNEM                   .UNIT        API CODES                               DESCRIPTION
#________________________________________________________________________________________
TIME                    .s                                                  :01 TIME
DD_PRESS                .bar                                                :02 DRAW DOWN PRESSURE
DD_VOLUME               .cm3                                                :03 INCREMENTAL DRAW DOWN VOLUME
TEMP                    .degC                                               :04 TRANSDUCER TEMPERATURE
DD_PRESS_MOD_1000       .bar                                                :05 DRAW DOWN PRESSURE MOD 1000
DD_PRESS_MOD_100        .bar                                                :06 DRAW DOWN PRESSURE MOD 100
DD_PRESS_MOD_10         .bar                                                :07 DRAW DOWN PRESSURE MOD 10
DD_PRESS_MOD_1          .bar                                                :08 DRAW DOWN PRESSURE MOD 1
DD_PRESS_MOD_01         .bar                                                :09 DRAW DOWN PRESSURE MOD 01
DD_PRESS_MOD_001        .bar                                                :10 DRAW DOWN PRESSURE MOD 001
DD_PRESS_MOD_0001       .bar                                                :11 DRAW DOWN PRESSURE MOD 0001


~PARAMETER INFORMATION
#MNEM                   .UNIT        VALUE                                   DESCRIPTION
#________________________________________________________________________________________
TOOLFACE                .deg         60.0                                   :01 TOOLFACE
PUMP_CAPACITY           .bar         400                                    :02 NOMINAL DRAW DOWN PUMP CAPACITY
PUMP_LIMIT              .bar         240                                    :03 DOWNLINK PUMP LIMIT
TIME_LIMIT              .min         10                                     :04 DOWNLINK MAX TIME
TEST_TYPE               .            REPEAT                                 :05 DOWNLINK
TEST_TYPE               .            HIGH MOBILITY                          :06 DOWNLINK
DD_PIST_A               .cm2         3.1416                                 :07 DRAW DOWN PISTON AREA
V_SYS                   .cm3         131.0000                               :08 SYSTEM VOLUME
PROBE_ID                .cm          1.2700                                 :09 TTK PROBE ID
G0                      .            4.6700                                 :10 GEOMETRY FACTOR


~A                  TIME     DD_PRESS                              DD_VOLUME               TEMP                                   DD_PRESS_MOD_1000       DD_PRESS_MOD_100        DD_PRESS_MOD_10         DD_PRESS_MOD_1        DD_PRESS_MOD_01       DD_PRESS_MOD_001      DD_PRESS_MOD_0001
# ...
                   55.30    344.72148                               10.66748             83.180                                        3.44721e+002           4.47215e+001           4.72148e+000           7.21482e-001           2.14823e-002           1.48233e-003           4.82327e-004
                   55.40    344.72383                               10.66748             83.180                                        3.44724e+002           4.47238e+001           4.72383e+000           7.23830e-001           2.38298e-002           3.82980e-003           8.29803e-004
                   55.50    344.71571                               10.66748             83.180                                        3.44716e+002           4.47157e+001           4.71571e+000           7.15709e-001           1.57091e-002           5.70912e-003           7.09124e-004
                   55.60    344.71079                               10.66748             83.180                                        3.44711e+002           4.47108e+001           4.71079e+000           7.10793e-001           1.07934e-002           7.93351e-004           7.93351e-004
                   55.70    344.71034                               10.66748             83.180                                        3.44710e+002           4.47103e+001           4.71034e+000           7.10337e-001           1.03372e-002           3.37246e-004           3.37246e-004
                   55.80    344.71535                               10.66748             83.180                                        3.44715e+002           4.47154e+001           4.71535e+000           7.15352e-001           1.53516e-002           5.35156e-003           3.51558e-004
                   55.90    344.71739                               10.66748             83.180                                        3.44717e+002           4.47174e+001           4.71739e+000           7.17394e-001           1.73936e-002           7.39357e-003           3.93571e-004
                   56.00    344.71327                               10.66748             83.180                                        3.44713e+002           4.47133e+001           4.71327e+000           7.13274e-001           1.32741e-002           3.27409e-003           2.74090e-004
                   56.10    344.71098                               10.66748             83.180                                        3.44711e+002           4.47110e+001           4.71098e+000           7.10975e-001           1.09753e-002           9.75279e-004           9.75279e-004
                   56.20    344.70987                               10.66748             83.180                                        3.44710e+002           4.47099e+001           4.70987e+000           7.09866e-001           9.86565e-003           9.86565e-003           8.65651e-004
                   56.30    344.71515                               10.66748             83.180                                        3.44715e+002           4.47152e+001           4.71515e+000           7.15151e-001           1.51511e-002           5.15113e-003           1.51130e-004
                   56.40    344.72207                               10.66748             83.180                                        3.44722e+002           4.47221e+001           4.72207e+000           7.22074e-001           2.20739e-002           2.07386e-003           7.38635e-005
                   56.50    344.72614                               10.66748             83.180                                        3.44726e+002           4.47261e+001           4.72614e+000           7.26139e-001           2.61388e-002           6.13879e-003           1.38793e-004
                   56.60    344.72243                               10.66748             83.180                                        3.44722e+002           4.47224e+001           4.72243e+000           7.22430e-001           2.24300e-002           2.43002e-003           4.30017e-004
                   56.70    344.71617                               10.66748             83.180                                        3.44716e+002           4.47162e+001           4.71617e+000           7.16173e-001           1.61734e-002           6.17341e-003           1.73415e-004
                   56.80    344.71384                               10.66748             83.180                                        3.44714e+002           4.47138e+001           4.71384e+000           7.13838e-001           1.38382e-002           3.83820e-003           8.38198e-004
                   56.90    344.71463                               10.66748             83.180                                        3.44715e+002           4.47146e+001           4.71463e+000           7.14632e-001           1.46319e-002           4.63191e-003           6.31914e-004
                   57.00    344.71163                               10.66748             83.180                                        3.44712e+002           4.47116e+001           4.71163e+000           7.11627e-001           1.16267e-002           1.62667e-003           6.26667e-004
                   57.10    344.70797                               10.66748             83.180                                        3.44708e+002           4.47080e+001           4.70797e+000           7.07972e-001           7.97178e-003           7.97178e-003           9.71779e-004
                   57.20    344.70820                               10.66748             83.180                                        3.44708e+002           4.47082e+001           4.70820e+000           7.08200e-001           8.20008e-003           8.20008e-003           2.00085e-004
                   57.30    344.71793                               10.66748             83.180                                        3.44718e+002           4.47179e+001           4.71793e+000           7.17926e-001           1.79259e-002           7.92593e-003           9.25925e-004
                   57.40    344.73022                               10.66748             83.180                                        3.44730e+002           4.47302e+001           4.73022e+000           7.30217e-001           3.02168e-002           2.16795e-004           2.16795e-004
                   57.50    344.73245                               10.66748             83.180                                        3.44732e+002           4.47325e+001           4.73245e+000           7.32452e-001           3.24516e-002           2.45158e-003           4.51581e-004
                   57.60    344.72636                               10.66748             83.180                                        3.44726e+002           4.47264e+001           4.72636e+000           7.26359e-001           2.63590e-002           6.35901e-003           3.59015e-004
                   57.70    344.71789                               10.66748             83.180                                        3.44718e+002           4.47179e+001           4.71789e+000           7.17887e-001           1.78873e-002           7.88731e-003           8.87315e-004
                   57.80    344.72078                               10.66748             83.180                                        3.44721e+002           4.47208e+001           4.72078e+000           7.20782e-001           2.07819e-002           7.81869e-004           7.81869e-004
                   57.90    344.72706                               10.66748             83.180                                        3.44727e+002           4.47271e+001           4.72706e+000           7.27058e-001           2.70579e-002           7.05795e-003           5.79463e-005
                   58.00    344.72557                               10.66748             83.180                                        3.44726e+002           4.47256e+001           4.72557e+000           7.25569e-001           2.55691e-002           5.56909e-003           5.69090e-004
