~VERSION INFORMATION
VERS                    .            2.0                                    :CWLS LOG ASCII STANDARD
WRAP                    .            NO                                     :ONE LINE PER TIME STEP


~WELL INFORMATION
#MNEM                   .UNIT        DATA                                    DESCRIPTION
#________________________________________________________________________________________
STRTTIME                .HH/MM/SS    02:14:19                               :START TIME
STOPTIME                .HH/MM/SS    02:17:23                               :STOP TIME
STRT                    .s           2.10                                   :START DATA
STOP                    .s           182.70                                 :STOP DATA
STEP                    .s           0.10                                   :MEASUREMENT TIME INTERVAL
NULL                    .            -999.25                                :NULL VALUE
COMP                    .            Statoil ASA                            :COMPANY
FLD                     .            Volve                                  :FIELD
WELL                    .            15/9-F-1 C                             :WELL
RUN                     .            4                                      :RUN
LOC                     .                                                   :LOCATION
PROV                    .            na                                     :PROVINCE
SRVC                    .            Baker Hughes INTEQ                     :SERVICE COMPANY
DATE                    .YY/MM/DD    14/03/15                               :LOG DATE
UWI                     .                                                   :UNIQUE WELL ID
DEPTHMD                 .m           3603.0                                 :MEASURED DEPTH
DEPTHTVD                .m           3006.7                                 :TRUE VERTICAL DEPTH


~CURVE INFORMATION
#MNEM                   .UNIT        API CODES                               DESCRIPTION
#________________________________________________________________________________________
TIME                    .s                                                  :01 TIME
DD_PRESS                .bar                                                :02 DRAW DOWN PRESSURE
DD_VOLUME               .cm3                                                :03 INCREMENTAL DRAW DOWN VOLUME
TEMP                    .degC                                               :04 TRANSDUCER TEMPERATURE
DD_PRESS_MOD_1000       .bar                                                :05 DRAW DOWN PRESSURE MOD 1000
DD_PRESS_MOD_100        .bar                                                :06 DRAW DOWN PRESSURE MOD 100
DD_PRESS_MOD_10         .bar                                                :07 DRAW DOWN PRESSURE MOD 10
DD_PRESS_MOD_1          .bar                                                :08 DRAW DOWN PRESSURE MOD 1
DD_PRESS_MOD_01         .bar                                                :09 DRAW DOWN PRESSURE MOD 01
DD_PRESS_MOD_001        .bar                                                :10 DRAW DOWN PRESSURE MOD 001
DD_PRESS_MOD_0001       .bar                                                :11 DRAW DOWN PRESSURE MOD 0001


~PARAMETER INFORMATION
#MNEM                   .UNIT        VALUE                                   DESCRIPTION
#________________________________________________________________________________________
TOOLFACE                .deg         109.6                                  :01 TOOLFACE
PUMP_CAPACITY           .bar         400                                    :02 NOMINAL DRAW DOWN PUMP CAPACITY
PUMP_LIMIT              .bar         240                                    :03 DOWNLINK PUMP LIMIT
TIME_LIMIT              .min         10                                     :04 DOWNLINK MAX TIME
TEST_TYPE               .            REPEAT                                 :05 DOWNLINK
TEST_TYPE               .            HIGH MOBILITY                          :06 DOWNLINK
DD_PIST_A               .cm2         3.1416                                 :07 DRAW DOWN PISTON AREA
V_SYS                   .cm3         131.0000                               :08 SYSTEM VOLUME
PROBE_ID                .cm          1.2700                                 :09 TTK PROBE ID
G0                      .            4.6700                                 :10 GEOMETRY FACTOR


~A                  TIME     DD_PRESS                              DD_VOLUME               TEMP                                   DD_PRESS_MOD_1000       DD_PRESS_MOD_100        DD_PRESS_MOD_10         DD_PRESS_MOD_1        DD_PRESS_MOD_01       DD_PRESS_MOD_001      DD_PRESS_MOD_0001
                    2.10    425.90756                                0.00000             86.227                                        4.25908e+002           2.59076e+001           5.90756e+000           9.07564e-001           7.56397e-003           7.56397e-003           5.63974e-004
                    2.20    425.89411                                0.00000             86.224                                        4.25894e+002           2.58941e+001           5.89411e+000           8.94108e-001           9.41080e-002           4.10803e-003           1.08031e-004
                    2.30    425.91263                                0.00000             86.221                                        4.25913e+002           2.59126e+001           5.91263e+000           9.12627e-001           1.26266e-002           2.62665e-003           6.26648e-004
                    2.40    425.92744                                0.00000             86.219                                        4.25927e+002           2.59274e+001           5.92744e+000           9.27439e-001           2.74390e-002           7.43904e-003           4.39041e-004
                    2.50    425.90984                                0.00000             86.219                                        4.25910e+002           2.59098e+001           5.90984e+000           9.09841e-001           9.84068e-003           9.84068e-003           8.40677e-004
                    2.60    425.89507                                0.00000             86.219                                        4.25895e+002           2.58951e+001           5.89507e+000           8.95069e-001           9.50687e-002           5.06875e-003           6.87473e-005
                    2.70    425.92611                                0.00000             86.219                                        4.25926e+002           2.59261e+001           5.92611e+000           9.26107e-001           2.61071e-002           6.10712e-003           1.07118e-004
                    2.80    425.96779                                0.00000             86.219                                        4.25968e+002           2.59678e+001           5.96779e+000           9.67791e-001           6.77909e-002           7.79091e-003           7.90906e-004
                    2.90    425.96823                                0.00000             86.219                                        4.25968e+002           2.59682e+001           5.96823e+000           9.68226e-001           6.82261e-002           8.22613e-003           2.26126e-004
                    3.00    425.94170                                0.00000             86.219                                        4.25942e+002           2.59417e+001           5.94170e+000           9.41701e-001           4.17014e-002           1.70144e-003           7.01438e-004
                    3.10    425.94498                                0.00000             86.219                                        4.25945e+002           2.59450e+001           5.94498e+000           9.44984e-001           4.49838e-002           4.98384e-003           9.83836e-004
                    3.20    426.01276                                0.00000             86.219                                        4.26013e+002           2.60128e+001           6.01276e+000           1.27596e-002           1.27596e-002           2.75957e-003           7.59575e-004
                    3.30    426.07692                                0.00000             86.219                                        4.26077e+002           2.60769e+001           6.07692e+000           7.69167e-002           7.69167e-002           6.91673e-003           9.16733e-004
                    3.40    426.06743                                0.00000             86.219                                        4.26067e+002           2.60674e+001           6.06743e+000           6.74254e-002           6.74254e-002           7.42544e-003           4.25444e-004
                    3.50    426.03902                                0.00000             86.219                                        4.26039e+002           2.60390e+001           6.03902e+000           3.90162e-002           3.90162e-002           9.01620e-003           1.61954e-005
                    3.60    426.06230                                0.00000             86.219                                        4.26062e+002           2.60623e+001           6.06230e+000           6.23032e-002           6.23032e-002           2.30319e-003           3.03189e-004
                    3.70    426.11138                                0.00000             86.219                                        4.26111e+002           2.61114e+001           6.11138e+000           1.11376e-001           1.13761e-002           1.37606e-003           3.76056e-004
                    3.80    426.11643                                0.00000             86.219                                        4.26116e+002           2.61164e+001           6.11643e+000           1.16427e-001           1.64266e-002           6.42664e-003           4.26638e-004
                    3.90    426.09150                                0.00000             86.219                                        4.26091e+002           2.60915e+001           6.09150e+000           9.14972e-002           9.14972e-002           1.49722e-003           4.97223e-004
                    4.00    426.09047                                0.00000             86.219                                        4.26090e+002           2.60905e+001           6.09047e+000           9.04666e-002           9.04666e-002           4.66570e-004           4.66570e-004
                    4.10    426.12113                                0.00000             86.219                                        4.26121e+002           2.61211e+001           6.12113e+000           1.21126e-001           2.11257e-002           1.12569e-003           1.25689e-004
                    4.20    426.15437                                0.00000             86.219                                        4.26154e+002           2.61544e+001           6.15437e+000           1.54369e-001           5.43690e-002           4.36897e-003           3.68968e-004
                    4.30    426.16303                                0.00000             86.219                                        4.26163e+002           2.61630e+001           6.16303e+000           1.63033e-001           6.30329e-002           3.03289e-003           3.28919e-005
                    4.40    426.15712                                0.00000             86.219                                        4.26157e+002           2.61571e+001           6.15712e+000           1.57123e-001           5.71233e-002           7.12329e-003           1.23295e-004
                    4.50    426.16359                                0.00000             86.219                                        4.26164e+002           2.61636e+001           6.16359e+000           1.63587e-001           6.35868e-002           3.58680e-003           5.86800e-004
                    4.60    426.17800                                0.00000             86.219                                        4.26178e+002           2.61780e+001           6.17800e+000           1.78000e-001           7.79997e-002           7.99966e-003           9.99658e-004
                    4.70    426.18420                                0.00000             86.219                                        4.26184e+002           2.61842e+001           6.18420e+000           1.84203e-001           8.42035e-002           4.20346e-003           2.03465e-004
                    4.80    426.19172                                0.00000             86.219                                        4.26192e+002           2.61917e+001           6.19172e+000           1.91721e-001           9.17208e-002           1.72085e-003           7.20850e-004
