~VERSION INFORMATION
VERS                    .            2.0                                    :CWLS LOG ASCII STANDARD
WRAP                    .            NO                                     :ONE LINE PER TIME STEP


~WELL INFORMATION
#MNEM                   .UNIT        DATA                                    DESCRIPTION
#________________________________________________________________________________________
STRTTIME                .HH/MM/SS    09:08:53                               :START TIME
STOPTIME                .HH/MM/SS    09:11:57                               :STOP TIME
STRT                    .s           2.10                                   :START DATA
STOP                    .s           182.80                                 :STOP DATA
STEP                    .s           0.10                                   :MEASUREMENT TIME INTERVAL
NULL                    .            -999.25                                :NULL VALUE
COMP                    .            Statoil ASA                            :COMPANY
FLD                     .            Volve                                  :FIELD
WELL                    .            15/9-F-11 A                            :WELL
RUN                     .            8                                      :RUN
LOC                     .            Maersk Inspirer                        :LOCATION
PROV                    .            na                                     :PROVINCE
SRVC                    .            Baker Hughes INTEQ                     :SERVICE COMPANY
DATE                    .YY/MM/DD    13/05/21                               :LOG DATE
UWI                     .                                                   :UNIQUE WELL ID
DEPTHMD                 .m           3671.1                                 :MEASURED DEPTH
DEPTHTVD                .m           3056.7                                 :TRUE VERTICAL DEPTH


~CURVE INFORMATION
#MNEM                   .UNIT        API CODES                               DESCRIPTION
#________________________________________________________________________________________
TIME                    .s                                                  :01 TIME
DD_PRESS                .bar                                                :02 DRAW DOWN PRESSURE
DD_VOLUME               .cm3                                                :03 INCREMENTAL DRAW DOWN VOLUME
TEMP                    .degC                                               :04 TRANSDUCER TEMPERATURE
DD_PRESS_MOD_1000       .bar                                                :05 DRAW DOWN PRESSURE MOD 1000
DD_PRESS_MOD_100        .bar                                                :06 DRAW DOWN PRESSURE MOD 100
DD_PRESS_MOD_10         .bar                                                :07 DRAW DOWN PRESSURE MOD 10
DD_PRESS_MOD_1          .bar                                                :08 DRAW DOWN PRESSURE MOD 1
DD_PRESS_MOD_01         .bar                                                :09 DRAW DOWN PRESSURE MOD 01
DD_PRESS_MOD_001        .bar                                                :10 DRAW DOWN PRESSURE MOD 001
DD_PRESS_MOD_0001       .bar                                                :11 DRAW DOWN PRESSURE MOD 0001


~PARAMETER INFORMATION
#MNEM                   .UNIT        VALUE                                   DESCRIPTION
#________________________________________________________________________________________
TOOLFACE                .deg         -56.2                                  :01 TOOLFACE
PUMP_CAPACITY           .bar         400                                    :02 NOMINAL DRAW DOWN PUMP CAPACITY
PUMP_LIMIT              .bar         240                                    :03 DOWNLINK PUMP LIMIT
TIME_LIMIT              .min         10                                     :04 DOWNLINK MAX TIME
TEST_TYPE               .            REPEAT                                 :05 DOWNLINK
TEST_TYPE               .            HIGH MOBILITY                          :06 DOWNLINK
DD_PIST_A               .cm2         3.1416                                 :07 DRAW DOWN PISTON AREA
V_SYS                   .cm3         131.0000                               :08 SYSTEM VOLUME
PROBE_ID                .cm          1.2700                                 :09 TTK PROBE ID
G0                      .            4.6700                                 :10 GEOMETRY FACTOR


~A                  TIME     DD_PRESS                              DD_VOLUME               TEMP                                   DD_PRESS_MOD_1000       DD_PRESS_MOD_100        DD_PRESS_MOD_10         DD_PRESS_MOD_1        DD_PRESS_MOD_01       DD_PRESS_MOD_001      DD_PRESS_MOD_0001
# ...
                  133.70    345.02313                               26.33602             82.406                                        3.45023e+002           4.50231e+001           5.02313e+000           2.31326e-002           2.31326e-002           3.13259e-003           1.32590e-004
                  133.80    345.03275                               26.33602             82.406                                        3.45033e+002           4.50327e+001           5.03275e+000           3.27495e-002           3.27495e-002           2.74949e-003           7.49486e-004
                  133.90    345.05955                               26.33602             82.406                                        3.45060e+002           4.50595e+001           5.05955e+000           5.95468e-002           5.95468e-002           9.54683e-003           5.46833e-004
                  134.00    345.05195                               26.33602             82.406                                        3.45052e+002           4.50520e+001           5.05195e+000           5.19513e-002           5.19513e-002           1.95126e-003           9.51262e-004
                  134.10    345.02718                               26.33602             82.406                                        3.45027e+002           4.50272e+001           5.02718e+000           2.71756e-002           2.71756e-002           7.17565e-003           1.75647e-004
                  134.20    345.02830                               26.33602             82.406                                        3.45028e+002           4.50283e+001           5.02830e+000           2.83019e-002           2.83019e-002           8.30186e-003           3.01858e-004
                  134.30    345.03816                               26.33602             82.406                                        3.45038e+002           4.50382e+001           5.03816e+000           3.81566e-002           3.81566e-002           8.15665e-003           1.56647e-004
                  134.40    345.03141                               26.33602             82.406                                        3.45031e+002           4.50314e+001           5.03141e+000           3.14145e-002           3.14145e-002           1.41455e-003           4.14549e-004
                  134.50    345.02645                               26.33602             82.406                                        3.45026e+002           4.50265e+001           5.02645e+000           2.64520e-002           2.64520e-002           6.45203e-003           4.52034e-004
                  134.60    345.03229                               26.33602             82.406                                        3.45032e+002           4.50323e+001           5.03229e+000           3.22939e-002           3.22939e-002           2.29393e-003           2.93927e-004
                  134.70    345.03290                               26.33602             82.406                                        3.45033e+002           4.50329e+001           5.03290e+000           3.28951e-002           3.28951e-002           2.89505e-003           8.95052e-004
                  134.80    345.03690                               26.33602             82.406                                        3.45037e+002           4.50369e+001           5.03690e+000           3.69024e-002           3.69024e-002           6.90240e-003           9.02396e-004
                  134.90    345.04839                               26.33602             82.406                                        3.45048e+002           4.50484e+001           5.04839e+000           4.83941e-002           4.83941e-002           8.39407e-003           3.94067e-004
                  135.00    345.04870                               26.33602             82.406                                        3.45049e+002           4.50487e+001           5.04870e+000           4.87024e-002           4.87024e-002           8.70241e-003           7.02411e-004
                  135.10    345.03443                               26.33602             82.406                                        3.45034e+002           4.50344e+001           5.03443e+000           3.44292e-002           3.44292e-002           4.42916e-003           4.29164e-004
                  135.20    345.02405                               26.33602             82.406                                        3.45024e+002           4.50241e+001           5.02405e+000           2.40509e-002           2.40509e-002           4.05086e-003           5.08552e-005
                  135.30    345.02532                               26.33602             82.406                                        3.45025e+002           4.50253e+001           5.02532e+000           2.53188e-002           2.53188e-002           5.31878e-003           3.18778e-004
                  135.40    345.03226                               26.33602             82.406                                        3.45032e+002           4.50323e+001           5.03226e+000           3.22586e-002           3.22586e-002           2.25860e-003           2.58604e-004
                  135.50    345.03808                               26.33602             82.406                                        3.45038e+002           4.50381e+001           5.03808e+000           3.80803e-002           3.80803e-002           8.08026e-003           8.02555e-005
                  135.60    345.03822                               26.33602             82.406                                        3.45038e+002           4.50382e+001           5.03822e+000           3.82224e-002           3.82224e-002           8.22236e-003           2.22360e-004
                  135.70    345.03828                               26.33602             82.406                                        3.45038e+002           4.50383e+001           5.03828e+000           3.82824e-002           3.82824e-002           8.28236e-003           2.82363e-004
                  135.80    345.05119                               26.33602             82.406                                        3.45051e+002           4.50512e+001           5.05119e+000           5.11871e-002           5.11871e-002           1.18708e-003           1.87085e-004
                  135.90    345.04547                               26.33602             82.406                                        3.45045e+002           4.50455e+001           5.04547e+000           4.54746e-002           4.54746e-002           5.47460e-003           4.74596e-004
                  136.00    345.02929                               26.33602             82.406                                        3.45029e+002           4.50293e+001           5.02929e+000           2.92930e-002           2.92930e-002           9.29304e-003           2.93035e-004
                  136.10    345.03543                               26.33602             82.406                                        3.45035e+002           4.50354e+001           5.03543e+000           3.54338e-002           3.54338e-002           5.43381e-003           4.33814e-004
                  136.20    345.05997                               26.33602             82.406                                        3.45060e+002           4.50600e+001           5.05997e+000           5.99702e-002           5.99702e-002           9.97025e-003           9.70249e-004
                  136.30    345.05809                               26.33602             82.406                                        3.45058e+002           4.50581e+001           5.05809e+000           5.80924e-002           5.80924e-002           8.09237e-003           9.23728e-005
                  136.40    345.03255                               26.33602             82.406                                        3.45033e+002           4.50325e+001           5.03255e+000           3.25461e-002           3.25461e-002           2.54605e-003           5.46053e-004
