~VERSION INFORMATION
VERS                    .            2.0                                    :CWLS LOG ASCII STANDARD
WRAP                    .            NO                                     :ONE LINE PER TIME STEP


~WELL INFORMATION
#MNEM                   .UNIT        DATA                                    DESCRIPTION
#________________________________________________________________________________________
STRTTIME                .HH/MM/SS    01:04:55                               :START TIME
STOPTIME                .HH/MM/SS    01:07:44                               :STOP TIME
STRT                    .s           2.10                                   :START DATA
STOP                    .s           167.40                                 :STOP DATA
STEP                    .s           0.10                                   :MEASUREMENT TIME INTERVAL
NULL                    .            -999.25                                :NULL VALUE
COMP                    .            Statoil ASA                            :COMPANY
FLD                     .            Volve                                  :FIELD
WELL                    .            15/9-F-1 C                             :WELL
RUN                     .            4                                      :RUN
LOC                     .                                                   :LOCATION
PROV                    .            na                                     :PROVINCE
SRVC                    .            Baker Hughes INTEQ                     :SERVICE COMPANY
DATE                    .YY/MM/DD    14/03/15                               :LOG DATE
UWI                     .                                                   :UNIQUE WELL ID
DEPTHMD                 .m           3720.1                                 :MEASURED DEPTH
DEPTHTVD                .m           3050.6                                 :TRUE VERTICAL DEPTH


~CURVE INFORMATION
#MNEM                   .UNIT        API CODES                               DESCRIPTION
#________________________________________________________________________________________
TIME                    .s                                                  :01 TIME
DD_PRESS                .bar                                                :02 DRAW DOWN PRESSURE
DD_VOLUME               .cm3                                                :03 INCREMENTAL DRAW DOWN VOLUME
TEMP                    .degC                                               :04 TRANSDUCER TEMPERATURE
DD_PRESS_MOD_1000       .bar                                                :05 DRAW DOWN PRESSURE MOD 1000
DD_PRESS_MOD_100        .bar                                                :06 DRAW DOWN PRESSURE MOD 100
DD_PRESS_MOD_10         .bar                                                :07 DRAW DOWN PRESSURE MOD 10
DD_PRESS_MOD_1          .bar                                                :08 DRAW DOWN PRESSURE MOD 1
DD_PRESS_MOD_01         .bar                                                :09 DRAW DOWN PRESSURE MOD 01
DD_PRESS_MOD_001        .bar                                                :10 DRAW DOWN PRESSURE MOD 001
DD_PRESS_MOD_0001       .bar                                                :11 DRAW DOWN PRESSURE MOD 0001


~PARAMETER INFORMATION
#MNEM                   .UNIT        VALUE                                   DESCRIPTION
#________________________________________________________________________________________
TOOLFACE                .deg         134.6                                  :01 TOOLFACE
PUMP_CAPACITY           .bar         400                                    :02 NOMINAL DRAW DOWN PUMP CAPACITY
PUMP_LIMIT              .bar         240                                    :03 DOWNLINK PUMP LIMIT
TIME_LIMIT              .min         10                                     :04 DOWNLINK MAX TIME
TEST_TYPE               .            REPEAT                                 :05 DOWNLINK
TEST_TYPE               .            HIGH MOBILITY                          :06 DOWNLINK
DD_PIST_A               .cm2         3.1416                                 :07 DRAW DOWN PISTON AREA
V_SYS                   .cm3         131.0000                               :08 SYSTEM VOLUME
PROBE_ID                .cm          1.2700                                 :09 TTK PROBE ID
G0                      .            4.6700                                 :10 GEOMETRY FACTOR


~A                  TIME     DD_PRESS                              DD_VOLUME               TEMP                                   DD_PRESS_MOD_1000       DD_PRESS_MOD_100        DD_PRESS_MOD_10         DD_PRESS_MOD_1        DD_PRESS_MOD_01       DD_PRESS_MOD_001      DD_PRESS_MOD_0001
# ...
                  122.50    348.27347                               29.43330             87.227                                        3.48273e+002           4.82735e+001           8.27347e+000           2.73471e-001           7.34713e-002           3.47133e-003           4.71335e-004
                  122.60    348.27439                               29.43330             87.227                                        3.48274e+002           4.82744e+001           8.27439e+000           2.74388e-001           7.43880e-002           4.38803e-003           3.88025e-004
                  122.70    348.27516                               29.43330             87.227                                        3.48275e+002           4.82752e+001           8.27516e+000           2.75165e-001           7.51647e-002           5.16474e-003           1.64741e-004
                  122.80    348.27498                               29.43330             87.227                                        3.48275e+002           4.82750e+001           8.27498e+000           2.74977e-001           7.49768e-002           4.97678e-003           9.76777e-004
                  122.90    348.27432                               29.43330             87.227                                        3.48274e+002           4.82743e+001           8.27432e+000           2.74317e-001           7.43173e-002           4.31728e-003           3.17276e-004
                  123.00    348.27404                               29.43330             87.227                                        3.48274e+002           4.82740e+001           8.27404e+000           2.74041e-001           7.40406e-002           4.04061e-003           4.06080e-005
                  123.10    348.27436                               29.43330             87.227                                        3.48274e+002           4.82744e+001           8.27436e+000           2.74355e-001           7.43554e-002           4.35544e-003           3.55436e-004
                  123.20    348.27356                               29.43330             87.227                                        3.48274e+002           4.82736e+001           8.27356e+000           2.73565e-001           7.35645e-002           3.56453e-003           5.64530e-004
                  123.30    348.27326                               29.43330             87.227                                        3.48273e+002           4.82733e+001           8.27326e+000           2.73263e-001           7.32632e-002           3.26322e-003           2.63220e-004
                  123.40    348.27404                               29.43330             87.227                                        3.48274e+002           4.82740e+001           8.27404e+000           2.74043e-001           7.40431e-002           4.04310e-003           4.30977e-005
                  123.50    348.27499                               29.43330             87.227                                        3.48275e+002           4.82750e+001           8.27499e+000           2.74991e-001           7.49912e-002           4.99123e-003           9.91227e-004
                  123.60    348.27560                               29.43330             87.227                                        3.48276e+002           4.82756e+001           8.27560e+000           2.75604e-001           7.56044e-002           5.60443e-003           6.04428e-004
                  123.70    348.27553                               29.43330             87.227                                        3.48276e+002           4.82755e+001           8.27553e+000           2.75529e-001           7.55291e-002           5.52906e-003           5.29056e-004
                  123.80    348.27476                               29.43330             87.227                                        3.48275e+002           4.82748e+001           8.27476e+000           2.74765e-001           7.47648e-002           4.76482e-003           7.64818e-004
                  123.90    348.27405                               29.43330             87.227                                        3.48274e+002           4.82741e+001           8.27405e+000           2.74051e-001           7.40508e-002           4.05082e-003           5.08206e-005
                  124.00    348.27444                               29.43330             87.227                                        3.48274e+002           4.82744e+001           8.27444e+000           2.74441e-001           7.44411e-002           4.44110e-003           4.41104e-004
                  124.10    348.27409                               29.43330             87.227                                        3.48274e+002           4.82741e+001           8.27409e+000           2.74086e-001           7.40865e-002           4.08646e-003           8.64607e-005
                  124.20    348.27398                               29.43330             87.227                                        3.48274e+002           4.82740e+001           8.27398e+000           2.73983e-001           7.39826e-002           3.98258e-003           9.82581e-004
                  124.30    348.27423                               29.43330             87.227                                        3.48274e+002           4.82742e+001           8.27423e+000           2.74230e-001           7.42302e-002           4.23022e-003           2.30224e-004
                  124.40    348.27415                               29.43330             87.227                                        3.48274e+002           4.82742e+001           8.27415e+000           2.74153e-001           7.41525e-002           4.15252e-003           1.52515e-004
                  124.50    348.27315                               29.43330             87.227                                        3.48273e+002           4.82731e+001           8.27315e+000           2.73146e-001           7.31461e-002           3.14606e-003           1.46060e-004
                  124.60    348.27401                               29.43330             87.227                                        3.48274e+002           4.82740e+001           8.27401e+000           2.74015e-001           7.40146e-002           4.01459e-003           1.45913e-005
                  124.70    348.27514                               29.43330             87.227                                        3.48275e+002           4.82751e+001           8.27514e+000           2.75142e-001           7.51416e-002           5.14156e-003           1.41564e-004
                  124.80    348.27343                               29.43330             87.227                                        3.48273e+002           4.82734e+001           8.27343e+000           2.73430e-001           7.34304e-002           3.43041e-003           4.30408e-004
                  124.90    348.27271                               29.43330             87.227                                        3.48273e+002           4.82727e+001           8.27271e+000           2.72713e-001           7.27134e-002           2.71340e-003           7.13402e-004
                  125.00    348.27383                               29.43330             87.227                                        3.48274e+002           4.82738e+001           8.27383e+000           2.73831e-001           7.38313e-002           3.83131e-003           8.31310e-004
                  125.10    348.27394                               29.43330             87.227                                        3.48274e+002           4.82739e+001           8.27394e+000           2.73941e-001           7.39405e-002           3.94052e-003           9.40523e-004
                  125.20    348.27414                               29.43330             87.227                                        3.48274e+002           4.82741e+001           8.27414e+000           2.74142e-001           7.41420e-002           4.14201e-003           1.42014e-004
