~VERSION INFORMATION
VERS                    .            2.0                                    :CWLS LOG ASCII STANDARD
WRAP                    .            NO                                     :ONE LINE PER TIME STEP


~WELL INFORMATION
#MNEM                   .UNIT        DATA                                    DESCRIPTION
#________________________________________________________________________________________
STRTTIME                .HH/MM/SS    08:08:34                               :START TIME
STOPTIME                .HH/MM/SS    08:11:25                               :STOP TIME
STRT                    .s           2.10                                   :START DATA
STOP                    .s           169.10                                 :STOP DATA
STEP                    .s           0.10                                   :MEASUREMENT TIME INTERVAL
NULL                    .            -999.25                                :NULL VALUE
COMP                    .            Statoil ASA                            :COMPANY
FLD                     .            Volve                                  :FIELD
WELL                    .            15/9-F-11 A                            :WELL
RUN                     .            8                                      :RUN
LOC                     .            Maersk Inspirer                        :LOCATION
PROV                    .            na                                     :PROVINCE
SRVC                    .            Baker Hughes INTEQ                     :SERVICE COMPANY
DATE                    .YY/MM/DD    13/05/21                               :LOG DATE
UWI                     .                                                   :UNIQUE WELL ID
DEPTHMD                 .m           3694.5                                 :MEASURED DEPTH
DEPTHTVD                .m           3074.7                                 :TRUE VERTICAL DEPTH


~CURVE INFORMATION
#MNEM                   .UNIT        API CODES                               DESCRIPTION
#________________________________________________________________________________________
TIME                    .s                                                  :01 TIME
DD_PRESS                .bar                                                :02 DRAW DOWN PRESSURE
DD_VOLUME               .cm3                                                :03 INCREMENTAL DRAW DOWN VOLUME
TEMP                    .degC                                               :04 TRANSDUCER TEMPERATURE
DD_PRESS_MOD_1000       .bar                                                :05 DRAW DOWN PRESSURE MOD 1000
DD_PRESS_MOD_100        .bar                                                :06 DRAW DOWN PRESSURE MOD 100
DD_PRESS_MOD_10         .bar                                                :07 DRAW DOWN PRESSURE MOD 10
DD_PRESS_MOD_1          .bar                                                :08 DRAW DOWN PRESSURE MOD 1
DD_PRESS_MOD_01         .bar                                                :09 DRAW DOWN PRESSURE MOD 01
DD_PRESS_MOD_001        .bar                                                :10 DRAW DOWN PRESSURE MOD 001
DD_PRESS_MOD_0001       .bar                                                :11 DRAW DOWN PRESSURE MOD 0001


~PARAMETER INFORMATION
#MNEM                   .UNIT        VALUE                                   DESCRIPTION
#________________________________________________________________________________________
TOOLFACE                .deg         -107.9                                 :01 TOOLFACE
PUMP_CAPACITY           .bar         400                                    :02 NOMINAL DRAW DOWN PUMP CAPACITY
PUMP_LIMIT              .bar         240                                    :03 DOWNLINK PUMP LIMIT
TIME_LIMIT              .min         10                                     :04 DOWNLINK MAX TIME
TEST_TYPE               .            HIGH MOBILITY                          :05 DOWNLINK
DD_PIST_A               .cm2         3.1416                                 :06 DRAW DOWN PISTON AREA
V_SYS                   .cm3         131.0000                               :07 SYSTEM VOLUME
PROBE_ID                .cm          1.2700                                 :08 TTK PROBE ID
G0                      .            4.6700                                 :09 GEOMETRY FACTOR


~A                  TIME     DD_PRESS                              DD_VOLUME               TEMP                                   DD_PRESS_MOD_1000       DD_PRESS_MOD_100        DD_PRESS_MOD_10         DD_PRESS_MOD_1        DD_PRESS_MOD_01       DD_PRESS_MOD_001      DD_PRESS_MOD_0001
# ...
                   35.70    340.00905                                6.19404             84.891                                        3.40009e+002           4.00091e+001           9.05267e-003           9.05267e-003           9.05267e-003           9.05267e-003           5.26675e-005
                   35.80    340.01853                                6.29319             84.891                                        3.40019e+002           4.00185e+001           1.85318e-002           1.85318e-002           1.85318e-002           8.53183e-003           5.31833e-004
                   35.90    340.01724                                6.39229             84.891                                        3.40017e+002           4.00172e+001           1.72351e-002           1.72351e-002           1.72351e-002           7.23511e-003           2.35107e-004
                   36.00    340.04678                                6.49118             84.891                                        3.40047e+002           4.00468e+001           4.67807e-002           4.67807e-002           4.67807e-002           6.78074e-003           7.80743e-004
                   36.10    340.08998                                6.58977             84.891                                        3.40090e+002           4.00900e+001           8.99783e-002           8.99783e-002           8.99783e-002           9.97831e-003           9.78305e-004
                   36.20    340.11553                                6.68799             84.891                                        3.40116e+002           4.01155e+001           1.15525e-001           1.15525e-001           1.55254e-002           5.52541e-003           5.25409e-004
                   36.30    340.12773                                6.78572             84.891                                        3.40128e+002           4.01277e+001           1.27731e-001           1.27731e-001           2.77305e-002           7.73055e-003           7.30548e-004
                   36.40    340.15150                                6.88299             84.891                                        3.40151e+002           4.01515e+001           1.51499e-001           1.51499e-001           5.14993e-002           1.49935e-003           4.99347e-004
                   36.50    340.18704                                6.98012             84.891                                        3.40187e+002           4.01870e+001           1.87035e-001           1.87035e-001           8.70355e-002           7.03548e-003           3.54833e-005
                   36.60    340.22122                                7.07697             84.888                                        3.40221e+002           4.02212e+001           2.21221e-001           2.21221e-001           2.12208e-002           1.22077e-003           2.20770e-004
                   36.70    340.24828                                7.17310             84.885                                        3.40248e+002           4.02483e+001           2.48280e-001           2.48280e-001           4.82804e-002           8.28039e-003           2.80386e-004
                   36.80    340.27741                                7.26854             84.885                                        3.40277e+002           4.02774e+001           2.77413e-001           2.77413e-001           7.74134e-002           7.41337e-003           4.13366e-004
                   36.90    340.31559                                7.36353             84.889                                        3.40316e+002           4.03156e+001           3.15589e-001           3.15589e-001           1.55892e-002           5.58922e-003           5.89216e-004
                   37.00    340.35828                                7.45783             84.888                                        3.40358e+002           4.03583e+001           3.58284e-001           3.58284e-001           5.82844e-002           8.28444e-003           2.84441e-004
                   37.10    340.40681                                7.55149             84.885                                        3.40407e+002           4.04068e+001           4.06806e-001           4.06806e-001           6.80603e-003           6.80603e-003           8.06031e-004
                   37.20    340.46099                                7.64449             84.883                                        3.40461e+002           4.04610e+001           4.60985e-001           4.60985e-001           6.09851e-002           9.85070e-004           9.85070e-004
                   37.30    340.51027                                7.73673             84.883                                        3.40510e+002           4.05103e+001           5.10268e-001           5.10268e-001           1.02680e-002           2.68000e-004           2.68000e-004
                   37.40    340.56090                                7.82818             84.883                                        3.40561e+002           4.05609e+001           5.60897e-001           5.60897e-001           6.08969e-002           8.96859e-004           8.96859e-004
                   37.50    340.62141                                7.91879             84.883                                        3.40621e+002           4.06214e+001           6.21408e-001           6.21408e-001           2.14080e-002           1.40802e-003           4.08015e-004
                   37.60    340.68500                                8.00861             84.883                                        3.40685e+002           4.06850e+001           6.85003e-001           6.85003e-001           8.50030e-002           5.00300e-003           3.00390e-006
                   37.70    340.73899                                8.09754             84.883                                        3.40739e+002           4.07390e+001           7.38989e-001           7.38989e-001           3.89891e-002           8.98914e-003           9.89141e-004
                   37.80    340.78944                                8.18550             84.883                                        3.40789e+002           4.07894e+001           7.89438e-001           7.89438e-001           8.94378e-002           9.43780e-003           4.37798e-004
                   37.90    340.85556                                8.27255             84.883                                        3.40856e+002           4.08556e+001           8.55560e-001           8.55560e-001           5.55602e-002           5.56021e-003           5.60214e-004
                   38.00    340.93178                                8.35875             84.883                                        3.40932e+002           4.09318e+001           9.31783e-001           9.31783e-001           3.17831e-002           1.78313e-003           7.83130e-004
                   38.10    340.99741                                8.44377             84.883                                        3.40997e+002           4.09974e+001           9.97412e-001           9.97412e-001           9.74122e-002           7.41224e-003           4.12235e-004
                   38.20    341.04688                                8.52759             84.883                                        3.41047e+002           4.10469e+001           1.04688e+000           4.68817e-002           4.68817e-002           6.88172e-003           8.81719e-004
                   38.30    341.10156                                8.61045             84.883                                        3.41102e+002           4.11016e+001           1.10156e+000           1.01555e-001           1.55535e-003           1.55535e-003           5.55345e-004
                   38.40    341.17118                                8.69222             84.883                                        3.41171e+002           4.11712e+001           1.17118e+000           1.71180e-001           7.11804e-002           1.18042e-003           1.80423e-004
