~VERSION INFORMATION
VERS                    .            2.0                                    :CWLS LOG ASCII STANDARD
WRAP                    .            NO                                     :ONE LINE PER TIME STEP


~WELL INFORMATION
#MNEM                   .UNIT        DATA                                    DESCRIPTION
#________________________________________________________________________________________
STRTTIME                .HH/MM/SS    09:43:23                               :START TIME
STOPTIME                .HH/MM/SS    09:46:50                               :STOP TIME
STRT                    .s           2.10                                   :START DATA
STOP                    .s           205.20                                 :STOP DATA
STEP                    .s           0.10                                   :MEASUREMENT TIME INTERVAL
NULL                    .            -999.25                                :NULL VALUE
COMP                    .            Statoil ASA                            :COMPANY
FLD                     .            Volve                                  :FIELD
WELL                    .            15/9-F-11 A                            :WELL
RUN                     .            8                                      :RUN
LOC                     .            Maersk Inspirer                        :LOCATION
PROV                    .            na                                     :PROVINCE
SRVC                    .            Baker Hughes INTEQ                     :SERVICE COMPANY
DATE                    .YY/MM/DD    13/05/21                               :LOG DATE
UWI                     .                                                   :UNIQUE WELL ID
DEPTHMD                 .m           3665.9                                 :MEASURED DEPTH
DEPTHTVD                .m           3052.8                                 :TRUE VERTICAL DEPTH


~CURVE INFORMATION
#MNEM                   .UNIT        API CODES                               DESCRIPTION
#________________________________________________________________________________________
TIME                    .s                                                  :01 TIME
DD_PRESS                .bar                                                :02 DRAW DOWN PRESSURE
DD_VOLUME               .cm3                                                :03 INCREMENTAL DRAW DOWN VOLUME
TEMP                    .degC                                               :04 TRANSDUCER TEMPERATURE
DD_PRESS_MOD_1000       .bar                                                :05 DRAW DOWN PRESSURE MOD 1000
DD_PRESS_MOD_100        .bar                                                :06 DRAW DOWN PRESSURE MOD 100
DD_PRESS_MOD_10         .bar                                                :07 DRAW DOWN PRESSURE MOD 10
DD_PRESS_MOD_1          .bar                                                :08 DRAW DOWN PRESSURE MOD 1
DD_PRESS_MOD_01         .bar                                                :09 DRAW DOWN PRESSURE MOD 01
DD_PRESS_MOD_001        .bar                                                :10 DRAW DOWN PRESSURE MOD 001
DD_PRESS_MOD_0001       .bar                                                :11 DRAW DOWN PRESSURE MOD 0001


~PARAMETER INFORMATION
#MNEM                   .UNIT        VALUE                                   DESCRIPTION
#________________________________________________________________________________________
TOOLFACE                .deg         60.0                                   :01 TOOLFACE
PUMP_CAPACITY           .bar         400                                    :02 NOMINAL DRAW DOWN PUMP CAPACITY
PUMP_LIMIT              .bar         240                                    :03 DOWNLINK PUMP LIMIT
TIME_LIMIT              .min         10                                     :04 DOWNLINK MAX TIME
TEST_TYPE               .            REPEAT                                 :05 DOWNLINK
TEST_TYPE               .            HIGH MOBILITY                          :06 DOWNLINK
DD_PIST_A               .cm2         3.1416                                 :07 DRAW DOWN PISTON AREA
V_SYS                   .cm3         131.0000                               :08 SYSTEM VOLUME
PROBE_ID                .cm          1.2700                                 :09 TTK PROBE ID
G0                      .            4.6700                                 :10 GEOMETRY FACTOR


~A                  TIME     DD_PRESS                              DD_VOLUME               TEMP                                   DD_PRESS_MOD_1000       DD_PRESS_MOD_100        DD_PRESS_MOD_10         DD_PRESS_MOD_1        DD_PRESS_MOD_01       DD_PRESS_MOD_001      DD_PRESS_MOD_0001
# ...
                  136.50    344.72109                               13.01806             83.141                                        3.44721e+002           4.47211e+001           4.72109e+000           7.21094e-001           2.10941e-002           1.09409e-003           9.40921e-005
                  136.60    344.72420                               13.01806             83.138                                        3.44724e+002           4.47242e+001           4.72420e+000           7.24202e-001           2.42022e-002           4.20222e-003           2.02221e-004
                  136.70    344.71876                               13.01806             83.135                                        3.44719e+002           4.47188e+001           4.71876e+000           7.18759e-001           1.87587e-002           8.75866e-003           7.58659e-004
                  136.80    344.71557                               13.01806             83.133                                        3.44716e+002           4.47156e+001           4.71557e+000           7.15573e-001           1.55726e-002           5.57255e-003           5.72554e-004
                  136.90    344.71277                               13.01806             83.133                                        3.44713e+002           4.47128e+001           4.71277e+000           7.12767e-001           1.27673e-002           2.76727e-003           7.67265e-004
                  137.00    344.71367                               13.01806             83.133                                        3.44714e+002           4.47137e+001           4.71367e+000           7.13672e-001           1.36723e-002           3.67231e-003           6.72309e-004
                  137.10    344.71138                               13.01806             83.133                                        3.44711e+002           4.47114e+001           4.71138e+000           7.11381e-001           1.13809e-002           1.38091e-003           3.80911e-004
                  137.20    344.70590                               13.01806             83.133                                        3.44706e+002           4.47059e+001           4.70590e+000           7.05897e-001           5.89656e-003           5.89656e-003           8.96556e-004
                  137.30    344.71308                               13.01806             83.133                                        3.44713e+002           4.47131e+001           4.71308e+000           7.13080e-001           1.30804e-002           3.08037e-003           8.03725e-005
                  137.40    344.72394                               13.01806             83.133                                        3.44724e+002           4.47239e+001           4.72394e+000           7.23940e-001           2.39399e-002           3.93991e-003           9.39913e-004
                  137.50    344.72846                               13.01806             83.133                                        3.44728e+002           4.47285e+001           4.72846e+000           7.28460e-001           2.84596e-002           8.45964e-003           4.59636e-004
                  137.60    344.72471                               13.01806             83.133                                        3.44725e+002           4.47247e+001           4.72471e+000           7.24707e-001           2.47070e-002           4.70703e-003           7.07027e-004
                  137.70    344.72060                               13.01806             83.133                                        3.44721e+002           4.47206e+001           4.72060e+000           7.20602e-001           2.06017e-002           6.01690e-004           6.01690e-004
                  137.80    344.71727                               13.01806             83.133                                        3.44717e+002           4.47173e+001           4.71727e+000           7.17268e-001           1.72683e-002           7.26834e-003           2.68338e-004
                  137.90    344.71254                               13.01806             83.133                                        3.44713e+002           4.47125e+001           4.71254e+000           7.12539e-001           1.25392e-002           2.53921e-003           5.39207e-004
                  138.00    344.70910                               13.01806             83.133                                        3.44709e+002           4.47091e+001           4.70910e+000           7.09103e-001           9.10319e-003           9.10319e-003           1.03193e-004
                  138.10    344.71144                               13.01806             83.133                                        3.44711e+002           4.47114e+001           4.71144e+000           7.11440e-001           1.14398e-002           1.43983e-003           4.39832e-004
                  138.20    344.71493                               13.01806             83.133                                        3.44715e+002           4.47149e+001           4.71493e+000           7.14929e-001           1.49290e-002           4.92903e-003           9.29025e-004
                  138.30    344.71843                               13.01806             83.133                                        3.44718e+002           4.47184e+001           4.71843e+000           7.18428e-001           1.84278e-002           8.42775e-003           4.27751e-004
                  138.40    344.72169                               13.01806             83.133                                        3.44722e+002           4.47217e+001           4.72169e+000           7.21689e-001           2.16888e-002           1.68879e-003           6.88794e-004
                  138.50    344.71920                               13.01806             83.133                                        3.44719e+002           4.47192e+001           4.71920e+000           7.19202e-001           1.92018e-002           9.20177e-003           2.01769e-004
                  138.60    344.71205                               13.01806             83.133                                        3.44712e+002           4.47121e+001           4.71205e+000           7.12052e-001           1.20521e-002           2.05208e-003           5.20793e-005
                  138.70    344.71060                               13.01806             83.133                                        3.44711e+002           4.47106e+001           4.71060e+000           7.10599e-001           1.05994e-002           5.99363e-004           5.99363e-004
                  138.80    344.71521                               13.01806             83.133                                        3.44715e+002           4.47152e+001           4.71521e+000           7.15213e-001           1.52131e-002           5.21310e-003           2.13096e-004
                  138.90    344.70853                               13.01806             83.133                                        3.44709e+002           4.47085e+001           4.70853e+000           7.08529e-001           8.52876e-003           8.52876e-003           5.28761e-004
                  139.00    344.70639                               13.01806             83.133                                        3.44706e+002           4.47064e+001           4.70639e+000           7.06391e-001           6.39134e-003           6.39134e-003           3.91339e-004
                  139.10    344.72389                               13.01806             83.133                                        3.44724e+002           4.47239e+001           4.72389e+000           7.23890e-001           2.38897e-002           3.88973e-003           8.89728e-004
                  139.20    344.73364                               13.01806             83.133                                        3.44734e+002           4.47336e+001           4.73364e+000           7.33642e-001           3.36417e-002           3.64168e-003           6.41675e-004
