~VERSION INFORMATION
VERS                    .            2.0                                    :CWLS LOG ASCII STANDARD
WRAP                    .            NO                                     :ONE LINE PER TIME STEP


~WELL INFORMATION
#MNEM                   .UNIT        DATA                                    DESCRIPTION
#________________________________________________________________________________________
STRTTIME                .HH/MM/SS    01:44:52                               :START TIME
STOPTIME                .HH/MM/SS    01:47:47                               :STOP TIME
STRT                    .s           2.10                                   :START DATA
STOP                    .s           173.40                                 :STOP DATA
STEP                    .s           0.10                                   :MEASUREMENT TIME INTERVAL
NULL                    .            -999.25                                :NULL VALUE
COMP                    .            Statoil ASA                            :COMPANY
FLD                     .            Volve                                  :FIELD
WELL                    .            15/9-F-1 C                             :WELL
RUN                     .            4                                      :RUN
LOC                     .                                                   :LOCATION
PROV                    .            na                                     :PROVINCE
SRVC                    .            Baker Hughes INTEQ                     :SERVICE COMPANY
DATE                    .YY/MM/DD    14/03/15                               :LOG DATE
UWI                     .                                                   :UNIQUE WELL ID
DEPTHMD                 .m           3620.2                                 :MEASURED DEPTH
DEPTHTVD                .m           3012.3                                 :TRUE VERTICAL DEPTH


~CURVE INFORMATION
#MNEM                   .UNIT        API CODES                               DESCRIPTION
#________________________________________________________________________________________
TIME                    .s                                                  :01 TIME
DD_PRESS                .bar                                                :02 DRAW DOWN PRESSURE
DD_VOLUME               .cm3                                                :03 INCREMENTAL DRAW DOWN VOLUME
TEMP                    .degC                                               :04 TRANSDUCER TEMPERATURE
DD_PRESS_MOD_1000       .bar                                                :05 DRAW DOWN PRESSURE MOD 1000
DD_PRESS_MOD_100        .bar                                                :06 DRAW DOWN PRESSURE MOD 100
DD_PRESS_MOD_10         .bar                                                :07 DRAW DOWN PRESSURE MOD 10
DD_PRESS_MOD_1          .bar                                                :08 DRAW DOWN PRESSURE MOD 1
DD_PRESS_MOD_01         .bar                                                :09 DRAW DOWN PRESSURE MOD 01
DD_PRESS_MOD_001        .bar                                                :10 DRAW DOWN PRESSURE MOD 001
DD_PRESS_MOD_0001       .bar                                                :11 DRAW DOWN PRESSURE MOD 0001


~PARAMETER INFORMATION
#MNEM                   .UNIT        VALUE                                   DESCRIPTION
#________________________________________________________________________________________
TOOLFACE                .deg         108.7                                  :01 TOOLFACE
PUMP_CAPACITY           .bar         400                                    :02 NOMINAL DRAW DOWN PUMP CAPACITY
PUMP_LIMIT              .bar         240                                    :03 DOWNLINK PUMP LIMIT
TIME_LIMIT              .min         10                                     :04 DOWNLINK MAX TIME
TEST_TYPE               .            REPEAT                                 :05 DOWNLINK
TEST_TYPE               .            HIGH MOBILITY                          :06 DOWNLINK
DD_PIST_A               .cm2         3.1416                                 :07 DRAW DOWN PISTON AREA
V_SYS                   .cm3         131.0000                               :08 SYSTEM VOLUME
PROBE_ID                .cm          1.2700                                 :09 TTK PROBE ID
G0                      .            4.6700                                 :10 GEOMETRY FACTOR


~A                  TIME     DD_PRESS                              DD_VOLUME               TEMP                                   DD_PRESS_MOD_1000       DD_PRESS_MOD_100        DD_PRESS_MOD_10         DD_PRESS_MOD_1        DD_PRESS_MOD_01       DD_PRESS_MOD_001      DD_PRESS_MOD_0001
# ...
                   80.50    344.36041                               10.69069             87.141                                        3.44360e+002           4.43604e+001           4.36041e+000           3.60410e-001           6.04103e-002           4.10342e-004           4.10342e-004
                   80.60    344.36069                               10.69069             87.141                                        3.44361e+002           4.43607e+001           4.36069e+000           3.60691e-001           6.06909e-002           6.90905e-004           6.90905e-004
                   80.70    344.36101                               10.69069             87.141                                        3.44361e+002           4.43610e+001           4.36101e+000           3.61007e-001           6.10075e-002           1.00746e-003           7.46178e-006
                   80.80    344.36099                               10.69069             87.141                                        3.44361e+002           4.43610e+001           4.36099e+000           3.60993e-001           6.09930e-002           9.92982e-004           9.92982e-004
                   80.90    344.36057                               10.69069             87.141                                        3.44361e+002           4.43606e+001           4.36057e+000           3.60568e-001           6.05682e-002           5.68221e-004           5.68221e-004
                   81.00    344.35953                               10.69069             87.141                                        3.44360e+002           4.43595e+001           4.35953e+000           3.59529e-001           5.95292e-002           9.52922e-003           5.29216e-004
                   81.10    344.35908                               10.69069             87.138                                        3.44359e+002           4.43591e+001           4.35908e+000           3.59076e-001           5.90764e-002           9.07642e-003           7.64224e-005
                   81.20    344.36027                               10.69069             87.135                                        3.44360e+002           4.43603e+001           4.36027e+000           3.60273e-001           6.02733e-002           2.73309e-004           2.73309e-004
                   81.30    344.36081                               10.69069             87.133                                        3.44361e+002           4.43608e+001           4.36081e+000           3.60807e-001           6.08072e-002           8.07179e-004           8.07179e-004
                   81.40    344.36102                               10.69069             87.133                                        3.44361e+002           4.43610e+001           4.36102e+000           3.61023e-001           6.10233e-002           1.02330e-003           2.32969e-005
                   81.50    344.36068                               10.69069             87.133                                        3.44361e+002           4.43607e+001           4.36068e+000           3.60677e-001           6.06765e-002           6.76511e-004           6.76511e-004
                   81.60    344.35775                               10.69069             87.133                                        3.44358e+002           4.43578e+001           4.35775e+000           3.57754e-001           5.77539e-002           7.75389e-003           7.53893e-004
                   81.70    344.35533                               10.69069             87.133                                        3.44355e+002           4.43553e+001           4.35533e+000           3.55332e-001           5.53317e-002           5.33166e-003           3.31663e-004
                   81.80    344.35584                               10.69069             87.133                                        3.44356e+002           4.43558e+001           4.35584e+000           3.55845e-001           5.58448e-002           5.84480e-003           8.44804e-004
                   81.90    344.35748                               10.69069             87.133                                        3.44357e+002           4.43575e+001           4.35748e+000           3.57479e-001           5.74785e-002           7.47851e-003           4.78511e-004
                   82.00    344.35968                               10.69069             87.133                                        3.44360e+002           4.43597e+001           4.35968e+000           3.59680e-001           5.96799e-002           9.67994e-003           6.79937e-004
                   82.10    344.36127                               10.69069             87.133                                        3.44361e+002           4.43613e+001           4.36127e+000           3.61270e-001           6.12703e-002           1.27029e-003           2.70292e-004
                   82.20    344.36105                               10.69069             87.133                                        3.44361e+002           4.43610e+001           4.36105e+000           3.61046e-001           6.10460e-002           1.04601e-003           4.60141e-005
                   82.30    344.35937                               10.69069             87.133                                        3.44359e+002           4.43594e+001           4.35937e+000           3.59373e-001           5.93726e-002           9.37262e-003           3.72615e-004
                   82.40    344.35836                               10.69069             87.133                                        3.44358e+002           4.43584e+001           4.35836e+000           3.58355e-001           5.83553e-002           8.35534e-003           3.55335e-004
                   82.50    344.35918                               10.69069             87.133                                        3.44359e+002           4.43592e+001           4.35918e+000           3.59180e-001           5.91800e-002           9.17998e-003           1.79982e-004
                   82.60    344.36077                               10.69069             87.133                                        3.44361e+002           4.43608e+001           4.36077e+000           3.60773e-001           6.07730e-002           7.73045e-004           7.73045e-004
                   82.70    344.36077                               10.69069             87.133                                        3.44361e+002           4.43608e+001           4.36077e+000           3.60772e-001           6.07719e-002           7.71850e-004           7.71850e-004
                   82.80    344.36093                               10.69069             87.133                                        3.44361e+002           4.43609e+001           4.36093e+000           3.60932e-001           6.09316e-002           9.31556e-004           9.31556e-004
                   82.90    344.36096                               10.69069             87.133                                        3.44361e+002           4.43610e+001           4.36096e+000           3.60962e-001           6.09622e-002           9.62196e-004           9.62196e-004
                   83.00    344.36103                               10.69069             87.133                                        3.44361e+002           4.43610e+001           4.36103e+000           3.61027e-001           6.10270e-002           1.02702e-003           2.70246e-005
                   83.10    344.36094                               10.69069             87.133                                        3.44361e+002           4.43609e+001           4.36094e+000           3.60942e-001           6.09424e-002           9.42437e-004           9.42437e-004
                   83.20    344.36091                               10.69069             87.133                                        3.44361e+002           4.43609e+001           4.36091e+000           3.60913e-001           6.09128e-002           9.12848e-004           9.12848e-004
