~VERSION INFORMATION
VERS                    .            2.0                                    :CWLS LOG ASCII STANDARD
WRAP                    .            NO                                     :ONE LINE PER TIME STEP


~WELL INFORMATION
#MNEM                   .UNIT        DATA                                    DESCRIPTION
#________________________________________________________________________________________
STRTTIME                .HH/MM/SS    04:27:44                               :START TIME
STOPTIME                .HH/MM/SS    04:30:31                               :STOP TIME
STRT                    .s           2.10                                   :START DATA
STOP                    .s           165.30                                 :STOP DATA
STEP                    .s           0.10                                   :MEASUREMENT TIME INTERVAL
NULL                    .            -999.25                                :NULL VALUE
COMP                    .            Statoil ASA                            :COMPANY
FLD                     .            Volve                                  :FIELD
WELL                    .            15/9-F-1 C                             :WELL
RUN                     .            4                                      :RUN
LOC                     .                                                   :LOCATION
PROV                    .            na                                     :PROVINCE
SRVC                    .            Baker Hughes INTEQ                     :SERVICE COMPANY
DATE                    .YY/MM/DD    14/03/15                               :LOG DATE
UWI                     .                                                   :UNIQUE WELL ID
DEPTHMD                 .m           3273.1                                 :MEASURED DEPTH
DEPTHTVD                .m           2948.3                                 :TRUE VERTICAL DEPTH


~CURVE INFORMATION
#MNEM                   .UNIT        API CODES                               DESCRIPTION
#________________________________________________________________________________________
TIME                    .s                                                  :01 TIME
DD_PRESS                .bar                                                :02 DRAW DOWN PRESSURE
DD_VOLUME               .cm3                                                :03 INCREMENTAL DRAW DOWN VOLUME
TEMP                    .degC                                               :04 TRANSDUCER TEMPERATURE
DD_PRESS_MOD_1000       .bar                                                :05 DRAW DOWN PRESSURE MOD 1000
DD_PRESS_MOD_100        .bar                                                :06 DRAW DOWN PRESSURE MOD 100
DD_PRESS_MOD_10         .bar                                                :07 DRAW DOWN PRESSURE MOD 10
DD_PRESS_MOD_1          .bar                                                :08 DRAW DOWN PRESSURE MOD 1
DD_PRESS_MOD_01         .bar                                                :09 DRAW DOWN PRESSURE MOD 01
DD_PRESS_MOD_001        .bar                                                :10 DRAW DOWN PRESSURE MOD 001
DD_PRESS_MOD_0001       .bar                                                :11 DRAW DOWN PRESSURE MOD 0001


~PARAMETER INFORMATION
#MNEM                   .UNIT        VALUE                                   DESCRIPTION
#________________________________________________________________________________________
TOOLFACE                .deg         76.8                                   :01 TOOLFACE
PUMP_CAPACITY           .bar         400                                    :02 NOMINAL DRAW DOWN PUMP CAPACITY
PUMP_LIMIT              .bar         240                                    :03 DOWNLINK PUMP LIMIT
TIME_LIMIT              .min         10                                     :04 DOWNLINK MAX TIME
TEST_TYPE               .            REPEAT                                 :05 DOWNLINK
TEST_TYPE               .            HIGH MOBILITY                          :06 DOWNLINK
DD_PIST_A               .cm2         3.1416                                 :07 DRAW DOWN PISTON AREA
V_SYS                   .cm3         131.0000                               :08 SYSTEM VOLUME
PROBE_ID                .cm          1.2700                                 :09 TTK PROBE ID
G0                      .            4.6700                                 :10 GEOMETRY FACTOR


~A                  TIME     DD_PRESS                              DD_VOLUME               TEMP                                   DD_PRESS_MOD_1000       DD_PRESS_MOD_100        DD_PRESS_MOD_10         DD_PRESS_MOD_1        DD_PRESS_MOD_01       DD_PRESS_MOD_001      DD_PRESS_MOD_0001
# ...
                   32.90    337.72148                                5.28498             85.070                                        3.37721e+002           3.77215e+001           7.72148e+000           7.21484e-001           2.14844e-002           1.48441e-003           4.84407e-004
                   33.00    337.71542                                5.38428             85.070                                        3.37715e+002           3.77154e+001           7.71542e+000           7.15419e-001           1.54188e-002           5.41877e-003           4.18767e-004
                   33.10    337.71244                                5.48366             85.070                                        3.37712e+002           3.77124e+001           7.71244e+000           7.12438e-001           1.24385e-002           2.43846e-003           4.38460e-004
                   33.20    337.71242                                5.58317             85.070                                        3.37712e+002           3.77124e+001           7.71242e+000           7.12423e-001           1.24234e-002           2.42336e-003           4.23364e-004
                   33.30    337.71257                                5.68283             85.070                                        3.37713e+002           3.77126e+001           7.71257e+000           7.12570e-001           1.25704e-002           2.57043e-003           5.70431e-004
                   33.40    337.71192                                5.78254             85.068                                        3.37712e+002           3.77119e+001           7.71192e+000           7.11921e-001           1.19212e-002           1.92124e-003           9.21235e-004
                   33.50    337.71018                                5.88215             85.064                                        3.37710e+002           3.77102e+001           7.71018e+000           7.10181e-001           1.01812e-002           1.81226e-004           1.81226e-004
                   33.60    337.70754                                5.98168             85.063                                        3.37708e+002           3.77075e+001           7.70754e+000           7.07541e-001           7.54125e-003           7.54125e-003           5.41248e-004
                   33.70    337.70731                                6.08116             85.063                                        3.37707e+002           3.77073e+001           7.70731e+000           7.07314e-001           7.31384e-003           7.31384e-003           3.13844e-004
                   33.80    337.70825                                6.18060             85.063                                        3.37708e+002           3.77083e+001           7.70825e+000           7.08251e-001           8.25084e-003           8.25084e-003           2.50845e-004
                   33.90    337.70556                                6.27983             85.063                                        3.37706e+002           3.77056e+001           7.70556e+000           7.05564e-001           5.56368e-003           5.56368e-003           5.63684e-004
                   34.00    337.70377                                6.37888             85.063                                        3.37704e+002           3.77038e+001           7.70377e+000           7.03772e-001           3.77176e-003           3.77176e-003           7.71762e-004
                   34.10    337.70042                                6.47762             85.063                                        3.37700e+002           3.77004e+001           7.70042e+000           7.00420e-001           4.20468e-004           4.20468e-004           4.20468e-004
                   34.20    337.69859                                6.57606             85.063                                        3.37699e+002           3.76986e+001           7.69859e+000           6.98587e-001           9.85871e-002           8.58711e-003           5.87110e-004
                   34.30    337.69822                                6.67415             85.063                                        3.37698e+002           3.76982e+001           7.69822e+000           6.98223e-001           9.82225e-002           8.22252e-003           2.22517e-004
                   34.40    337.69859                                6.77203             85.063                                        3.37699e+002           3.76986e+001           7.69859e+000           6.98593e-001           9.85930e-002           8.59302e-003           5.93024e-004
                   34.50    337.69889                                6.86959             85.063                                        3.37699e+002           3.76989e+001           7.69889e+000           6.98889e-001           9.88891e-002           8.88912e-003           8.89116e-004
                   34.60    337.69963                                6.96650             85.063                                        3.37700e+002           3.76996e+001           7.69963e+000           6.99631e-001           9.96308e-002           9.63082e-003           6.30822e-004
                   34.70    337.70398                                7.06292             85.063                                        3.37704e+002           3.77040e+001           7.70398e+000           7.03977e-001           3.97685e-003           3.97685e-003           9.76847e-004
                   34.80    337.70961                                7.15876             85.063                                        3.37710e+002           3.77096e+001           7.70961e+000           7.09615e-001           9.61452e-003           9.61452e-003           6.14516e-004
                   34.90    337.71229                                7.25416             85.060                                        3.37712e+002           3.77123e+001           7.71229e+000           7.12288e-001           1.22882e-002           2.28823e-003           2.88234e-004
                   35.00    337.71247                                7.34898             85.057                                        3.37712e+002           3.77125e+001           7.71247e+000           7.12474e-001           1.24742e-002           2.47423e-003           4.74232e-004
                   35.10    337.71433                                7.44314             85.055                                        3.37714e+002           3.77143e+001           7.71433e+000           7.14331e-001           1.43307e-002           4.33070e-003           3.30698e-004
                   35.20    337.71501                                7.53659             85.055                                        3.37715e+002           3.77150e+001           7.71501e+000           7.15011e-001           1.50111e-002           5.01109e-003           1.10860e-005
                   35.30    337.71693                                7.62943             85.055                                        3.37717e+002           3.77169e+001           7.71693e+000           7.16932e-001           1.69325e-002           6.93250e-003           9.32499e-004
                   35.40    337.72124                                7.72150             85.055                                        3.37721e+002           3.77212e+001           7.72124e+000           7.21242e-001           2.12425e-002           1.24249e-003           2.42493e-004
                   35.50    337.72304                                7.81278             85.055                                        3.37723e+002           3.77230e+001           7.72304e+000           7.23044e-001           2.30442e-002           3.04418e-003           4.41775e-005
                   35.60    337.72397                                7.90330             85.055                                        3.37724e+002           3.77240e+001           7.72397e+000           7.23971e-001           2.39712e-002           3.97125e-003           9.71246e-004
