~VERSION INFORMATION
VERS                    .            2.0                                    :CWLS LOG ASCII STANDARD
WRAP                    .            NO                                     :ONE LINE PER TIME STEP


~WELL INFORMATION
#MNEM                   .UNIT        DATA                                    DESCRIPTION
#________________________________________________________________________________________
STRTTIME                .HH/MM/SS    13:32:32                               :START TIME
STOPTIME                .HH/MM/SS    13:36:23                               :STOP TIME
STRT                    .s           2.10                                   :START DATA
STOP                    .s           229.20                                 :STOP DATA
STEP                    .s           0.10                                   :MEASUREMENT TIME INTERVAL
NULL                    .            -999.25                                :NULL VALUE
COMP                    .            Statoil ASA                            :COMPANY
FLD                     .            Volve                                  :FIELD
WELL                    .            15/9-F-1 B                             :WELL
RUN                     .            7                                      :RUN
LOC                     .            Maersk Inspirer                        :LOCATION
PROV                    .            na                                     :PROVINCE
SRVC                    .            Baker Hughes INTEQ                     :SERVICE COMPANY
DATE                    .YY/MM/DD    13/09/06                               :LOG DATE
UWI                     .                                                   :UNIQUE WELL ID
DEPTHMD                 .m           3301.5                                 :MEASURED DEPTH
DEPTHTVD                .m           3096.9                                 :TRUE VERTICAL DEPTH


~CURVE INFORMATION
#MNEM                   .UNIT        API CODES                               DESCRIPTION
#________________________________________________________________________________________
TIME                    .s                                                  :01 TIME
DD_PRESS                .bar                                                :02 DRAW DOWN PRESSURE
DD_VOLUME               .cm3                                                :03 INCREMENTAL DRAW DOWN VOLUME
TEMP                    .degC                                               :04 TRANSDUCER TEMPERATURE
DD_PRESS_MOD_1000       .bar                                                :05 DRAW DOWN PRESSURE MOD 1000
DD_PRESS_MOD_100        .bar                                                :06 DRAW DOWN PRESSURE MOD 100
DD_PRESS_MOD_10         .bar                                                :07 DRAW DOWN PRESSURE MOD 10
DD_PRESS_MOD_1          .bar                                                :08 DRAW DOWN PRESSURE MOD 1
DD_PRESS_MOD_01         .bar                                                :09 DRAW DOWN PRESSURE MOD 01
DD_PRESS_MOD_001        .bar                                                :10 DRAW DOWN PRESSURE MOD 001
DD_PRESS_MOD_0001       .bar                                                :11 DRAW DOWN PRESSURE MOD 0001


~PARAMETER INFORMATION
#MNEM                   .UNIT        VALUE                                   DESCRIPTION
#________________________________________________________________________________________
TOOLFACE                .deg         na                                     :01 TOOLFACE
PUMP_CAPACITY           .bar         400                                    :02 NOMINAL DRAW DOWN PUMP CAPACITY
PUMP_LIMIT              .bar         400                                    :03 DOWNLINK PUMP LIMIT
TIME_LIMIT              .min         10                                     :04 DOWNLINK MAX TIME
TEST_TYPE               .            LOW MOBILITY                           :05 DOWNLINK
DD_PIST_A               .cm2         3.1416                                 :06 DRAW DOWN PISTON AREA
V_SYS                   .cm3         131.0000                               :07 SYSTEM VOLUME
PROBE_ID                .cm          1.2700                                 :08 TTK PROBE ID
G0                      .            4.6700                                 :09 GEOMETRY FACTOR


~A                  TIME     DD_PRESS                              DD_VOLUME               TEMP                                   DD_PRESS_MOD_1000       DD_PRESS_MOD_100        DD_PRESS_MOD_10         DD_PRESS_MOD_1        DD_PRESS_MOD_01       DD_PRESS_MOD_001      DD_PRESS_MOD_0001
# ...
                  167.40    349.31667                               18.16497             85.313                                        3.49317e+002           4.93167e+001           9.31667e+000           3.16667e-001           1.66669e-002           6.66687e-003           6.66871e-004
                  167.50    349.31420                               18.16497             85.313                                        3.49314e+002           4.93142e+001           9.31420e+000           3.14197e-001           1.41969e-002           4.19690e-003           1.96899e-004
                  167.60    349.32143                               18.16497             85.313                                        3.49321e+002           4.93214e+001           9.32143e+000           3.21429e-001           2.14289e-002           1.42894e-003           4.28940e-004
                  167.70    349.29718                               18.16497             85.313                                        3.49297e+002           4.92972e+001           9.29718e+000           2.97183e-001           9.71833e-002           7.18328e-003           1.83280e-004
                  167.80    349.30801                               18.16497             85.313                                        3.49308e+002           4.93080e+001           9.30801e+000           3.08008e-001           8.00847e-003           8.00847e-003           8.47103e-006
                  167.90    349.35747                               18.16497             85.313                                        3.49357e+002           4.93575e+001           9.35747e+000           3.57470e-001           5.74699e-002           7.46992e-003           4.69920e-004
                  168.00    349.38512                               18.16497             85.313                                        3.49385e+002           4.93851e+001           9.38512e+000           3.85122e-001           8.51220e-002           5.12200e-003           1.22003e-004
                  168.10    349.37045                               18.16497             85.313                                        3.49370e+002           4.93704e+001           9.37045e+000           3.70448e-001           7.04481e-002           4.48138e-004           4.48138e-004
                  168.20    349.35100                               18.16497             85.313                                        3.49351e+002           4.93510e+001           9.35100e+000           3.51000e-001           5.10000e-002           9.99958e-004           9.99958e-004
                  168.30    349.34060                               18.16497             85.313                                        3.49341e+002           4.93406e+001           9.34060e+000           3.40598e-001           4.05978e-002           5.97800e-004           5.97800e-004
                  168.40    349.33328                               18.16497             85.313                                        3.49333e+002           4.93333e+001           9.33328e+000           3.33278e-001           3.32785e-002           3.27847e-003           2.78474e-004
                  168.50    349.33853                               18.16497             85.313                                        3.49339e+002           4.93385e+001           9.33853e+000           3.38535e-001           3.85348e-002           8.53482e-003           5.34823e-004
                  168.60    349.33509                               18.16497             85.313                                        3.49335e+002           4.93351e+001           9.33509e+000           3.35089e-001           3.50893e-002           5.08925e-003           8.92550e-005
                  168.70    349.32978                               18.16497             85.313                                        3.49330e+002           4.93298e+001           9.32978e+000           3.29785e-001           2.97846e-002           9.78456e-003           7.84562e-004
                  168.80    349.34931                               18.16497             85.313                                        3.49349e+002           4.93493e+001           9.34931e+000           3.49314e-001           4.93144e-002           9.31441e-003           3.14412e-004
                  168.90    349.38334                               18.16497             85.313                                        3.49383e+002           4.93833e+001           9.38334e+000           3.83342e-001           8.33418e-002           3.34181e-003           3.41815e-004
                  169.00    349.37906                               18.16497             85.313                                        3.49379e+002           4.93791e+001           9.37906e+000           3.79062e-001           7.90621e-002           9.06205e-003           6.20531e-005
                  169.10    349.36343                               18.16497             85.313                                        3.49363e+002           4.93634e+001           9.36343e+000           3.63433e-001           6.34332e-002           3.43321e-003           4.33212e-004
                  169.20    349.37432                               18.16497             85.313                                        3.49374e+002           4.93743e+001           9.37432e+000           3.74316e-001           7.43161e-002           4.31608e-003           3.16082e-004
                  169.30    349.38030                               18.16497             85.313                                        3.49380e+002           4.93803e+001           9.38030e+000           3.80298e-001           8.02982e-002           2.98223e-004           2.98223e-004
                  169.40    349.35979                               18.16497             85.313                                        3.49360e+002           4.93598e+001           9.35979e+000           3.59791e-001           5.97909e-002           9.79090e-003           7.90900e-004
                  169.50    349.34634                               18.16497             85.313                                        3.49346e+002           4.93463e+001           9.34634e+000           3.46342e-001           4.63417e-002           6.34173e-003           3.41732e-004
                  169.60    349.36668                               18.16497             85.313                                        3.49367e+002           4.93667e+001           9.36668e+000           3.66682e-001           6.66821e-002           6.68213e-003           6.82128e-004
                  169.70    349.37264                               18.16497             85.313                                        3.49373e+002           4.93726e+001           9.37264e+000           3.72643e-001           7.26432e-002           2.64318e-003           6.43178e-004
                  169.80    349.32717                               18.16497             85.313                                        3.49327e+002           4.93272e+001           9.32717e+000           3.27165e-001           2.71653e-002           7.16530e-003           1.65296e-004
                  169.90    349.32472                               18.16497             85.313                                        3.49325e+002           4.93247e+001           9.32472e+000           3.24717e-001           2.47167e-002           4.71668e-003           7.16675e-004
                  170.00    349.37102                               18.16497             85.313                                        3.49371e+002           4.93710e+001           9.37102e+000           3.71023e-001           7.10232e-002           1.02319e-003           2.31878e-005
                  170.10    349.36654                               18.16497             85.313                                        3.49367e+002           4.93665e+001           9.36654e+000           3.66540e-001           6.65399e-002           6.53993e-003           5.39933e-004
