~VERSION INFORMATION
VERS                    .            2.0                                    :CWLS LOG ASCII STANDARD
WRAP                    .            NO                                     :ONE LINE PER TIME STEP


~WELL INFORMATION
#MNEM                   .UNIT        DATA                                    DESCRIPTION
#________________________________________________________________________________________
STRTTIME                .HH/MM/SS    15:44:09                               :START TIME
STOPTIME                .HH/MM/SS    15:46:59                               :STOP TIME
STRT                    .s           2.10                                   :START DATA
STOP                    .s           168.10                                 :STOP DATA
STEP                    .s           0.10                                   :MEASUREMENT TIME INTERVAL
NULL                    .            -999.25                                :NULL VALUE
COMP                    .            Statoil ASA                            :COMPANY
FLD                     .            Volve                                  :FIELD
WELL                    .            15/9-F-1 B                             :WELL
RUN                     .            7                                      :RUN
LOC                     .            Maersk Inspirer                        :LOCATION
PROV                    .            na                                     :PROVINCE
SRVC                    .            Baker Hughes INTEQ                     :SERVICE COMPANY
DATE                    .YY/MM/DD    13/09/06                               :LOG DATE
UWI                     .                                                   :UNIQUE WELL ID
DEPTHMD                 .m           3266.5                                 :MEASURED DEPTH
DEPTHTVD                .m           3062.4                                 :TRUE VERTICAL DEPTH


~CURVE INFORMATION
#MNEM                   .UNIT        API CODES                               DESCRIPTION
#________________________________________________________________________________________
TIME                    .s                                                  :01 TIME
DD_PRESS                .bar                                                :02 DRAW DOWN PRESSURE
DD_VOLUME               .cm3                                                :03 INCREMENTAL DRAW DOWN VOLUME
TEMP                    .degC                                               :04 TRANSDUCER TEMPERATURE
DD_PRESS_MOD_1000       .bar                                                :05 DRAW DOWN PRESSURE MOD 1000
DD_PRESS_MOD_100        .bar                                                :06 DRAW DOWN PRESSURE MOD 100
DD_PRESS_MOD_10         .bar                                                :07 DRAW DOWN PRESSURE MOD 10
DD_PRESS_MOD_1          .bar                                                :08 DRAW DOWN PRESSURE MOD 1
DD_PRESS_MOD_01         .bar                                                :09 DRAW DOWN PRESSURE MOD 01
DD_PRESS_MOD_001        .bar                                                :10 DRAW DOWN PRESSURE MOD 001
DD_PRESS_MOD_0001       .bar                                                :11 DRAW DOWN PRESSURE MOD 0001


~PARAMETER INFORMATION
#MNEM                   .UNIT        VALUE                                   DESCRIPTION
#________________________________________________________________________________________
TOOLFACE                .deg         na                                     :01 TOOLFACE
PUMP_CAPACITY           .bar         400                                    :02 NOMINAL DRAW DOWN PUMP CAPACITY
PUMP_LIMIT              .bar         400                                    :03 DOWNLINK PUMP LIMIT
TIME_LIMIT              .min         10                                     :04 DOWNLINK MAX TIME
TEST_TYPE               .            LOW MOBILITY                           :05 DOWNLINK
DD_PIST_A               .cm2         3.1416                                 :06 DRAW DOWN PISTON AREA
V_SYS                   .cm3         131.0000                               :07 SYSTEM VOLUME
PROBE_ID                .cm          1.2700                                 :08 TTK PROBE ID
G0                      .            4.6700                                 :09 GEOMETRY FACTOR


~A                  TIME     DD_PRESS                              DD_VOLUME               TEMP                                   DD_PRESS_MOD_1000       DD_PRESS_MOD_100        DD_PRESS_MOD_10         DD_PRESS_MOD_1        DD_PRESS_MOD_01       DD_PRESS_MOD_001      DD_PRESS_MOD_0001
# ...
                   24.50    437.48636                                0.00000             82.586                                        4.37486e+002           3.74864e+001           7.48636e+000           4.86359e-001           8.63586e-002           6.35864e-003           3.58639e-004
                   24.60    437.42168                                0.00000             82.586                                        4.37422e+002           3.74217e+001           7.42168e+000           4.21684e-001           2.16843e-002           1.68430e-003           6.84298e-004
                   24.70    437.36959                                0.00000             82.586                                        4.37370e+002           3.73696e+001           7.36959e+000           3.69591e-001           6.95913e-002           9.59126e-003           5.91265e-004
                   24.80    437.45771                                0.00000             82.586                                        4.37458e+002           3.74577e+001           7.45771e+000           4.57715e-001           5.77149e-002           7.71489e-003           7.14891e-004
                   24.90    437.52028                                0.00000             82.586                                        4.37520e+002           3.75203e+001           7.52028e+000           5.20284e-001           2.02841e-002           2.84053e-004           2.84053e-004
                   25.00    437.49643                                0.00000             82.586                                        4.37496e+002           3.74964e+001           7.49643e+000           4.96428e-001           9.64282e-002           6.42817e-003           4.28173e-004
                   25.10    437.48593                                0.00000             82.584                                        4.37486e+002           3.74859e+001           7.48593e+000           4.85927e-001           8.59274e-002           5.92742e-003           9.27416e-004
                   25.20    437.46977                                0.00000             82.580                                        4.37470e+002           3.74698e+001           7.46977e+000           4.69766e-001           6.97663e-002           9.76626e-003           7.66264e-004
                   25.30    437.40999                                0.00000             82.578                                        4.37410e+002           3.74100e+001           7.40999e+000           4.09994e-001           9.99418e-003           9.99418e-003           9.94179e-004
                   25.40    437.40248                                0.00000             82.578                                        4.37402e+002           3.74025e+001           7.40248e+000           4.02482e-001           2.48225e-003           2.48225e-003           4.82249e-004
                   25.50    437.39853                                0.00000             82.578                                        4.37399e+002           3.73985e+001           7.39853e+000           3.98530e-001           9.85300e-002           8.52997e-003           5.29974e-004
                   25.60    437.35863                                0.00000             82.578                                        4.37359e+002           3.73586e+001           7.35863e+000           3.58626e-001           5.86262e-002           8.62618e-003           6.26177e-004
                   25.70    437.34942                                0.00000             82.578                                        4.37349e+002           3.73494e+001           7.34942e+000           3.49419e-001           4.94193e-002           9.41932e-003           4.19322e-004
                   25.80    437.37689                                0.00000             82.578                                        4.37377e+002           3.73769e+001           7.37689e+000           3.76885e-001           7.68851e-002           6.88514e-003           8.85137e-004
                   25.90    437.38313                                0.00000             82.578                                        4.37383e+002           3.73831e+001           7.38313e+000           3.83130e-001           8.31303e-002           3.13034e-003           1.30341e-004
                   26.00    437.36685                                0.00000             82.578                                        4.37367e+002           3.73669e+001           7.36685e+000           3.66853e-001           6.68533e-002           6.85332e-003           8.53319e-004
                   26.10    437.38843                                0.00000             82.578                                        4.37388e+002           3.73884e+001           7.38843e+000           3.88426e-001           8.84262e-002           8.42624e-003           4.26244e-004
                   26.20    437.41861                                0.00000             82.578                                        4.37419e+002           3.74186e+001           7.41861e+000           4.18605e-001           1.86053e-002           8.60530e-003           6.05299e-004
                   26.30    437.40022                                0.00000             82.578                                        4.37400e+002           3.74002e+001           7.40022e+000           4.00219e-001           2.19039e-004           2.19039e-004           2.19039e-004
                   26.40    437.36868                                0.00000             82.578                                        4.37369e+002           3.73687e+001           7.36868e+000           3.68682e-001           6.86821e-002           8.68213e-003           6.82126e-004
                   26.50    437.38386                                0.00000             82.578                                        4.37384e+002           3.73839e+001           7.38386e+000           3.83857e-001           8.38566e-002           3.85664e-003           8.56640e-004
                   26.60    437.40236                                0.00000             82.578                                        4.37402e+002           3.74024e+001           7.40236e+000           4.02362e-001           2.36249e-003           2.36249e-003           3.62492e-004
                   26.70    437.38952                                0.00000             82.578                                        4.37390e+002           3.73895e+001           7.38952e+000           3.89515e-001           8.95154e-002           9.51543e-003           5.15427e-004
                   26.80    437.39203                                0.00000             82.578                                        4.37392e+002           3.73920e+001           7.39203e+000           3.92032e-001           9.20320e-002           2.03200e-003           3.19973e-005
                   26.90    437.42651                                0.00000             82.578                                        4.37427e+002           3.74265e+001           7.42651e+000           4.26506e-001           2.65058e-002           6.50584e-003           5.05841e-004
                   27.00    437.43755                                0.00000             82.578                                        4.37438e+002           3.74376e+001           7.43755e+000           4.37551e-001           3.75511e-002           7.55107e-003           5.51067e-004
                   27.10    437.41753                                1.11166             82.578                                        4.37418e+002           3.74175e+001           7.41753e+000           4.17533e-001           1.75333e-002           7.53326e-003           5.33261e-004
                   27.20    437.42842                                1.11230             82.578                                        4.37428e+002           3.74284e+001           7.42842e+000           4.28416e-001           2.84160e-002           8.41605e-003           4.16048e-004
