~VERSION INFORMATION
VERS                    .            2.0                                    :CWLS LOG ASCII STANDARD
WRAP                    .            NO                                     :ONE LINE PER TIME STEP


~WELL INFORMATION
#MNEM                   .UNIT        DATA                                    DESCRIPTION
#________________________________________________________________________________________
STRTTIME                .HH/MM/SS    19:52:58                               :START TIME
STOPTIME                .HH/MM/SS    19:58:21                               :STOP TIME
STRT                    .s           2.10                                   :START DATA
STOP                    .s           321.30                                 :STOP DATA
STEP                    .s           0.10                                   :MEASUREMENT TIME INTERVAL
NULL                    .            -999.25                                :NULL VALUE
COMP                    .            Statoil ASA                            :COMPANY
FLD                     .            Volve                                  :FIELD
WELL                    .            15/9-F-11 A                            :WELL
RUN                     .            8                                      :RUN
LOC                     .            Maersk Inspirer                        :LOCATION
PROV                    .            na                                     :PROVINCE
SRVC                    .            Baker Hughes INTEQ                     :SERVICE COMPANY
DATE                    .YY/MM/DD    13/05/23                               :LOG DATE
UWI                     .                                                   :UNIQUE WELL ID
DEPTHMD                 .m           3602.0                                 :MEASURED DEPTH
DEPTHTVD                .m           3003.9                                 :TRUE VERTICAL DEPTH


~CURVE INFORMATION
#MNEM                   .UNIT        API CODES                               DESCRIPTION
#________________________________________________________________________________________
TIME                    .s                                                  :01 TIME
DD_PRESS                .bar                                                :02 DRAW DOWN PRESSURE
DD_VOLUME               .cm3                                                :03 INCREMENTAL DRAW DOWN VOLUME
TEMP                    .degC                                               :04 TRANSDUCER TEMPERATURE
DD_PRESS_MOD_1000       .bar                                                :05 DRAW DOWN PRESSURE MOD 1000
DD_PRESS_MOD_100        .bar                                                :06 DRAW DOWN PRESSURE MOD 100
DD_PRESS_MOD_10         .bar                                                :07 DRAW DOWN PRESSURE MOD 10
DD_PRESS_MOD_1          .bar                                                :08 DRAW DOWN PRESSURE MOD 1
DD_PRESS_MOD_01         .bar                                                :09 DRAW DOWN PRESSURE MOD 01
DD_PRESS_MOD_001        .bar                                                :10 DRAW DOWN PRESSURE MOD 001
DD_PRESS_MOD_0001       .bar                                                :11 DRAW DOWN PRESSURE MOD 0001


~PARAMETER INFORMATION
#MNEM                   .UNIT        VALUE                                   DESCRIPTION
#________________________________________________________________________________________
TOOLFACE                .deg         -40.9                                  :01 TOOLFACE
PUMP_CAPACITY           .bar         400                                    :02 NOMINAL DRAW DOWN PUMP CAPACITY
PUMP_LIMIT              .bar         240                                    :03 DOWNLINK PUMP LIMIT
TIME_LIMIT              .min         10                                     :04 DOWNLINK MAX TIME
TEST_TYPE               .            REPEAT                                 :05 DOWNLINK
TEST_TYPE               .            HIGH MOBILITY                          :06 DOWNLINK
DD_PIST_A               .cm2         3.1416                                 :07 DRAW DOWN PISTON AREA
V_SYS                   .cm3         131.0000                               :08 SYSTEM VOLUME
PROBE_ID                .cm          1.2700                                 :09 TTK PROBE ID
G0                      .            4.6700                                 :10 GEOMETRY FACTOR


~A                  TIME     DD_PRESS                              DD_VOLUME               TEMP                                   DD_PRESS_MOD_1000       DD_PRESS_MOD_100        DD_PRESS_MOD_10         DD_PRESS_MOD_1        DD_PRESS_MOD_01       DD_PRESS_MOD_001      DD_PRESS_MOD_0001
# ...
                   24.50    417.33798                                0.00000             71.008                                        4.17338e+002           1.73380e+001           7.33798e+000           3.37975e-001           3.79754e-002           7.97542e-003           9.75417e-004
                   24.60    417.33770                                0.00000             71.008                                        4.17338e+002           1.73377e+001           7.33770e+000           3.37702e-001           3.77017e-002           7.70166e-003           7.01659e-004
                   24.70    417.40384                                0.00000             71.008                                        4.17404e+002           1.74038e+001           7.40384e+000           4.03837e-001           3.83741e-003           3.83741e-003           8.37408e-004
                   24.80    417.47857                                0.00000             71.008                                        4.17479e+002           1.74786e+001           7.47857e+000           4.78573e-001           7.85733e-002           8.57325e-003           5.73254e-004
                   24.90    417.48323                                0.00000             71.008                                        4.17483e+002           1.74832e+001           7.48323e+000           4.83226e-001           8.32264e-002           3.22642e-003           2.26421e-004
                   25.00    417.45102                                0.86740             71.008                                        4.17451e+002           1.74510e+001           7.45102e+000           4.51016e-001           5.10156e-002           1.01560e-003           1.56040e-005
                   25.10    417.46385                                0.86721             71.008                                        4.17464e+002           1.74638e+001           7.46385e+000           4.63845e-001           6.38453e-002           3.84526e-003           8.45261e-004
                   25.20    417.55598                                0.86742             71.008                                        4.17556e+002           1.75560e+001           7.55598e+000           5.55979e-001           5.59789e-002           5.97892e-003           9.78925e-004
                   25.30    417.56872                                0.86934             71.008                                        4.17569e+002           1.75687e+001           7.56872e+000           5.68720e-001           6.87198e-002           8.71981e-003           7.19806e-004
                   25.40    417.36314                                0.87333             71.008                                        4.17363e+002           1.73631e+001           7.36314e+000           3.63136e-001           6.31362e-002           3.13619e-003           1.36189e-004
                   25.50    417.01011                                0.87934             71.008                                        4.17010e+002           1.70101e+001           7.01011e+000           1.01134e-002           1.01134e-002           1.13391e-004           1.13391e-004
                   25.60    416.62192                                0.88726             71.008                                        4.16622e+002           1.66219e+001           6.62192e+000           6.21918e-001           2.19177e-002           1.91769e-003           9.17688e-004
                   25.70    416.15994                                0.89704             71.008                                        4.16160e+002           1.61599e+001           6.15994e+000           1.59944e-001           5.99441e-002           9.94413e-003           9.44129e-004
                   25.80    415.50527                                0.90897             71.008                                        4.15505e+002           1.55053e+001           5.50527e+000           5.05269e-001           5.26893e-003           5.26893e-003           2.68929e-004
                   25.90    414.61606                                0.92295             71.008                                        4.14616e+002           1.46161e+001           4.61606e+000           6.16060e-001           1.60598e-002           6.05980e-003           5.98046e-005
                   26.00    413.66638                                0.93880             71.008                                        4.13666e+002           1.36664e+001           3.66638e+000           6.66385e-001           6.63849e-002           6.38494e-003           3.84935e-004
                   26.10    412.71834                                0.95658             71.008                                        4.12718e+002           1.27183e+001           2.71834e+000           7.18345e-001           1.83449e-002           8.34490e-003           3.44899e-004
                   26.20    411.53433                                0.97636             71.008                                        4.11534e+002           1.15343e+001           1.53433e+000           5.34332e-001           3.43321e-002           4.33212e-003           3.32124e-004
                   26.30    410.03688                                0.99799             71.008                                        4.10037e+002           1.00369e+001           3.68825e-002           3.68825e-002           3.68825e-002           6.88253e-003           8.82531e-004
                   26.40    408.42219                                1.02161             71.008                                        4.08422e+002           8.42219e+000           8.42219e+000           4.22193e-001           2.21934e-002           2.19340e-003           1.93404e-004
                   26.50    406.78737                                1.04731             71.008                                        4.06787e+002           6.78737e+000           6.78737e+000           7.87367e-001           8.73675e-002           7.36748e-003           3.67480e-004
                   26.60    404.95771                                1.07489             71.008                                        4.04958e+002           4.95771e+000           4.95771e+000           9.57710e-001           5.77101e-002           7.71014e-003           7.10137e-004
                   26.70    402.85656                                1.10422             71.008                                        4.02857e+002           2.85656e+000           2.85656e+000           8.56561e-001           5.65612e-002           6.56118e-003           5.61181e-004
                   26.80    400.64640                                1.13547             71.008                                        4.00646e+002           6.46402e-001           6.46402e-001           6.46402e-001           4.64018e-002           6.40178e-003           4.01781e-004
                   26.90    398.39989                                1.16861             71.008                                        3.98400e+002           9.83999e+001           8.39989e+000           3.99895e-001           9.98947e-002           9.89474e-003           8.94737e-004
                   27.00    395.96824                                1.20362             71.008                                        3.95968e+002           9.59682e+001           5.96824e+000           9.68238e-001           6.82378e-002           8.23779e-003           2.37791e-004
                   27.10    393.31461                                1.24045             71.008                                        3.93315e+002           9.33146e+001           3.31461e+000           3.14608e-001           1.46083e-002           4.60830e-003           6.08299e-004
                   27.20    390.54436                                1.27913             71.008                                        3.90544e+002           9.05444e+001           5.44358e-001           5.44358e-001           4.43585e-002           4.35850e-003           3.58498e-004
