~VERSION INFORMATION
VERS                    .            2.0                                    :CWLS LOG ASCII STANDARD
WRAP                    .            NO                                     :ONE LINE PER TIME STEP


~WELL INFORMATION
#MNEM                   .UNIT        DATA                                    DESCRIPTION
#________________________________________________________________________________________
STRTTIME                .HH/MM/SS    02:42:03                               :START TIME
STOPTIME                .HH/MM/SS    02:44:56                               :STOP TIME
STRT                    .s           2.10                                   :START DATA
STOP                    .s           171.40                                 :STOP DATA
STEP                    .s           0.10                                   :MEASUREMENT TIME INTERVAL
NULL                    .            -999.25                                :NULL VALUE
COMP                    .            Statoil ASA                            :COMPANY
FLD                     .            Volve                                  :FIELD
WELL                    .            15/9-F-1 C                             :WELL
RUN                     .            4                                      :RUN
LOC                     .                                                   :LOCATION
PROV                    .            na                                     :PROVINCE
SRVC                    .            Baker Hughes INTEQ                     :SERVICE COMPANY
DATE                    .YY/MM/DD    14/03/15                               :LOG DATE
UWI                     .                                                   :UNIQUE WELL ID
DEPTHMD                 .m           3551.1                                 :MEASURED DEPTH
DEPTHTVD                .m           2992.9                                 :TRUE VERTICAL DEPTH


~CURVE INFORMATION
#MNEM                   .UNIT        API CODES                               DESCRIPTION
#________________________________________________________________________________________
TIME                    .s                                                  :01 TIME
DD_PRESS                .bar                                                :02 DRAW DOWN PRESSURE
DD_VOLUME               .cm3                                                :03 INCREMENTAL DRAW DOWN VOLUME
TEMP                    .degC                                               :04 TRANSDUCER TEMPERATURE
DD_PRESS_MOD_1000       .bar                                                :05 DRAW DOWN PRESSURE MOD 1000
DD_PRESS_MOD_100        .bar                                                :06 DRAW DOWN PRESSURE MOD 100
DD_PRESS_MOD_10         .bar                                                :07 DRAW DOWN PRESSURE MOD 10
DD_PRESS_MOD_1          .bar                                                :08 DRAW DOWN PRESSURE MOD 1
DD_PRESS_MOD_01         .bar                                                :09 DRAW DOWN PRESSURE MOD 01
DD_PRESS_MOD_001        .bar                                                :10 DRAW DOWN PRESSURE MOD 001
DD_PRESS_MOD_0001       .bar                                                :11 DRAW DOWN PRESSURE MOD 0001


~PARAMETER INFORMATION
#MNEM                   .UNIT        VALUE                                   DESCRIPTION
#________________________________________________________________________________________
TOOLFACE                .deg         84.6                                   :01 TOOLFACE
PUMP_CAPACITY           .bar         400                                    :02 NOMINAL DRAW DOWN PUMP CAPACITY
PUMP_LIMIT              .bar         240                                    :03 DOWNLINK PUMP LIMIT
TIME_LIMIT              .min         10                                     :04 DOWNLINK MAX TIME
TEST_TYPE               .            REPEAT                                 :05 DOWNLINK
TEST_TYPE               .            HIGH MOBILITY                          :06 DOWNLINK
DD_PIST_A               .cm2         3.1416                                 :07 DRAW DOWN PISTON AREA
V_SYS                   .cm3         131.0000                               :08 SYSTEM VOLUME
PROBE_ID                .cm          1.2700                                 :09 TTK PROBE ID
G0                      .            4.6700                                 :10 GEOMETRY FACTOR


~A                  TIME     DD_PRESS                              DD_VOLUME               TEMP                                   DD_PRESS_MOD_1000       DD_PRESS_MOD_100        DD_PRESS_MOD_10         DD_PRESS_MOD_1        DD_PRESS_MOD_01       DD_PRESS_MOD_001      DD_PRESS_MOD_0001
# ...
                  147.70    346.70053                                0.00000             85.117                                        3.46701e+002           4.67005e+001           6.70053e+000           7.00527e-001           5.27022e-004           5.27022e-004           5.27022e-004
                  147.80    346.78163                                0.00000             85.117                                        3.46782e+002           4.67816e+001           6.78163e+000           7.81634e-001           8.16340e-002           1.63399e-003           6.33994e-004
                  147.90    346.88139                                0.00000             85.117                                        3.46881e+002           4.68814e+001           6.88139e+000           8.81395e-001           8.13949e-002           1.39486e-003           3.94857e-004
                  148.00    347.05296                                0.00000             85.117                                        3.47053e+002           4.70530e+001           7.05296e+000           5.29619e-002           5.29619e-002           2.96190e-003           9.61904e-004
                  148.10    347.22528                                0.00000             85.117                                        3.47225e+002           4.72253e+001           7.22528e+000           2.25278e-001           2.52778e-002           5.27782e-003           2.77816e-004
                  148.20    347.30829                                0.00000             85.117                                        3.47308e+002           4.73083e+001           7.30829e+000           3.08289e-001           8.28931e-003           8.28931e-003           2.89313e-004
                  148.30    347.31279                                0.00000             85.117                                        3.47313e+002           4.73128e+001           7.31279e+000           3.12792e-001           1.27915e-002           2.79152e-003           7.91519e-004
                  148.40    347.46911                                0.00000             85.117                                        3.47469e+002           4.74691e+001           7.46911e+000           4.69110e-001           6.91098e-002           9.10979e-003           1.09788e-004
                  148.50    347.78921                                0.00000             85.117                                        3.47789e+002           4.77892e+001           7.78921e+000           7.89207e-001           8.92066e-002           9.20657e-003           2.06570e-004
                  148.60    352.93786                                0.00000             85.117                                        3.52938e+002           5.29379e+001           2.93786e+000           9.37858e-001           3.78580e-002           7.85797e-003           8.57973e-004
                  148.70    380.74693                                0.00000             85.117                                        3.80747e+002           8.07469e+001           7.46932e-001           7.46932e-001           4.69320e-002           6.93200e-003           9.32005e-004
                  148.80    412.13516                                0.00000             85.117                                        4.12135e+002           1.21352e+001           2.13516e+000           1.35160e-001           3.51600e-002           5.16000e-003           1.60002e-004
                  148.90    422.94184                                0.00000             85.117                                        4.22942e+002           2.29418e+001           2.94184e+000           9.41837e-001           4.18370e-002           1.83705e-003           8.37046e-004
                  149.00    422.91329                                0.00000             85.117                                        4.22913e+002           2.29133e+001           2.91329e+000           9.13293e-001           1.32934e-002           3.29336e-003           2.93355e-004
                  149.10    422.88274                                0.00000             85.117                                        4.22883e+002           2.28827e+001           2.88274e+000           8.82739e-001           8.27386e-002           2.73861e-003           7.38607e-004
                  149.20    422.87761                                0.00000             85.117                                        4.22878e+002           2.28776e+001           2.87761e+000           8.77608e-001           7.76076e-002           7.60755e-003           6.07555e-004
                  149.30    422.89743                                0.00000             85.117                                        4.22897e+002           2.28974e+001           2.89743e+000           8.97434e-001           9.74337e-002           7.43375e-003           4.33750e-004
                  149.40    422.90943                                0.00000             85.117                                        4.22909e+002           2.29094e+001           2.90943e+000           9.09425e-001           9.42523e-003           9.42523e-003           4.25228e-004
                  149.50    422.90257                                0.00000             85.117                                        4.22903e+002           2.29026e+001           2.90257e+000           9.02566e-001           2.56561e-003           2.56561e-003           5.65608e-004
                  149.60    422.90461                                0.00000             85.117                                        4.22905e+002           2.29046e+001           2.90461e+000           9.04614e-001           4.61351e-003           4.61351e-003           6.13505e-004
                  149.70    422.91998                                0.00000             85.117                                        4.22920e+002           2.29200e+001           2.91998e+000           9.19981e-001           1.99812e-002           9.98124e-003           9.81239e-004
                  149.80    422.94088                                0.00000             85.117                                        4.22941e+002           2.29409e+001           2.94088e+000           9.40881e-001           4.08807e-002           8.80702e-004           8.80702e-004
                  149.90    422.95325                                0.00000             85.117                                        4.22953e+002           2.29533e+001           2.95325e+000           9.53254e-001           5.32537e-002           3.25367e-003           2.53673e-004
                  150.00    422.95719                                0.00000             85.117                                        4.22957e+002           2.29572e+001           2.95719e+000           9.57193e-001           5.71925e-002           7.19251e-003           1.92506e-004
                  150.10    422.97138                                0.00000             85.117                                        4.22971e+002           2.29714e+001           2.97138e+000           9.71383e-001           7.13825e-002           1.38250e-003           3.82500e-004
                  150.20    422.98847                                0.00000             85.117                                        4.22988e+002           2.29885e+001           2.98847e+000           9.88474e-001           8.84738e-002           8.47378e-003           4.73783e-004
                  150.30    422.99666                                0.00000             85.117                                        4.22997e+002           2.29967e+001           2.99666e+000           9.96663e-001           9.66627e-002           6.66269e-003           6.62690e-004
                  150.40    422.99854                                0.00000             85.117                                        4.22999e+002           2.29985e+001           2.99854e+000           9.98540e-001           9.85399e-002           8.53989e-003           5.39891e-004
