~VERSION INFORMATION
VERS                    .            2.0                                    :CWLS LOG ASCII STANDARD
WRAP                    .            NO                                     :ONE LINE PER TIME STEP


~WELL INFORMATION
#MNEM                   .UNIT        DATA                                    DESCRIPTION
#________________________________________________________________________________________
STRTTIME                .HH/MM/SS    16:37:30                               :START TIME
STOPTIME                .HH/MM/SS    16:40:36                               :STOP TIME
STRT                    .s           2.10                                   :START DATA
STOP                    .s           184.70                                 :STOP DATA
STEP                    .s           0.10                                   :MEASUREMENT TIME INTERVAL
NULL                    .            -999.25                                :NULL VALUE
COMP                    .            Statoil ASA                            :COMPANY
FLD                     .            Volve                                  :FIELD
WELL                    .            15/9-F-1 B                             :WELL
RUN                     .            7                                      :RUN
LOC                     .            Maersk Inspirer                        :LOCATION
PROV                    .            na                                     :PROVINCE
SRVC                    .            Baker Hughes INTEQ                     :SERVICE COMPANY
DATE                    .YY/MM/DD    13/09/06                               :LOG DATE
UWI                     .                                                   :UNIQUE WELL ID
DEPTHMD                 .m           3247.0                                 :MEASURED DEPTH
DEPTHTVD                .m           3043.3                                 :TRUE VERTICAL DEPTH


~CURVE INFORMATION
#MNEM                   .UNIT        API CODES                               DESCRIPTION
#________________________________________________________________________________________
TIME                    .s                                                  :01 TIME
DD_PRESS                .bar                                                :02 DRAW DOWN PRESSURE
DD_VOLUME               .cm3                                                :03 INCREMENTAL DRAW DOWN VOLUME
TEMP                    .degC                                               :04 TRANSDUCER TEMPERATURE
DD_PRESS_MOD_1000       .bar                                                :05 DRAW DOWN PRESSURE MOD 1000
DD_PRESS_MOD_100        .bar                                                :06 DRAW DOWN PRESSURE MOD 100
DD_PRESS_MOD_10         .bar                                                :07 DRAW DOWN PRESSURE MOD 10
DD_PRESS_MOD_1          .bar                                                :08 DRAW DOWN PRESSURE MOD 1
DD_PRESS_MOD_01         .bar                                                :09 DRAW DOWN PRESSURE MOD 01
DD_PRESS_MOD_001        .bar                                                :10 DRAW DOWN PRESSURE MOD 001
DD_PRESS_MOD_0001       .bar                                                :11 DRAW DOWN PRESSURE MOD 0001


~PARAMETER INFORMATION
#MNEM                   .UNIT        VALUE                                   DESCRIPTION
#________________________________________________________________________________________
TOOLFACE                .deg         na                                     :01 TOOLFACE
PUMP_CAPACITY           .bar         400                                    :02 NOMINAL DRAW DOWN PUMP CAPACITY
PUMP_LIMIT              .bar         400                                    :03 DOWNLINK PUMP LIMIT
TIME_LIMIT              .min         10                                     :04 DOWNLINK MAX TIME
TEST_TYPE               .            LOW MOBILITY                           :05 DOWNLINK
DD_PIST_A               .cm2         3.1416                                 :06 DRAW DOWN PISTON AREA
V_SYS                   .cm3         131.0000                               :07 SYSTEM VOLUME
PROBE_ID                .cm          1.2700                                 :08 TTK PROBE ID
G0                      .            4.6700                                 :09 GEOMETRY FACTOR


~A                  TIME     DD_PRESS                              DD_VOLUME               TEMP                                   DD_PRESS_MOD_1000       DD_PRESS_MOD_100        DD_PRESS_MOD_10         DD_PRESS_MOD_1        DD_PRESS_MOD_01       DD_PRESS_MOD_001      DD_PRESS_MOD_0001
# ...
                  181.30    435.15782                                0.00000             81.523                                        4.35158e+002           3.51578e+001           5.15782e+000           1.57823e-001           5.78227e-002           7.82269e-003           8.22687e-004
                  181.40    435.18624                                0.00000             81.523                                        4.35186e+002           3.51862e+001           5.18624e+000           1.86237e-001           8.62369e-002           6.23686e-003           2.36856e-004
                  181.50    435.14540                                0.00000             81.523                                        4.35145e+002           3.51454e+001           5.14540e+000           1.45401e-001           4.54012e-002           5.40119e-003           4.01186e-004
                  181.60    435.11277                                0.00000             81.523                                        4.35113e+002           3.51128e+001           5.11277e+000           1.12770e-001           1.27698e-002           2.76984e-003           7.69841e-004
                  181.70    435.15847                                0.00000             81.523                                        4.35158e+002           3.51585e+001           5.15847e+000           1.58470e-001           5.84703e-002           8.47031e-003           4.70306e-004
                  181.80    435.19575                                0.00000             81.523                                        4.35196e+002           3.51957e+001           5.19575e+000           1.95749e-001           9.57492e-002           5.74916e-003           7.49162e-004
                  181.90    435.14787                                0.00000             81.523                                        4.35148e+002           3.51479e+001           5.14787e+000           1.47874e-001           4.78745e-002           7.87449e-003           8.74488e-004
                  182.00    435.10249                                0.00000             81.523                                        4.35102e+002           3.51025e+001           5.10249e+000           1.02494e-001           2.49423e-003           2.49423e-003           4.94234e-004
                  182.10    435.13350                                0.00000             81.523                                        4.35133e+002           3.51335e+001           5.13350e+000           1.33496e-001           3.34960e-002           3.49602e-003           4.96024e-004
                  182.20    435.16565                                0.00000             81.523                                        4.35166e+002           3.51657e+001           5.16565e+000           1.65654e-001           6.56542e-002           5.65422e-003           6.54215e-004
                  182.30    435.13477                                0.00000             81.523                                        4.35135e+002           3.51348e+001           5.13477e+000           1.34770e-001           3.47700e-002           4.76998e-003           7.69982e-004
                  182.40    435.11501                                0.00000             81.523                                        4.35115e+002           3.51150e+001           5.11501e+000           1.15013e-001           1.50126e-002           5.01263e-003           1.26308e-005
                  182.50    435.16224                                0.00000             81.523                                        4.35162e+002           3.51622e+001           5.16224e+000           1.62240e-001           6.22399e-002           2.23988e-003           2.39876e-004
                  182.60    435.19429                                0.00000             81.523                                        4.35194e+002           3.51943e+001           5.19429e+000           1.94286e-001           9.42857e-002           4.28572e-003           2.85723e-004
                  182.70    435.14934                                0.00000             81.523                                        4.35149e+002           3.51493e+001           5.14934e+000           1.49341e-001           4.93410e-002           9.34101e-003           3.41012e-004
                  182.80    435.11313                                0.00000             81.523                                        4.35113e+002           3.51131e+001           5.11313e+000           1.13127e-001           1.31274e-002           3.12741e-003           1.27411e-004
                  182.90    435.14336                                0.00000             81.523                                        4.35143e+002           3.51434e+001           5.14336e+000           1.43359e-001           4.33591e-002           3.35914e-003           3.59141e-004
                  183.00    435.17306                                0.00000             81.523                                        4.35173e+002           3.51731e+001           5.17306e+000           1.73058e-001           7.30584e-002           3.05842e-003           5.84246e-005
                  183.10    435.13483                                0.00000             81.523                                        4.35135e+002           3.51348e+001           5.13483e+000           1.34833e-001           3.48329e-002           4.83290e-003           8.32896e-004
                  183.20    435.10544                                0.00000             81.523                                        4.35105e+002           3.51054e+001           5.10544e+000           1.05439e-001           5.43941e-003           5.43941e-003           4.39414e-004
                  183.30    435.14050                                0.00000             81.523                                        4.35141e+002           3.51405e+001           5.14050e+000           1.40501e-001           4.05011e-002           5.01051e-004           5.01051e-004
                  183.40    435.16850                                0.00000             81.523                                        4.35168e+002           3.51685e+001           5.16850e+000           1.68496e-001           6.84959e-002           8.49589e-003           4.95891e-004
                  183.50    435.12453                                0.00000             81.523                                        4.35125e+002           3.51245e+001           5.12453e+000           1.24529e-001           2.45291e-002           4.52915e-003           5.29148e-004
                  183.60    435.08587                                0.00000             81.523                                        4.35086e+002           3.50859e+001           5.08587e+000           8.58665e-002           8.58665e-002           5.86653e-003           8.66530e-004
                  183.70    435.11759                                0.00000             81.523                                        4.35118e+002           3.51176e+001           5.11759e+000           1.17589e-001           1.75893e-002           7.58932e-003           5.89322e-004
                  183.80    435.14692                                0.00000             81.523                                        4.35147e+002           3.51469e+001           5.14692e+000           1.46918e-001           4.69178e-002           6.91779e-003           9.17792e-004
                  183.90    435.10651                                0.00000             81.523                                        4.35107e+002           3.51065e+001           5.10651e+000           1.06507e-001           6.50663e-003           6.50663e-003           5.06625e-004
                  184.00    435.07458                                0.00000             81.523                                        4.35075e+002           3.50746e+001           5.07458e+000           7.45786e-002           7.45786e-002           4.57858e-003           5.78584e-004
