~VERSION INFORMATION
VERS                    .            2.0                                    :CWLS LOG ASCII STANDARD
WRAP                    .            NO                                     :ONE LINE PER TIME STEP


~WELL INFORMATION
#MNEM                   .UNIT        DATA                                    DESCRIPTION
#________________________________________________________________________________________
STRTTIME                .HH/MM/SS    10:02:47                               :START TIME
STOPTIME                .HH/MM/SS    10:07:04                               :STOP TIME
STRT                    .s           2.10                                   :START DATA
STOP                    .s           255.20                                 :STOP DATA
STEP                    .s           0.10                                   :MEASUREMENT TIME INTERVAL
NULL                    .            -999.25                                :NULL VALUE
COMP                    .            Statoil ASA                            :COMPANY
FLD                     .            Volve                                  :FIELD
WELL                    .            15/9-F-11 A                            :WELL
RUN                     .            8                                      :RUN
LOC                     .            Maersk Inspirer                        :LOCATION
PROV                    .            na                                     :PROVINCE
SRVC                    .            Baker Hughes INTEQ                     :SERVICE COMPANY
DATE                    .YY/MM/DD    13/05/21                               :LOG DATE
UWI                     .                                                   :UNIQUE WELL ID
DEPTHMD                 .m           3657.3                                 :MEASURED DEPTH
DEPTHTVD                .m           3046.2                                 :TRUE VERTICAL DEPTH


~CURVE INFORMATION
#MNEM                   .UNIT        API CODES                               DESCRIPTION
#________________________________________________________________________________________
TIME                    .s                                                  :01 TIME
DD_PRESS                .bar                                                :02 DRAW DOWN PRESSURE
DD_VOLUME               .cm3                                                :03 INCREMENTAL DRAW DOWN VOLUME
TEMP                    .degC                                               :04 TRANSDUCER TEMPERATURE
DD_PRESS_MOD_1000       .bar                                                :05 DRAW DOWN PRESSURE MOD 1000
DD_PRESS_MOD_100        .bar                                                :06 DRAW DOWN PRESSURE MOD 100
DD_PRESS_MOD_10         .bar                                                :07 DRAW DOWN PRESSURE MOD 10
DD_PRESS_MOD_1          .bar                                                :08 DRAW DOWN PRESSURE MOD 1
DD_PRESS_MOD_01         .bar                                                :09 DRAW DOWN PRESSURE MOD 01
DD_PRESS_MOD_001        .bar                                                :10 DRAW DOWN PRESSURE MOD 001
DD_PRESS_MOD_0001       .bar                                                :11 DRAW DOWN PRESSURE MOD 0001


~PARAMETER INFORMATION
#MNEM                   .UNIT        VALUE                                   DESCRIPTION
#________________________________________________________________________________________
TOOLFACE                .deg         60.1                                   :01 TOOLFACE
PUMP_CAPACITY           .bar         400                                    :02 NOMINAL DRAW DOWN PUMP CAPACITY
PUMP_LIMIT              .bar         240                                    :03 DOWNLINK PUMP LIMIT
TIME_LIMIT              .min         10                                     :04 DOWNLINK MAX TIME
TEST_TYPE               .            REPEAT                                 :05 DOWNLINK
TEST_TYPE               .            HIGH MOBILITY                          :06 DOWNLINK
DD_PIST_A               .cm2         3.1416                                 :07 DRAW DOWN PISTON AREA
V_SYS                   .cm3         131.0000                               :08 SYSTEM VOLUME
PROBE_ID                .cm          1.2700                                 :09 TTK PROBE ID
G0                      .            4.6700                                 :10 GEOMETRY FACTOR


~A                  TIME     DD_PRESS                              DD_VOLUME               TEMP                                   DD_PRESS_MOD_1000       DD_PRESS_MOD_100        DD_PRESS_MOD_10         DD_PRESS_MOD_1        DD_PRESS_MOD_01       DD_PRESS_MOD_001      DD_PRESS_MOD_0001
                    2.10    419.53481                                0.00000             82.242                                        4.19535e+002           1.95348e+001           9.53481e+000           5.34812e-001           3.48122e-002           4.81221e-003           8.12208e-004
                    2.20    419.53006                                0.00000             82.242                                        4.19530e+002           1.95301e+001           9.53006e+000           5.30060e-001           3.00602e-002           6.01653e-005           6.01653e-005
                    2.30    419.52800                                0.00000             82.242                                        4.19528e+002           1.95280e+001           9.52800e+000           5.28000e-001           2.79995e-002           7.99951e-003           9.99511e-004
                    2.40    419.55906                                0.00000             82.242                                        4.19559e+002           1.95591e+001           9.55906e+000           5.59061e-001           5.90606e-002           9.06059e-003           6.05866e-005
                    2.50    419.62373                                0.00000             82.242                                        4.19624e+002           1.96237e+001           9.62373e+000           6.23730e-001           2.37299e-002           3.72986e-003           7.29858e-004
                    2.60    419.69097                                0.00000             82.242                                        4.19691e+002           1.96910e+001           9.69097e+000           6.90974e-001           9.09743e-002           9.74317e-004           9.74317e-004
                    2.70    419.76093                                0.00000             82.242                                        4.19761e+002           1.97609e+001           9.76093e+000           7.60928e-001           6.09282e-002           9.28212e-004           9.28212e-004
                    2.80    419.81209                                0.00000             82.242                                        4.19812e+002           1.98121e+001           9.81209e+000           8.12091e-001           1.20908e-002           2.09083e-003           9.08269e-005
                    2.90    419.83734                                0.00000             82.242                                        4.19837e+002           1.98373e+001           9.83734e+000           8.37337e-001           3.73372e-002           7.33723e-003           3.37229e-004
                    3.00    419.85717                                0.00000             82.242                                        4.19857e+002           1.98572e+001           9.85717e+000           8.57167e-001           5.71673e-002           7.16732e-003           1.67322e-004
                    3.10    419.87782                                0.00000             82.242                                        4.19878e+002           1.98778e+001           9.87782e+000           8.77824e-001           7.78241e-002           7.82413e-003           8.24133e-004
                    3.20    419.88950                                0.00000             82.242                                        4.19890e+002           1.98895e+001           9.88950e+000           8.89504e-001           8.95041e-002           9.50407e-003           5.04067e-004
                    3.30    419.86583                                0.00000             82.242                                        4.19866e+002           1.98658e+001           9.86583e+000           8.65832e-001           6.58323e-002           5.83234e-003           8.32342e-004
                    3.40    419.84323                                0.00000             82.242                                        4.19843e+002           1.98432e+001           9.84323e+000           8.43232e-001           4.32324e-002           3.23240e-003           2.32397e-004
                    3.50    419.84590                                0.00000             82.242                                        4.19846e+002           1.98459e+001           9.84590e+000           8.45900e-001           4.59002e-002           5.90018e-003           9.00177e-004
                    3.60    419.84793                                0.00000             82.242                                        4.19848e+002           1.98479e+001           9.84793e+000           8.47931e-001           4.79313e-002           7.93127e-003           9.31272e-004
                    3.70    419.80877                                0.00000             82.242                                        4.19809e+002           1.98088e+001           9.80877e+000           8.08767e-001           8.76701e-003           8.76701e-003           7.67009e-004
                    3.80    419.77719                                0.00000             82.242                                        4.19777e+002           1.97772e+001           9.77719e+000           7.77188e-001           7.71882e-002           7.18816e-003           1.88162e-004
                    3.90    419.79422                                0.00000             82.242                                        4.19794e+002           1.97942e+001           9.79422e+000           7.94223e-001           9.42227e-002           4.22269e-003           2.22694e-004
                    4.00    419.85917                                0.00000             82.242                                        4.19859e+002           1.98592e+001           9.85917e+000           8.59172e-001           5.91722e-002           9.17224e-003           1.72235e-004
                    4.10    419.92462                                0.00000             82.242                                        4.19925e+002           1.99246e+001           9.92462e+000           9.24617e-001           2.46173e-002           4.61727e-003           6.17270e-004
                    4.20    419.96748                                0.00000             82.242                                        4.19967e+002           1.99675e+001           9.96748e+000           9.67480e-001           6.74799e-002           7.47994e-003           4.79936e-004
                    4.30    420.00991                                0.00000             82.242                                        4.20010e+002           2.00099e+001           9.91159e-003           9.91159e-003           9.91159e-003           9.91159e-003           9.11589e-004
                    4.40    420.05340                                0.00000             82.242                                        4.20053e+002           2.00534e+001           5.34029e-002           5.34029e-002           5.34029e-002           3.40295e-003           4.02947e-004
                    4.50    420.07658                                0.00000             82.242                                        4.20077e+002           2.00766e+001           7.65765e-002           7.65765e-002           7.65765e-002           6.57655e-003           5.76547e-004
                    4.60    420.07735                                0.00000             82.242                                        4.20077e+002           2.00773e+001           7.73450e-002           7.73450e-002           7.73450e-002           7.34503e-003           3.45026e-004
                    4.70    420.07773                                0.00000             82.242                                        4.20078e+002           2.00777e+001           7.77264e-002           7.77264e-002           7.77264e-002           7.72638e-003           7.26381e-004
                    4.80    420.06837                                0.00000             82.242                                        4.20068e+002           2.00684e+001           6.83695e-002           6.83695e-002           6.83695e-002           8.36952e-003           3.69521e-004
