~VERSION INFORMATION
VERS                    .            2.0                                    :CWLS LOG ASCII STANDARD
WRAP                    .            NO                                     :ONE LINE PER TIME STEP


~WELL INFORMATION
#MNEM                   .UNIT        DATA                                    DESCRIPTION
#________________________________________________________________________________________
STRTTIME                .HH/MM/SS    09:08:53                               :START TIME
STOPTIME                .HH/MM/SS    09:11:57                               :STOP TIME
STRT                    .s           2.10                                   :START DATA
STOP                    .s           182.80                                 :STOP DATA
STEP                    .s           0.10                                   :MEASUREMENT TIME INTERVAL
NULL                    .            -999.25                                :NULL VALUE
COMP                    .            Statoil ASA                            :COMPANY
FLD                     .            Volve                                  :FIELD
WELL                    .            15/9-F-11 A                            :WELL
RUN                     .            8                                      :RUN
LOC                     .            Maersk Inspirer                        :LOCATION
PROV                    .            na                                     :PROVINCE
SRVC                    .            Baker Hughes INTEQ                     :SERVICE COMPANY
DATE                    .YY/MM/DD    13/05/21                               :LOG DATE
UWI                     .                                                   :UNIQUE WELL ID
DEPTHMD                 .m           3671.1                                 :MEASURED DEPTH
DEPTHTVD                .m           3056.7                                 :TRUE VERTICAL DEPTH


~CURVE INFORMATION
#MNEM                   .UNIT        API CODES                               DESCRIPTION
#________________________________________________________________________________________
TIME                    .s                                                  :01 TIME
DD_PRESS                .bar                                                :02 DRAW DOWN PRESSURE
DD_VOLUME               .cm3                                                :03 INCREMENTAL DRAW DOWN VOLUME
TEMP                    .degC                                               :04 TRANSDUCER TEMPERATURE
DD_PRESS_MOD_1000       .bar                                                :05 DRAW DOWN PRESSURE MOD 1000
DD_PRESS_MOD_100        .bar                                                :06 DRAW DOWN PRESSURE MOD 100
DD_PRESS_MOD_10         .bar                                                :07 DRAW DOWN PRESSURE MOD 10
DD_PRESS_MOD_1          .bar                                                :08 DRAW DOWN PRESSURE MOD 1
DD_PRESS_MOD_01         .bar                                                :09 DRAW DOWN PRESSURE MOD 01
DD_PRESS_MOD_001        .bar                                                :10 DRAW DOWN PRESSURE MOD 001
DD_PRESS_MOD_0001       .bar                                                :11 DRAW DOWN PRESSURE MOD 0001


~PARAMETER INFORMATION
#MNEM                   .UNIT        VALUE                                   DESCRIPTION
#________________________________________________________________________________________
TOOLFACE                .deg         -56.2                                  :01 TOOLFACE
PUMP_CAPACITY           .bar         400                                    :02 NOMINAL DRAW DOWN PUMP CAPACITY
PUMP_LIMIT              .bar         240                                    :03 DOWNLINK PUMP LIMIT
TIME_LIMIT              .min         10                                     :04 DOWNLINK MAX TIME
TEST_TYPE               .            REPEAT                                 :05 DOWNLINK
TEST_TYPE               .            HIGH MOBILITY                          :06 DOWNLINK
DD_PIST_A               .cm2         3.1416                                 :07 DRAW DOWN PISTON AREA
V_SYS                   .cm3         131.0000                               :08 SYSTEM VOLUME
PROBE_ID                .cm          1.2700                                 :09 TTK PROBE ID
G0                      .            4.6700                                 :10 GEOMETRY FACTOR


~A                  TIME     DD_PRESS                              DD_VOLUME               TEMP                                   DD_PRESS_MOD_1000       DD_PRESS_MOD_100        DD_PRESS_MOD_10         DD_PRESS_MOD_1        DD_PRESS_MOD_01       DD_PRESS_MOD_001      DD_PRESS_MOD_0001
# ...
                  170.10    423.05206                                0.00000             82.461                                        4.23052e+002           2.30521e+001           3.05206e+000           5.20587e-002           5.20587e-002           2.05873e-003           5.87345e-005
                  170.20    423.06428                                0.00000             82.461                                        4.23064e+002           2.30643e+001           3.06428e+000           6.42768e-002           6.42768e-002           4.27677e-003           2.76768e-004
                  170.30    423.06752                                0.00000             82.461                                        4.23068e+002           2.30675e+001           3.06752e+000           6.75193e-002           6.75193e-002           7.51926e-003           5.19262e-004
                  170.40    423.06149                                0.00000             82.461                                        4.23061e+002           2.30615e+001           3.06149e+000           6.14889e-002           6.14889e-002           1.48892e-003           4.88919e-004
                  170.50    423.04730                                0.00000             82.461                                        4.23047e+002           2.30473e+001           3.04730e+000           4.72995e-002           4.72995e-002           7.29954e-003           2.99539e-004
                  170.60    423.04430                                0.00000             82.461                                        4.23044e+002           2.30443e+001           3.04430e+000           4.42970e-002           4.42970e-002           4.29702e-003           2.97015e-004
                  170.70    423.05128                                0.00000             82.461                                        4.23051e+002           2.30513e+001           3.05128e+000           5.12814e-002           5.12814e-002           1.28135e-003           2.81353e-004
                  170.80    423.05627                                0.00000             82.461                                        4.23056e+002           2.30563e+001           3.05627e+000           5.62686e-002           5.62686e-002           6.26859e-003           2.68594e-004
                  170.90    423.06899                                0.00000             82.461                                        4.23069e+002           2.30690e+001           3.06899e+000           6.89867e-002           6.89867e-002           8.98668e-003           9.86682e-004
                  171.00    423.06606                                0.00000             82.461                                        4.23066e+002           2.30661e+001           3.06606e+000           6.60625e-002           6.60625e-002           6.06247e-003           6.24720e-005
                  171.10    423.06490                                0.00000             82.461                                        4.23065e+002           2.30649e+001           3.06490e+000           6.48961e-002           6.48961e-002           4.89614e-003           8.96141e-004
                  171.20    423.06221                                0.00000             82.461                                        4.23062e+002           2.30622e+001           3.06221e+000           6.22054e-002           6.22054e-002           2.20535e-003           2.05351e-004
                  171.30    423.05984                                0.00000             82.461                                        4.23060e+002           2.30598e+001           3.05984e+000           5.98419e-002           5.98419e-002           9.84185e-003           8.41851e-004
                  171.40    423.05221                                0.00000             82.461                                        4.23052e+002           2.30522e+001           3.05221e+000           5.22066e-002           5.22066e-002           2.20661e-003           2.06605e-004
                  171.50    423.04995                                0.00000             82.461                                        4.23050e+002           2.30500e+001           3.04995e+000           4.99544e-002           4.99544e-002           9.95438e-003           9.54382e-004
                  171.60    423.05275                                0.00000             82.461                                        4.23053e+002           2.30528e+001           3.05275e+000           5.27510e-002           5.27510e-002           2.75103e-003           7.51027e-004
                  171.70    423.06005                                0.00000             82.461                                        4.23060e+002           2.30601e+001           3.06005e+000           6.00541e-002           6.00541e-002           5.40812e-005           5.40812e-005
                  171.80    423.05357                                0.00000             82.463                                        4.23054e+002           2.30536e+001           3.05357e+000           5.35709e-002           5.35709e-002           3.57085e-003           5.70850e-004
                  171.90    423.05084                                0.00000             82.467                                        4.23051e+002           2.30508e+001           3.05084e+000           5.08413e-002           5.08413e-002           8.41273e-004           8.41273e-004
                  172.00    423.06206                                0.00000             82.469                                        4.23062e+002           2.30621e+001           3.06206e+000           6.20576e-002           6.20576e-002           2.05756e-003           5.75559e-005
                  172.10    423.07179                                0.00000             82.469                                        4.23072e+002           2.30718e+001           3.07179e+000           7.17946e-002           7.17946e-002           1.79457e-003           7.94572e-004
                  172.20    423.06669                                0.00000             82.469                                        4.23067e+002           2.30667e+001           3.06669e+000           6.66858e-002           6.66858e-002           6.68584e-003           6.85835e-004
                  172.30    423.06078                                0.00000             82.466                                        4.23061e+002           2.30608e+001           3.06078e+000           6.07822e-002           6.07822e-002           7.82160e-004           7.82160e-004
                  172.40    423.05942                                0.00000             82.463                                        4.23059e+002           2.30594e+001           3.05942e+000           5.94210e-002           5.94210e-002           9.42095e-003           4.20954e-004
                  172.50    423.05331                                0.00000             82.461                                        4.23053e+002           2.30533e+001           3.05331e+000           5.33112e-002           5.33112e-002           3.31117e-003           3.11171e-004
                  172.60    423.05037                                0.00000             82.463                                        4.23050e+002           2.30504e+001           3.05037e+000           5.03704e-002           5.03704e-002           3.70387e-004           3.70387e-004
                  172.70    423.05082                                0.00000             82.467                                        4.23051e+002           2.30508e+001           3.05082e+000           5.08188e-002           5.08188e-002           8.18796e-004           8.18796e-004
                  172.80    423.06244                                0.00000             82.469                                        4.23062e+002           2.30624e+001           3.06244e+000           6.24420e-002           6.24420e-002           2.44196e-003           4.41960e-004
