~VERSION INFORMATION
VERS                    .            2.0                                    :CWLS LOG ASCII STANDARD
WRAP                    .            NO                                     :ONE LINE PER TIME STEP


~WELL INFORMATION
#MNEM                   .UNIT        DATA                                    DESCRIPTION
#________________________________________________________________________________________
STRTTIME                .HH/MM/SS    23:13:04                               :START TIME
STOPTIME                .HH/MM/SS    23:16:31                               :STOP TIME
STRT                    .s           2.10                                   :START DATA
STOP                    .s           205.60                                 :STOP DATA
STEP                    .s           0.10                                   :MEASUREMENT TIME INTERVAL
NULL                    .            -999.25                                :NULL VALUE
COMP                    .            Statoil ASA                            :COMPANY
FLD                     .            Volve                                  :FIELD
WELL                    .            15/9-F-1 C                             :WELL
RUN                     .            4                                      :RUN
LOC                     .                                                   :LOCATION
PROV                    .            na                                     :PROVINCE
SRVC                    .            Baker Hughes INTEQ                     :SERVICE COMPANY
DATE                    .YY/MM/DD    14/03/14                               :LOG DATE
UWI                     .                                                   :UNIQUE WELL ID
DEPTHMD                 .m           3858.0                                 :MEASURED DEPTH
DEPTHTVD                .m           3096.5                                 :TRUE VERTICAL DEPTH


~CURVE INFORMATION
#MNEM                   .UNIT        API CODES                               DESCRIPTION
#________________________________________________________________________________________
TIME                    .s                                                  :01 TIME
DD_PRESS                .bar                                                :02 DRAW DOWN PRESSURE
DD_VOLUME               .cm3                                                :03 INCREMENTAL DRAW DOWN VOLUME
TEMP                    .degC                                               :04 TRANSDUCER TEMPERATURE
DD_PRESS_MOD_1000       .bar                                                :05 DRAW DOWN PRESSURE MOD 1000
DD_PRESS_MOD_100        .bar                                                :06 DRAW DOWN PRESSURE MOD 100
DD_PRESS_MOD_10         .bar                                                :07 DRAW DOWN PRESSURE MOD 10
DD_PRESS_MOD_1          .bar                                                :08 DRAW DOWN PRESSURE MOD 1
DD_PRESS_MOD_01         .bar                                                :09 DRAW DOWN PRESSURE MOD 01
DD_PRESS_MOD_001        .bar                                                :10 DRAW DOWN PRESSURE MOD 001
DD_PRESS_MOD_0001       .bar                                                :11 DRAW DOWN PRESSURE MOD 0001


~PARAMETER INFORMATION
#MNEM                   .UNIT        VALUE                                   DESCRIPTION
#________________________________________________________________________________________
TOOLFACE                .deg         88.6                                   :01 TOOLFACE
PUMP_CAPACITY           .bar         400                                    :02 NOMINAL DRAW DOWN PUMP CAPACITY
PUMP_LIMIT              .bar         240                                    :03 DOWNLINK PUMP LIMIT
TIME_LIMIT              .min         10                                     :04 DOWNLINK MAX TIME
TEST_TYPE               .            HIGH MOBILITY                          :05 DOWNLINK
DD_PIST_A               .cm2         3.1416                                 :06 DRAW DOWN PISTON AREA
V_SYS                   .cm3         131.0000                               :07 SYSTEM VOLUME
PROBE_ID                .cm          1.2700                                 :08 TTK PROBE ID
G0                      .            4.6700                                 :09 GEOMETRY FACTOR


~A                  TIME     DD_PRESS                              DD_VOLUME               TEMP                                   DD_PRESS_MOD_1000       DD_PRESS_MOD_100        DD_PRESS_MOD_10         DD_PRESS_MOD_1        DD_PRESS_MOD_01       DD_PRESS_MOD_001      DD_PRESS_MOD_0001
# ...
                   69.30    352.21697                               10.56428             90.078                                        3.52217e+002           5.22170e+001           2.21697e+000           2.16969e-001           1.69688e-002           6.96879e-003           9.68789e-004
                   69.40    352.21468                               10.56428             90.078                                        3.52215e+002           5.22147e+001           2.21468e+000           2.14682e-001           1.46820e-002           4.68205e-003           6.82049e-004
                   69.50    352.21339                               10.56428             90.078                                        3.52213e+002           5.22134e+001           2.21339e+000           2.13389e-001           1.33893e-002           3.38928e-003           3.89276e-004
                   69.60    352.21765                               10.56428             90.078                                        3.52218e+002           5.22177e+001           2.21765e+000           2.17651e-001           1.76509e-002           7.65092e-003           6.50919e-004
                   69.70    352.21929                               10.56428             90.078                                        3.52219e+002           5.22193e+001           2.21929e+000           2.19286e-001           1.92859e-002           9.28591e-003           2.85910e-004
                   69.80    352.21704                               10.56428             90.078                                        3.52217e+002           5.22170e+001           2.21704e+000           2.17036e-001           1.70359e-002           7.03595e-003           3.59466e-005
                   69.90    352.21554                               10.56428             90.078                                        3.52216e+002           5.22155e+001           2.21554e+000           2.15540e-001           1.55397e-002           5.53973e-003           5.39726e-004
                   70.00    352.21724                               10.56428             90.078                                        3.52217e+002           5.22172e+001           2.21724e+000           2.17236e-001           1.72363e-002           7.23635e-003           2.36349e-004
                   70.10    352.21679                               10.56428             90.078                                        3.52217e+002           5.22168e+001           2.21679e+000           2.16785e-001           1.67851e-002           6.78514e-003           7.85142e-004
                   70.20    352.21557                               10.56428             90.078                                        3.52216e+002           5.22156e+001           2.21557e+000           2.15573e-001           1.55732e-002           5.57323e-003           5.73229e-004
                   70.30    352.21427                               10.56428             90.078                                        3.52214e+002           5.22143e+001           2.21427e+000           2.14266e-001           1.42656e-002           4.26556e-003           2.65561e-004
                   70.40    352.21571                               10.56428             90.078                                        3.52216e+002           5.22157e+001           2.21571e+000           2.15711e-001           1.57112e-002           5.71118e-003           7.11177e-004
                   70.50    352.21468                               10.56428             90.078                                        3.52215e+002           5.22147e+001           2.21468e+000           2.14681e-001           1.46811e-002           4.68107e-003           6.81072e-004
                   70.60    352.21587                               10.56428             90.078                                        3.52216e+002           5.22159e+001           2.21587e+000           2.15868e-001           1.58683e-002           5.86830e-003           8.68304e-004
                   70.70    352.21817                               10.56428             90.078                                        3.52218e+002           5.22182e+001           2.21817e+000           2.18165e-001           1.81653e-002           8.16528e-003           1.65284e-004
                   70.80    352.21739                               10.56428             90.078                                        3.52217e+002           5.22174e+001           2.21739e+000           2.17391e-001           1.73908e-002           7.39076e-003           3.90759e-004
                   70.90    352.21880                               10.56428             90.078                                        3.52219e+002           5.22188e+001           2.21880e+000           2.18802e-001           1.88021e-002           8.80206e-003           8.02062e-004
                   71.00    352.22094                               10.56428             90.078                                        3.52221e+002           5.22209e+001           2.22094e+000           2.20939e-001           2.09387e-002           9.38719e-004           9.38719e-004
                   71.10    352.22126                               10.56428             90.078                                        3.52221e+002           5.22213e+001           2.22126e+000           2.21264e-001           2.12640e-002           1.26396e-003           2.63964e-004
                   71.20    352.21715                               10.56428             90.078                                        3.52217e+002           5.22172e+001           2.21715e+000           2.17152e-001           1.71521e-002           7.15208e-003           1.52081e-004
                   71.30    352.21032                               10.56428             90.078                                        3.52210e+002           5.22103e+001           2.21032e+000           2.10317e-001           1.03172e-002           3.17175e-004           3.17175e-004
                   71.40    352.20901                               10.56428             90.078                                        3.52209e+002           5.22090e+001           2.20901e+000           2.09013e-001           9.01315e-003           9.01315e-003           1.31492e-005
                   71.50    352.21496                               10.56428             90.078                                        3.52215e+002           5.22150e+001           2.21496e+000           2.14956e-001           1.49564e-002           4.95645e-003           9.56447e-004
                   71.60    352.21998                               10.56428             90.078                                        3.52220e+002           5.22200e+001           2.21998e+000           2.19977e-001           1.99772e-002           9.97716e-003           9.77157e-004
                   71.70    352.21643                               10.56428             90.078                                        3.52216e+002           5.22164e+001           2.21643e+000           2.16434e-001           1.64341e-002           6.43415e-003           4.34146e-004
                   71.80    352.21353                               10.56428             90.078                                        3.52214e+002           5.22135e+001           2.21353e+000           2.13528e-001           1.35285e-002           3.52847e-003           5.28471e-004
                   71.90    352.21675                               10.56428             90.078                                        3.52217e+002           5.22168e+001           2.21675e+000           2.16752e-001           1.67522e-002           6.75216e-003           7.52158e-004
                   72.00    352.21811                               10.56428             90.078                                        3.52218e+002           5.22181e+001           2.21811e+000           2.18111e-001           1.81113e-002           8.11133e-003           1.11335e-004
