~VERSION INFORMATION
VERS                    .            2.0                                    :CWLS LOG ASCII STANDARD
WRAP                    .            NO                                     :ONE LINE PER TIME STEP


~WELL INFORMATION
#MNEM                   .UNIT        DATA                                    DESCRIPTION
#________________________________________________________________________________________
STRTTIME                .HH/MM/SS    19:20:48                               :START TIME
STOPTIME                .HH/MM/SS    19:23:33                               :STOP TIME
STRT                    .s           2.10                                   :START DATA
STOP                    .s           164.00                                 :STOP DATA
STEP                    .s           0.10                                   :MEASUREMENT TIME INTERVAL
NULL                    .            -999.25                                :NULL VALUE
COMP                    .            Statoil ASA                            :COMPANY
FLD                     .            Volve                                  :FIELD
WELL                    .            15/9-F-11 A                            :WELL
RUN                     .            8                                      :RUN
LOC                     .            Maersk Inspirer                        :LOCATION
PROV                    .            na                                     :PROVINCE
SRVC                    .            Baker Hughes INTEQ                     :SERVICE COMPANY
DATE                    .YY/MM/DD    13/05/23                               :LOG DATE
UWI                     .                                                   :UNIQUE WELL ID
DEPTHMD                 .m           3617.0                                 :MEASURED DEPTH
DEPTHTVD                .m           3015.4                                 :TRUE VERTICAL DEPTH


~CURVE INFORMATION
#MNEM                   .UNIT        API CODES                               DESCRIPTION
#________________________________________________________________________________________
TIME                    .s                                                  :01 TIME
DD_PRESS                .bar                                                :02 DRAW DOWN PRESSURE
DD_VOLUME               .cm3                                                :03 INCREMENTAL DRAW DOWN VOLUME
TEMP                    .degC                                               :04 TRANSDUCER TEMPERATURE
DD_PRESS_MOD_1000       .bar                                                :05 DRAW DOWN PRESSURE MOD 1000
DD_PRESS_MOD_100        .bar                                                :06 DRAW DOWN PRESSURE MOD 100
DD_PRESS_MOD_10         .bar                                                :07 DRAW DOWN PRESSURE MOD 10
DD_PRESS_MOD_1          .bar                                                :08 DRAW DOWN PRESSURE MOD 1
DD_PRESS_MOD_01         .bar                                                :09 DRAW DOWN PRESSURE MOD 01
DD_PRESS_MOD_001        .bar                                                :10 DRAW DOWN PRESSURE MOD 001
DD_PRESS_MOD_0001       .bar                                                :11 DRAW DOWN PRESSURE MOD 0001


~PARAMETER INFORMATION
#MNEM                   .UNIT        VALUE                                   DESCRIPTION
#________________________________________________________________________________________
TOOLFACE                .deg         -39.9                                  :01 TOOLFACE
PUMP_CAPACITY           .bar         400                                    :02 NOMINAL DRAW DOWN PUMP CAPACITY
PUMP_LIMIT              .bar         240                                    :03 DOWNLINK PUMP LIMIT
TIME_LIMIT              .min         10                                     :04 DOWNLINK MAX TIME
TEST_TYPE               .            REPEAT                                 :05 DOWNLINK
TEST_TYPE               .            HIGH MOBILITY                          :06 DOWNLINK
DD_PIST_A               .cm2         3.1416                                 :07 DRAW DOWN PISTON AREA
V_SYS                   .cm3         131.0000                               :08 SYSTEM VOLUME
PROBE_ID                .cm          1.2700                                 :09 TTK PROBE ID
G0                      .            4.6700                                 :10 GEOMETRY FACTOR


~A                  TIME     DD_PRESS                              DD_VOLUME               TEMP                                   DD_PRESS_MOD_1000       DD_PRESS_MOD_100        DD_PRESS_MOD_10         DD_PRESS_MOD_1        DD_PRESS_MOD_01       DD_PRESS_MOD_001      DD_PRESS_MOD_0001
# ...
                  119.70    340.84172                               29.44059             72.070                                        3.40842e+002           4.08417e+001           8.41717e-001           8.41717e-001           4.17172e-002           1.71723e-003           7.17227e-004
                  119.80    340.83951                               29.44059             72.070                                        3.40840e+002           4.08395e+001           8.39512e-001           8.39512e-001           3.95118e-002           9.51182e-003           5.11816e-004
                  119.90    340.83925                               29.44059             72.070                                        3.40839e+002           4.08393e+001           8.39253e-001           8.39253e-001           3.92533e-002           9.25329e-003           2.53286e-004
                  120.00    340.84032                               29.44059             72.070                                        3.40840e+002           4.08403e+001           8.40325e-001           8.40325e-001           4.03247e-002           3.24717e-004           3.24717e-004
                  120.10    340.84090                               29.44059             72.070                                        3.40841e+002           4.08409e+001           8.40903e-001           8.40903e-001           4.09025e-002           9.02516e-004           9.02516e-004
                  120.20    340.84107                               29.44059             72.070                                        3.40841e+002           4.08411e+001           8.41075e-001           8.41075e-001           4.10749e-002           1.07490e-003           7.49037e-005
                  120.30    340.84030                               29.44059             72.070                                        3.40840e+002           4.08403e+001           8.40302e-001           8.40302e-001           4.03021e-002           3.02050e-004           3.02050e-004
                  120.40    340.83982                               29.44059             72.070                                        3.40840e+002           4.08398e+001           8.39820e-001           8.39820e-001           3.98201e-002           9.82013e-003           8.20128e-004
                  120.50    340.83930                               29.44059             72.070                                        3.40839e+002           4.08393e+001           8.39303e-001           8.39303e-001           3.93028e-002           9.30279e-003           3.02787e-004
                  120.60    340.83926                               29.44059             72.070                                        3.40839e+002           4.08393e+001           8.39262e-001           8.39262e-001           3.92617e-002           9.26167e-003           2.61669e-004
                  120.70    340.83922                               29.44059             72.070                                        3.40839e+002           4.08392e+001           8.39224e-001           8.39224e-001           3.92244e-002           9.22438e-003           2.24376e-004
                  120.80    340.83918                               29.44059             72.070                                        3.40839e+002           4.08392e+001           8.39179e-001           8.39179e-001           3.91794e-002           9.17942e-003           1.79421e-004
                  120.90    340.83922                               29.44059             72.070                                        3.40839e+002           4.08392e+001           8.39216e-001           8.39216e-001           3.92155e-002           9.21552e-003           2.15519e-004
                  121.00    340.84022                               29.44059             72.070                                        3.40840e+002           4.08402e+001           8.40220e-001           8.40220e-001           4.02197e-002           2.19741e-004           2.19741e-004
                  121.10    340.84134                               29.44059             72.070                                        3.40841e+002           4.08413e+001           8.41337e-001           8.41337e-001           4.13366e-002           1.33661e-003           3.36612e-004
                  121.20    340.83907                               29.44059             72.070                                        3.40839e+002           4.08391e+001           8.39074e-001           8.39074e-001           3.90740e-002           9.07402e-003           7.40183e-005
                  121.30    340.84097                               29.44059             72.070                                        3.40841e+002           4.08410e+001           8.40968e-001           8.40968e-001           4.09678e-002           9.67813e-004           9.67813e-004
                  121.40    340.84199                               29.44059             72.070                                        3.40842e+002           4.08420e+001           8.41986e-001           8.41986e-001           4.19858e-002           1.98579e-003           9.85790e-004
                  121.50    340.84192                               29.44059             72.070                                        3.40842e+002           4.08419e+001           8.41919e-001           8.41919e-001           4.19190e-002           1.91900e-003           9.19001e-004
                  121.60    340.84074                               29.44059             72.070                                        3.40841e+002           4.08407e+001           8.40736e-001           8.40736e-001           4.07365e-002           7.36456e-004           7.36456e-004
                  121.70    340.83968                               29.44059             72.070                                        3.40840e+002           4.08397e+001           8.39683e-001           8.39683e-001           3.96833e-002           9.68333e-003           6.83326e-004
                  121.80    340.83937                               29.44059             72.070                                        3.40839e+002           4.08394e+001           8.39371e-001           8.39371e-001           3.93709e-002           9.37086e-003           3.70863e-004
                  121.90    340.83936                               29.44059             72.070                                        3.40839e+002           4.08394e+001           8.39364e-001           8.39364e-001           3.93640e-002           9.36404e-003           3.64037e-004
                  122.00    340.83934                               29.44059             72.070                                        3.40839e+002           4.08393e+001           8.39339e-001           8.39339e-001           3.93385e-002           9.33855e-003           3.38547e-004
                  122.10    340.84152                               29.44059             72.070                                        3.40842e+002           4.08415e+001           8.41520e-001           8.41520e-001           4.15199e-002           1.51993e-003           5.19931e-004
                  122.20    340.84471                               29.44059             72.070                                        3.40845e+002           4.08447e+001           8.44712e-001           8.44712e-001           4.47119e-002           4.71193e-003           7.11930e-004
                  122.30    340.84444                               29.44059             72.070                                        3.40844e+002           4.08444e+001           8.44445e-001           8.44445e-001           4.44447e-002           4.44474e-003           4.44736e-004
                  122.40    340.84205                               29.44059             72.070                                        3.40842e+002           4.08420e+001           8.42050e-001           8.42050e-001           4.20496e-002           2.04961e-003           4.96104e-005
