~VERSION INFORMATION
VERS                    .            2.0                                    :CWLS LOG ASCII STANDARD
WRAP                    .            NO                                     :ONE LINE PER TIME STEP


~WELL INFORMATION
#MNEM                   .UNIT        DATA                                    DESCRIPTION
#________________________________________________________________________________________
STRTTIME                .HH/MM/SS    03:09:23                               :START TIME
STOPTIME                .HH/MM/SS    03:12:09                               :STOP TIME
STRT                    .s           2.10                                   :START DATA
STOP                    .s           164.80                                 :STOP DATA
STEP                    .s           0.10                                   :MEASUREMENT TIME INTERVAL
NULL                    .            -999.25                                :NULL VALUE
COMP                    .            Statoil ASA                            :COMPANY
FLD                     .            Volve                                  :FIELD
WELL                    .            15/9-F-1 C                             :WELL
RUN                     .            4                                      :RUN
LOC                     .                                                   :LOCATION
PROV                    .            na                                     :PROVINCE
SRVC                    .            Baker Hughes INTEQ                     :SERVICE COMPANY
DATE                    .YY/MM/DD    14/03/15                               :LOG DATE
UWI                     .                                                   :UNIQUE WELL ID
DEPTHMD                 .m           3523.2                                 :MEASURED DEPTH
DEPTHTVD                .m           2986.7                                 :TRUE VERTICAL DEPTH


~CURVE INFORMATION
#MNEM                   .UNIT        API CODES                               DESCRIPTION
#________________________________________________________________________________________
TIME                    .s                                                  :01 TIME
DD_PRESS                .bar                                                :02 DRAW DOWN PRESSURE
DD_VOLUME               .cm3                                                :03 INCREMENTAL DRAW DOWN VOLUME
TEMP                    .degC                                               :04 TRANSDUCER TEMPERATURE
DD_PRESS_MOD_1000       .bar                                                :05 DRAW DOWN PRESSURE MOD 1000
DD_PRESS_MOD_100        .bar                                                :06 DRAW DOWN PRESSURE MOD 100
DD_PRESS_MOD_10         .bar                                                :07 DRAW DOWN PRESSURE MOD 10
DD_PRESS_MOD_1          .bar                                                :08 DRAW DOWN PRESSURE MOD 1
DD_PRESS_MOD_01         .bar                                                :09 DRAW DOWN PRESSURE MOD 01
DD_PRESS_MOD_001        .bar                                                :10 DRAW DOWN PRESSURE MOD 001
DD_PRESS_MOD_0001       .bar                                                :11 DRAW DOWN PRESSURE MOD 0001


~PARAMETER INFORMATION
#MNEM                   .UNIT        VALUE                                   DESCRIPTION
#________________________________________________________________________________________
TOOLFACE                .deg         104.9                                  :01 TOOLFACE
PUMP_CAPACITY           .bar         400                                    :02 NOMINAL DRAW DOWN PUMP CAPACITY
PUMP_LIMIT              .bar         240                                    :03 DOWNLINK PUMP LIMIT
TIME_LIMIT              .min         10                                     :04 DOWNLINK MAX TIME
TEST_TYPE               .            REPEAT                                 :05 DOWNLINK
TEST_TYPE               .            HIGH MOBILITY                          :06 DOWNLINK
DD_PIST_A               .cm2         3.1416                                 :07 DRAW DOWN PISTON AREA
V_SYS                   .cm3         131.0000                               :08 SYSTEM VOLUME
PROBE_ID                .cm          1.2700                                 :09 TTK PROBE ID
G0                      .            4.6700                                 :10 GEOMETRY FACTOR


~A                  TIME     DD_PRESS                              DD_VOLUME               TEMP                                   DD_PRESS_MOD_1000       DD_PRESS_MOD_100        DD_PRESS_MOD_10         DD_PRESS_MOD_1        DD_PRESS_MOD_01       DD_PRESS_MOD_001      DD_PRESS_MOD_0001
# ...
                   66.50    340.99457                               10.76582             84.508                                        3.40995e+002           4.09946e+001           9.94570e-001           9.94570e-001           9.45702e-002           4.57021e-003           5.70213e-004
                   66.60    340.99518                               10.76582             84.508                                        3.40995e+002           4.09952e+001           9.95180e-001           9.95180e-001           9.51801e-002           5.18009e-003           1.80087e-004
                   66.70    341.00229                               10.76582             84.508                                        3.41002e+002           4.10023e+001           1.00229e+000           2.28856e-003           2.28856e-003           2.28856e-003           2.88563e-004
                   66.80    341.00207                               10.76582             84.508                                        3.41002e+002           4.10021e+001           1.00207e+000           2.07186e-003           2.07186e-003           2.07186e-003           7.18569e-005
                   66.90    340.99303                               10.76582             84.508                                        3.40993e+002           4.09930e+001           9.93033e-001           9.93033e-001           9.30328e-002           3.03277e-003           3.27735e-005
                   67.00    340.98993                               10.76582             84.508                                        3.40990e+002           4.09899e+001           9.89934e-001           9.89934e-001           8.99341e-002           9.93411e-003           9.34112e-004
                   67.10    340.99202                               10.76582             84.508                                        3.40992e+002           4.09920e+001           9.92018e-001           9.92018e-001           9.20180e-002           2.01803e-003           1.80344e-005
                   67.20    340.99804                               10.76582             84.508                                        3.40998e+002           4.09980e+001           9.98040e-001           9.98040e-001           9.80397e-002           8.03966e-003           3.96578e-005
                   67.30    341.00289                               10.76582             84.508                                        3.41003e+002           4.10029e+001           1.00289e+000           2.89489e-003           2.89489e-003           2.89489e-003           8.94893e-004
                   67.40    340.99475                               10.76582             84.508                                        3.40995e+002           4.09948e+001           9.94752e-001           9.94752e-001           9.47519e-002           4.75191e-003           7.51906e-004
                   67.50    340.98695                               10.76582             84.508                                        3.40987e+002           4.09869e+001           9.86948e-001           9.86948e-001           8.69480e-002           6.94796e-003           9.47957e-004
                   67.60    340.99302                               10.76582             84.508                                        3.40993e+002           4.09930e+001           9.93022e-001           9.93022e-001           9.30218e-002           3.02181e-003           2.18061e-005
                   67.70    341.00434                               10.76582             84.508                                        3.41004e+002           4.10043e+001           1.00434e+000           4.33763e-003           4.33763e-003           4.33763e-003           3.37628e-004
                   67.80    341.00706                               10.76582             84.508                                        3.41007e+002           4.10071e+001           1.00706e+000           7.05813e-003           7.05813e-003           7.05813e-003           5.81335e-005
                   67.90    341.00257                               10.76582             84.508                                        3.41003e+002           4.10026e+001           1.00257e+000           2.57480e-003           2.57480e-003           2.57480e-003           5.74800e-004
                   68.00    340.99885                               10.76582             84.508                                        3.40999e+002           4.09989e+001           9.98855e-001           9.98855e-001           9.88545e-002           8.85453e-003           8.54534e-004
                   68.10    340.99738                               10.76582             84.508                                        3.40997e+002           4.09974e+001           9.97382e-001           9.97382e-001           9.73821e-002           7.38207e-003           3.82070e-004
                   68.20    341.00054                               10.76582             84.508                                        3.41001e+002           4.10005e+001           1.00054e+000           5.38612e-004           5.38612e-004           5.38612e-004           5.38612e-004
                   68.30    341.00623                               10.76582             84.508                                        3.41006e+002           4.10062e+001           1.00623e+000           6.23097e-003           6.23097e-003           6.23097e-003           2.30967e-004
                   68.40    340.99991                               10.76582             84.508                                        3.41000e+002           4.09999e+001           9.99905e-001           9.99905e-001           9.99053e-002           9.90525e-003           9.05254e-004
                   68.50    340.99275                               10.76582             84.508                                        3.40993e+002           4.09927e+001           9.92750e-001           9.92750e-001           9.27497e-002           2.74971e-003           7.49708e-004
                   68.60    340.99309                               10.76582             84.508                                        3.40993e+002           4.09931e+001           9.93085e-001           9.93085e-001           9.30853e-002           3.08529e-003           8.52911e-005
                   68.70    340.99875                               10.76582             84.508                                        3.40999e+002           4.09988e+001           9.98751e-001           9.98751e-001           9.87512e-002           8.75119e-003           7.51190e-004
                   68.80    341.00247                               10.76582             84.508                                        3.41002e+002           4.10025e+001           1.00247e+000           2.47075e-003           2.47075e-003           2.47075e-003           4.70747e-004
                   68.90    340.99575                               10.76582             84.508                                        3.40996e+002           4.09958e+001           9.95753e-001           9.95753e-001           9.57530e-002           5.75304e-003           7.53041e-004
                   69.00    340.98884                               10.76582             84.508                                        3.40989e+002           4.09888e+001           9.88842e-001           9.88842e-001           8.88418e-002           8.84179e-003           8.41787e-004
                   69.10    340.99578                               10.76582             84.508                                        3.40996e+002           4.09958e+001           9.95779e-001           9.95779e-001           9.57793e-002           5.77933e-003           7.79327e-004
                   69.20    341.00462                               10.76582             84.508                                        3.41005e+002           4.10046e+001           1.00462e+000           4.61953e-003           4.61953e-003           4.61953e-003           6.19531e-004
