~VERSION INFORMATION
VERS                    .            2.0                                    :CWLS LOG ASCII STANDARD
WRAP                    .            NO                                     :ONE LINE PER TIME STEP


~WELL INFORMATION
#MNEM                   .UNIT        DATA                                    DESCRIPTION
#________________________________________________________________________________________
STRTTIME                .HH/MM/SS    23:13:04                               :START TIME
STOPTIME                .HH/MM/SS    23:16:31                               :STOP TIME
STRT                    .s           2.10                                   :START DATA
STOP                    .s           205.60                                 :STOP DATA
STEP                    .s           0.10                                   :MEASUREMENT TIME INTERVAL
NULL                    .            -999.25                                :NULL VALUE
COMP                    .            Statoil ASA                            :COMPANY
FLD                     .            Volve                                  :FIELD
WELL                    .            15/9-F-1 C                             :WELL
RUN                     .            4                                      :RUN
LOC                     .                                                   :LOCATION
PROV                    .            na                                     :PROVINCE
SRVC                    .            Baker Hughes INTEQ                     :SERVICE COMPANY
DATE                    .YY/MM/DD    14/03/14                               :LOG DATE
UWI                     .                                                   :UNIQUE WELL ID
DEPTHMD                 .m           3858.0                                 :MEASURED DEPTH
DEPTHTVD                .m           3096.5                                 :TRUE VERTICAL DEPTH


~CURVE INFORMATION
#MNEM                   .UNIT        API CODES                               DESCRIPTION
#________________________________________________________________________________________
TIME                    .s                                                  :01 TIME
DD_PRESS                .bar                                                :02 DRAW DOWN PRESSURE
DD_VOLUME               .cm3                                                :03 INCREMENTAL DRAW DOWN VOLUME
TEMP                    .degC                                               :04 TRANSDUCER TEMPERATURE
DD_PRESS_MOD_1000       .bar                                                :05 DRAW DOWN PRESSURE MOD 1000
DD_PRESS_MOD_100        .bar                                                :06 DRAW DOWN PRESSURE MOD 100
DD_PRESS_MOD_10         .bar                                                :07 DRAW DOWN PRESSURE MOD 10
DD_PRESS_MOD_1          .bar                                                :08 DRAW DOWN PRESSURE MOD 1
DD_PRESS_MOD_01         .bar                                                :09 DRAW DOWN PRESSURE MOD 01
DD_PRESS_MOD_001        .bar                                                :10 DRAW DOWN PRESSURE MOD 001
DD_PRESS_MOD_0001       .bar                                                :11 DRAW DOWN PRESSURE MOD 0001


~PARAMETER INFORMATION
#MNEM                   .UNIT        VALUE                                   DESCRIPTION
#________________________________________________________________________________________
TOOLFACE                .deg         88.6                                   :01 TOOLFACE
PUMP_CAPACITY           .bar         400                                    :02 NOMINAL DRAW DOWN PUMP CAPACITY
PUMP_LIMIT              .bar         240                                    :03 DOWNLINK PUMP LIMIT
TIME_LIMIT              .min         10                                     :04 DOWNLINK MAX TIME
TEST_TYPE               .            HIGH MOBILITY                          :05 DOWNLINK
DD_PIST_A               .cm2         3.1416                                 :06 DRAW DOWN PISTON AREA
V_SYS                   .cm3         131.0000                               :07 SYSTEM VOLUME
PROBE_ID                .cm          1.2700                                 :08 TTK PROBE ID
G0                      .            4.6700                                 :09 GEOMETRY FACTOR


~A                  TIME     DD_PRESS                              DD_VOLUME               TEMP                                   DD_PRESS_MOD_1000       DD_PRESS_MOD_100        DD_PRESS_MOD_10         DD_PRESS_MOD_1        DD_PRESS_MOD_01       DD_PRESS_MOD_001      DD_PRESS_MOD_0001
# ...
                   16.10    440.58200                                0.00000             90.172                                        4.40582e+002           4.05820e+001           5.82002e-001           5.82002e-001           8.20023e-002           2.00229e-003           2.28801e-006
                   16.20    440.57922                                0.00000             90.172                                        4.40579e+002           4.05792e+001           5.79220e-001           5.79220e-001           7.92196e-002           9.21958e-003           2.19577e-004
                   16.30    440.57262                                0.00000             90.172                                        4.40573e+002           4.05726e+001           5.72620e-001           5.72620e-001           7.26200e-002           2.62002e-003           6.20023e-004
                   16.40    440.57517                                0.00000             90.172                                        4.40575e+002           4.05752e+001           5.75169e-001           5.75169e-001           7.51692e-002           5.16924e-003           1.69241e-004
                   16.50    440.59130                                0.00000             90.170                                        4.40591e+002           4.05913e+001           5.91298e-001           5.91298e-001           9.12977e-002           1.29769e-003           2.97690e-004
                   16.60    440.59928                                0.00000             90.166                                        4.40599e+002           4.05993e+001           5.99276e-001           5.99276e-001           9.92756e-002           9.27562e-003           2.75622e-004
                   16.70    440.58849                                0.00000             90.164                                        4.40588e+002           4.05885e+001           5.88487e-001           5.88487e-001           8.84871e-002           8.48708e-003           4.87079e-004
                   16.80    440.58301                                0.00000             90.164                                        4.40583e+002           4.05830e+001           5.83006e-001           5.83006e-001           8.30058e-002           3.00581e-003           5.81167e-006
                   16.90    440.58937                                0.00000             90.164                                        4.40589e+002           4.05894e+001           5.89368e-001           5.89368e-001           8.93675e-002           9.36752e-003           3.67517e-004
                   17.00    440.59196                                0.00000             90.164                                        4.40592e+002           4.05920e+001           5.91956e-001           5.91956e-001           9.19562e-002           1.95621e-003           9.56214e-004
                   17.10    440.58221                                0.00000             90.164                                        4.40582e+002           4.05822e+001           5.82210e-001           5.82210e-001           8.22099e-002           2.20987e-003           2.09869e-004
                   17.20    440.57615                                0.00000             90.164                                        4.40576e+002           4.05762e+001           5.76152e-001           5.76152e-001           7.61522e-002           6.15217e-003           1.52171e-004
                   17.30    440.58607                                0.00000             90.164                                        4.40586e+002           4.05861e+001           5.86067e-001           5.86067e-001           8.60670e-002           6.06703e-003           6.70266e-005
                   17.40    440.60032                                0.00000             90.164                                        4.40600e+002           4.06003e+001           6.00318e-001           6.00318e-001           3.17903e-004           3.17903e-004           3.17903e-004
                   17.50    440.60397                                0.00000             90.164                                        4.40604e+002           4.06040e+001           6.03968e-001           6.03968e-001           3.96771e-003           3.96771e-003           9.67714e-004
                   17.60    440.60817                                0.00000             90.164                                        4.40608e+002           4.06082e+001           6.08166e-001           6.08166e-001           8.16568e-003           8.16568e-003           1.65684e-004
                   17.70    440.61616                                0.00000             90.164                                        4.40616e+002           4.06162e+001           6.16159e-001           6.16159e-001           1.61587e-002           6.15868e-003           1.58682e-004
                   17.80    440.62758                                0.00000             90.164                                        4.40628e+002           4.06276e+001           6.27580e-001           6.27580e-001           2.75796e-002           7.57964e-003           5.79644e-004
                   17.90    440.62010                                0.00000             90.164                                        4.40620e+002           4.06201e+001           6.20098e-001           6.20098e-001           2.00977e-002           9.77156e-005           9.77156e-005
                   18.00    440.59439                                0.00000             90.164                                        4.40594e+002           4.05944e+001           5.94385e-001           5.94385e-001           9.43851e-002           4.38514e-003           3.85139e-004
                   18.10    440.59584                                0.00000             90.164                                        4.40596e+002           4.05958e+001           5.95843e-001           5.95843e-001           9.58430e-002           5.84299e-003           8.42993e-004
                   18.20    440.62338                                0.00000             90.164                                        4.40623e+002           4.06234e+001           6.23376e-001           6.23376e-001           2.33756e-002           3.37557e-003           3.75571e-004
                   18.30    440.64230                                0.00000             90.164                                        4.40642e+002           4.06423e+001           6.42304e-001           6.42304e-001           4.23040e-002           2.30400e-003           3.03999e-004
                   18.40    440.64187                                0.00000             90.164                                        4.40642e+002           4.06419e+001           6.41873e-001           6.41873e-001           4.18726e-002           1.87257e-003           8.72574e-004
                   18.50    440.63512                                0.00000             90.164                                        4.40635e+002           4.06351e+001           6.35118e-001           6.35118e-001           3.51179e-002           5.11790e-003           1.17898e-004
                   18.60    440.64370                                0.00000             90.164                                        4.40644e+002           4.06437e+001           6.43703e-001           6.43703e-001           4.37030e-002           3.70301e-003           7.03010e-004
                   18.70    440.66636                                0.00000             90.164                                        4.40666e+002           4.06664e+001           6.66363e-001           6.66363e-001           6.63634e-002           6.36338e-003           3.63375e-004
                   18.80    440.67375                                0.00000             90.164                                        4.40674e+002           4.06738e+001           6.73751e-001           6.73751e-001           7.37512e-002           3.75121e-003           7.51205e-004
