~VERSION INFORMATION
VERS                    .            2.0                                    :CWLS LOG ASCII STANDARD
WRAP                    .            NO                                     :ONE LINE PER TIME STEP


~WELL INFORMATION
#MNEM                   .UNIT        DATA                                    DESCRIPTION
#________________________________________________________________________________________
STRTTIME                .HH/MM/SS    15:31:36                               :START TIME
STOPTIME                .HH/MM/SS    15:34:21                               :STOP TIME
STRT                    .s           2.10                                   :START DATA
STOP                    .s           163.50                                 :STOP DATA
STEP                    .s           0.10                                   :MEASUREMENT TIME INTERVAL
NULL                    .            -999.25                                :NULL VALUE
COMP                    .            Statoil ASA                            :COMPANY
FLD                     .            Volve                                  :FIELD
WELL                    .            15/9-F-11 A                            :WELL
RUN                     .            8                                      :RUN
LOC                     .            Maersk Inspirer                        :LOCATION
PROV                    .            na                                     :PROVINCE
SRVC                    .            Baker Hughes INTEQ                     :SERVICE COMPANY
DATE                    .YY/MM/DD    13/05/21                               :LOG DATE
UWI                     .                                                   :UNIQUE WELL ID
DEPTHMD                 .m           3617.2                                 :MEASURED DEPTH
DEPTHTVD                .m           3015.5                                 :TRUE VERTICAL DEPTH


~CURVE INFORMATION
#MNEM                   .UNIT        API CODES                               DESCRIPTION
#________________________________________________________________________________________
TIME                    .s                                                  :01 TIME
DD_PRESS                .bar                                                :02 DRAW DOWN PRESSURE
DD_VOLUME               .cm3                                                :03 INCREMENTAL DRAW DOWN VOLUME
TEMP                    .degC                                               :04 TRANSDUCER TEMPERATURE
DD_PRESS_MOD_1000       .bar                                                :05 DRAW DOWN PRESSURE MOD 1000
DD_PRESS_MOD_100        .bar                                                :06 DRAW DOWN PRESSURE MOD 100
DD_PRESS_MOD_10         .bar                                                :07 DRAW DOWN PRESSURE MOD 10
DD_PRESS_MOD_1          .bar                                                :08 DRAW DOWN PRESSURE MOD 1
DD_PRESS_MOD_01         .bar                                                :09 DRAW DOWN PRESSURE MOD 01
DD_PRESS_MOD_001        .bar                                                :10 DRAW DOWN PRESSURE MOD 001
DD_PRESS_MOD_0001       .bar                                                :11 DRAW DOWN PRESSURE MOD 0001


~PARAMETER INFORMATION
#MNEM                   .UNIT        VALUE                                   DESCRIPTION
#________________________________________________________________________________________
TOOLFACE                .deg         63.0                                   :01 TOOLFACE
PUMP_CAPACITY           .bar         400                                    :02 NOMINAL DRAW DOWN PUMP CAPACITY
PUMP_LIMIT              .bar         240                                    :03 DOWNLINK PUMP LIMIT
TIME_LIMIT              .min         10                                     :04 DOWNLINK MAX TIME
TEST_TYPE               .            HIGH MOBILITY                          :05 DOWNLINK
DD_PIST_A               .cm2         3.1416                                 :06 DRAW DOWN PISTON AREA
V_SYS                   .cm3         131.0000                               :07 SYSTEM VOLUME
PROBE_ID                .cm          1.2700                                 :08 TTK PROBE ID
G0                      .            4.6700                                 :09 GEOMETRY FACTOR


~A                  TIME     DD_PRESS                              DD_VOLUME               TEMP                                   DD_PRESS_MOD_1000       DD_PRESS_MOD_100        DD_PRESS_MOD_10         DD_PRESS_MOD_1        DD_PRESS_MOD_01       DD_PRESS_MOD_001      DD_PRESS_MOD_0001
                    2.10    414.23844                                0.00000             80.023                                        4.14238e+002           1.42384e+001           4.23844e+000           2.38438e-001           3.84375e-002           8.43751e-003           4.37512e-004
                    2.20    414.20700                                0.00000             80.023                                        4.14207e+002           1.42070e+001           4.20700e+000           2.06998e-001           6.99780e-003           6.99780e-003           9.97804e-004
                    2.30    414.18622                                0.00000             80.023                                        4.14186e+002           1.41862e+001           4.18622e+000           1.86219e-001           8.62191e-002           6.21910e-003           2.19103e-004
                    2.40    414.19769                                0.00000             80.023                                        4.14198e+002           1.41977e+001           4.19769e+000           1.97689e-001           9.76888e-002           7.68884e-003           6.88836e-004
                    2.50    414.20924                                0.00000             80.023                                        4.14209e+002           1.42092e+001           4.20924e+000           2.09241e-001           9.24127e-003           9.24127e-003           2.41270e-004
                    2.60    414.20964                                0.00000             80.023                                        4.14210e+002           1.42096e+001           4.20964e+000           2.09644e-001           9.64420e-003           9.64420e-003           6.44196e-004
                    2.70    414.24928                                0.00000             80.023                                        4.14249e+002           1.42493e+001           4.24928e+000           2.49281e-001           4.92813e-002           9.28128e-003           2.81285e-004
                    2.80    414.32216                                0.00000             80.023                                        4.14322e+002           1.43222e+001           4.32216e+000           3.22158e-001           2.21575e-002           2.15754e-003           1.57539e-004
                    2.90    414.38293                                0.00000             80.023                                        4.14383e+002           1.43829e+001           4.38293e+000           3.82926e-001           8.29263e-002           2.92631e-003           9.26309e-004
                    3.00    414.42354                                0.00000             80.023                                        4.14424e+002           1.44235e+001           4.42354e+000           4.23539e-001           2.35388e-002           3.53880e-003           5.38796e-004
                    3.10    414.47950                                0.00000             80.023                                        4.14480e+002           1.44795e+001           4.47950e+000           4.79500e-001           7.95003e-002           9.50025e-003           5.00251e-004
                    3.20    414.53999                                0.00000             80.023                                        4.14540e+002           1.45400e+001           4.53999e+000           5.39992e-001           3.99923e-002           9.99227e-003           9.92275e-004
                    3.30    414.55720                                0.00000             80.023                                        4.14557e+002           1.45572e+001           4.55720e+000           5.57204e-001           5.72038e-002           7.20383e-003           2.03826e-004
                    3.40    414.53564                                0.00000             80.023                                        4.14536e+002           1.45356e+001           4.53564e+000           5.35637e-001           3.56375e-002           5.63746e-003           6.37459e-004
                    3.50    414.52472                                0.00000             80.023                                        4.14525e+002           1.45247e+001           4.52472e+000           5.24721e-001           2.47209e-002           4.72090e-003           7.20902e-004
                    3.60    414.52560                                0.00000             80.023                                        4.14526e+002           1.45256e+001           4.52560e+000           5.25603e-001           2.56029e-002           5.60287e-003           6.02867e-004
                    3.70    414.49505                                0.00000             80.023                                        4.14495e+002           1.44950e+001           4.49505e+000           4.95048e-001           9.50481e-002           5.04810e-003           4.81010e-005
                    3.80    414.45431                                0.00000             80.023                                        4.14454e+002           1.44543e+001           4.45431e+000           4.54307e-001           5.43065e-002           4.30652e-003           3.06518e-004
                    3.90    414.44652                                0.00000             80.023                                        4.14447e+002           1.44465e+001           4.44652e+000           4.46523e-001           4.65228e-002           6.52280e-003           5.22803e-004
                    4.00    414.46708                                0.00000             80.026                                        4.14467e+002           1.44671e+001           4.46708e+000           4.67076e-001           6.70759e-002           7.07589e-003           7.58926e-005
                    4.10    414.47606                                0.00000             80.029                                        4.14476e+002           1.44761e+001           4.47606e+000           4.76059e-001           7.60587e-002           6.05869e-003           5.86919e-005
                    4.20    414.50122                                0.00000             80.031                                        4.14501e+002           1.45012e+001           4.50122e+000           5.01220e-001           1.21989e-003           1.21989e-003           2.19894e-004
                    4.30    414.56468                                0.00000             80.031                                        4.14565e+002           1.45647e+001           4.56468e+000           5.64681e-001           6.46810e-002           4.68097e-003           6.80967e-004
                    4.40    414.64592                                0.00000             80.031                                        4.14646e+002           1.46459e+001           4.64592e+000           6.45923e-001           4.59234e-002           5.92342e-003           9.23417e-004
                    4.50    414.68826                                0.00000             80.031                                        4.14688e+002           1.46883e+001           4.68826e+000           6.88261e-001           8.82611e-002           8.26114e-003           2.61143e-004
                    4.60    414.71120                                0.00000             80.031                                        4.14711e+002           1.47112e+001           4.71120e+000           7.11201e-001           1.12010e-002           1.20096e-003           2.00958e-004
                    4.70    414.76005                                0.00000             80.031                                        4.14760e+002           1.47600e+001           4.76005e+000           7.60047e-001           6.00465e-002           4.65255e-005           4.65255e-005
                    4.80    414.80174                                0.00000             80.031                                        4.14802e+002           1.48017e+001           4.80174e+000           8.01743e-001           1.74323e-003           1.74323e-003           7.43227e-004
