~VERSION INFORMATION
VERS                    .            2.0                                    :CWLS LOG ASCII STANDARD
WRAP                    .            NO                                     :ONE LINE PER TIME STEP


~WELL INFORMATION
#MNEM                   .UNIT        DATA                                    DESCRIPTION
#________________________________________________________________________________________
STRTTIME                .HH/MM/SS    22:05:32                               :START TIME
STOPTIME                .HH/MM/SS    22:09:32                               :STOP TIME
STRT                    .s           2.10                                   :START DATA
STOP                    .s           238.90                                 :STOP DATA
STEP                    .s           0.10                                   :MEASUREMENT TIME INTERVAL
NULL                    .            -999.25                                :NULL VALUE
COMP                    .            Statoil                                :COMPANY
FLD                     .            Volve                                  :FIELD
WELL                    .            15/9-F-11 T2                           :WELL
RUN                     .            7                                      :RUN
LOC                     .            Maersk Inspirer                        :LOCATION
PROV                    .            na                                     :PROVINCE
SRVC                    .            Baker Hughes INTEQ                     :SERVICE COMPANY
DATE                    .YY/MM/DD    13/05/04                               :LOG DATE
UWI                     .                                                   :UNIQUE WELL ID
DEPTHMD                 .m           4490.1                                 :MEASURED DEPTH
DEPTHTVD                .m           3328.5                                 :TRUE VERTICAL DEPTH


~CURVE INFORMATION
#MNEM                   .UNIT        API CODES                               DESCRIPTION
#________________________________________________________________________________________
TIME                    .s                                                  :01 TIME
DD_PRESS                .bar                                                :02 DRAW DOWN PRESSURE
DD_VOLUME               .cm3                                                :03 INCREMENTAL DRAW DOWN VOLUME
TEMP                    .degC                                               :04 TRANSDUCER TEMPERATURE
DD_PRESS_MOD_1000       .bar                                                :05 DRAW DOWN PRESSURE MOD 1000
DD_PRESS_MOD_100        .bar                                                :06 DRAW DOWN PRESSURE MOD 100
DD_PRESS_MOD_10         .bar                                                :07 DRAW DOWN PRESSURE MOD 10
DD_PRESS_MOD_1          .bar                                                :08 DRAW DOWN PRESSURE MOD 1
DD_PRESS_MOD_01         .bar                                                :09 DRAW DOWN PRESSURE MOD 01
DD_PRESS_MOD_001        .bar                                                :10 DRAW DOWN PRESSURE MOD 001
DD_PRESS_MOD_0001       .bar                                                :11 DRAW DOWN PRESSURE MOD 0001


~PARAMETER INFORMATION
#MNEM                   .UNIT        VALUE                                   DESCRIPTION
#________________________________________________________________________________________
TOOLFACE                .deg         na                                     :01 TOOLFACE
PUMP_CAPACITY           .bar         400                                    :02 NOMINAL DRAW DOWN PUMP CAPACITY
PUMP_LIMIT              .bar         240                                    :03 DOWNLINK PUMP LIMIT
TIME_LIMIT              .min         10                                     :04 DOWNLINK MAX TIME
TEST_TYPE               .            HIGH MOBILITY                          :05 DOWNLINK
DD_PIST_A               .cm2         3.1416                                 :06 DRAW DOWN PISTON AREA
V_SYS                   .cm3         131.0000                               :07 SYSTEM VOLUME
PROBE_ID                .cm          1.2700                                 :08 TTK PROBE ID
G0                      .            4.6700                                 :09 GEOMETRY FACTOR


~A                  TIME     DD_PRESS                              DD_VOLUME               TEMP                                   DD_PRESS_MOD_1000       DD_PRESS_MOD_100        DD_PRESS_MOD_10         DD_PRESS_MOD_1        DD_PRESS_MOD_01       DD_PRESS_MOD_001      DD_PRESS_MOD_0001
# ...
                  237.30    467.66006                                0.00000             97.299                                        4.67660e+002           6.76601e+001           7.66006e+000           6.60060e-001           6.00605e-002           6.04856e-005           6.04856e-005
                  237.40    467.64475                                0.00000             97.303                                        4.67645e+002           6.76448e+001           7.64475e+000           6.44752e-001           4.47525e-002           4.75246e-003           7.52459e-004
                  237.50    467.61493                                0.00000             97.302                                        4.67615e+002           6.76149e+001           7.61493e+000           6.14929e-001           1.49287e-002           4.92868e-003           9.28682e-004
                  237.60    467.62205                                0.00000             97.299                                        4.67622e+002           6.76221e+001           7.62205e+000           6.22051e-001           2.20513e-002           2.05128e-003           5.12830e-005
                  237.70    467.62550                                0.00000             97.297                                        4.67626e+002           6.76255e+001           7.62550e+000           6.25501e-001           2.55011e-002           5.50108e-003           5.01084e-004
                  237.80    467.60651                                0.00000             97.299                                        4.67607e+002           6.76065e+001           7.60651e+000           6.06511e-001           6.51090e-003           6.51090e-003           5.10899e-004
                  237.90    467.60310                                0.00000             97.300                                        4.67603e+002           6.76031e+001           7.60310e+000           6.03105e-001           3.10480e-003           3.10480e-003           1.04799e-004
                  238.00    467.63102                                0.00000             97.299                                        4.67631e+002           6.76310e+001           7.63102e+000           6.31019e-001           3.10194e-002           1.01938e-003           1.93768e-005
                  238.10    467.63458                                0.00000             97.297                                        4.67635e+002           6.76346e+001           7.63458e+000           6.34578e-001           3.45784e-002           4.57837e-003           5.78365e-004
                  238.20    467.60462                                0.00000             97.297                                        4.67605e+002           6.76046e+001           7.60462e+000           6.04624e-001           4.62381e-003           4.62381e-003           6.23812e-004
                  238.30    467.61125                                0.00000             97.297                                        4.67611e+002           6.76113e+001           7.61125e+000           6.11254e-001           1.12538e-002           1.25384e-003           2.53841e-004
                  238.40    467.64997                                0.00000             97.297                                        4.67650e+002           6.76500e+001           7.64997e+000           6.49970e-001           4.99697e-002           9.96969e-003           9.69690e-004
                  238.50    467.65246                                0.00000             97.297                                        4.67652e+002           6.76525e+001           7.65246e+000           6.52459e-001           5.24590e-002           2.45899e-003           4.58987e-004
                  238.60    467.62433                                0.00000             97.297                                        4.67624e+002           6.76243e+001           7.62433e+000           6.24328e-001           2.43281e-002           4.32815e-003           3.28146e-004
                  238.70    467.61497                                0.00000             97.297                                        4.67615e+002           6.76150e+001           7.61497e+000           6.14970e-001           1.49703e-002           4.97034e-003           9.70340e-004
                  238.80    467.62761                                0.00000             97.297                                        4.67628e+002           6.76276e+001           7.62761e+000           6.27613e-001           2.76127e-002           7.61271e-003           6.12705e-004
                  238.90    467.62919                                0.00000             97.297                                        4.67629e+002           6.76292e+001           7.62919e+000           6.29186e-001           2.91858e-002           9.18577e-003           1.85773e-004
