~VERSION INFORMATION
VERS                    .            2.0                                    :CWLS LOG ASCII STANDARD
WRAP                    .            NO                                     :ONE LINE PER TIME STEP


~WELL INFORMATION
#MNEM                   .UNIT        DATA                                    DESCRIPTION
#________________________________________________________________________________________
STRTTIME                .HH/MM/SS    04:27:44                               :START TIME
STOPTIME                .HH/MM/SS    04:30:31                               :STOP TIME
STRT                    .s           2.10                                   :START DATA
STOP                    .s           165.30                                 :STOP DATA
STEP                    .s           0.10                                   :MEASUREMENT TIME INTERVAL
NULL                    .            -999.25                                :NULL VALUE
COMP                    .            Statoil ASA                            :COMPANY
FLD                     .            Volve                                  :FIELD
WELL                    .            15/9-F-1 C                             :WELL
RUN                     .            4                                      :RUN
LOC                     .                                                   :LOCATION
PROV                    .            na                                     :PROVINCE
SRVC                    .            Baker Hughes INTEQ                     :SERVICE COMPANY
DATE                    .YY/MM/DD    14/03/15                               :LOG DATE
UWI                     .                                                   :UNIQUE WELL ID
DEPTHMD                 .m           3273.1                                 :MEASURED DEPTH
DEPTHTVD                .m           2948.3                                 :TRUE VERTICAL DEPTH


~CURVE INFORMATION
#MNEM                   .UNIT        API CODES                               DESCRIPTION
#________________________________________________________________________________________
TIME                    .s                                                  :01 TIME
DD_PRESS                .bar                                                :02 DRAW DOWN PRESSURE
DD_VOLUME               .cm3                                                :03 INCREMENTAL DRAW DOWN VOLUME
TEMP                    .degC                                               :04 TRANSDUCER TEMPERATURE
DD_PRESS_MOD_1000       .bar                                                :05 DRAW DOWN PRESSURE MOD 1000
DD_PRESS_MOD_100        .bar                                                :06 DRAW DOWN PRESSURE MOD 100
DD_PRESS_MOD_10         .bar                                                :07 DRAW DOWN PRESSURE MOD 10
DD_PRESS_MOD_1          .bar                                                :08 DRAW DOWN PRESSURE MOD 1
DD_PRESS_MOD_01         .bar                                                :09 DRAW DOWN PRESSURE MOD 01
DD_PRESS_MOD_001        .bar                                                :10 DRAW DOWN PRESSURE MOD 001
DD_PRESS_MOD_0001       .bar                                                :11 DRAW DOWN PRESSURE MOD 0001


~PARAMETER INFORMATION
#MNEM                   .UNIT        VALUE                                   DESCRIPTION
#________________________________________________________________________________________
TOOLFACE                .deg         76.8                                   :01 TOOLFACE
PUMP_CAPACITY           .bar         400                                    :02 NOMINAL DRAW DOWN PUMP CAPACITY
PUMP_LIMIT              .bar         240                                    :03 DOWNLINK PUMP LIMIT
TIME_LIMIT              .min         10                                     :04 DOWNLINK MAX TIME
TEST_TYPE               .            REPEAT                                 :05 DOWNLINK
TEST_TYPE               .            HIGH MOBILITY                          :06 DOWNLINK
DD_PIST_A               .cm2         3.1416                                 :07 DRAW DOWN PISTON AREA
V_SYS                   .cm3         131.0000                               :08 SYSTEM VOLUME
PROBE_ID                .cm          1.2700                                 :09 TTK PROBE ID
G0                      .            4.6700                                 :10 GEOMETRY FACTOR


~A                  TIME     DD_PRESS                              DD_VOLUME               TEMP                                   DD_PRESS_MOD_1000       DD_PRESS_MOD_100        DD_PRESS_MOD_10         DD_PRESS_MOD_1        DD_PRESS_MOD_01       DD_PRESS_MOD_001      DD_PRESS_MOD_0001
# ...
                   44.10    338.16414                               10.49385             85.039                                        3.38164e+002           3.81641e+001           8.16414e+000           1.64138e-001           6.41377e-002           4.13770e-003           1.37700e-004
                   44.20    338.16400                               10.49385             85.039                                        3.38164e+002           3.81640e+001           8.16400e+000           1.63997e-001           6.39967e-002           3.99665e-003           9.96652e-004
                   44.30    338.16307                               10.49385             85.039                                        3.38163e+002           3.81631e+001           8.16307e+000           1.63073e-001           6.30730e-002           3.07300e-003           7.29958e-005
                   44.40    338.16269                               10.49385             85.039                                        3.38163e+002           3.81627e+001           8.16269e+000           1.62694e-001           6.26942e-002           2.69422e-003           6.94223e-004
                   44.50    338.16304                               10.49385             85.039                                        3.38163e+002           3.81630e+001           8.16304e+000           1.63037e-001           6.30368e-002           3.03679e-003           3.67928e-005
                   44.60    338.16363                               10.49385             85.039                                        3.38164e+002           3.81636e+001           8.16363e+000           1.63628e-001           6.36283e-002           3.62830e-003           6.28297e-004
                   44.70    338.16391                               10.49385             85.039                                        3.38164e+002           3.81639e+001           8.16391e+000           1.63915e-001           6.39146e-002           3.91459e-003           9.14586e-004
                   44.80    338.16408                               10.49385             85.039                                        3.38164e+002           3.81641e+001           8.16408e+000           1.64080e-001           6.40797e-002           4.07969e-003           7.96950e-005
                   44.90    338.16398                               10.49385             85.037                                        3.38164e+002           3.81640e+001           8.16398e+000           1.63976e-001           6.39760e-002           3.97600e-003           9.76003e-004
                   45.00    338.16562                               10.49385             85.033                                        3.38166e+002           3.81656e+001           8.16562e+000           1.65618e-001           6.56179e-002           5.61793e-003           6.17928e-004
                   45.10    338.16700                               10.49385             85.031                                        3.38167e+002           3.81670e+001           8.16700e+000           1.66996e-001           6.69963e-002           6.99634e-003           9.96343e-004
                   45.20    338.16618                               10.49385             85.034                                        3.38166e+002           3.81662e+001           8.16618e+000           1.66185e-001           6.61848e-002           6.18483e-003           1.84828e-004
                   45.30    338.16382                               10.49385             85.037                                        3.38164e+002           3.81638e+001           8.16382e+000           1.63816e-001           6.38162e-002           3.81617e-003           8.16171e-004
                   45.40    338.16364                               10.49385             85.039                                        3.38164e+002           3.81636e+001           8.16364e+000           1.63645e-001           6.36445e-002           3.64451e-003           6.44506e-004
                   45.50    338.16341                               10.49385             85.037                                        3.38163e+002           3.81634e+001           8.16341e+000           1.63413e-001           6.34129e-002           3.41286e-003           4.12858e-004
                   45.60    338.16209                               10.49385             85.033                                        3.38162e+002           3.81621e+001           8.16209e+000           1.62087e-001           6.20874e-002           2.08740e-003           8.73951e-005
                   45.70    338.16327                               10.49385             85.031                                        3.38163e+002           3.81633e+001           8.16327e+000           1.63273e-001           6.32733e-002           3.27332e-003           2.73320e-004
                   45.80    338.16487                               10.49385             85.031                                        3.38165e+002           3.81649e+001           8.16487e+000           1.64873e-001           6.48728e-002           4.87276e-003           8.72758e-004
                   45.90    338.16554                               10.49385             85.031                                        3.38166e+002           3.81655e+001           8.16554e+000           1.65541e-001           6.55413e-002           5.54132e-003           5.41319e-004
                   46.00    338.16501                               10.49385             85.031                                        3.38165e+002           3.81650e+001           8.16501e+000           1.65006e-001           6.50064e-002           5.00644e-003           6.43799e-006
                   46.10    338.16649                               10.49385             85.031                                        3.38166e+002           3.81665e+001           8.16649e+000           1.66485e-001           6.64854e-002           6.48539e-003           4.85392e-004
                   46.20    338.16747                               10.49385             85.031                                        3.38167e+002           3.81675e+001           8.16747e+000           1.67469e-001           6.74689e-002           7.46889e-003           4.68885e-004
                   46.30    338.16619                               10.49385             85.031                                        3.38166e+002           3.81662e+001           8.16619e+000           1.66190e-001           6.61899e-002           6.18990e-003           1.89900e-004
                   46.40    338.16368                               10.49385             85.031                                        3.38164e+002           3.81637e+001           8.16368e+000           1.63682e-001           6.36816e-002           3.68160e-003           6.81600e-004
                   46.50    338.16339                               10.49385             85.031                                        3.38163e+002           3.81634e+001           8.16339e+000           1.63390e-001           6.33901e-002           3.39008e-003           3.90081e-004
                   46.60    338.16401                               10.49385             85.031                                        3.38164e+002           3.81640e+001           8.16401e+000           1.64010e-001           6.40097e-002           4.00969e-003           9.69212e-006
                   46.70    338.16459                               10.49385             85.031                                        3.38165e+002           3.81646e+001           8.16459e+000           1.64585e-001           6.45851e-002           4.58506e-003           5.85062e-004
                   46.80    338.16453                               10.49385             85.031                                        3.38165e+002           3.81645e+001           8.16453e+000           1.64527e-001           6.45268e-002           4.52676e-003           5.26764e-004
