~VERSION INFORMATION
VERS                    .            2.0                                    :CWLS LOG ASCII STANDARD
WRAP                    .            NO                                     :ONE LINE PER TIME STEP


~WELL INFORMATION
#MNEM                   .UNIT        DATA                                    DESCRIPTION
#________________________________________________________________________________________
STRTTIME                .HH/MM/SS    22:39:37                               :START TIME
STOPTIME                .HH/MM/SS    22:43:03                               :STOP TIME
STRT                    .s           2.10                                   :START DATA
STOP                    .s           204.10                                 :STOP DATA
STEP                    .s           0.10                                   :MEASUREMENT TIME INTERVAL
NULL                    .            -999.25                                :NULL VALUE
COMP                    .            Statoil ASA                            :COMPANY
FLD                     .            Volve                                  :FIELD
WELL                    .            15/9-F-1 C                             :WELL
RUN                     .            4                                      :RUN
LOC                     .                                                   :LOCATION
PROV                    .            na                                     :PROVINCE
SRVC                    .            Baker Hughes INTEQ                     :SERVICE COMPANY
DATE                    .YY/MM/DD    14/03/14                               :LOG DATE
UWI                     .                                                   :UNIQUE WELL ID
DEPTHMD                 .m           3925.1                                 :MEASURED DEPTH
DEPTHTVD                .m           3120.2                                 :TRUE VERTICAL DEPTH


~CURVE INFORMATION
#MNEM                   .UNIT        API CODES                               DESCRIPTION
#________________________________________________________________________________________
TIME                    .s                                                  :01 TIME
DD_PRESS                .bar                                                :02 DRAW DOWN PRESSURE
DD_VOLUME               .cm3                                                :03 INCREMENTAL DRAW DOWN VOLUME
TEMP                    .degC                                               :04 TRANSDUCER TEMPERATURE
DD_PRESS_MOD_1000       .bar                                                :05 DRAW DOWN PRESSURE MOD 1000
DD_PRESS_MOD_100        .bar                                                :06 DRAW DOWN PRESSURE MOD 100
DD_PRESS_MOD_10         .bar                                                :07 DRAW DOWN PRESSURE MOD 10
DD_PRESS_MOD_1          .bar                                                :08 DRAW DOWN PRESSURE MOD 1
DD_PRESS_MOD_01         .bar                                                :09 DRAW DOWN PRESSURE MOD 01
DD_PRESS_MOD_001        .bar                                                :10 DRAW DOWN PRESSURE MOD 001
DD_PRESS_MOD_0001       .bar                                                :11 DRAW DOWN PRESSURE MOD 0001


~PARAMETER INFORMATION
#MNEM                   .UNIT        VALUE                                   DESCRIPTION
#________________________________________________________________________________________
TOOLFACE                .deg         -7.4                                   :01 TOOLFACE
PUMP_CAPACITY           .bar         400                                    :02 NOMINAL DRAW DOWN PUMP CAPACITY
PUMP_LIMIT              .bar         240                                    :03 DOWNLINK PUMP LIMIT
TIME_LIMIT              .min         10                                     :04 DOWNLINK MAX TIME
TEST_TYPE               .            HIGH MOBILITY                          :05 DOWNLINK
DD_PIST_A               .cm2         3.1416                                 :06 DRAW DOWN PISTON AREA
V_SYS                   .cm3         131.0000                               :07 SYSTEM VOLUME
PROBE_ID                .cm          1.2700                                 :08 TTK PROBE ID
G0                      .            4.6700                                 :09 GEOMETRY FACTOR


~A                  TIME     DD_PRESS                              DD_VOLUME               TEMP                                   DD_PRESS_MOD_1000       DD_PRESS_MOD_100        DD_PRESS_MOD_10         DD_PRESS_MOD_1        DD_PRESS_MOD_01       DD_PRESS_MOD_001      DD_PRESS_MOD_0001
# ...
                  122.50    353.16540                               19.86705             91.344                                        3.53165e+002           5.31654e+001           3.16540e+000           1.65398e-001           6.53981e-002           5.39810e-003           3.98098e-004
                  122.60    353.16494                               19.86705             91.344                                        3.53165e+002           5.31649e+001           3.16494e+000           1.64942e-001           6.49415e-002           4.94153e-003           9.41534e-004
                  122.70    353.16424                               19.86705             91.341                                        3.53164e+002           5.31642e+001           3.16424e+000           1.64242e-001           6.42425e-002           4.24247e-003           2.42467e-004
                  122.80    353.16372                               19.86705             91.338                                        3.53164e+002           5.31637e+001           3.16372e+000           1.63715e-001           6.37152e-002           3.71523e-003           7.15228e-004
                  122.90    353.16134                               19.86705             91.336                                        3.53161e+002           5.31613e+001           3.16134e+000           1.61337e-001           6.13369e-002           1.33686e-003           3.36861e-004
                  123.00    353.16192                               19.86705             91.336                                        3.53162e+002           5.31619e+001           3.16192e+000           1.61924e-001           6.19240e-002           1.92401e-003           9.24007e-004
                  123.10    353.16716                               19.86705             91.336                                        3.53167e+002           5.31672e+001           3.16716e+000           1.67159e-001           6.71589e-002           7.15891e-003           1.58906e-004
                  123.20    353.16981                               19.86705             91.338                                        3.53170e+002           5.31698e+001           3.16981e+000           1.69810e-001           6.98102e-002           9.81015e-003           8.10154e-004
                  123.30    353.16659                               19.86705             91.339                                        3.53167e+002           5.31666e+001           3.16659e+000           1.66594e-001           6.65938e-002           6.59385e-003           5.93849e-004
                  123.40    353.16435                               19.86705             91.340                                        3.53164e+002           5.31643e+001           3.16435e+000           1.64347e-001           6.43471e-002           4.34709e-003           3.47093e-004
                  123.50    353.16619                               19.86705             91.342                                        3.53166e+002           5.31662e+001           3.16619e+000           1.66187e-001           6.61869e-002           6.18692e-003           1.86921e-004
                  123.60    353.16921                               19.86705             91.344                                        3.53169e+002           5.31692e+001           3.16921e+000           1.69208e-001           6.92081e-002           9.20809e-003           2.08095e-004
                  123.70    353.16517                               19.86705             91.344                                        3.53165e+002           5.31652e+001           3.16517e+000           1.65170e-001           6.51696e-002           5.16963e-003           1.69627e-004
                  123.80    353.15966                               19.86705             91.344                                        3.53160e+002           5.31597e+001           3.15966e+000           1.59656e-001           5.96560e-002           9.65604e-003           6.56043e-004
                  123.90    353.15804                               19.86705             91.344                                        3.53158e+002           5.31580e+001           3.15804e+000           1.58043e-001           5.80434e-002           8.04345e-003           4.34459e-005
                  124.00    353.16273                               19.86705             91.344                                        3.53163e+002           5.31627e+001           3.16273e+000           1.62733e-001           6.27335e-002           2.73350e-003           7.33500e-004
                  124.10    353.16860                               19.86705             91.344                                        3.53169e+002           5.31686e+001           3.16860e+000           1.68596e-001           6.85958e-002           8.59583e-003           5.95835e-004
                  124.20    353.16667                               19.86705             91.344                                        3.53167e+002           5.31667e+001           3.16667e+000           1.66670e-001           6.66696e-002           6.66960e-003           6.69597e-004
                  124.30    353.16007                               19.86705             91.341                                        3.53160e+002           5.31601e+001           3.16007e+000           1.60073e-001           6.00726e-002           7.26110e-005           7.26110e-005
                  124.40    353.15845                               19.86705             91.338                                        3.53158e+002           5.31585e+001           3.15845e+000           1.58454e-001           5.84541e-002           8.45406e-003           4.54058e-004
                  124.50    353.16570                               19.86705             91.338                                        3.53166e+002           5.31657e+001           3.16570e+000           1.65703e-001           6.57026e-002           5.70262e-003           7.02616e-004
                  124.60    353.17098                               19.86705             91.342                                        3.53171e+002           5.31710e+001           3.17098e+000           1.70980e-001           7.09804e-002           9.80351e-004           9.80351e-004
                  124.70    353.16940                               19.86705             91.344                                        3.53169e+002           5.31694e+001           3.16940e+000           1.69402e-001           6.94016e-002           9.40156e-003           4.01559e-004
                  124.80    353.16652                               19.86705             91.344                                        3.53167e+002           5.31665e+001           3.16652e+000           1.66520e-001           6.65200e-002           6.52005e-003           5.20046e-004
                  124.90    353.16709                               19.86705             91.341                                        3.53167e+002           5.31671e+001           3.16709e+000           1.67087e-001           6.70865e-002           7.08654e-003           8.65388e-005
                  125.00    353.16984                               19.86705             91.338                                        3.53170e+002           5.31698e+001           3.16984e+000           1.69844e-001           6.98439e-002           9.84393e-003           8.43928e-004
                  125.10    353.16986                               19.86705             91.336                                        3.53170e+002           5.31699e+001           3.16986e+000           1.69859e-001           6.98593e-002           9.85928e-003           8.59281e-004
                  125.20    353.16772                               19.86705             91.336                                        3.53168e+002           5.31677e+001           3.16772e+000           1.67717e-001           6.77172e-002           7.71718e-003           7.17179e-004
