~VERSION INFORMATION
VERS                    .            2.0                                    :CWLS LOG ASCII STANDARD
WRAP                    .            NO                                     :ONE LINE PER TIME STEP


~WELL INFORMATION
#MNEM                   .UNIT        DATA                                    DESCRIPTION
#________________________________________________________________________________________
STRTTIME                .HH/MM/SS    22:39:37                               :START TIME
STOPTIME                .HH/MM/SS    22:43:03                               :STOP TIME
STRT                    .s           2.10                                   :START DATA
STOP                    .s           204.10                                 :STOP DATA
STEP                    .s           0.10                                   :MEASUREMENT TIME INTERVAL
NULL                    .            -999.25                                :NULL VALUE
COMP                    .            Statoil ASA                            :COMPANY
FLD                     .            Volve                                  :FIELD
WELL                    .            15/9-F-1 C                             :WELL
RUN                     .            4                                      :RUN
LOC                     .                                                   :LOCATION
PROV                    .            na                                     :PROVINCE
SRVC                    .            Baker Hughes INTEQ                     :SERVICE COMPANY
DATE                    .YY/MM/DD    14/03/14                               :LOG DATE
UWI                     .                                                   :UNIQUE WELL ID
DEPTHMD                 .m           3925.1                                 :MEASURED DEPTH
DEPTHTVD                .m           3120.2                                 :TRUE VERTICAL DEPTH


~CURVE INFORMATION
#MNEM                   .UNIT        API CODES                               DESCRIPTION
#________________________________________________________________________________________
TIME                    .s                                                  :01 TIME
DD_PRESS                .bar                                                :02 DRAW DOWN PRESSURE
DD_VOLUME               .cm3                                                :03 INCREMENTAL DRAW DOWN VOLUME
TEMP                    .degC                                               :04 TRANSDUCER TEMPERATURE
DD_PRESS_MOD_1000       .bar                                                :05 DRAW DOWN PRESSURE MOD 1000
DD_PRESS_MOD_100        .bar                                                :06 DRAW DOWN PRESSURE MOD 100
DD_PRESS_MOD_10         .bar                                                :07 DRAW DOWN PRESSURE MOD 10
DD_PRESS_MOD_1          .bar                                                :08 DRAW DOWN PRESSURE MOD 1
DD_PRESS_MOD_01         .bar                                                :09 DRAW DOWN PRESSURE MOD 01
DD_PRESS_MOD_001        .bar                                                :10 DRAW DOWN PRESSURE MOD 001
DD_PRESS_MOD_0001       .bar                                                :11 DRAW DOWN PRESSURE MOD 0001


~PARAMETER INFORMATION
#MNEM                   .UNIT        VALUE                                   DESCRIPTION
#________________________________________________________________________________________
TOOLFACE                .deg         -7.4                                   :01 TOOLFACE
PUMP_CAPACITY           .bar         400                                    :02 NOMINAL DRAW DOWN PUMP CAPACITY
PUMP_LIMIT              .bar         240                                    :03 DOWNLINK PUMP LIMIT
TIME_LIMIT              .min         10                                     :04 DOWNLINK MAX TIME
TEST_TYPE               .            HIGH MOBILITY                          :05 DOWNLINK
DD_PIST_A               .cm2         3.1416                                 :06 DRAW DOWN PISTON AREA
V_SYS                   .cm3         131.0000                               :07 SYSTEM VOLUME
PROBE_ID                .cm          1.2700                                 :08 TTK PROBE ID
G0                      .            4.6700                                 :09 GEOMETRY FACTOR


~A                  TIME     DD_PRESS                              DD_VOLUME               TEMP                                   DD_PRESS_MOD_1000       DD_PRESS_MOD_100        DD_PRESS_MOD_10         DD_PRESS_MOD_1        DD_PRESS_MOD_01       DD_PRESS_MOD_001      DD_PRESS_MOD_0001
# ...
                  186.90    444.94900                                0.00000             91.344                                        4.44949e+002           4.49490e+001           4.94900e+000           9.49001e-001           4.90013e-002           9.00132e-003           1.31738e-006
                  187.00    444.95668                                0.00000             91.344                                        4.44957e+002           4.49567e+001           4.95668e+000           9.56681e-001           5.66809e-002           6.68092e-003           6.80921e-004
                  187.10    444.96634                                0.00000             91.344                                        4.44966e+002           4.49663e+001           4.96634e+000           9.66342e-001           6.63417e-002           6.34165e-003           3.41651e-004
                  187.20    444.97449                                0.00000             91.344                                        4.44974e+002           4.49745e+001           4.97449e+000           9.74492e-001           7.44923e-002           4.49231e-003           4.92311e-004
                  187.30    444.97500                                0.00000             91.344                                        4.44975e+002           4.49750e+001           4.97500e+000           9.75001e-001           7.50011e-002           5.00108e-003           1.07916e-006
                  187.40    444.97987                                0.00000             91.344                                        4.44980e+002           4.49799e+001           4.97987e+000           9.79875e-001           7.98750e-002           9.87497e-003           8.74974e-004
                  187.50    444.98458                                0.00000             91.344                                        4.44985e+002           4.49846e+001           4.98458e+000           9.84580e-001           8.45803e-002           4.58032e-003           5.80317e-004
                  187.60    444.98706                                0.00000             91.344                                        4.44987e+002           4.49871e+001           4.98706e+000           9.87057e-001           8.70568e-002           7.05677e-003           5.67658e-005
                  187.70    444.99242                                0.00000             91.344                                        4.44992e+002           4.49924e+001           4.99242e+000           9.92417e-001           9.24167e-002           2.41674e-003           4.16745e-004
                  187.80    444.98663                                0.00000             91.344                                        4.44987e+002           4.49866e+001           4.98663e+000           9.86628e-001           8.66284e-002           6.62843e-003           6.28431e-004
                  187.90    444.97659                                0.00000             91.344                                        4.44977e+002           4.49766e+001           4.97659e+000           9.76588e-001           7.65876e-002           6.58757e-003           5.87569e-004
                  188.00    444.96746                                0.00000             91.344                                        4.44967e+002           4.49675e+001           4.96746e+000           9.67457e-001           6.74570e-002           7.45699e-003           4.56991e-004
                  188.10    444.97139                                0.00000             91.344                                        4.44971e+002           4.49714e+001           4.97139e+000           9.71394e-001           7.13940e-002           1.39396e-003           3.93958e-004
                  188.20    444.98232                                0.00000             91.344                                        4.44982e+002           4.49823e+001           4.98232e+000           9.82318e-001           8.23182e-002           2.31819e-003           3.18186e-004
                  188.30    444.98581                                0.00000             91.344                                        4.44986e+002           4.49858e+001           4.98581e+000           9.85807e-001           8.58072e-002           5.80717e-003           8.07169e-004
                  188.40    444.98417                                0.00000             91.344                                        4.44984e+002           4.49842e+001           4.98417e+000           9.84172e-001           8.41724e-002           4.17239e-003           1.72389e-004
                  188.50    444.98488                                0.00000             91.344                                        4.44985e+002           4.49849e+001           4.98488e+000           9.84885e-001           8.48847e-002           4.88474e-003           8.84742e-004
                  188.60    444.98838                                0.00000             91.346                                        4.44988e+002           4.49884e+001           4.98838e+000           9.88380e-001           8.83803e-002           8.38025e-003           3.80254e-004
                  188.70    444.99550                                0.00000             91.350                                        4.44996e+002           4.49955e+001           4.99550e+000           9.95504e-001           9.55044e-002           5.50438e-003           5.04378e-004
                  188.80    444.99402                                0.00000             91.352                                        4.44994e+002           4.49940e+001           4.99402e+000           9.94024e-001           9.40245e-002           4.02445e-003           2.44546e-005
                  188.90    444.99233                                0.00000             91.352                                        4.44992e+002           4.49923e+001           4.99233e+000           9.92335e-001           9.23345e-002           2.33453e-003           3.34534e-004
                  189.00    444.99836                                0.00000             91.352                                        4.44998e+002           4.49984e+001           4.99836e+000           9.98357e-001           9.83571e-002           8.35714e-003           3.57135e-004
                  189.10    444.99946                                0.00000             91.352                                        4.44999e+002           4.49995e+001           4.99946e+000           9.99464e-001           9.94635e-002           9.46352e-003           4.63522e-004
                  189.20    444.99167                                0.00000             91.352                                        4.44992e+002           4.49917e+001           4.99167e+000           9.91670e-001           9.16697e-002           1.66965e-003           6.69650e-004
                  189.30    444.98101                                0.00000             91.352                                        4.44981e+002           4.49810e+001           4.98101e+000           9.81006e-001           8.10065e-002           1.00646e-003           6.45995e-006
                  189.40    444.98420                                0.00000             91.352                                        4.44984e+002           4.49842e+001           4.98420e+000           9.84199e-001           8.41988e-002           4.19881e-003           1.98812e-004
                  189.50    444.99128                                0.00000             91.352                                        4.44991e+002           4.49913e+001           4.99128e+000           9.91285e-001           9.12846e-002           1.28460e-003           2.84597e-004
                  189.60    444.98798                                0.00000             91.352                                        4.44988e+002           4.49880e+001           4.98798e+000           9.87984e-001           8.79835e-002           7.98355e-003           9.83549e-004
