~VERSION INFORMATION
VERS                    .            2.0                                    :CWLS LOG ASCII STANDARD
WRAP                    .            NO                                     :ONE LINE PER TIME STEP


~WELL INFORMATION
#MNEM                   .UNIT        DATA                                    DESCRIPTION
#________________________________________________________________________________________
STRTTIME                .HH/MM/SS    14:50:05                               :START TIME
STOPTIME                .HH/MM/SS    14:53:18                               :STOP TIME
STRT                    .s           2.10                                   :START DATA
STOP                    .s           191.60                                 :STOP DATA
STEP                    .s           0.10                                   :MEASUREMENT TIME INTERVAL
NULL                    .            -999.25                                :NULL VALUE
COMP                    .            Statoil ASA                            :COMPANY
FLD                     .            Volve                                  :FIELD
WELL                    .            15/9-F-1 B                             :WELL
RUN                     .            7                                      :RUN
LOC                     .            Maersk Inspirer                        :LOCATION
PROV                    .            na                                     :PROVINCE
SRVC                    .            Baker Hughes INTEQ                     :SERVICE COMPANY
DATE                    .YY/MM/DD    13/09/06                               :LOG DATE
UWI                     .                                                   :UNIQUE WELL ID
DEPTHMD                 .m           3280.5                                 :MEASURED DEPTH
DEPTHTVD                .m           3076.1                                 :TRUE VERTICAL DEPTH


~CURVE INFORMATION
#MNEM                   .UNIT        API CODES                               DESCRIPTION
#________________________________________________________________________________________
TIME                    .s                                                  :01 TIME
DD_PRESS                .bar                                                :02 DRAW DOWN PRESSURE
DD_VOLUME               .cm3                                                :03 INCREMENTAL DRAW DOWN VOLUME
TEMP                    .degC                                               :04 TRANSDUCER TEMPERATURE
DD_PRESS_MOD_1000       .bar                                                :05 DRAW DOWN PRESSURE MOD 1000
DD_PRESS_MOD_100        .bar                                                :06 DRAW DOWN PRESSURE MOD 100
DD_PRESS_MOD_10         .bar                                                :07 DRAW DOWN PRESSURE MOD 10
DD_PRESS_MOD_1          .bar                                                :08 DRAW DOWN PRESSURE MOD 1
DD_PRESS_MOD_01         .bar                                                :09 DRAW DOWN PRESSURE MOD 01
DD_PRESS_MOD_001        .bar                                                :10 DRAW DOWN PRESSURE MOD 001
DD_PRESS_MOD_0001       .bar                                                :11 DRAW DOWN PRESSURE MOD 0001


~PARAMETER INFORMATION
#MNEM                   .UNIT        VALUE                                   DESCRIPTION
#________________________________________________________________________________________
TOOLFACE                .deg         na                                     :01 TOOLFACE
PUMP_CAPACITY           .bar         400                                    :02 NOMINAL DRAW DOWN PUMP CAPACITY
PUMP_LIMIT              .bar         400                                    :03 DOWNLINK PUMP LIMIT
TIME_LIMIT              .min         10                                     :04 DOWNLINK MAX TIME
TEST_TYPE               .            LOW MOBILITY                           :05 DOWNLINK
DD_PIST_A               .cm2         3.1416                                 :06 DRAW DOWN PISTON AREA
V_SYS                   .cm3         131.0000                               :07 SYSTEM VOLUME
PROBE_ID                .cm          1.2700                                 :08 TTK PROBE ID
G0                      .            4.6700                                 :09 GEOMETRY FACTOR


~A                  TIME     DD_PRESS                              DD_VOLUME               TEMP                                   DD_PRESS_MOD_1000       DD_PRESS_MOD_100        DD_PRESS_MOD_10         DD_PRESS_MOD_1        DD_PRESS_MOD_01       DD_PRESS_MOD_001      DD_PRESS_MOD_0001
# ...
                  128.10    347.58196                               19.92655             82.469                                        3.47582e+002           4.75820e+001           7.58196e+000           5.81963e-001           8.19626e-002           1.96263e-003           9.62634e-004
                  128.20    347.57847                               19.92655             82.469                                        3.47578e+002           4.75785e+001           7.57847e+000           5.78471e-001           7.84707e-002           8.47072e-003           4.70720e-004
                  128.30    347.58044                               19.92655             82.469                                        3.47580e+002           4.75804e+001           7.58044e+000           5.80442e-001           8.04422e-002           4.42202e-004           4.42202e-004
                  128.40    347.58336                               19.92655             82.469                                        3.47583e+002           4.75834e+001           7.58336e+000           5.83363e-001           8.33630e-002           3.36297e-003           3.62968e-004
                  128.50    347.58392                               19.92655             82.469                                        3.47584e+002           4.75839e+001           7.58392e+000           5.83916e-001           8.39163e-002           3.91631e-003           9.16315e-004
                  128.60    347.58014                               19.92655             82.469                                        3.47580e+002           4.75801e+001           7.58014e+000           5.80137e-001           8.01372e-002           1.37214e-004           1.37214e-004
                  128.70    347.57964                               19.92655             82.469                                        3.47580e+002           4.75796e+001           7.57964e+000           5.79635e-001           7.96351e-002           9.63513e-003           6.35131e-004
                  128.80    347.58874                               19.92655             82.469                                        3.47589e+002           4.75887e+001           7.58874e+000           5.88742e-001           8.87420e-002           8.74198e-003           7.41982e-004
                  128.90    347.58696                               19.92655             82.469                                        3.47587e+002           4.75870e+001           7.58696e+000           5.86963e-001           8.69627e-002           6.96266e-003           9.62661e-004
                  129.00    347.57656                               19.92655             82.469                                        3.47577e+002           4.75766e+001           7.57656e+000           5.76558e-001           7.65578e-002           6.55776e-003           5.57756e-004
                  129.10    347.57548                               19.92655             82.469                                        3.47575e+002           4.75755e+001           7.57548e+000           5.75481e-001           7.54811e-002           5.48111e-003           4.81107e-004
                  129.20    347.58577                               19.92655             82.469                                        3.47586e+002           4.75858e+001           7.58577e+000           5.85771e-001           8.57708e-002           5.77084e-003           7.70838e-004
                  129.30    347.59464                               19.92655             82.469                                        3.47595e+002           4.75946e+001           7.59464e+000           5.94643e-001           9.46428e-002           4.64285e-003           6.42847e-004
                  129.40    347.58302                               19.92655             82.469                                        3.47583e+002           4.75830e+001           7.58302e+000           5.83022e-001           8.30221e-002           3.02207e-003           2.20670e-005
                  129.50    347.57306                               19.92655             82.469                                        3.47573e+002           4.75731e+001           7.57306e+000           5.73058e-001           7.30583e-002           3.05826e-003           5.82601e-005
                  129.60    347.58057                               19.92655             82.469                                        3.47581e+002           4.75806e+001           7.58057e+000           5.80574e-001           8.05741e-002           5.74055e-004           5.74055e-004
                  129.70    347.59002                               19.92655             82.466                                        3.47590e+002           4.75900e+001           7.59002e+000           5.90022e-001           9.00219e-002           2.19324e-005           2.19324e-005
                  129.80    347.58704                               19.92655             82.463                                        3.47587e+002           4.75870e+001           7.58704e+000           5.87041e-001           8.70413e-002           7.04134e-003           4.13427e-005
                  129.90    347.57860                               19.92655             82.461                                        3.47579e+002           4.75786e+001           7.57860e+000           5.78601e-001           7.86012e-002           8.60118e-003           6.01176e-004
                  130.00    347.58160                               19.92655             82.463                                        3.47582e+002           4.75816e+001           7.58160e+000           5.81600e-001           8.15996e-002           1.59964e-003           5.99645e-004
                  130.10    347.58932                               19.92655             82.467                                        3.47589e+002           4.75893e+001           7.58932e+000           5.89322e-001           8.93223e-002           9.32229e-003           3.22287e-004
                  130.20    347.58426                               19.92655             82.469                                        3.47584e+002           4.75843e+001           7.58426e+000           5.84265e-001           8.42649e-002           4.26487e-003           2.64865e-004
                  130.30    347.57896                               19.92655             82.466                                        3.47579e+002           4.75790e+001           7.57896e+000           5.78959e-001           7.89589e-002           8.95890e-003           9.58902e-004
                  130.40    347.57766                               19.92665             82.465                                        3.47578e+002           4.75777e+001           7.57766e+000           5.77665e-001           7.76646e-002           7.66462e-003           6.64623e-004
                  130.50    347.58188                               19.92676             82.464                                        3.47582e+002           4.75819e+001           7.58188e+000           5.81879e-001           8.18788e-002           1.87879e-003           8.78790e-004
                  130.60    347.58180                               19.92672             82.465                                        3.47582e+002           4.75818e+001           7.58180e+000           5.81799e-001           8.17986e-002           1.79856e-003           7.98563e-004
                  130.70    347.58335                               19.92655             82.467                                        3.47583e+002           4.75834e+001           7.58335e+000           5.83351e-001           8.33509e-002           3.35092e-003           3.50921e-004
                  130.80    347.57728                               19.92693             82.469                                        3.47577e+002           4.75773e+001           7.57728e+000           5.77279e-001           7.72789e-002           7.27892e-003           2.78918e-004
