~VERSION INFORMATION
VERS                    .            2.0                                    :CWLS LOG ASCII STANDARD
WRAP                    .            NO                                     :ONE LINE PER TIME STEP


~WELL INFORMATION
#MNEM                   .UNIT        DATA                                    DESCRIPTION
#________________________________________________________________________________________
STRTTIME                .HH/MM/SS    08:08:34                               :START TIME
STOPTIME                .HH/MM/SS    08:11:25                               :STOP TIME
STRT                    .s           2.10                                   :START DATA
STOP                    .s           169.10                                 :STOP DATA
STEP                    .s           0.10                                   :MEASUREMENT TIME INTERVAL
NULL                    .            -999.25                                :NULL VALUE
COMP                    .            Statoil ASA                            :COMPANY
FLD                     .            Volve                                  :FIELD
WELL                    .            15/9-F-11 A                            :WELL
RUN                     .            8                                      :RUN
LOC                     .            Maersk Inspirer                        :LOCATION
PROV                    .            na                                     :PROVINCE
SRVC                    .            Baker Hughes INTEQ                     :SERVICE COMPANY
DATE                    .YY/MM/DD    13/05/21                               :LOG DATE
UWI                     .                                                   :UNIQUE WELL ID
DEPTHMD                 .m           3694.5                                 :MEASURED DEPTH
DEPTHTVD                .m           3074.7                                 :TRUE VERTICAL DEPTH


~CURVE INFORMATION
#MNEM                   .UNIT        API CODES                               DESCRIPTION
#________________________________________________________________________________________
TIME                    .s                                                  :01 TIME
DD_PRESS                .bar                                                :02 DRAW DOWN PRESSURE
DD_VOLUME               .cm3                                                :03 INCREMENTAL DRAW DOWN VOLUME
TEMP                    .degC                                               :04 TRANSDUCER TEMPERATURE
DD_PRESS_MOD_1000       .bar                                                :05 DRAW DOWN PRESSURE MOD 1000
DD_PRESS_MOD_100        .bar                                                :06 DRAW DOWN PRESSURE MOD 100
DD_PRESS_MOD_10         .bar                                                :07 DRAW DOWN PRESSURE MOD 10
DD_PRESS_MOD_1          .bar                                                :08 DRAW DOWN PRESSURE MOD 1
DD_PRESS_MOD_01         .bar                                                :09 DRAW DOWN PRESSURE MOD 01
DD_PRESS_MOD_001        .bar                                                :10 DRAW DOWN PRESSURE MOD 001
DD_PRESS_MOD_0001       .bar                                                :11 DRAW DOWN PRESSURE MOD 0001


~PARAMETER INFORMATION
#MNEM                   .UNIT        VALUE                                   DESCRIPTION
#________________________________________________________________________________________
TOOLFACE                .deg         -107.9                                 :01 TOOLFACE
PUMP_CAPACITY           .bar         400                                    :02 NOMINAL DRAW DOWN PUMP CAPACITY
PUMP_LIMIT              .bar         240                                    :03 DOWNLINK PUMP LIMIT
TIME_LIMIT              .min         10                                     :04 DOWNLINK MAX TIME
TEST_TYPE               .            HIGH MOBILITY                          :05 DOWNLINK
DD_PIST_A               .cm2         3.1416                                 :06 DRAW DOWN PISTON AREA
V_SYS                   .cm3         131.0000                               :07 SYSTEM VOLUME
PROBE_ID                .cm          1.2700                                 :08 TTK PROBE ID
G0                      .            4.6700                                 :09 GEOMETRY FACTOR


~A                  TIME     DD_PRESS                              DD_VOLUME               TEMP                                   DD_PRESS_MOD_1000       DD_PRESS_MOD_100        DD_PRESS_MOD_10         DD_PRESS_MOD_1        DD_PRESS_MOD_01       DD_PRESS_MOD_001      DD_PRESS_MOD_0001
# ...
                   24.50    428.20429                                0.00000             84.924                                        4.28204e+002           2.82043e+001           8.20429e+000           2.04289e-001           4.28855e-003           4.28855e-003           2.88551e-004
                   24.60    426.85121                                0.00000             84.925                                        4.26851e+002           2.68512e+001           6.85121e+000           8.51210e-001           5.12096e-002           1.20964e-003           2.09645e-004
                   24.70    425.93616                                0.00000             84.924                                        4.25936e+002           2.59362e+001           5.93616e+000           9.36155e-001           3.61551e-002           6.15513e-003           1.55126e-004
                   24.80    425.46540                                0.00000             84.922                                        4.25465e+002           2.54654e+001           5.46540e+000           4.65401e-001           6.54014e-002           5.40136e-003           4.01356e-004
                   24.90    425.20007                                0.00000             84.922                                        4.25200e+002           2.52001e+001           5.20007e+000           2.00070e-001           6.97371e-005           6.97371e-005           6.97371e-005
                   25.00    425.11079                                0.00000             84.922                                        4.25111e+002           2.51108e+001           5.11079e+000           1.10786e-001           1.07861e-002           7.86093e-004           7.86093e-004
                   25.10    425.06583                                0.00000             84.922                                        4.25066e+002           2.50658e+001           5.06583e+000           6.58316e-002           6.58316e-002           5.83155e-003           8.31555e-004
                   25.20    425.04324                                0.00000             84.922                                        4.25043e+002           2.50432e+001           5.04324e+000           4.32356e-002           4.32356e-002           3.23561e-003           2.35606e-004
                   25.30    425.07044                                0.00000             84.922                                        4.25070e+002           2.50704e+001           5.07044e+000           7.04395e-002           7.04395e-002           4.39465e-004           4.39465e-004
                   25.40    425.09321                                0.00000             84.922                                        4.25093e+002           2.50932e+001           5.09321e+000           9.32132e-002           9.32132e-002           3.21316e-003           2.13161e-004
                   25.50    425.07197                                0.00000             84.922                                        4.25072e+002           2.50720e+001           5.07197e+000           7.19741e-002           7.19741e-002           1.97408e-003           9.74080e-004
                   25.60    425.06595                                0.00000             84.922                                        4.25066e+002           2.50660e+001           5.06595e+000           6.59512e-002           6.59512e-002           5.95118e-003           9.51177e-004
                   25.70    425.11154                                0.00000             84.922                                        4.25112e+002           2.51115e+001           5.11154e+000           1.11543e-001           1.15432e-002           1.54323e-003           5.43227e-004
                   25.80    425.14280                                0.00000             84.922                                        4.25143e+002           2.51428e+001           5.14280e+000           1.42797e-001           4.27967e-002           2.79670e-003           7.96699e-004
                   25.90    425.13039                                0.00000             84.922                                        4.25130e+002           2.51304e+001           5.13039e+000           1.30388e-001           3.03878e-002           3.87751e-004           3.87751e-004
                   26.00    425.14190                                0.00000             84.922                                        4.25142e+002           2.51419e+001           5.14190e+000           1.41902e-001           4.19016e-002           1.90160e-003           9.01595e-004
                   26.10    425.18172                                0.00000             84.922                                        4.25182e+002           2.51817e+001           5.18172e+000           1.81722e-001           8.17223e-002           1.72226e-003           7.22260e-004
                   26.20    425.19420                                0.00000             84.922                                        4.25194e+002           2.51942e+001           5.19420e+000           1.94203e-001           9.42027e-002           4.20271e-003           2.02715e-004
                   26.30    425.18969                                0.00000             84.922                                        4.25190e+002           2.51897e+001           5.18969e+000           1.89692e-001           8.96920e-002           9.69197e-003           6.91971e-004
                   26.40    425.20113                                0.00000             84.922                                        4.25201e+002           2.52011e+001           5.20113e+000           2.01133e-001           1.13329e-003           1.13329e-003           1.33292e-004
                   26.50    425.22882                                0.00000             84.922                                        4.25229e+002           2.52288e+001           5.22882e+000           2.28819e-001           2.88190e-002           8.81898e-003           8.18983e-004
                   26.60    425.24306                                0.00000             84.922                                        4.25243e+002           2.52431e+001           5.24306e+000           2.43056e-001           4.30557e-002           3.05567e-003           5.56696e-005
                   26.70    425.23212                                0.00000             84.922                                        4.25232e+002           2.52321e+001           5.23212e+000           2.32117e-001           3.21171e-002           2.11713e-003           1.17129e-004
                   26.80    425.22846                                0.00000             84.922                                        4.25228e+002           2.52285e+001           5.22846e+000           2.28465e-001           2.84647e-002           8.46468e-003           4.64680e-004
                   26.90    425.24160                                0.00000             84.922                                        4.25242e+002           2.52416e+001           5.24160e+000           2.41604e-001           4.16044e-002           1.60439e-003           6.04391e-004
                   27.00    425.24986                                0.00000             84.922                                        4.25250e+002           2.52499e+001           5.24986e+000           2.49858e-001           4.98578e-002           9.85784e-003           8.57841e-004
                   27.10    425.24405                                0.00000             84.922                                        4.25244e+002           2.52440e+001           5.24405e+000           2.44046e-001           4.40463e-002           4.04634e-003           4.63423e-005
                   27.20    425.23799                                0.00000             84.922                                        4.25238e+002           2.52380e+001           5.23799e+000           2.37986e-001           3.79859e-002           7.98594e-003           9.85936e-004
