~VERSION INFORMATION
VERS                    .            2.0                                    :CWLS LOG ASCII STANDARD
WRAP                    .            NO                                     :ONE LINE PER TIME STEP


~WELL INFORMATION
#MNEM                   .UNIT        DATA                                    DESCRIPTION
#________________________________________________________________________________________
STRTTIME                .HH/MM/SS    14:50:05                               :START TIME
STOPTIME                .HH/MM/SS    14:53:18                               :STOP TIME
STRT                    .s           2.10                                   :START DATA
STOP                    .s           191.60                                 :STOP DATA
STEP                    .s           0.10                                   :MEASUREMENT TIME INTERVAL
NULL                    .            -999.25                                :NULL VALUE
COMP                    .            Statoil ASA                            :COMPANY
FLD                     .            Volve                                  :FIELD
WELL                    .            15/9-F-1 B                             :WELL
RUN                     .            7                                      :RUN
LOC                     .            Maersk Inspirer                        :LOCATION
PROV                    .            na                                     :PROVINCE
SRVC                    .            Baker Hughes INTEQ                     :SERVICE COMPANY
DATE                    .YY/MM/DD    13/09/06                               :LOG DATE
UWI                     .                                                   :UNIQUE WELL ID
DEPTHMD                 .m           3280.5                                 :MEASURED DEPTH
DEPTHTVD                .m           3076.1                                 :TRUE VERTICAL DEPTH


~CURVE INFORMATION
#MNEM                   .UNIT        API CODES                               DESCRIPTION
#________________________________________________________________________________________
TIME                    .s                                                  :01 TIME
DD_PRESS                .bar                                                :02 DRAW DOWN PRESSURE
DD_VOLUME               .cm3                                                :03 INCREMENTAL DRAW DOWN VOLUME
TEMP                    .degC                                               :04 TRANSDUCER TEMPERATURE
DD_PRESS_MOD_1000       .bar                                                :05 DRAW DOWN PRESSURE MOD 1000
DD_PRESS_MOD_100        .bar                                                :06 DRAW DOWN PRESSURE MOD 100
DD_PRESS_MOD_10         .bar                                                :07 DRAW DOWN PRESSURE MOD 10
DD_PRESS_MOD_1          .bar                                                :08 DRAW DOWN PRESSURE MOD 1
DD_PRESS_MOD_01         .bar                                                :09 DRAW DOWN PRESSURE MOD 01
DD_PRESS_MOD_001        .bar                                                :10 DRAW DOWN PRESSURE MOD 001
DD_PRESS_MOD_0001       .bar                                                :11 DRAW DOWN PRESSURE MOD 0001


~PARAMETER INFORMATION
#MNEM                   .UNIT        VALUE                                   DESCRIPTION
#________________________________________________________________________________________
TOOLFACE                .deg         na                                     :01 TOOLFACE
PUMP_CAPACITY           .bar         400                                    :02 NOMINAL DRAW DOWN PUMP CAPACITY
PUMP_LIMIT              .bar         400                                    :03 DOWNLINK PUMP LIMIT
TIME_LIMIT              .min         10                                     :04 DOWNLINK MAX TIME
TEST_TYPE               .            LOW MOBILITY                           :05 DOWNLINK
DD_PIST_A               .cm2         3.1416                                 :06 DRAW DOWN PISTON AREA
V_SYS                   .cm3         131.0000                               :07 SYSTEM VOLUME
PROBE_ID                .cm          1.2700                                 :08 TTK PROBE ID
G0                      .            4.6700                                 :09 GEOMETRY FACTOR


~A                  TIME     DD_PRESS                              DD_VOLUME               TEMP                                   DD_PRESS_MOD_1000       DD_PRESS_MOD_100        DD_PRESS_MOD_10         DD_PRESS_MOD_1        DD_PRESS_MOD_01       DD_PRESS_MOD_001      DD_PRESS_MOD_0001
# ...
                   13.30    438.99101                                0.00000             82.570                                        4.38991e+002           3.89910e+001           8.99101e+000           9.91014e-001           9.10141e-002           1.01409e-003           1.40914e-005
                   13.40    438.99214                                0.00000             82.568                                        4.38992e+002           3.89921e+001           8.99214e+000           9.92138e-001           9.21381e-002           2.13813e-003           1.38129e-004
                   13.50    438.98856                                0.00000             82.564                                        4.38989e+002           3.89886e+001           8.98856e+000           9.88564e-001           8.85640e-002           8.56398e-003           5.63979e-004
                   13.60    439.00465                                0.00000             82.563                                        4.39005e+002           3.90047e+001           9.00465e+000           4.65350e-003           4.65350e-003           4.65350e-003           6.53502e-004
                   13.70    439.02353                                0.00000             82.563                                        4.39024e+002           3.90235e+001           9.02353e+000           2.35325e-002           2.35325e-002           3.53251e-003           5.32510e-004
                   13.80    439.01709                                0.00000             82.563                                        4.39017e+002           3.90171e+001           9.01709e+000           1.70949e-002           1.70949e-002           7.09485e-003           9.48540e-005
                   13.90    439.00411                                0.00000             82.563                                        4.39004e+002           3.90041e+001           9.00411e+000           4.10913e-003           4.10913e-003           4.10913e-003           1.09129e-004
                   14.00    439.00901                                0.00000             82.565                                        4.39009e+002           3.90090e+001           9.00901e+000           9.01081e-003           9.01081e-003           9.01081e-003           1.08067e-005
                   14.10    439.02319                                0.00000             82.568                                        4.39023e+002           3.90232e+001           9.02319e+000           2.31864e-002           2.31864e-002           3.18640e-003           1.86402e-004
                   14.20    439.02072                                0.00000             82.568                                        4.39021e+002           3.90207e+001           9.02072e+000           2.07240e-002           2.07240e-002           7.23954e-004           7.23954e-004
                   14.30    439.01796                                0.00000             82.564                                        4.39018e+002           3.90180e+001           9.01796e+000           1.79584e-002           1.79584e-002           7.95835e-003           9.58352e-004
                   14.40    439.02990                                0.00000             82.563                                        4.39030e+002           3.90299e+001           9.02990e+000           2.98980e-002           2.98980e-002           9.89801e-003           8.98013e-004
                   14.50    439.05158                                0.00000             82.563                                        4.39052e+002           3.90516e+001           9.05158e+000           5.15764e-002           5.15764e-002           1.57641e-003           5.76407e-004
                   14.60    439.05263                                0.00000             82.563                                        4.39053e+002           3.90526e+001           9.05263e+000           5.26305e-002           5.26305e-002           2.63054e-003           6.30535e-004
                   14.70    439.04707                                0.00000             82.563                                        4.39047e+002           3.90471e+001           9.04707e+000           4.70659e-002           4.70659e-002           7.06589e-003           6.58868e-005
                   14.80    439.05700                                0.00000             82.563                                        4.39057e+002           3.90570e+001           9.05700e+000           5.69952e-002           5.69952e-002           6.99519e-003           9.95185e-004
                   14.90    439.07897                                0.00000             82.563                                        4.39079e+002           3.90790e+001           9.07897e+000           7.89729e-002           7.89729e-002           8.97295e-003           9.72949e-004
                   15.00    439.08039                                0.00000             82.563                                        4.39080e+002           3.90804e+001           9.08039e+000           8.03907e-002           8.03907e-002           3.90666e-004           3.90666e-004
                   15.10    439.06474                                0.00000             82.563                                        4.39065e+002           3.90647e+001           9.06474e+000           6.47419e-002           6.47419e-002           4.74185e-003           7.41853e-004
                   15.20    439.05831                                0.00000             82.563                                        4.39058e+002           3.90583e+001           9.05831e+000           5.83125e-002           5.83125e-002           8.31246e-003           3.12461e-004
                   15.30    439.07182                                0.00000             82.565                                        4.39072e+002           3.90718e+001           9.07182e+000           7.18162e-002           7.18162e-002           1.81616e-003           8.16158e-004
                   15.40    439.08331                                0.00000             82.568                                        4.39083e+002           3.90833e+001           9.08331e+000           8.33135e-002           8.33135e-002           3.31353e-003           3.13530e-004
                   15.50    439.09200                                0.00000             82.568                                        4.39092e+002           3.90920e+001           9.09200e+000           9.20029e-002           9.20029e-002           2.00287e-003           2.86951e-006
                   15.60    439.10128                                0.00000             82.564                                        4.39101e+002           3.91013e+001           9.10128e+000           1.01279e-001           1.27940e-003           1.27940e-003           2.79400e-004
                   15.70    439.10680                                0.00000             82.563                                        4.39107e+002           3.91068e+001           9.10680e+000           1.06803e-001           6.80280e-003           6.80280e-003           8.02795e-004
                   15.80    439.10125                                0.00000             82.563                                        4.39101e+002           3.91012e+001           9.10125e+000           1.01249e-001           1.24877e-003           1.24877e-003           2.48773e-004
                   15.90    439.10646                                0.00000             82.563                                        4.39106e+002           3.91065e+001           9.10646e+000           1.06459e-001           6.45891e-003           6.45891e-003           4.58909e-004
                   16.00    439.12579                                0.00000             82.563                                        4.39126e+002           3.91258e+001           9.12579e+000           1.25791e-001           2.57911e-002           5.79107e-003           7.91072e-004
