~VERSION INFORMATION
VERS                    .            2.0                                    :CWLS LOG ASCII STANDARD
WRAP                    .            NO                                     :ONE LINE PER TIME STEP


~WELL INFORMATION
#MNEM                   .UNIT        DATA                                    DESCRIPTION
#________________________________________________________________________________________
STRTTIME                .HH/MM/SS    10:22:55                               :START TIME
STOPTIME                .HH/MM/SS    10:26:06                               :STOP TIME
STRT                    .s           2.10                                   :START DATA
STOP                    .s           189.80                                 :STOP DATA
STEP                    .s           0.10                                   :MEASUREMENT TIME INTERVAL
NULL                    .            -999.25                                :NULL VALUE
COMP                    .            Statoil ASA                            :COMPANY
FLD                     .            Volve                                  :FIELD
WELL                    .            15/9-F-11 A                            :WELL
RUN                     .            8                                      :RUN
LOC                     .            Maersk Inspirer                        :LOCATION
PROV                    .            na                                     :PROVINCE
SRVC                    .            Baker Hughes INTEQ                     :SERVICE COMPANY
DATE                    .YY/MM/DD    13/05/21                               :LOG DATE
UWI                     .                                                   :UNIQUE WELL ID
DEPTHMD                 .m           3651.0                                 :MEASURED DEPTH
DEPTHTVD                .m           3041.4                                 :TRUE VERTICAL DEPTH


~CURVE INFORMATION
#MNEM                   .UNIT        API CODES                               DESCRIPTION
#________________________________________________________________________________________
TIME                    .s                                                  :01 TIME
DD_PRESS                .bar                                                :02 DRAW DOWN PRESSURE
DD_VOLUME               .cm3                                                :03 INCREMENTAL DRAW DOWN VOLUME
TEMP                    .degC                                               :04 TRANSDUCER TEMPERATURE
DD_PRESS_MOD_1000       .bar                                                :05 DRAW DOWN PRESSURE MOD 1000
DD_PRESS_MOD_100        .bar                                                :06 DRAW DOWN PRESSURE MOD 100
DD_PRESS_MOD_10         .bar                                                :07 DRAW DOWN PRESSURE MOD 10
DD_PRESS_MOD_1          .bar                                                :08 DRAW DOWN PRESSURE MOD 1
DD_PRESS_MOD_01         .bar                                                :09 DRAW DOWN PRESSURE MOD 01
DD_PRESS_MOD_001        .bar                                                :10 DRAW DOWN PRESSURE MOD 001
DD_PRESS_MOD_0001       .bar                                                :11 DRAW DOWN PRESSURE MOD 0001


~PARAMETER INFORMATION
#MNEM                   .UNIT        VALUE                                   DESCRIPTION
#________________________________________________________________________________________
TOOLFACE                .deg         61.5                                   :01 TOOLFACE
PUMP_CAPACITY           .bar         400                                    :02 NOMINAL DRAW DOWN PUMP CAPACITY
PUMP_LIMIT              .bar         240                                    :03 DOWNLINK PUMP LIMIT
TIME_LIMIT              .min         10                                     :04 DOWNLINK MAX TIME
TEST_TYPE               .            REPEAT                                 :05 DOWNLINK
TEST_TYPE               .            HIGH MOBILITY                          :06 DOWNLINK
DD_PIST_A               .cm2         3.1416                                 :07 DRAW DOWN PISTON AREA
V_SYS                   .cm3         131.0000                               :08 SYSTEM VOLUME
PROBE_ID                .cm          1.2700                                 :09 TTK PROBE ID
G0                      .            4.6700                                 :10 GEOMETRY FACTOR


~A                  TIME     DD_PRESS                              DD_VOLUME               TEMP                                   DD_PRESS_MOD_1000       DD_PRESS_MOD_100        DD_PRESS_MOD_10         DD_PRESS_MOD_1        DD_PRESS_MOD_01       DD_PRESS_MOD_001      DD_PRESS_MOD_0001
# ...
                  125.30    343.78490                               19.78571             81.073                                        3.43785e+002           4.37849e+001           3.78490e+000           7.84901e-001           8.49013e-002           4.90130e-003           9.01299e-004
                  125.40    343.78557                               19.78571             81.076                                        3.43786e+002           4.37856e+001           3.78557e+000           7.85574e-001           8.55737e-002           5.57375e-003           5.73746e-004
                  125.50    343.78587                               19.78571             81.078                                        3.43786e+002           4.37859e+001           3.78587e+000           7.85873e-001           8.58727e-002           5.87267e-003           8.72668e-004
                  125.60    343.78552                               19.78571             81.078                                        3.43786e+002           4.37855e+001           3.78552e+000           7.85516e-001           8.55160e-002           5.51596e-003           5.15963e-004
                  125.70    343.78558                               19.78571             81.076                                        3.43786e+002           4.37856e+001           3.78558e+000           7.85582e-001           8.55823e-002           5.58227e-003           5.82266e-004
                  125.80    343.78567                               19.78571             81.072                                        3.43786e+002           4.37857e+001           3.78567e+000           7.85669e-001           8.56694e-002           5.66936e-003           6.69364e-004
                  125.90    343.78527                               19.78571             81.070                                        3.43785e+002           4.37853e+001           3.78527e+000           7.85265e-001           8.52650e-002           5.26502e-003           2.65017e-004
                  126.00    343.78481                               19.78571             81.073                                        3.43785e+002           4.37848e+001           3.78481e+000           7.84812e-001           8.48116e-002           4.81159e-003           8.11588e-004
                  126.10    343.78494                               19.78571             81.074                                        3.43785e+002           4.37849e+001           3.78494e+000           7.84935e-001           8.49353e-002           4.93530e-003           9.35304e-004
                  126.20    343.78492                               19.78571             81.075                                        3.43785e+002           4.37849e+001           3.78492e+000           7.84916e-001           8.49156e-002           4.91563e-003           9.15632e-004
                  126.30    343.78509                               19.78571             81.076                                        3.43785e+002           4.37851e+001           3.78509e+000           7.85088e-001           8.50877e-002           5.08774e-003           8.77351e-005
                  126.40    343.78561                               19.78571             81.078                                        3.43786e+002           4.37856e+001           3.78561e+000           7.85610e-001           8.56098e-002           5.60979e-003           6.09790e-004
                  126.50    343.78552                               19.78571             81.078                                        3.43786e+002           4.37855e+001           3.78552e+000           7.85524e-001           8.55243e-002           5.52428e-003           5.24276e-004
                  126.60    343.78532                               19.78571             81.078                                        3.43785e+002           4.37853e+001           3.78532e+000           7.85317e-001           8.53167e-002           5.31667e-003           3.16666e-004
                  126.70    343.78553                               19.78571             81.078                                        3.43786e+002           4.37855e+001           3.78553e+000           7.85530e-001           8.55304e-002           5.53043e-003           5.30432e-004
                  126.80    343.78518                               19.78571             81.078                                        3.43785e+002           4.37852e+001           3.78518e+000           7.85182e-001           8.51821e-002           5.18215e-003           1.82149e-004
                  126.90    343.78570                               19.78571             81.078                                        3.43786e+002           4.37857e+001           3.78570e+000           7.85700e-001           8.56999e-002           5.69995e-003           6.99950e-004
                  127.00    343.78617                               19.78571             81.076                                        3.43786e+002           4.37862e+001           3.78617e+000           7.86167e-001           8.61670e-002           6.16699e-003           1.66995e-004
                  127.10    343.78558                               19.78571             81.072                                        3.43786e+002           4.37856e+001           3.78558e+000           7.85583e-001           8.55833e-002           5.58335e-003           5.83347e-004
                  127.20    343.78474                               19.78571             81.073                                        3.43785e+002           4.37847e+001           3.78474e+000           7.84742e-001           8.47418e-002           4.74176e-003           7.41762e-004
                  127.30    343.78487                               19.78571             81.076                                        3.43785e+002           4.37849e+001           3.78487e+000           7.84870e-001           8.48698e-002           4.86984e-003           8.69841e-004
                  127.40    343.78492                               19.78571             81.078                                        3.43785e+002           4.37849e+001           3.78492e+000           7.84924e-001           8.49242e-002           4.92423e-003           9.24230e-004
                  127.50    343.78486                               19.78571             81.078                                        3.43785e+002           4.37849e+001           3.78486e+000           7.84860e-001           8.48596e-002           4.85960e-003           8.59605e-004
                  127.60    343.78478                               19.78571             81.078                                        3.43785e+002           4.37848e+001           3.78478e+000           7.84782e-001           8.47823e-002           4.78226e-003           7.82256e-004
                  127.70    343.78478                               19.78571             81.078                                        3.43785e+002           4.37848e+001           3.78478e+000           7.84778e-001           8.47778e-002           4.77776e-003           7.77763e-004
                  127.80    343.78478                               19.78571             81.078                                        3.43785e+002           4.37848e+001           3.78478e+000           7.84777e-001           8.47768e-002           4.77679e-003           7.76789e-004
                  127.90    343.78475                               19.78571             81.078                                        3.43785e+002           4.37848e+001           3.78475e+000           7.84754e-001           8.47535e-002           4.75353e-003           7.53526e-004
                  128.00    343.78475                               19.78571             81.078                                        3.43785e+002           4.37847e+001           3.78475e+000           7.84748e-001           8.47479e-002           4.74790e-003           7.47904e-004
