~VERSION INFORMATION
VERS                    .            2.0                                    :CWLS LOG ASCII STANDARD
WRAP                    .            NO                                     :ONE LINE PER TIME STEP


~WELL INFORMATION
#MNEM                   .UNIT        DATA                                    DESCRIPTION
#________________________________________________________________________________________
STRTTIME                .HH/MM/SS    11:07:04                               :START TIME
STOPTIME                .HH/MM/SS    11:10:49                               :STOP TIME
STRT                    .s           2.10                                   :START DATA
STOP                    .s           223.10                                 :STOP DATA
STEP                    .s           0.10                                   :MEASUREMENT TIME INTERVAL
NULL                    .            -999.25                                :NULL VALUE
COMP                    .            Statoil ASA                            :COMPANY
FLD                     .            Volve                                  :FIELD
WELL                    .            15/9-F-11 A                            :WELL
RUN                     .            8                                      :RUN
LOC                     .            Maersk Inspirer                        :LOCATION
PROV                    .            na                                     :PROVINCE
SRVC                    .            Baker Hughes INTEQ                     :SERVICE COMPANY
DATE                    .YY/MM/DD    13/05/21                               :LOG DATE
UWI                     .                                                   :UNIQUE WELL ID
DEPTHMD                 .m           3632.0                                 :MEASURED DEPTH
DEPTHTVD                .m           3026.9                                 :TRUE VERTICAL DEPTH


~CURVE INFORMATION
#MNEM                   .UNIT        API CODES                               DESCRIPTION
#________________________________________________________________________________________
TIME                    .s                                                  :01 TIME
DD_PRESS                .bar                                                :02 DRAW DOWN PRESSURE
DD_VOLUME               .cm3                                                :03 INCREMENTAL DRAW DOWN VOLUME
TEMP                    .degC                                               :04 TRANSDUCER TEMPERATURE
DD_PRESS_MOD_1000       .bar                                                :05 DRAW DOWN PRESSURE MOD 1000
DD_PRESS_MOD_100        .bar                                                :06 DRAW DOWN PRESSURE MOD 100
DD_PRESS_MOD_10         .bar                                                :07 DRAW DOWN PRESSURE MOD 10
DD_PRESS_MOD_1          .bar                                                :08 DRAW DOWN PRESSURE MOD 1
DD_PRESS_MOD_01         .bar                                                :09 DRAW DOWN PRESSURE MOD 01
DD_PRESS_MOD_001        .bar                                                :10 DRAW DOWN PRESSURE MOD 001
DD_PRESS_MOD_0001       .bar                                                :11 DRAW DOWN PRESSURE MOD 0001


~PARAMETER INFORMATION
#MNEM                   .UNIT        VALUE                                   DESCRIPTION
#________________________________________________________________________________________
TOOLFACE                .deg         66.7                                   :01 TOOLFACE
PUMP_CAPACITY           .bar         400                                    :02 NOMINAL DRAW DOWN PUMP CAPACITY
PUMP_LIMIT              .bar         240                                    :03 DOWNLINK PUMP LIMIT
TIME_LIMIT              .min         10                                     :04 DOWNLINK MAX TIME
TEST_TYPE               .            REPEAT                                 :05 DOWNLINK
TEST_TYPE               .            HIGH MOBILITY                          :06 DOWNLINK
DD_PIST_A               .cm2         3.1416                                 :07 DRAW DOWN PISTON AREA
V_SYS                   .cm3         131.0000                               :08 SYSTEM VOLUME
PROBE_ID                .cm          1.2700                                 :09 TTK PROBE ID
G0                      .            4.6700                                 :10 GEOMETRY FACTOR


~A                  TIME     DD_PRESS                              DD_VOLUME               TEMP                                   DD_PRESS_MOD_1000       DD_PRESS_MOD_100        DD_PRESS_MOD_10         DD_PRESS_MOD_1        DD_PRESS_MOD_01       DD_PRESS_MOD_001      DD_PRESS_MOD_0001
# ...
                  220.50    415.73940                                0.00000             80.641                                        4.15739e+002           1.57394e+001           5.73940e+000           7.39402e-001           3.94021e-002           9.40209e-003           4.02093e-004
                  220.60    415.71848                                0.00000             80.641                                        4.15718e+002           1.57185e+001           5.71848e+000           7.18482e-001           1.84823e-002           8.48231e-003           4.82312e-004
                  220.70    415.70580                                0.00000             80.641                                        4.15706e+002           1.57058e+001           5.70580e+000           7.05796e-001           5.79584e-003           5.79584e-003           7.95839e-004
                  220.80    415.72800                                0.00000             80.641                                        4.15728e+002           1.57280e+001           5.72800e+000           7.27999e-001           2.79994e-002           7.99943e-003           9.99429e-004
                  220.90    415.73579                                0.00000             80.641                                        4.15736e+002           1.57358e+001           5.73579e+000           7.35787e-001           3.57865e-002           5.78654e-003           7.86537e-004
                  221.00    415.72206                                0.00000             80.641                                        4.15722e+002           1.57221e+001           5.72206e+000           7.22057e-001           2.20575e-002           2.05748e-003           5.74763e-005
                  221.10    415.72220                                0.00000             80.641                                        4.15722e+002           1.57222e+001           5.72220e+000           7.22202e-001           2.22016e-002           2.20159e-003           2.01592e-004
                  221.20    415.74540                                0.00000             80.643                                        4.15745e+002           1.57454e+001           5.74540e+000           7.45404e-001           4.54039e-002           5.40388e-003           4.03884e-004
                  221.30    415.75570                                0.00000             80.644                                        4.15756e+002           1.57557e+001           5.75570e+000           7.55703e-001           5.57029e-002           5.70289e-003           7.02892e-004
                  221.40    415.73917                                0.00000             80.643                                        4.15739e+002           1.57392e+001           5.73917e+000           7.39168e-001           3.91682e-002           9.16823e-003           1.68226e-004
                  221.50    415.72303                                0.00000             80.641                                        4.15723e+002           1.57230e+001           5.72303e+000           7.23034e-001           2.30338e-002           3.03383e-003           3.38275e-005
                  221.60    415.72990                                0.00000             80.641                                        4.15730e+002           1.57299e+001           5.72990e+000           7.29897e-001           2.98970e-002           9.89697e-003           8.96973e-004
                  221.70    415.73997                                0.00000             80.641                                        4.15740e+002           1.57400e+001           5.73997e+000           7.39968e-001           3.99685e-002           9.96847e-003           9.68467e-004
                  221.80    415.72831                                0.00000             80.641                                        4.15728e+002           1.57283e+001           5.72831e+000           7.28311e-001           2.83107e-002           8.31069e-003           3.10687e-004
                  221.90    415.72070                                0.00000             80.641                                        4.15721e+002           1.57207e+001           5.72070e+000           7.20704e-001           2.07042e-002           7.04194e-004           7.04194e-004
                  222.00    415.72294                                0.00000             80.641                                        4.15723e+002           1.57229e+001           5.72294e+000           7.22937e-001           2.29370e-002           2.93701e-003           9.37015e-004
                  222.10    415.73708                                0.00000             80.641                                        4.15737e+002           1.57371e+001           5.73708e+000           7.37079e-001           3.70794e-002           7.07942e-003           7.94197e-005
                  222.20    415.73751                                0.00000             80.641                                        4.15738e+002           1.57375e+001           5.73751e+000           7.37509e-001           3.75092e-002           7.50923e-003           5.09225e-004
                  222.30    415.74106                                0.00000             80.641                                        4.15741e+002           1.57411e+001           5.74106e+000           7.41055e-001           4.10552e-002           1.05520e-003           5.52016e-005
                  222.40    415.73695                                0.00000             80.641                                        4.15737e+002           1.57370e+001           5.73695e+000           7.36952e-001           3.69523e-002           6.95234e-003           9.52338e-004
                  222.50    415.73743                                0.00000             80.641                                        4.15737e+002           1.57374e+001           5.73743e+000           7.37435e-001           3.74347e-002           7.43469e-003           4.34686e-004
                  222.60    415.73262                                0.00000             80.641                                        4.15733e+002           1.57326e+001           5.73262e+000           7.32619e-001           3.26189e-002           2.61888e-003           6.18875e-004
                  222.70    415.74415                                0.00000             80.641                                        4.15744e+002           1.57442e+001           5.74415e+000           7.44152e-001           4.41524e-002           4.15242e-003           1.52424e-004
                  222.80    415.76016                                0.00000             80.641                                        4.15760e+002           1.57602e+001           5.76016e+000           7.60157e-001           6.01565e-002           1.56543e-004           1.56543e-004
                  222.90    415.76425                                0.00000             80.641                                        4.15764e+002           1.57643e+001           5.76425e+000           7.64251e-001           6.42513e-002           4.25128e-003           2.51283e-004
                  223.00    415.74694                                0.00000             80.641                                        4.15747e+002           1.57469e+001           5.74694e+000           7.46938e-001           4.69375e-002           6.93754e-003           9.37536e-004
                  223.10    415.72094                                0.00000             80.641                                        4.15721e+002           1.57209e+001           5.72094e+000           7.20940e-001           2.09397e-002           9.39652e-004           9.39652e-004
