~VERSION INFORMATION
VERS                    .            2.0                                    :CWLS LOG ASCII STANDARD
WRAP                    .            NO                                     :ONE LINE PER TIME STEP


~WELL INFORMATION
#MNEM                   .UNIT        DATA                                    DESCRIPTION
#________________________________________________________________________________________
STRTTIME                .HH/MM/SS    03:09:23                               :START TIME
STOPTIME                .HH/MM/SS    03:12:09                               :STOP TIME
STRT                    .s           2.10                                   :START DATA
STOP                    .s           164.80                                 :STOP DATA
STEP                    .s           0.10                                   :MEASUREMENT TIME INTERVAL
NULL                    .            -999.25                                :NULL VALUE
COMP                    .            Statoil ASA                            :COMPANY
FLD                     .            Volve                                  :FIELD
WELL                    .            15/9-F-1 C                             :WELL
RUN                     .            4                                      :RUN
LOC                     .                                                   :LOCATION
PROV                    .            na                                     :PROVINCE
SRVC                    .            Baker Hughes INTEQ                     :SERVICE COMPANY
DATE                    .YY/MM/DD    14/03/15                               :LOG DATE
UWI                     .                                                   :UNIQUE WELL ID
DEPTHMD                 .m           3523.2                                 :MEASURED DEPTH
DEPTHTVD                .m           2986.7                                 :TRUE VERTICAL DEPTH


~CURVE INFORMATION
#MNEM                   .UNIT        API CODES                               DESCRIPTION
#________________________________________________________________________________________
TIME                    .s                                                  :01 TIME
DD_PRESS                .bar                                                :02 DRAW DOWN PRESSURE
DD_VOLUME               .cm3                                                :03 INCREMENTAL DRAW DOWN VOLUME
TEMP                    .degC                                               :04 TRANSDUCER TEMPERATURE
DD_PRESS_MOD_1000       .bar                                                :05 DRAW DOWN PRESSURE MOD 1000
DD_PRESS_MOD_100        .bar                                                :06 DRAW DOWN PRESSURE MOD 100
DD_PRESS_MOD_10         .bar                                                :07 DRAW DOWN PRESSURE MOD 10
DD_PRESS_MOD_1          .bar                                                :08 DRAW DOWN PRESSURE MOD 1
DD_PRESS_MOD_01         .bar                                                :09 DRAW DOWN PRESSURE MOD 01
DD_PRESS_MOD_001        .bar                                                :10 DRAW DOWN PRESSURE MOD 001
DD_PRESS_MOD_0001       .bar                                                :11 DRAW DOWN PRESSURE MOD 0001


~PARAMETER INFORMATION
#MNEM                   .UNIT        VALUE                                   DESCRIPTION
#________________________________________________________________________________________
TOOLFACE                .deg         104.9                                  :01 TOOLFACE
PUMP_CAPACITY           .bar         400                                    :02 NOMINAL DRAW DOWN PUMP CAPACITY
PUMP_LIMIT              .bar         240                                    :03 DOWNLINK PUMP LIMIT
TIME_LIMIT              .min         10                                     :04 DOWNLINK MAX TIME
TEST_TYPE               .            REPEAT                                 :05 DOWNLINK
TEST_TYPE               .            HIGH MOBILITY                          :06 DOWNLINK
DD_PIST_A               .cm2         3.1416                                 :07 DRAW DOWN PISTON AREA
V_SYS                   .cm3         131.0000                               :08 SYSTEM VOLUME
PROBE_ID                .cm          1.2700                                 :09 TTK PROBE ID
G0                      .            4.6700                                 :10 GEOMETRY FACTOR


~A                  TIME     DD_PRESS                              DD_VOLUME               TEMP                                   DD_PRESS_MOD_1000       DD_PRESS_MOD_100        DD_PRESS_MOD_10         DD_PRESS_MOD_1        DD_PRESS_MOD_01       DD_PRESS_MOD_001      DD_PRESS_MOD_0001
# ...
                   97.30    340.98784                               19.84884             84.492                                        3.40988e+002           4.09878e+001           9.87839e-001           9.87839e-001           8.78388e-002           7.83878e-003           8.38781e-004
                   97.40    340.98302                               19.84884             84.492                                        3.40983e+002           4.09830e+001           9.83023e-001           9.83023e-001           8.30233e-002           3.02334e-003           2.33356e-005
                   97.50    340.98721                               19.84884             84.492                                        3.40987e+002           4.09872e+001           9.87208e-001           9.87208e-001           8.72081e-002           7.20811e-003           2.08107e-004
                   97.60    340.99152                               19.84884             84.492                                        3.40992e+002           4.09915e+001           9.91518e-001           9.91518e-001           9.15182e-002           1.51822e-003           5.18219e-004
                   97.70    340.99102                               19.84884             84.492                                        3.40991e+002           4.09910e+001           9.91018e-001           9.91018e-001           9.10178e-002           1.01779e-003           1.77938e-005
                   97.80    340.98542                               19.84884             84.492                                        3.40985e+002           4.09854e+001           9.85416e-001           9.85416e-001           8.54163e-002           5.41628e-003           4.16279e-004
                   97.90    340.98379                               19.84884             84.492                                        3.40984e+002           4.09838e+001           9.83792e-001           9.83792e-001           8.37921e-002           3.79214e-003           7.92143e-004
                   98.00    340.99409                               19.84884             84.492                                        3.40994e+002           4.09941e+001           9.94086e-001           9.94086e-001           9.40856e-002           4.08556e-003           8.55616e-005
                   98.10    341.00069                               19.84884             84.492                                        3.41001e+002           4.10007e+001           1.00069e+000           6.91376e-004           6.91376e-004           6.91376e-004           6.91376e-004
                   98.20    340.99054                               19.84884             84.492                                        3.40991e+002           4.09905e+001           9.90541e-001           9.90541e-001           9.05412e-002           5.41206e-004           5.41206e-004
                   98.30    340.98222                               19.84884             84.492                                        3.40982e+002           4.09822e+001           9.82216e-001           9.82216e-001           8.22161e-002           2.21614e-003           2.16142e-004
                   98.40    340.99057                               19.84884             84.492                                        3.40991e+002           4.09906e+001           9.90575e-001           9.90575e-001           9.05747e-002           5.74743e-004           5.74743e-004
                   98.50    340.99759                               19.84884             84.492                                        3.40998e+002           4.09976e+001           9.97586e-001           9.97586e-001           9.75857e-002           7.58572e-003           5.85719e-004
                   98.60    340.99138                               19.84884             84.492                                        3.40991e+002           4.09914e+001           9.91378e-001           9.91378e-001           9.13784e-002           1.37844e-003           3.78443e-004
                   98.70    340.98429                               19.84884             84.492                                        3.40984e+002           4.09843e+001           9.84285e-001           9.84285e-001           8.42855e-002           4.28545e-003           2.85450e-004
                   98.80    340.98663                               19.84884             84.492                                        3.40987e+002           4.09866e+001           9.86635e-001           9.86635e-001           8.66349e-002           6.63489e-003           6.34886e-004
                   98.90    340.99177                               19.84884             84.492                                        3.40992e+002           4.09918e+001           9.91770e-001           9.91770e-001           9.17701e-002           1.77013e-003           7.70129e-004
                   99.00    340.99096                               19.84884             84.492                                        3.40991e+002           4.09910e+001           9.90964e-001           9.90964e-001           9.09639e-002           9.63928e-004           9.63928e-004
                   99.10    340.98437                               19.84884             84.492                                        3.40984e+002           4.09844e+001           9.84366e-001           9.84366e-001           8.43655e-002           4.36553e-003           3.65529e-004
                   99.20    340.98339                               19.84884             84.492                                        3.40983e+002           4.09834e+001           9.83392e-001           9.83392e-001           8.33925e-002           3.39247e-003           3.92470e-004
                   99.30    340.98890                               19.84884             84.492                                        3.40989e+002           4.09889e+001           9.88901e-001           9.88901e-001           8.89013e-002           8.90126e-003           9.01265e-004
                   99.40    340.99193                               19.84884             84.492                                        3.40992e+002           4.09919e+001           9.91925e-001           9.91925e-001           9.19252e-002           1.92523e-003           9.25234e-004
                   99.50    340.98774                               19.84884             84.492                                        3.40988e+002           4.09877e+001           9.87738e-001           9.87738e-001           8.77383e-002           7.73827e-003           7.38273e-004
                   99.60    340.98247                               19.84884             84.492                                        3.40982e+002           4.09825e+001           9.82471e-001           9.82471e-001           8.24708e-002           2.47084e-003           4.70844e-004
                   99.70    340.98716                               19.84884             84.492                                        3.40987e+002           4.09872e+001           9.87160e-001           9.87160e-001           8.71604e-002           7.16038e-003           1.60384e-004
                   99.80    340.99345                               19.84884             84.492                                        3.40993e+002           4.09935e+001           9.93451e-001           9.93451e-001           9.34507e-002           3.45068e-003           4.50680e-004
                   99.90    340.98941                               19.84884             84.492                                        3.40989e+002           4.09894e+001           9.89410e-001           9.89410e-001           8.94099e-002           9.40994e-003           4.09938e-004
                  100.00    340.98232                               19.84884             84.492                                        3.40982e+002           4.09823e+001           9.82319e-001           9.82319e-001           8.23185e-002           2.31853e-003           3.18530e-004
