~VERSION INFORMATION
VERS                    .            2.0                                    :CWLS LOG ASCII STANDARD
WRAP                    .            NO                                     :ONE LINE PER TIME STEP


~WELL INFORMATION
#MNEM                   .UNIT        DATA                                    DESCRIPTION
#________________________________________________________________________________________
STRTTIME                .HH/MM/SS    18:24:11                               :START TIME
STOPTIME                .HH/MM/SS    18:26:54                               :STOP TIME
STRT                    .s           2.10                                   :START DATA
STOP                    .s           161.30                                 :STOP DATA
STEP                    .s           0.10                                   :MEASUREMENT TIME INTERVAL
NULL                    .            -999.25                                :NULL VALUE
COMP                    .            Statoil ASA                            :COMPANY
FLD                     .            Volve                                  :FIELD
WELL                    .            15/9-F-11 A                            :WELL
RUN                     .            8                                      :RUN
LOC                     .            Maersk Inspirer                        :LOCATION
PROV                    .            na                                     :PROVINCE
SRVC                    .            Baker Hughes INTEQ                     :SERVICE COMPANY
DATE                    .YY/MM/DD    13/05/23                               :LOG DATE
UWI                     .                                                   :UNIQUE WELL ID
DEPTHMD                 .m           3681.0                                 :MEASURED DEPTH
DEPTHTVD                .m           3064.4                                 :TRUE VERTICAL DEPTH


~CURVE INFORMATION
#MNEM                   .UNIT        API CODES                               DESCRIPTION
#________________________________________________________________________________________
TIME                    .s                                                  :01 TIME
DD_PRESS                .bar                                                :02 DRAW DOWN PRESSURE
DD_VOLUME               .cm3                                                :03 INCREMENTAL DRAW DOWN VOLUME
TEMP                    .degC                                               :04 TRANSDUCER TEMPERATURE
DD_PRESS_MOD_1000       .bar                                                :05 DRAW DOWN PRESSURE MOD 1000
DD_PRESS_MOD_100        .bar                                                :06 DRAW DOWN PRESSURE MOD 100
DD_PRESS_MOD_10         .bar                                                :07 DRAW DOWN PRESSURE MOD 10
DD_PRESS_MOD_1          .bar                                                :08 DRAW DOWN PRESSURE MOD 1
DD_PRESS_MOD_01         .bar                                                :09 DRAW DOWN PRESSURE MOD 01
DD_PRESS_MOD_001        .bar                                                :10 DRAW DOWN PRESSURE MOD 001
DD_PRESS_MOD_0001       .bar                                                :11 DRAW DOWN PRESSURE MOD 0001


~PARAMETER INFORMATION
#MNEM                   .UNIT        VALUE                                   DESCRIPTION
#________________________________________________________________________________________
TOOLFACE                .deg         -38.1                                  :01 TOOLFACE
PUMP_CAPACITY           .bar         400                                    :02 NOMINAL DRAW DOWN PUMP CAPACITY
PUMP_LIMIT              .bar         240                                    :03 DOWNLINK PUMP LIMIT
TIME_LIMIT              .min         10                                     :04 DOWNLINK MAX TIME
TEST_TYPE               .            HIGH MOBILITY                          :05 DOWNLINK
DD_PIST_A               .cm2         3.1416                                 :06 DRAW DOWN PISTON AREA
V_SYS                   .cm3         131.0000                               :07 SYSTEM VOLUME
PROBE_ID                .cm          1.2700                                 :08 TTK PROBE ID
G0                      .            4.6700                                 :09 GEOMETRY FACTOR


~A                  TIME     DD_PRESS                              DD_VOLUME               TEMP                                   DD_PRESS_MOD_1000       DD_PRESS_MOD_100        DD_PRESS_MOD_10         DD_PRESS_MOD_1        DD_PRESS_MOD_01       DD_PRESS_MOD_001      DD_PRESS_MOD_0001
# ...
                   63.70    345.16400                               10.69783             75.195                                        3.45164e+002           4.51640e+001           5.16400e+000           1.63999e-001           6.39988e-002           3.99881e-003           9.98807e-004
                   63.80    345.16330                               10.69783             75.193                                        3.45163e+002           4.51633e+001           5.16330e+000           1.63297e-001           6.32969e-002           3.29685e-003           2.96851e-004
                   63.90    345.16170                               10.69783             75.189                                        3.45162e+002           4.51617e+001           5.16170e+000           1.61701e-001           6.17010e-002           1.70103e-003           7.01033e-004
                   64.00    345.16552                               10.69783             75.188                                        3.45166e+002           4.51655e+001           5.16552e+000           1.65521e-001           6.55212e-002           5.52115e-003           5.21155e-004
                   64.10    345.16501                               10.69783             75.188                                        3.45165e+002           4.51650e+001           5.16501e+000           1.65006e-001           6.50055e-002           5.00553e-003           5.52943e-006
                   64.20    345.16216                               10.69783             75.188                                        3.45162e+002           4.51622e+001           5.16216e+000           1.62162e-001           6.21618e-002           2.16182e-003           1.61817e-004
                   64.30    345.16047                               10.69783             75.188                                        3.45160e+002           4.51605e+001           5.16047e+000           1.60472e-001           6.04724e-002           4.72429e-004           4.72429e-004
                   64.40    345.16674                               10.69783             75.188                                        3.45167e+002           4.51667e+001           5.16674e+000           1.66736e-001           6.67360e-002           6.73595e-003           7.35951e-004
                   64.50    345.16894                               10.69783             75.188                                        3.45169e+002           4.51689e+001           5.16894e+000           1.68937e-001           6.89366e-002           8.93658e-003           9.36576e-004
                   64.60    345.16170                               10.69783             75.188                                        3.45162e+002           4.51617e+001           5.16170e+000           1.61696e-001           6.16958e-002           1.69578e-003           6.95775e-004
                   64.70    345.15399                               10.69783             75.188                                        3.45154e+002           4.51540e+001           5.15399e+000           1.53989e-001           5.39890e-002           3.98903e-003           9.89031e-004
                   64.80    345.15715                               10.69783             75.188                                        3.45157e+002           4.51571e+001           5.15715e+000           1.57149e-001           5.71493e-002           7.14932e-003           1.49323e-004
                   64.90    345.16407                               10.69783             75.188                                        3.45164e+002           4.51641e+001           5.16407e+000           1.64068e-001           6.40678e-002           4.06777e-003           6.77672e-005
                   65.00    345.16926                               10.69783             75.188                                        3.45169e+002           4.51693e+001           5.16926e+000           1.69264e-001           6.92639e-002           9.26394e-003           2.63938e-004
                   65.10    345.16847                               10.69783             75.188                                        3.45168e+002           4.51685e+001           5.16847e+000           1.68466e-001           6.84663e-002           8.46634e-003           4.66344e-004
                   65.20    345.16075                               10.69783             75.188                                        3.45161e+002           4.51607e+001           5.16075e+000           1.60750e-001           6.07500e-002           7.49967e-004           7.49967e-004
                   65.30    345.15848                               10.69783             75.188                                        3.45158e+002           4.51585e+001           5.15848e+000           1.58485e-001           5.84849e-002           8.48489e-003           4.84886e-004
                   65.40    345.15975                               10.69783             75.188                                        3.45160e+002           4.51598e+001           5.15975e+000           1.59753e-001           5.97529e-002           9.75293e-003           7.52931e-004
                   65.50    345.16371                               10.69783             75.188                                        3.45164e+002           4.51637e+001           5.16371e+000           1.63711e-001           6.37110e-002           3.71102e-003           7.11017e-004
                   65.60    345.16610                               10.69783             75.188                                        3.45166e+002           4.51661e+001           5.16610e+000           1.66099e-001           6.60986e-002           6.09857e-003           9.85734e-005
                   65.70    345.16187                               10.69783             75.188                                        3.45162e+002           4.51619e+001           5.16187e+000           1.61868e-001           6.18677e-002           1.86772e-003           8.67725e-004
                   65.80    345.15790                               10.69783             75.188                                        3.45158e+002           4.51579e+001           5.15790e+000           1.57904e-001           5.79037e-002           7.90374e-003           9.03740e-004
                   65.90    345.15790                               10.69783             75.188                                        3.45158e+002           4.51579e+001           5.15790e+000           1.57897e-001           5.78971e-002           7.89711e-003           8.97114e-004
                   66.00    345.16306                               10.69783             75.188                                        3.45163e+002           4.51631e+001           5.16306e+000           1.63060e-001           6.30602e-002           3.06024e-003           6.02370e-005
                   66.10    345.16435                               10.69783             75.188                                        3.45164e+002           4.51644e+001           5.16435e+000           1.64355e-001           6.43548e-002           4.35478e-003           3.54777e-004
                   66.20    345.15868                               10.69783             75.188                                        3.45159e+002           4.51587e+001           5.15868e+000           1.58685e-001           5.86849e-002           8.68489e-003           6.84886e-004
                   66.30    345.15917                               10.69783             75.188                                        3.45159e+002           4.51592e+001           5.15917e+000           1.59166e-001           5.91660e-002           9.16599e-003           1.65992e-004
                   66.40    345.16480                               10.69783             75.188                                        3.45165e+002           4.51648e+001           5.16480e+000           1.64804e-001           6.48036e-002           4.80360e-003           8.03599e-004
