~VERSION INFORMATION
VERS                    .            2.0                                    :CWLS LOG ASCII STANDARD
WRAP                    .            NO                                     :ONE LINE PER TIME STEP


~WELL INFORMATION
#MNEM                   .UNIT        DATA                                    DESCRIPTION
#________________________________________________________________________________________
STRTTIME                .HH/MM/SS    01:44:52                               :START TIME
STOPTIME                .HH/MM/SS    01:47:47                               :STOP TIME
STRT                    .s           2.10                                   :START DATA
STOP                    .s           173.40                                 :STOP DATA
STEP                    .s           0.10                                   :MEASUREMENT TIME INTERVAL
NULL                    .            -999.25                                :NULL VALUE
COMP                    .            Statoil ASA                            :COMPANY
FLD                     .            Volve                                  :FIELD
WELL                    .            15/9-F-1 C                             :WELL
RUN                     .            4                                      :RUN
LOC                     .                                                   :LOCATION
PROV                    .            na                                     :PROVINCE
SRVC                    .            Baker Hughes INTEQ                     :SERVICE COMPANY
DATE                    .YY/MM/DD    14/03/15                               :LOG DATE
UWI                     .                                                   :UNIQUE WELL ID
DEPTHMD                 .m           3620.2                                 :MEASURED DEPTH
DEPTHTVD                .m           3012.3                                 :TRUE VERTICAL DEPTH


~CURVE INFORMATION
#MNEM                   .UNIT        API CODES                               DESCRIPTION
#________________________________________________________________________________________
TIME                    .s                                                  :01 TIME
DD_PRESS                .bar                                                :02 DRAW DOWN PRESSURE
DD_VOLUME               .cm3                                                :03 INCREMENTAL DRAW DOWN VOLUME
TEMP                    .degC                                               :04 TRANSDUCER TEMPERATURE
DD_PRESS_MOD_1000       .bar                                                :05 DRAW DOWN PRESSURE MOD 1000
DD_PRESS_MOD_100        .bar                                                :06 DRAW DOWN PRESSURE MOD 100
DD_PRESS_MOD_10         .bar                                                :07 DRAW DOWN PRESSURE MOD 10
DD_PRESS_MOD_1          .bar                                                :08 DRAW DOWN PRESSURE MOD 1
DD_PRESS_MOD_01         .bar                                                :09 DRAW DOWN PRESSURE MOD 01
DD_PRESS_MOD_001        .bar                                                :10 DRAW DOWN PRESSURE MOD 001
DD_PRESS_MOD_0001       .bar                                                :11 DRAW DOWN PRESSURE MOD 0001


~PARAMETER INFORMATION
#MNEM                   .UNIT        VALUE                                   DESCRIPTION
#________________________________________________________________________________________
TOOLFACE                .deg         108.7                                  :01 TOOLFACE
PUMP_CAPACITY           .bar         400                                    :02 NOMINAL DRAW DOWN PUMP CAPACITY
PUMP_LIMIT              .bar         240                                    :03 DOWNLINK PUMP LIMIT
TIME_LIMIT              .min         10                                     :04 DOWNLINK MAX TIME
TEST_TYPE               .            REPEAT                                 :05 DOWNLINK
TEST_TYPE               .            HIGH MOBILITY                          :06 DOWNLINK
DD_PIST_A               .cm2         3.1416                                 :07 DRAW DOWN PISTON AREA
V_SYS                   .cm3         131.0000                               :08 SYSTEM VOLUME
PROBE_ID                .cm          1.2700                                 :09 TTK PROBE ID
G0                      .            4.6700                                 :10 GEOMETRY FACTOR


~A                  TIME     DD_PRESS                              DD_VOLUME               TEMP                                   DD_PRESS_MOD_1000       DD_PRESS_MOD_100        DD_PRESS_MOD_10         DD_PRESS_MOD_1        DD_PRESS_MOD_01       DD_PRESS_MOD_001      DD_PRESS_MOD_0001
# ...
                   91.70    344.35057                               19.80771             87.125                                        3.44351e+002           4.43506e+001           4.35057e+000           3.50568e-001           5.05678e-002           5.67802e-004           5.67802e-004
                   91.80    344.35326                               19.80771             87.125                                        3.44353e+002           4.43533e+001           4.35326e+000           3.53264e-001           5.32640e-002           3.26403e-003           2.64030e-004
                   91.90    344.35202                               19.80771             87.125                                        3.44352e+002           4.43520e+001           4.35202e+000           3.52024e-001           5.20237e-002           2.02371e-003           2.37055e-005
                   92.00    344.35025                               19.80771             87.125                                        3.44350e+002           4.43502e+001           4.35025e+000           3.50247e-001           5.02467e-002           2.46719e-004           2.46719e-004
                   92.10    344.35031                               19.80771             87.125                                        3.44350e+002           4.43503e+001           4.35031e+000           3.50307e-001           5.03068e-002           3.06807e-004           3.06807e-004
                   92.20    344.35183                               19.80771             87.125                                        3.44352e+002           4.43518e+001           4.35183e+000           3.51829e-001           5.18294e-002           1.82938e-003           8.29379e-004
                   92.30    344.35170                               19.80771             87.125                                        3.44352e+002           4.43517e+001           4.35170e+000           3.51703e-001           5.17026e-002           1.70264e-003           7.02644e-004
                   92.40    344.35170                               19.80771             87.125                                        3.44352e+002           4.43517e+001           4.35170e+000           3.51701e-001           5.17008e-002           1.70077e-003           7.00768e-004
                   92.50    344.35368                               19.80771             87.125                                        3.44354e+002           4.43537e+001           4.35368e+000           3.53682e-001           5.36815e-002           3.68151e-003           6.81508e-004
                   92.60    344.35457                               19.80771             87.125                                        3.44355e+002           4.43546e+001           4.35457e+000           3.54571e-001           5.45709e-002           4.57092e-003           5.70921e-004
                   92.70    344.35300                               19.80771             87.125                                        3.44353e+002           4.43530e+001           4.35300e+000           3.52997e-001           5.29966e-002           2.99658e-003           9.96581e-004
                   92.80    344.35073                               19.80771             87.125                                        3.44351e+002           4.43507e+001           4.35073e+000           3.50731e-001           5.07309e-002           7.30941e-004           7.30941e-004
                   92.90    344.35064                               19.80771             87.125                                        3.44351e+002           4.43506e+001           4.35064e+000           3.50642e-001           5.06415e-002           6.41539e-004           6.41539e-004
                   93.00    344.35330                               19.80771             87.125                                        3.44353e+002           4.43533e+001           4.35330e+000           3.53297e-001           5.32968e-002           3.29682e-003           2.96823e-004
                   93.10    344.35646                               19.80771             87.125                                        3.44356e+002           4.43565e+001           4.35646e+000           3.56464e-001           5.64639e-002           6.46390e-003           4.63898e-004
                   93.20    344.35789                               19.80771             87.125                                        3.44358e+002           4.43579e+001           4.35789e+000           3.57888e-001           5.78876e-002           7.88756e-003           8.87563e-004
                   93.30    344.35614                               19.80771             87.125                                        3.44356e+002           4.43561e+001           4.35614e+000           3.56142e-001           5.61424e-002           6.14244e-003           1.42444e-004
                   93.40    344.35164                               19.80771             87.125                                        3.44352e+002           4.43516e+001           4.35164e+000           3.51640e-001           5.16396e-002           1.63958e-003           6.39584e-004
                   93.50    344.34796                               19.80771             87.125                                        3.44348e+002           4.43480e+001           4.34796e+000           3.47957e-001           4.79574e-002           7.95739e-003           9.57386e-004
                   93.60    344.34874                               19.80771             87.125                                        3.44349e+002           4.43487e+001           4.34874e+000           3.48742e-001           4.87424e-002           8.74241e-003           7.42414e-004
                   93.70    344.35074                               19.80771             87.125                                        3.44351e+002           4.43507e+001           4.35074e+000           3.50741e-001           5.07406e-002           7.40590e-004           7.40590e-004
                   93.80    344.35127                               19.80771             87.125                                        3.44351e+002           4.43513e+001           4.35127e+000           3.51267e-001           5.12671e-002           1.26707e-003           2.67073e-004
                   93.90    344.34949                               19.80771             87.125                                        3.44349e+002           4.43495e+001           4.34949e+000           3.49490e-001           4.94895e-002           9.48954e-003           4.89543e-004
                   94.00    344.35079                               19.80771             87.125                                        3.44351e+002           4.43508e+001           4.35079e+000           3.50792e-001           5.07918e-002           7.91801e-004           7.91801e-004
                   94.10    344.35404                               19.80771             87.125                                        3.44354e+002           4.43540e+001           4.35404e+000           3.54039e-001           5.40391e-002           4.03906e-003           3.90623e-005
                   94.20    344.35580                               19.80771             87.125                                        3.44356e+002           4.43558e+001           4.35580e+000           3.55796e-001           5.57959e-002           5.79585e-003           7.95852e-004
                   94.30    344.35479                               19.80771             87.125                                        3.44355e+002           4.43548e+001           4.35479e+000           3.54794e-001           5.47943e-002           4.79431e-003           7.94315e-004
                   94.40    344.35248                               19.80771             87.125                                        3.44352e+002           4.43525e+001           4.35248e+000           3.52479e-001           5.24789e-002           2.47887e-003           4.78873e-004
