~VERSION INFORMATION
VERS                    .            2.0                                    :CWLS LOG ASCII STANDARD
WRAP                    .            NO                                     :ONE LINE PER TIME STEP


~WELL INFORMATION
#MNEM                   .UNIT        DATA                                    DESCRIPTION
#________________________________________________________________________________________
STRTTIME                .HH/MM/SS    23:13:04                               :START TIME
STOPTIME                .HH/MM/SS    23:16:31                               :STOP TIME
STRT                    .s           2.10                                   :START DATA
STOP                    .s           205.60                                 :STOP DATA
STEP                    .s           0.10                                   :MEASUREMENT TIME INTERVAL
NULL                    .            -999.25                                :NULL VALUE
COMP                    .            Statoil ASA                            :COMPANY
FLD                     .            Volve                                  :FIELD
WELL                    .            15/9-F-1 C                             :WELL
RUN                     .            4                                      :RUN
LOC                     .                                                   :LOCATION
PROV                    .            na                                     :PROVINCE
SRVC                    .            Baker Hughes INTEQ                     :SERVICE COMPANY
DATE                    .YY/MM/DD    14/03/14                               :LOG DATE
UWI                     .                                                   :UNIQUE WELL ID
DEPTHMD                 .m           3858.0                                 :MEASURED DEPTH
DEPTHTVD                .m           3096.5                                 :TRUE VERTICAL DEPTH


~CURVE INFORMATION
#MNEM                   .UNIT        API CODES                               DESCRIPTION
#________________________________________________________________________________________
TIME                    .s                                                  :01 TIME
DD_PRESS                .bar                                                :02 DRAW DOWN PRESSURE
DD_VOLUME               .cm3                                                :03 INCREMENTAL DRAW DOWN VOLUME
TEMP                    .degC                                               :04 TRANSDUCER TEMPERATURE
DD_PRESS_MOD_1000       .bar                                                :05 DRAW DOWN PRESSURE MOD 1000
DD_PRESS_MOD_100        .bar                                                :06 DRAW DOWN PRESSURE MOD 100
DD_PRESS_MOD_10         .bar                                                :07 DRAW DOWN PRESSURE MOD 10
DD_PRESS_MOD_1          .bar                                                :08 DRAW DOWN PRESSURE MOD 1
DD_PRESS_MOD_01         .bar                                                :09 DRAW DOWN PRESSURE MOD 01
DD_PRESS_MOD_001        .bar                                                :10 DRAW DOWN PRESSURE MOD 001
DD_PRESS_MOD_0001       .bar                                                :11 DRAW DOWN PRESSURE MOD 0001


~PARAMETER INFORMATION
#MNEM                   .UNIT        VALUE                                   DESCRIPTION
#________________________________________________________________________________________
TOOLFACE                .deg         88.6                                   :01 TOOLFACE
PUMP_CAPACITY           .bar         400                                    :02 NOMINAL DRAW DOWN PUMP CAPACITY
PUMP_LIMIT              .bar         240                                    :03 DOWNLINK PUMP LIMIT
TIME_LIMIT              .min         10                                     :04 DOWNLINK MAX TIME
TEST_TYPE               .            HIGH MOBILITY                          :05 DOWNLINK
DD_PIST_A               .cm2         3.1416                                 :06 DRAW DOWN PISTON AREA
V_SYS                   .cm3         131.0000                               :07 SYSTEM VOLUME
PROBE_ID                .cm          1.2700                                 :08 TTK PROBE ID
G0                      .            4.6700                                 :09 GEOMETRY FACTOR


~A                  TIME     DD_PRESS                              DD_VOLUME               TEMP                                   DD_PRESS_MOD_1000       DD_PRESS_MOD_100        DD_PRESS_MOD_10         DD_PRESS_MOD_1        DD_PRESS_MOD_01       DD_PRESS_MOD_001      DD_PRESS_MOD_0001
# ...
                  175.70    352.21778                               29.35196             89.977                                        3.52218e+002           5.22178e+001           2.21778e+000           2.17781e-001           1.77815e-002           7.78147e-003           7.81467e-004
                  175.80    352.21611                               29.35196             89.977                                        3.52216e+002           5.22161e+001           2.21611e+000           2.16107e-001           1.61068e-002           6.10678e-003           1.06782e-004
                  175.90    352.21011                               29.35196             89.977                                        3.52210e+002           5.22101e+001           2.21011e+000           2.10108e-001           1.01081e-002           1.08068e-004           1.08068e-004
                  176.00    352.20978                               29.35196             89.977                                        3.52210e+002           5.22098e+001           2.20978e+000           2.09783e-001           9.78275e-003           9.78275e-003           7.82749e-004
                  176.10    352.21282                               29.35196             89.977                                        3.52213e+002           5.22128e+001           2.21282e+000           2.12823e-001           1.28229e-002           2.82288e-003           8.22880e-004
                  176.20    352.21286                               29.35196             89.977                                        3.52213e+002           5.22129e+001           2.21286e+000           2.12856e-001           1.28559e-002           2.85590e-003           8.55900e-004
                  176.30    352.20986                               29.35196             89.977                                        3.52210e+002           5.22099e+001           2.20986e+000           2.09864e-001           9.86425e-003           9.86425e-003           8.64248e-004
                  176.40    352.21089                               29.35196             89.977                                        3.52211e+002           5.22109e+001           2.21089e+000           2.10887e-001           1.08873e-002           8.87281e-004           8.87281e-004
                  176.50    352.21236                               29.35196             89.977                                        3.52212e+002           5.22124e+001           2.21236e+000           2.12356e-001           1.23557e-002           2.35571e-003           3.55708e-004
                  176.60    352.21047                               29.35196             89.974                                        3.52210e+002           5.22105e+001           2.21047e+000           2.10469e-001           1.04692e-002           4.69154e-004           4.69154e-004
                  176.70    352.20922                               29.35196             89.971                                        3.52209e+002           5.22092e+001           2.20922e+000           2.09215e-001           9.21534e-003           9.21534e-003           2.15343e-004
                  176.80    352.20847                               29.35196             89.969                                        3.52208e+002           5.22085e+001           2.20847e+000           2.08467e-001           8.46658e-003           8.46658e-003           4.66578e-004
                  176.90    352.20928                               29.35196             89.969                                        3.52209e+002           5.22093e+001           2.20928e+000           2.09277e-001           9.27711e-003           9.27711e-003           2.77110e-004
                  177.00    352.21031                               29.35196             89.969                                        3.52210e+002           5.22103e+001           2.21031e+000           2.10314e-001           1.03138e-002           3.13787e-004           3.13787e-004
                  177.10    352.20930                               29.35196             89.969                                        3.52209e+002           5.22093e+001           2.20930e+000           2.09300e-001           9.30047e-003           9.30047e-003           3.00467e-004
                  177.20    352.20746                               29.35196             89.969                                        3.52207e+002           5.22075e+001           2.20746e+000           2.07458e-001           7.45827e-003           7.45827e-003           4.58267e-004
                  177.30    352.20775                               29.35196             89.969                                        3.52208e+002           5.22078e+001           2.20775e+000           2.07753e-001           7.75323e-003           7.75323e-003           7.53231e-004
                  177.40    352.20946                               29.35196             89.969                                        3.52209e+002           5.22095e+001           2.20946e+000           2.09464e-001           9.46446e-003           9.46446e-003           4.64456e-004
                  177.50    352.20968                               29.35196             89.969                                        3.52210e+002           5.22097e+001           2.20968e+000           2.09680e-001           9.68049e-003           9.68049e-003           6.80490e-004
                  177.60    352.20985                               29.35196             89.969                                        3.52210e+002           5.22099e+001           2.20985e+000           2.09855e-001           9.85473e-003           9.85473e-003           8.54729e-004
                  177.70    352.21011                               29.35196             89.969                                        3.52210e+002           5.22101e+001           2.21011e+000           2.10109e-001           1.01090e-002           1.09006e-004           1.09006e-004
                  177.80    352.20999                               29.35196             89.969                                        3.52210e+002           5.22100e+001           2.20999e+000           2.09985e-001           9.98535e-003           9.98535e-003           9.85353e-004
                  177.90    352.20975                               29.35196             89.969                                        3.52210e+002           5.22098e+001           2.20975e+000           2.09752e-001           9.75216e-003           9.75216e-003           7.52161e-004
                  178.00    352.20922                               29.35196             89.969                                        3.52209e+002           5.22092e+001           2.20922e+000           2.09221e-001           9.22110e-003           9.22110e-003           2.21103e-004
                  178.10    352.20929                               29.35196             89.969                                        3.52209e+002           5.22093e+001           2.20929e+000           2.09287e-001           9.28683e-003           9.28683e-003           2.86825e-004
                  178.20    352.21006                               29.35196             89.969                                        3.52210e+002           5.22101e+001           2.21006e+000           2.10056e-001           1.00556e-002           5.55652e-005           5.55652e-005
                  178.30    352.21011                               29.35196             89.969                                        3.52210e+002           5.22101e+001           2.21011e+000           2.10110e-001           1.01101e-002           1.10085e-004           1.10085e-004
                  178.40    352.20974                               29.35196             89.969                                        3.52210e+002           5.22097e+001           2.20974e+000           2.09737e-001           9.73721e-003           9.73721e-003           7.37206e-004
