~VERSION INFORMATION
VERS                    .            2.0                                    :CWLS LOG ASCII STANDARD
WRAP                    .            NO                                     :ONE LINE PER TIME STEP


~WELL INFORMATION
#MNEM                   .UNIT        DATA                                    DESCRIPTION
#________________________________________________________________________________________
STRTTIME                .HH/MM/SS    02:42:03                               :START TIME
STOPTIME                .HH/MM/SS    02:44:56                               :STOP TIME
STRT                    .s           2.10                                   :START DATA
STOP                    .s           171.40                                 :STOP DATA
STEP                    .s           0.10                                   :MEASUREMENT TIME INTERVAL
NULL                    .            -999.25                                :NULL VALUE
COMP                    .            Statoil ASA                            :COMPANY
FLD                     .            Volve                                  :FIELD
WELL                    .            15/9-F-1 C                             :WELL
RUN                     .            4                                      :RUN
LOC                     .                                                   :LOCATION
PROV                    .            na                                     :PROVINCE
SRVC                    .            Baker Hughes INTEQ                     :SERVICE COMPANY
DATE                    .YY/MM/DD    14/03/15                               :LOG DATE
UWI                     .                                                   :UNIQUE WELL ID
DEPTHMD                 .m           3551.1                                 :MEASURED DEPTH
DEPTHTVD                .m           2992.9                                 :TRUE VERTICAL DEPTH


~CURVE INFORMATION
#MNEM                   .UNIT        API CODES                               DESCRIPTION
#________________________________________________________________________________________
TIME                    .s                                                  :01 TIME
DD_PRESS                .bar                                                :02 DRAW DOWN PRESSURE
DD_VOLUME               .cm3                                                :03 INCREMENTAL DRAW DOWN VOLUME
TEMP                    .degC                                               :04 TRANSDUCER TEMPERATURE
DD_PRESS_MOD_1000       .bar                                                :05 DRAW DOWN PRESSURE MOD 1000
DD_PRESS_MOD_100        .bar                                                :06 DRAW DOWN PRESSURE MOD 100
DD_PRESS_MOD_10         .bar                                                :07 DRAW DOWN PRESSURE MOD 10
DD_PRESS_MOD_1          .bar                                                :08 DRAW DOWN PRESSURE MOD 1
DD_PRESS_MOD_01         .bar                                                :09 DRAW DOWN PRESSURE MOD 01
DD_PRESS_MOD_001        .bar                                                :10 DRAW DOWN PRESSURE MOD 001
DD_PRESS_MOD_0001       .bar                                                :11 DRAW DOWN PRESSURE MOD 0001


~PARAMETER INFORMATION
#MNEM                   .UNIT        VALUE                                   DESCRIPTION
#________________________________________________________________________________________
TOOLFACE                .deg         84.6                                   :01 TOOLFACE
PUMP_CAPACITY           .bar         400                                    :02 NOMINAL DRAW DOWN PUMP CAPACITY
PUMP_LIMIT              .bar         240                                    :03 DOWNLINK PUMP LIMIT
TIME_LIMIT              .min         10                                     :04 DOWNLINK MAX TIME
TEST_TYPE               .            REPEAT                                 :05 DOWNLINK
TEST_TYPE               .            HIGH MOBILITY                          :06 DOWNLINK
DD_PIST_A               .cm2         3.1416                                 :07 DRAW DOWN PISTON AREA
V_SYS                   .cm3         131.0000                               :08 SYSTEM VOLUME
PROBE_ID                .cm          1.2700                                 :09 TTK PROBE ID
G0                      .            4.6700                                 :10 GEOMETRY FACTOR


~A                  TIME     DD_PRESS                              DD_VOLUME               TEMP                                   DD_PRESS_MOD_1000       DD_PRESS_MOD_100        DD_PRESS_MOD_10         DD_PRESS_MOD_1        DD_PRESS_MOD_01       DD_PRESS_MOD_001      DD_PRESS_MOD_0001
# ...
                   69.30    341.51522                               10.74275             85.156                                        3.41515e+002           4.15152e+001           1.51522e+000           5.15222e-001           1.52220e-002           5.22200e-003           2.22002e-004
                   69.40    341.51969                               10.74275             85.156                                        3.41520e+002           4.15197e+001           1.51969e+000           5.19694e-001           1.96942e-002           9.69416e-003           6.94155e-004
                   69.50    341.51915                               10.74275             85.156                                        3.41519e+002           4.15191e+001           1.51915e+000           5.19146e-001           1.91457e-002           9.14571e-003           1.45705e-004
                   69.60    341.51373                               10.74275             85.156                                        3.41514e+002           4.15137e+001           1.51373e+000           5.13727e-001           1.37272e-002           3.72724e-003           7.27236e-004
                   69.70    341.51424                               10.74275             85.156                                        3.41514e+002           4.15142e+001           1.51424e+000           5.14236e-001           1.42363e-002           4.23633e-003           2.36331e-004
                   69.80    341.51915                               10.74275             85.156                                        3.41519e+002           4.15191e+001           1.51915e+000           5.19148e-001           1.91480e-002           9.14801e-003           1.48008e-004
                   69.90    341.52425                               10.74275             85.156                                        3.41524e+002           4.15242e+001           1.52425e+000           5.24249e-001           2.42489e-002           4.24890e-003           2.48900e-004
                   70.00    341.51803                               10.74275             85.156                                        3.41518e+002           4.15180e+001           1.51803e+000           5.18035e-001           1.80346e-002           8.03458e-003           3.45807e-005
                   70.10    341.50818                               10.74275             85.156                                        3.41508e+002           4.15082e+001           1.50818e+000           5.08179e-001           8.17877e-003           8.17877e-003           1.78770e-004
                   70.20    341.50674                               10.74275             85.156                                        3.41507e+002           4.15067e+001           1.50674e+000           5.06737e-001           6.73696e-003           6.73696e-003           7.36956e-004
                   70.30    341.50838                               10.74275             85.156                                        3.41508e+002           4.15084e+001           1.50838e+000           5.08384e-001           8.38422e-003           8.38422e-003           3.84224e-004
                   70.40    341.51220                               10.74275             85.156                                        3.41512e+002           4.15122e+001           1.51220e+000           5.12196e-001           1.21965e-002           2.19648e-003           1.96481e-004
                   70.50    341.51622                               10.74275             85.156                                        3.41516e+002           4.15162e+001           1.51622e+000           5.16217e-001           1.62169e-002           6.21686e-003           2.16862e-004
                   70.60    341.51657                               10.74275             85.156                                        3.41517e+002           4.15166e+001           1.51657e+000           5.16570e-001           1.65701e-002           6.57007e-003           5.70071e-004
                   70.70    341.51517                               10.74275             85.156                                        3.41515e+002           4.15152e+001           1.51517e+000           5.15174e-001           1.51738e-002           5.17383e-003           1.73832e-004
                   70.80    341.51491                               10.74275             85.156                                        3.41515e+002           4.15149e+001           1.51491e+000           5.14908e-001           1.49079e-002           4.90791e-003           9.07909e-004
                   70.90    341.51446                               10.74275             85.156                                        3.41514e+002           4.15145e+001           1.51446e+000           5.14463e-001           1.44630e-002           4.46304e-003           4.63043e-004
                   71.00    341.51466                               10.74275             85.156                                        3.41515e+002           4.15147e+001           1.51466e+000           5.14658e-001           1.46579e-002           4.65791e-003           6.57913e-004
                   71.10    341.51462                               10.74275             85.156                                        3.41515e+002           4.15146e+001           1.51462e+000           5.14617e-001           1.46171e-002           4.61712e-003           6.17125e-004
                   71.20    341.51143                               10.74275             85.156                                        3.41511e+002           4.15114e+001           1.51143e+000           5.11430e-001           1.14304e-002           1.43039e-003           4.30391e-004
                   71.30    341.50609                               10.74275             85.156                                        3.41506e+002           4.15061e+001           1.50609e+000           5.06086e-001           6.08564e-003           6.08564e-003           8.56363e-005
                   71.40    341.50965                               10.74275             85.156                                        3.41510e+002           4.15097e+001           1.50965e+000           5.09652e-001           9.65208e-003           9.65208e-003           6.52080e-004
                   71.50    341.51951                               10.74275             85.156                                        3.41520e+002           4.15195e+001           1.51951e+000           5.19510e-001           1.95097e-002           9.50969e-003           5.09689e-004
                   71.60    341.52240                               10.74275             85.156                                        3.41522e+002           4.15224e+001           1.52240e+000           5.22398e-001           2.23977e-002           2.39767e-003           3.97672e-004
                   71.70    341.51570                               10.74275             85.156                                        3.41516e+002           4.15157e+001           1.51570e+000           5.15697e-001           1.56970e-002           5.69701e-003           6.97007e-004
                   71.80    341.50899                               10.74275             85.156                                        3.41509e+002           4.15090e+001           1.50899e+000           5.08992e-001           8.99231e-003           8.99231e-003           9.92309e-004
                   71.90    341.51448                               10.74275             85.156                                        3.41514e+002           4.15145e+001           1.51448e+000           5.14477e-001           1.44770e-002           4.47700e-003           4.76996e-004
                   72.00    341.52151                               10.74275             85.156                                        3.41522e+002           4.15215e+001           1.52151e+000           5.21508e-001           2.15079e-002           1.50788e-003           5.07876e-004
