~VERSION INFORMATION
VERS                    .            2.0                                    :CWLS LOG ASCII STANDARD
WRAP                    .            NO                                     :ONE LINE PER TIME STEP


~WELL INFORMATION
#MNEM                   .UNIT        DATA                                    DESCRIPTION
#________________________________________________________________________________________
STRTTIME                .HH/MM/SS    02:14:19                               :START TIME
STOPTIME                .HH/MM/SS    02:17:23                               :STOP TIME
STRT                    .s           2.10                                   :START DATA
STOP                    .s           182.70                                 :STOP DATA
STEP                    .s           0.10                                   :MEASUREMENT TIME INTERVAL
NULL                    .            -999.25                                :NULL VALUE
COMP                    .            Statoil ASA                            :COMPANY
FLD                     .            Volve                                  :FIELD
WELL                    .            15/9-F-1 C                             :WELL
RUN                     .            4                                      :RUN
LOC                     .                                                   :LOCATION
PROV                    .            na                                     :PROVINCE
SRVC                    .            Baker Hughes INTEQ                     :SERVICE COMPANY
DATE                    .YY/MM/DD    14/03/15                               :LOG DATE
UWI                     .                                                   :UNIQUE WELL ID
DEPTHMD                 .m           3603.0                                 :MEASURED DEPTH
DEPTHTVD                .m           3006.7                                 :TRUE VERTICAL DEPTH


~CURVE INFORMATION
#MNEM                   .UNIT        API CODES                               DESCRIPTION
#________________________________________________________________________________________
TIME                    .s                                                  :01 TIME
DD_PRESS                .bar                                                :02 DRAW DOWN PRESSURE
DD_VOLUME               .cm3                                                :03 INCREMENTAL DRAW DOWN VOLUME
TEMP                    .degC                                               :04 TRANSDUCER TEMPERATURE
DD_PRESS_MOD_1000       .bar                                                :05 DRAW DOWN PRESSURE MOD 1000
DD_PRESS_MOD_100        .bar                                                :06 DRAW DOWN PRESSURE MOD 100
DD_PRESS_MOD_10         .bar                                                :07 DRAW DOWN PRESSURE MOD 10
DD_PRESS_MOD_1          .bar                                                :08 DRAW DOWN PRESSURE MOD 1
DD_PRESS_MOD_01         .bar                                                :09 DRAW DOWN PRESSURE MOD 01
DD_PRESS_MOD_001        .bar                                                :10 DRAW DOWN PRESSURE MOD 001
DD_PRESS_MOD_0001       .bar                                                :11 DRAW DOWN PRESSURE MOD 0001


~PARAMETER INFORMATION
#MNEM                   .UNIT        VALUE                                   DESCRIPTION
#________________________________________________________________________________________
TOOLFACE                .deg         109.6                                  :01 TOOLFACE
PUMP_CAPACITY           .bar         400                                    :02 NOMINAL DRAW DOWN PUMP CAPACITY
PUMP_LIMIT              .bar         240                                    :03 DOWNLINK PUMP LIMIT
TIME_LIMIT              .min         10                                     :04 DOWNLINK MAX TIME
TEST_TYPE               .            REPEAT                                 :05 DOWNLINK
TEST_TYPE               .            HIGH MOBILITY                          :06 DOWNLINK
DD_PIST_A               .cm2         3.1416                                 :07 DRAW DOWN PISTON AREA
V_SYS                   .cm3         131.0000                               :08 SYSTEM VOLUME
PROBE_ID                .cm          1.2700                                 :09 TTK PROBE ID
G0                      .            4.6700                                 :10 GEOMETRY FACTOR


~A                  TIME     DD_PRESS                              DD_VOLUME               TEMP                                   DD_PRESS_MOD_1000       DD_PRESS_MOD_100        DD_PRESS_MOD_10         DD_PRESS_MOD_1        DD_PRESS_MOD_01       DD_PRESS_MOD_001      DD_PRESS_MOD_0001
# ...
                  156.10    345.37683                               29.46609             86.023                                        3.45377e+002           4.53768e+001           5.37683e+000           3.76826e-001           7.68261e-002           6.82610e-003           8.26096e-004
                  156.20    345.37720                               29.46609             86.023                                        3.45377e+002           4.53772e+001           5.37720e+000           3.77205e-001           7.72047e-002           7.20472e-003           2.04724e-004
                  156.30    345.38237                               29.46609             86.023                                        3.45382e+002           4.53824e+001           5.38237e+000           3.82367e-001           8.23673e-002           2.36735e-003           3.67349e-004
                  156.40    345.38317                               29.46609             86.023                                        3.45383e+002           4.53832e+001           5.38317e+000           3.83166e-001           8.31660e-002           3.16595e-003           1.65954e-004
                  156.50    345.38075                               29.46609             86.023                                        3.45381e+002           4.53808e+001           5.38075e+000           3.80752e-001           8.07523e-002           7.52330e-004           7.52330e-004
                  156.60    345.38405                               29.46609             86.023                                        3.45384e+002           4.53841e+001           5.38405e+000           3.84051e-001           8.40509e-002           4.05087e-003           5.08703e-005
                  156.70    345.38867                               29.46609             86.023                                        3.45389e+002           4.53887e+001           5.38867e+000           3.88669e-001           8.86690e-002           8.66902e-003           6.69020e-004
                  156.80    345.38730                               29.46609             86.023                                        3.45387e+002           4.53873e+001           5.38730e+000           3.87303e-001           8.73034e-002           7.30344e-003           3.03436e-004
                  156.90    345.38180                               29.46609             86.023                                        3.45382e+002           4.53818e+001           5.38180e+000           3.81801e-001           8.18007e-002           1.80069e-003           8.00692e-004
                  157.00    345.38111                               29.46609             86.023                                        3.45381e+002           4.53811e+001           5.38111e+000           3.81114e-001           8.11136e-002           1.11363e-003           1.13627e-004
                  157.10    345.38254                               29.46609             86.023                                        3.45383e+002           4.53825e+001           5.38254e+000           3.82537e-001           8.25371e-002           2.53709e-003           5.37086e-004
                  157.20    345.32190                                0.00000             86.023                                        3.45322e+002           4.53219e+001           5.32190e+000           3.21897e-001           2.18967e-002           1.89673e-003           8.96728e-004
                  157.30    345.60410                                0.00000             86.023                                        3.45604e+002           4.56041e+001           5.60410e+000           6.04099e-001           4.09902e-003           4.09902e-003           9.90167e-005
                  157.40    347.37104                                0.00000             86.023                                        3.47371e+002           4.73710e+001           7.37104e+000           3.71038e-001           7.10382e-002           1.03821e-003           3.82093e-005
                  157.50    351.06593                                0.00000             86.023                                        3.51066e+002           5.10659e+001           1.06593e+000           6.59340e-002           6.59340e-002           5.93405e-003           9.34049e-004
                  157.60    355.99037                                0.00000             86.023                                        3.55990e+002           5.59904e+001           5.99037e+000           9.90371e-001           9.03709e-002           3.70908e-004           3.70908e-004
                  157.70    361.65671                                0.00000             86.023                                        3.61657e+002           6.16567e+001           1.65671e+000           6.56708e-001           5.67076e-002           6.70762e-003           7.07617e-004
                  157.80    367.43610                                0.00000             86.023                                        3.67436e+002           6.74361e+001           7.43610e+000           4.36102e-001           3.61024e-002           6.10236e-003           1.02364e-004
                  157.90    373.17298                                0.00000             86.023                                        3.73173e+002           7.31730e+001           3.17298e+000           1.72984e-001           7.29841e-002           2.98407e-003           9.84073e-004
                  158.00    378.82454                                0.00000             86.023                                        3.78825e+002           7.88245e+001           8.82454e+000           8.24538e-001           2.45385e-002           4.53846e-003           5.38459e-004
                  158.10    384.34954                                0.00000             86.023                                        3.84350e+002           8.43495e+001           4.34954e+000           3.49539e-001           4.95394e-002           9.53935e-003           5.39354e-004
                  158.20    389.72151                                0.00000             86.023                                        3.89722e+002           8.97215e+001           9.72151e+000           7.21509e-001           2.15086e-002           1.50860e-003           5.08597e-004
                  158.30    394.95322                                0.00000             86.021                                        3.94953e+002           9.49532e+001           4.95322e+000           9.53222e-001           5.32223e-002           3.22230e-003           2.22303e-004
                  158.40    400.07628                                0.00000             86.018                                        4.00076e+002           7.62840e-002           7.62840e-002           7.62840e-002           7.62840e-002           6.28400e-003           2.84003e-004
                  158.50    405.12375                                0.00000             86.016                                        4.05124e+002           5.12375e+000           5.12375e+000           1.23750e-001           2.37499e-002           3.74994e-003           7.49942e-004
                  158.60    411.39138                                0.00000             86.016                                        4.11391e+002           1.13914e+001           1.39138e+000           3.91380e-001           9.13796e-002           1.37961e-003           3.79608e-004
                  158.70    419.57703                                0.00000             86.018                                        4.19577e+002           1.95770e+001           9.57703e+000           5.77034e-001           7.70344e-002           7.03437e-003           3.43657e-005
                  158.80    425.37993                                0.00000             86.021                                        4.25380e+002           2.53799e+001           5.37993e+000           3.79929e-001           7.99288e-002           9.92877e-003           9.28773e-004
