~VERSION INFORMATION
VERS                    .            2.0                                    :CWLS LOG ASCII STANDARD
WRAP                    .            NO                                     :ONE LINE PER TIME STEP


~WELL INFORMATION
#MNEM                   .UNIT        DATA                                    DESCRIPTION
#________________________________________________________________________________________
STRTTIME                .HH/MM/SS    10:48:38                               :START TIME
STOPTIME                .HH/MM/SS    10:51:35                               :STOP TIME
STRT                    .s           2.10                                   :START DATA
STOP                    .s           175.10                                 :STOP DATA
STEP                    .s           0.10                                   :MEASUREMENT TIME INTERVAL
NULL                    .            -999.25                                :NULL VALUE
COMP                    .            Statoil ASA                            :COMPANY
FLD                     .            Volve                                  :FIELD
WELL                    .            15/9-F-11 A                            :WELL
RUN                     .            8                                      :RUN
LOC                     .            Maersk Inspirer                        :LOCATION
PROV                    .            na                                     :PROVINCE
SRVC                    .            Baker Hughes INTEQ                     :SERVICE COMPANY
DATE                    .YY/MM/DD    13/05/21                               :LOG DATE
UWI                     .                                                   :UNIQUE WELL ID
DEPTHMD                 .m           3635.2                                 :MEASURED DEPTH
DEPTHTVD                .m           3029.3                                 :TRUE VERTICAL DEPTH


~CURVE INFORMATION
#MNEM                   .UNIT        API CODES                               DESCRIPTION
#________________________________________________________________________________________
TIME                    .s                                                  :01 TIME
DD_PRESS                .bar                                                :02 DRAW DOWN PRESSURE
DD_VOLUME               .cm3                                                :03 INCREMENTAL DRAW DOWN VOLUME
TEMP                    .degC                                               :04 TRANSDUCER TEMPERATURE
DD_PRESS_MOD_1000       .bar                                                :05 DRAW DOWN PRESSURE MOD 1000
DD_PRESS_MOD_100        .bar                                                :06 DRAW DOWN PRESSURE MOD 100
DD_PRESS_MOD_10         .bar                                                :07 DRAW DOWN PRESSURE MOD 10
DD_PRESS_MOD_1          .bar                                                :08 DRAW DOWN PRESSURE MOD 1
DD_PRESS_MOD_01         .bar                                                :09 DRAW DOWN PRESSURE MOD 01
DD_PRESS_MOD_001        .bar                                                :10 DRAW DOWN PRESSURE MOD 001
DD_PRESS_MOD_0001       .bar                                                :11 DRAW DOWN PRESSURE MOD 0001


~PARAMETER INFORMATION
#MNEM                   .UNIT        VALUE                                   DESCRIPTION
#________________________________________________________________________________________
TOOLFACE                .deg         69.1                                   :01 TOOLFACE
PUMP_CAPACITY           .bar         400                                    :02 NOMINAL DRAW DOWN PUMP CAPACITY
PUMP_LIMIT              .bar         240                                    :03 DOWNLINK PUMP LIMIT
TIME_LIMIT              .min         10                                     :04 DOWNLINK MAX TIME
TEST_TYPE               .            REPEAT                                 :05 DOWNLINK
TEST_TYPE               .            HIGH MOBILITY                          :06 DOWNLINK
DD_PIST_A               .cm2         3.1416                                 :07 DRAW DOWN PISTON AREA
V_SYS                   .cm3         131.0000                               :08 SYSTEM VOLUME
PROBE_ID                .cm          1.2700                                 :09 TTK PROBE ID
G0                      .            4.6700                                 :10 GEOMETRY FACTOR


~A                  TIME     DD_PRESS                              DD_VOLUME               TEMP                                   DD_PRESS_MOD_1000       DD_PRESS_MOD_100        DD_PRESS_MOD_10         DD_PRESS_MOD_1        DD_PRESS_MOD_01       DD_PRESS_MOD_001      DD_PRESS_MOD_0001
# ...
                   80.50    327.51373                               12.32106             80.633                                        3.27514e+002           2.75137e+001           7.51373e+000           5.13731e-001           1.37313e-002           3.73127e-003           7.31275e-004
                   80.60    327.23708                               12.37988             80.633                                        3.27237e+002           2.72371e+001           7.23708e+000           2.37082e-001           3.70819e-002           7.08191e-003           8.19109e-005
                   80.70    326.98612                               12.43960             80.633                                        3.26986e+002           2.69861e+001           6.98612e+000           9.86123e-001           8.61229e-002           6.12289e-003           1.22887e-004
                   80.80    326.74107                               12.50066             80.633                                        3.26741e+002           2.67411e+001           6.74107e+000           7.41069e-001           4.10692e-002           1.06921e-003           6.92077e-005
                   80.90    326.49540                               12.56243             80.633                                        3.26495e+002           2.64954e+001           6.49540e+000           4.95403e-001           9.54026e-002           5.40258e-003           4.02576e-004
                   81.00    326.26024                               12.62470             80.633                                        3.26260e+002           2.62602e+001           6.26024e+000           2.60242e-001           6.02423e-002           2.42271e-004           2.42271e-004
                   81.10    326.02548                               12.68781             80.633                                        3.26025e+002           2.60255e+001           6.02548e+000           2.54846e-002           2.54846e-002           5.48460e-003           4.84602e-004
                   81.20    325.80522                               12.75181             80.633                                        3.25805e+002           2.58052e+001           5.80522e+000           8.05221e-001           5.22149e-003           5.22149e-003           2.21490e-004
                   81.30    325.59150                               12.81668             80.633                                        3.25592e+002           2.55915e+001           5.59150e+000           5.91501e-001           9.15007e-002           1.50074e-003           5.00739e-004
                   81.40    325.36934                               12.88241             80.633                                        3.25369e+002           2.53693e+001           5.36934e+000           3.69338e-001           6.93385e-002           9.33847e-003           3.38475e-004
                   81.50    325.15938                               12.94846             80.633                                        3.25159e+002           2.51594e+001           5.15938e+000           1.59377e-001           5.93772e-002           9.37717e-003           3.77171e-004
                   81.60    324.96766                               13.01483             80.633                                        3.24968e+002           2.49677e+001           4.96766e+000           9.67658e-001           6.76582e-002           7.65824e-003           6.58242e-004
                   81.70    324.78721                               13.08196             80.633                                        3.24787e+002           2.47872e+001           4.78721e+000           7.87215e-001           8.72149e-002           7.21493e-003           2.14934e-004
                   81.80    324.61412                               13.14990             80.633                                        3.24614e+002           2.46141e+001           4.61412e+000           6.14122e-001           1.41218e-002           4.12184e-003           1.21840e-004
                   81.90    324.44688                               13.21845             80.633                                        3.24447e+002           2.44469e+001           4.44688e+000           4.46876e-001           4.68759e-002           6.87590e-003           8.75901e-004
                   82.00    324.28306                               13.28730             80.633                                        3.24283e+002           2.42831e+001           4.28306e+000           2.83057e-001           8.30568e-002           3.05677e-003           5.67674e-005
                   82.10    324.11911                               13.35665             80.633                                        3.24119e+002           2.41191e+001           4.11911e+000           1.19111e-001           1.91110e-002           9.11103e-003           1.11034e-004
                   82.20    323.97167                               13.42655             80.633                                        3.23972e+002           2.39717e+001           3.97167e+000           9.71665e-001           7.16653e-002           1.66530e-003           6.65301e-004
                   82.30    323.83207                               13.49687             80.633                                        3.23832e+002           2.38321e+001           3.83207e+000           8.32075e-001           3.20747e-002           2.07475e-003           7.47469e-005
                   82.40    323.70720                               13.56773             80.633                                        3.23707e+002           2.37072e+001           3.70720e+000           7.07198e-001           7.19784e-003           7.19784e-003           1.97844e-004
                   82.50    323.60094                               13.63891             80.633                                        3.23601e+002           2.36009e+001           3.60094e+000           6.00942e-001           9.41672e-004           9.41672e-004           9.41672e-004
                   82.60    323.49581                               13.71053             80.633                                        3.23496e+002           2.34958e+001           3.49581e+000           4.95812e-001           9.58118e-002           5.81180e-003           8.11798e-004
                   82.70    323.39668                               13.78255             80.633                                        3.23397e+002           2.33967e+001           3.39668e+000           3.96676e-001           9.66762e-002           6.67624e-003           6.76235e-004
                   82.80    323.30821                               13.85490             80.633                                        3.23308e+002           2.33082e+001           3.30821e+000           3.08208e-001           8.20832e-003           8.20832e-003           2.08321e-004
                   82.90    323.21692                               13.92752             80.633                                        3.23217e+002           2.32169e+001           3.21692e+000           2.16925e-001           1.69248e-002           6.92477e-003           9.24769e-004
                   83.00    323.12692                               14.00031             80.633                                        3.23127e+002           2.31269e+001           3.12692e+000           1.26920e-001           2.69200e-002           6.91998e-003           9.19983e-004
                   83.10    323.06706                               14.07315             80.633                                        3.23067e+002           2.30671e+001           3.06706e+000           6.70642e-002           6.70642e-002           7.06415e-003           6.41507e-005
                   83.20    323.02394                               14.14628             80.633                                        3.23024e+002           2.30239e+001           3.02394e+000           2.39395e-002           2.39395e-002           3.93949e-003           9.39486e-004
