~VERSION INFORMATION
VERS                    .            2.0                                    :CWLS LOG ASCII STANDARD
WRAP                    .            NO                                     :ONE LINE PER TIME STEP


~WELL INFORMATION
#MNEM                   .UNIT        DATA                                    DESCRIPTION
#________________________________________________________________________________________
STRTTIME                .HH/MM/SS    19:37:02                               :START TIME
STOPTIME                .HH/MM/SS    19:40:38                               :STOP TIME
STRT                    .s           2.10                                   :START DATA
STOP                    .s           214.10                                 :STOP DATA
STEP                    .s           0.10                                   :MEASUREMENT TIME INTERVAL
NULL                    .            -999.25                                :NULL VALUE
COMP                    .            Statoil ASA                            :COMPANY
FLD                     .            Volve                                  :FIELD
WELL                    .            15/9-F-11 A                            :WELL
RUN                     .            8                                      :RUN
LOC                     .            Maersk Inspirer                        :LOCATION
PROV                    .            na                                     :PROVINCE
SRVC                    .            Baker Hughes INTEQ                     :SERVICE COMPANY
DATE                    .YY/MM/DD    13/05/23                               :LOG DATE
UWI                     .                                                   :UNIQUE WELL ID
DEPTHMD                 .m           3607.9                                 :MEASURED DEPTH
DEPTHTVD                .m           3008.4                                 :TRUE VERTICAL DEPTH


~CURVE INFORMATION
#MNEM                   .UNIT        API CODES                               DESCRIPTION
#________________________________________________________________________________________
TIME                    .s                                                  :01 TIME
DD_PRESS                .bar                                                :02 DRAW DOWN PRESSURE
DD_VOLUME               .cm3                                                :03 INCREMENTAL DRAW DOWN VOLUME
TEMP                    .degC                                               :04 TRANSDUCER TEMPERATURE
DD_PRESS_MOD_1000       .bar                                                :05 DRAW DOWN PRESSURE MOD 1000
DD_PRESS_MOD_100        .bar                                                :06 DRAW DOWN PRESSURE MOD 100
DD_PRESS_MOD_10         .bar                                                :07 DRAW DOWN PRESSURE MOD 10
DD_PRESS_MOD_1          .bar                                                :08 DRAW DOWN PRESSURE MOD 1
DD_PRESS_MOD_01         .bar                                                :09 DRAW DOWN PRESSURE MOD 01
DD_PRESS_MOD_001        .bar                                                :10 DRAW DOWN PRESSURE MOD 001
DD_PRESS_MOD_0001       .bar                                                :11 DRAW DOWN PRESSURE MOD 0001


~PARAMETER INFORMATION
#MNEM                   .UNIT        VALUE                                   DESCRIPTION
#________________________________________________________________________________________
TOOLFACE                .deg         -38.9                                  :01 TOOLFACE
PUMP_CAPACITY           .bar         400                                    :02 NOMINAL DRAW DOWN PUMP CAPACITY
PUMP_LIMIT              .bar         240                                    :03 DOWNLINK PUMP LIMIT
TIME_LIMIT              .min         10                                     :04 DOWNLINK MAX TIME
TEST_TYPE               .            REPEAT                                 :05 DOWNLINK
TEST_TYPE               .            HIGH MOBILITY                          :06 DOWNLINK
DD_PIST_A               .cm2         3.1416                                 :07 DRAW DOWN PISTON AREA
V_SYS                   .cm3         131.0000                               :08 SYSTEM VOLUME
PROBE_ID                .cm          1.2700                                 :09 TTK PROBE ID
G0                      .            4.6700                                 :10 GEOMETRY FACTOR


~A                  TIME     DD_PRESS                              DD_VOLUME               TEMP                                   DD_PRESS_MOD_1000       DD_PRESS_MOD_100        DD_PRESS_MOD_10         DD_PRESS_MOD_1        DD_PRESS_MOD_01       DD_PRESS_MOD_001      DD_PRESS_MOD_0001
# ...
                   58.10    340.35016                               10.63955             71.227                                        3.40350e+002           4.03502e+001           3.50156e-001           3.50156e-001           5.01561e-002           1.56052e-004           1.56052e-004
                   58.20    340.34708                               10.63955             71.227                                        3.40347e+002           4.03471e+001           3.47080e-001           3.47080e-001           4.70801e-002           7.08015e-003           8.01477e-005
                   58.30    340.34821                               10.63955             71.227                                        3.40348e+002           4.03482e+001           3.48206e-001           3.48206e-001           4.82056e-002           8.20563e-003           2.05633e-004
                   58.40    340.34760                               10.63955             71.227                                        3.40348e+002           4.03476e+001           3.47600e-001           3.47600e-001           4.75996e-002           7.59963e-003           5.99630e-004
                   58.50    340.35115                               10.63955             71.227                                        3.40351e+002           4.03511e+001           3.51146e-001           3.51146e-001           5.11464e-002           1.14643e-003           1.46429e-004
                   58.60    340.35133                               10.63955             71.227                                        3.40351e+002           4.03513e+001           3.51326e-001           3.51326e-001           5.13257e-002           1.32572e-003           3.25721e-004
                   58.70    340.34569                               10.63955             71.227                                        3.40346e+002           4.03457e+001           3.45693e-001           3.45693e-001           4.56926e-002           5.69261e-003           6.92605e-004
                   58.80    340.33898                               10.63955             71.227                                        3.40339e+002           4.03390e+001           3.38982e-001           3.38982e-001           3.89818e-002           8.98183e-003           9.81834e-004
                   58.90    340.34390                               10.63955             71.227                                        3.40344e+002           4.03439e+001           3.43895e-001           3.43895e-001           4.38953e-002           3.89528e-003           8.95282e-004
                   59.00    340.35346                               10.63955             71.227                                        3.40353e+002           4.03535e+001           3.53458e-001           3.53458e-001           5.34577e-002           3.45766e-003           4.57663e-004
                   59.10    340.35051                               10.63955             71.227                                        3.40351e+002           4.03505e+001           3.50510e-001           3.50510e-001           5.05096e-002           5.09629e-004           5.09629e-004
                   59.20    340.34762                               10.63955             71.227                                        3.40348e+002           4.03476e+001           3.47625e-001           3.47625e-001           4.76248e-002           7.62478e-003           6.24778e-004
                   59.30    340.36013                               10.63955             71.227                                        3.40360e+002           4.03601e+001           3.60127e-001           3.60127e-001           6.01273e-002           1.27252e-004           1.27252e-004
                   59.40    340.36111                               10.63955             71.227                                        3.40361e+002           4.03611e+001           3.61106e-001           3.61106e-001           6.11064e-002           1.10636e-003           1.06365e-004
                   59.50    340.34959                               10.63955             71.227                                        3.40350e+002           4.03496e+001           3.49589e-001           3.49589e-001           4.95893e-002           9.58928e-003           5.89282e-004
                   59.60    340.34296                               10.63955             71.227                                        3.40343e+002           4.03430e+001           3.42962e-001           3.42962e-001           4.29620e-002           2.96196e-003           9.61960e-004
                   59.70    340.35101                               10.63955             71.227                                        3.40351e+002           4.03510e+001           3.51008e-001           3.51008e-001           5.10078e-002           1.00781e-003           7.81432e-006
                   59.80    340.35766                               10.63955             71.227                                        3.40358e+002           4.03577e+001           3.57658e-001           3.57658e-001           5.76576e-002           7.65759e-003           6.57592e-004
                   59.90    340.34925                               10.63955             71.227                                        3.40349e+002           4.03492e+001           3.49250e-001           3.49250e-001           4.92496e-002           9.24965e-003           2.49648e-004
                   60.00    340.33832                               10.63955             71.227                                        3.40338e+002           4.03383e+001           3.38318e-001           3.38318e-001           3.83180e-002           8.31798e-003           3.17979e-004
                   60.10    340.35370                               10.63955             71.227                                        3.40354e+002           4.03537e+001           3.53699e-001           3.53699e-001           5.36990e-002           3.69903e-003           6.99029e-004
                   60.20    340.37446                               10.63955             71.227                                        3.40374e+002           4.03745e+001           3.74460e-001           3.74460e-001           7.44603e-002           4.46032e-003           4.60325e-004
                   60.30    340.36333                               10.63955             71.227                                        3.40363e+002           4.03633e+001           3.63328e-001           3.63328e-001           6.33280e-002           3.32801e-003           3.28014e-004
                   60.40    340.34526                               10.63955             71.227                                        3.40345e+002           4.03453e+001           3.45259e-001           3.45259e-001           4.52590e-002           5.25897e-003           2.58967e-004
                   60.50    340.35381                               10.63955             71.227                                        3.40354e+002           4.03538e+001           3.53811e-001           3.53811e-001           5.38107e-002           3.81075e-003           8.10748e-004
                   60.60    340.35766                               10.63955             71.227                                        3.40358e+002           4.03577e+001           3.57662e-001           3.57662e-001           5.76622e-002           7.66219e-003           6.62190e-004
                   60.70    340.34353                               10.63955             71.227                                        3.40344e+002           4.03435e+001           3.43533e-001           3.43533e-001           4.35335e-002           3.53347e-003           5.33466e-004
                   60.80    340.34198                               10.63955             71.227                                        3.40342e+002           4.03420e+001           3.41981e-001           3.41981e-001           4.19814e-002           1.98137e-003           9.81367e-004
