~VERSION INFORMATION
VERS                    .            2.0                                    :CWLS LOG ASCII STANDARD
WRAP                    .            NO                                     :ONE LINE PER TIME STEP


~WELL INFORMATION
#MNEM                   .UNIT        DATA                                    DESCRIPTION
#________________________________________________________________________________________
STRTTIME                .HH/MM/SS    10:22:55                               :START TIME
STOPTIME                .HH/MM/SS    10:26:06                               :STOP TIME
STRT                    .s           2.10                                   :START DATA
STOP                    .s           189.80                                 :STOP DATA
STEP                    .s           0.10                                   :MEASUREMENT TIME INTERVAL
NULL                    .            -999.25                                :NULL VALUE
COMP                    .            Statoil ASA                            :COMPANY
FLD                     .            Volve                                  :FIELD
WELL                    .            15/9-F-11 A                            :WELL
RUN                     .            8                                      :RUN
LOC                     .            Maersk Inspirer                        :LOCATION
PROV                    .            na                                     :PROVINCE
SRVC                    .            Baker Hughes INTEQ                     :SERVICE COMPANY
DATE                    .YY/MM/DD    13/05/21                               :LOG DATE
UWI                     .                                                   :UNIQUE WELL ID
DEPTHMD                 .m           3651.0                                 :MEASURED DEPTH
DEPTHTVD                .m           3041.4                                 :TRUE VERTICAL DEPTH


~CURVE INFORMATION
#MNEM                   .UNIT        API CODES                               DESCRIPTION
#________________________________________________________________________________________
TIME                    .s                                                  :01 TIME
DD_PRESS                .bar                                                :02 DRAW DOWN PRESSURE
DD_VOLUME               .cm3                                                :03 INCREMENTAL DRAW DOWN VOLUME
TEMP                    .degC                                               :04 TRANSDUCER TEMPERATURE
DD_PRESS_MOD_1000       .bar                                                :05 DRAW DOWN PRESSURE MOD 1000
DD_PRESS_MOD_100        .bar                                                :06 DRAW DOWN PRESSURE MOD 100
DD_PRESS_MOD_10         .bar                                                :07 DRAW DOWN PRESSURE MOD 10
DD_PRESS_MOD_1          .bar                                                :08 DRAW DOWN PRESSURE MOD 1
DD_PRESS_MOD_01         .bar                                                :09 DRAW DOWN PRESSURE MOD 01
DD_PRESS_MOD_001        .bar                                                :10 DRAW DOWN PRESSURE MOD 001
DD_PRESS_MOD_0001       .bar                                                :11 DRAW DOWN PRESSURE MOD 0001


~PARAMETER INFORMATION
#MNEM                   .UNIT        VALUE                                   DESCRIPTION
#________________________________________________________________________________________
TOOLFACE                .deg         61.5                                   :01 TOOLFACE
PUMP_CAPACITY           .bar         400                                    :02 NOMINAL DRAW DOWN PUMP CAPACITY
PUMP_LIMIT              .bar         240                                    :03 DOWNLINK PUMP LIMIT
TIME_LIMIT              .min         10                                     :04 DOWNLINK MAX TIME
TEST_TYPE               .            REPEAT                                 :05 DOWNLINK
TEST_TYPE               .            HIGH MOBILITY                          :06 DOWNLINK
DD_PIST_A               .cm2         3.1416                                 :07 DRAW DOWN PISTON AREA
V_SYS                   .cm3         131.0000                               :08 SYSTEM VOLUME
PROBE_ID                .cm          1.2700                                 :09 TTK PROBE ID
G0                      .            4.6700                                 :10 GEOMETRY FACTOR


~A                  TIME     DD_PRESS                              DD_VOLUME               TEMP                                   DD_PRESS_MOD_1000       DD_PRESS_MOD_100        DD_PRESS_MOD_10         DD_PRESS_MOD_1        DD_PRESS_MOD_01       DD_PRESS_MOD_001      DD_PRESS_MOD_0001
# ...
                  161.70    343.78257                               29.42966             81.094                                        3.43783e+002           4.37826e+001           3.78257e+000           7.82573e-001           8.25725e-002           2.57251e-003           5.72514e-004
                  161.80    343.78263                               29.42966             81.094                                        3.43783e+002           4.37826e+001           3.78263e+000           7.82625e-001           8.26253e-002           2.62532e-003           6.25323e-004
                  161.90    343.78401                               29.42966             81.094                                        3.43784e+002           4.37840e+001           3.78401e+000           7.84005e-001           8.40054e-002           4.00544e-003           5.44187e-006
                  162.00    343.78531                               29.42966             81.094                                        3.43785e+002           4.37853e+001           3.78531e+000           7.85313e-001           8.53127e-002           5.31268e-003           3.12682e-004
                  162.10    343.78428                               29.42966             81.094                                        3.43784e+002           4.37843e+001           3.78428e+000           7.84277e-001           8.42766e-002           4.27658e-003           2.76585e-004
                  162.20    343.78292                               29.42966             81.094                                        3.43783e+002           4.37829e+001           3.78292e+000           7.82917e-001           8.29175e-002           2.91747e-003           9.17471e-004
                  162.30    343.78258                               29.42966             81.094                                        3.43783e+002           4.37826e+001           3.78258e+000           7.82575e-001           8.25753e-002           2.57528e-003           5.75276e-004
                  162.40    343.78258                               29.42966             81.094                                        3.43783e+002           4.37826e+001           3.78258e+000           7.82576e-001           8.25762e-002           2.57617e-003           5.76172e-004
                  162.50    343.78281                               29.42966             81.094                                        3.43783e+002           4.37828e+001           3.78281e+000           7.82809e-001           8.28094e-002           2.80941e-003           8.09412e-004
                  162.60    343.78287                               29.42966             81.094                                        3.43783e+002           4.37829e+001           3.78287e+000           7.82869e-001           8.28692e-002           2.86916e-003           8.69156e-004
                  162.70    343.78271                               29.42966             81.094                                        3.43783e+002           4.37827e+001           3.78271e+000           7.82712e-001           8.27116e-002           2.71162e-003           7.11621e-004
                  162.80    343.78258                               29.42966             81.094                                        3.43783e+002           4.37826e+001           3.78258e+000           7.82576e-001           8.25762e-002           2.57624e-003           5.76237e-004
                  162.90    343.78257                               29.42966             81.094                                        3.43783e+002           4.37826e+001           3.78257e+000           7.82575e-001           8.25748e-002           2.57481e-003           5.74811e-004
                  163.00    343.78253                               29.42966             81.094                                        3.43783e+002           4.37825e+001           3.78253e+000           7.82533e-001           8.25334e-002           2.53339e-003           5.33389e-004
                  163.10    343.78251                               29.42966             81.094                                        3.43783e+002           4.37825e+001           3.78251e+000           7.82506e-001           8.25056e-002           2.50564e-003           5.05639e-004
                  163.20    343.78254                               29.42966             81.094                                        3.43783e+002           4.37825e+001           3.78254e+000           7.82540e-001           8.25400e-002           2.53997e-003           5.39972e-004
                  163.30    343.78279                               29.42966             81.094                                        3.43783e+002           4.37828e+001           3.78279e+000           7.82788e-001           8.27880e-002           2.78802e-003           7.88023e-004
                  163.40    343.78293                               29.42966             81.094                                        3.43783e+002           4.37829e+001           3.78293e+000           7.82928e-001           8.29285e-002           2.92846e-003           9.28459e-004
                  163.50    343.78280                               29.42966             81.094                                        3.43783e+002           4.37828e+001           3.78280e+000           7.82804e-001           8.28040e-002           2.80400e-003           8.03996e-004
                  163.60    343.78256                               29.42966             81.094                                        3.43783e+002           4.37826e+001           3.78256e+000           7.82557e-001           8.25569e-002           2.55690e-003           5.56897e-004
                  163.70    343.78256                               29.42966             81.094                                        3.43783e+002           4.37826e+001           3.78256e+000           7.82557e-001           8.25572e-002           2.55716e-003           5.57160e-004
                  163.80    343.78255                               29.42966             81.094                                        3.43783e+002           4.37826e+001           3.78255e+000           7.82554e-001           8.25539e-002           2.55389e-003           5.53894e-004
                  163.90    343.78255                               29.42966             81.094                                        3.43783e+002           4.37826e+001           3.78255e+000           7.82550e-001           8.25500e-002           2.55003e-003           5.50034e-004
                  164.00    343.78253                               29.42966             81.094                                        3.43783e+002           4.37825e+001           3.78253e+000           7.82526e-001           8.25256e-002           2.52561e-003           5.25609e-004
                  164.10    343.78255                               29.42966             81.094                                        3.43783e+002           4.37825e+001           3.78255e+000           7.82546e-001           8.25459e-002           2.54590e-003           5.45902e-004
                  164.20    343.78257                               29.42966             81.094                                        3.43783e+002           4.37826e+001           3.78257e+000           7.82573e-001           8.25725e-002           2.57251e-003           5.72514e-004
                  164.30    343.78169                                0.00000             81.094                                        3.43782e+002           4.37817e+001           3.78169e+000           7.81691e-001           8.16915e-002           1.69148e-003           6.91480e-004
                  164.40    343.79844                                0.00000             81.094                                        3.43798e+002           4.37984e+001           3.79844e+000           7.98438e-001           9.84375e-002           8.43752e-003           4.37518e-004
