~VERSION INFORMATION
VERS                    .            2.0                                    :CWLS LOG ASCII STANDARD
WRAP                    .            NO                                     :ONE LINE PER TIME STEP


~WELL INFORMATION
#MNEM                   .UNIT        DATA                                    DESCRIPTION
#________________________________________________________________________________________
STRTTIME                .HH/MM/SS    15:44:09                               :START TIME
STOPTIME                .HH/MM/SS    15:46:59                               :STOP TIME
STRT                    .s           2.10                                   :START DATA
STOP                    .s           168.10                                 :STOP DATA
STEP                    .s           0.10                                   :MEASUREMENT TIME INTERVAL
NULL                    .            -999.25                                :NULL VALUE
COMP                    .            Statoil ASA                            :COMPANY
FLD                     .            Volve                                  :FIELD
WELL                    .            15/9-F-1 B                             :WELL
RUN                     .            7                                      :RUN
LOC                     .            Maersk Inspirer                        :LOCATION
PROV                    .            na                                     :PROVINCE
SRVC                    .            Baker Hughes INTEQ                     :SERVICE COMPANY
DATE                    .YY/MM/DD    13/09/06                               :LOG DATE
UWI                     .                                                   :UNIQUE WELL ID
DEPTHMD                 .m           3266.5                                 :MEASURED DEPTH
DEPTHTVD                .m           3062.4                                 :TRUE VERTICAL DEPTH


~CURVE INFORMATION
#MNEM                   .UNIT        API CODES                               DESCRIPTION
#________________________________________________________________________________________
TIME                    .s                                                  :01 TIME
DD_PRESS                .bar                                                :02 DRAW DOWN PRESSURE
DD_VOLUME               .cm3                                                :03 INCREMENTAL DRAW DOWN VOLUME
TEMP                    .degC                                               :04 TRANSDUCER TEMPERATURE
DD_PRESS_MOD_1000       .bar                                                :05 DRAW DOWN PRESSURE MOD 1000
DD_PRESS_MOD_100        .bar                                                :06 DRAW DOWN PRESSURE MOD 100
DD_PRESS_MOD_10         .bar                                                :07 DRAW DOWN PRESSURE MOD 10
DD_PRESS_MOD_1          .bar                                                :08 DRAW DOWN PRESSURE MOD 1
DD_PRESS_MOD_01         .bar                                                :09 DRAW DOWN PRESSURE MOD 01
DD_PRESS_MOD_001        .bar                                                :10 DRAW DOWN PRESSURE MOD 001
DD_PRESS_MOD_0001       .bar                                                :11 DRAW DOWN PRESSURE MOD 0001


~PARAMETER INFORMATION
#MNEM                   .UNIT        VALUE                                   DESCRIPTION
#________________________________________________________________________________________
TOOLFACE                .deg         na                                     :01 TOOLFACE
PUMP_CAPACITY           .bar         400                                    :02 NOMINAL DRAW DOWN PUMP CAPACITY
PUMP_LIMIT              .bar         400                                    :03 DOWNLINK PUMP LIMIT
TIME_LIMIT              .min         10                                     :04 DOWNLINK MAX TIME
TEST_TYPE               .            LOW MOBILITY                           :05 DOWNLINK
DD_PIST_A               .cm2         3.1416                                 :06 DRAW DOWN PISTON AREA
V_SYS                   .cm3         131.0000                               :07 SYSTEM VOLUME
PROBE_ID                .cm          1.2700                                 :08 TTK PROBE ID
G0                      .            4.6700                                 :09 GEOMETRY FACTOR


~A                  TIME     DD_PRESS                              DD_VOLUME               TEMP                                   DD_PRESS_MOD_1000       DD_PRESS_MOD_100        DD_PRESS_MOD_10         DD_PRESS_MOD_1        DD_PRESS_MOD_01       DD_PRESS_MOD_001      DD_PRESS_MOD_0001
# ...
                   35.70    345.06105                                6.70376             82.555                                        3.45061e+002           4.50610e+001           5.06105e+000           6.10469e-002           6.10469e-002           1.04688e-003           4.68786e-005
                   35.80    345.05016                                6.80252             82.555                                        3.45050e+002           4.50502e+001           5.05016e+000           5.01556e-002           5.01556e-002           1.55570e-004           1.55570e-004
                   35.90    345.04137                                6.90095             82.555                                        3.45041e+002           4.50414e+001           5.04137e+000           4.13702e-002           4.13702e-002           1.37019e-003           3.70192e-004
                   36.00    345.04155                                6.99907             82.552                                        3.45042e+002           4.50416e+001           5.04155e+000           4.15508e-002           4.15508e-002           1.55078e-003           5.50784e-004
                   36.10    345.04104                                7.09676             82.549                                        3.45041e+002           4.50410e+001           5.04104e+000           4.10395e-002           4.10395e-002           1.03953e-003           3.95290e-005
                   36.20    345.02600                                7.19401             82.547                                        3.45026e+002           4.50260e+001           5.02600e+000           2.60014e-002           2.60014e-002           6.00136e-003           1.36043e-006
                   36.30    345.01663                                7.29110             82.547                                        3.45017e+002           4.50166e+001           5.01663e+000           1.66333e-002           1.66333e-002           6.63329e-003           6.33289e-004
                   36.40    345.03585                                7.38776             82.547                                        3.45036e+002           4.50359e+001           5.03585e+000           3.58539e-002           3.58539e-002           5.85393e-003           8.53929e-004
                   36.50    345.07001                                7.48379             82.547                                        3.45070e+002           4.50700e+001           5.07001e+000           7.00147e-002           7.00147e-002           1.46889e-005           1.46889e-005
                   36.60    345.07178                                7.57922             82.547                                        3.45072e+002           4.50718e+001           5.07178e+000           7.17759e-002           7.17759e-002           1.77594e-003           7.75941e-004
                   36.70    345.05974                                7.67402             82.547                                        3.45060e+002           4.50597e+001           5.05974e+000           5.97362e-002           5.97362e-002           9.73621e-003           7.36214e-004
                   36.80    345.06353                                7.76818             82.547                                        3.45064e+002           4.50635e+001           5.06353e+000           6.35284e-002           6.35284e-002           3.52845e-003           5.28446e-004
                   36.90    345.07657                                7.86174             82.547                                        3.45077e+002           4.50766e+001           5.07657e+000           7.65694e-002           7.65694e-002           6.56936e-003           5.69361e-004
                   37.00    345.08764                                7.95455             82.547                                        3.45088e+002           4.50876e+001           5.08764e+000           8.76357e-002           8.76357e-002           7.63569e-003           6.35695e-004
                   37.10    345.08988                                8.04660             82.547                                        3.45090e+002           4.50899e+001           5.08988e+000           8.98776e-002           8.98776e-002           9.87758e-003           8.77582e-004
                   37.20    345.08175                                8.13786             82.547                                        3.45082e+002           4.50817e+001           5.08175e+000           8.17459e-002           8.17459e-002           1.74585e-003           7.45852e-004
                   37.30    345.07596                                8.22828             82.547                                        3.45076e+002           4.50760e+001           5.07596e+000           7.59630e-002           7.59630e-002           5.96301e-003           9.63007e-004
                   37.40    345.07689                                8.31789             82.547                                        3.45077e+002           4.50769e+001           5.07689e+000           7.68937e-002           7.68937e-002           6.89374e-003           8.93744e-004
                   37.50    345.08476                                8.40667             82.547                                        3.45085e+002           4.50848e+001           5.08476e+000           8.47632e-002           8.47632e-002           4.76320e-003           7.63197e-004
                   37.60    345.10994                                8.49445             82.547                                        3.45110e+002           4.51099e+001           5.10994e+000           1.09938e-001           9.93804e-003           9.93804e-003           9.38041e-004
                   37.70    345.13858                                8.58126             82.547                                        3.45139e+002           4.51386e+001           5.13858e+000           1.38576e-001           3.85758e-002           8.57582e-003           5.75820e-004
                   37.80    345.16691                                8.66713             82.547                                        3.45167e+002           4.51669e+001           5.16691e+000           1.66910e-001           6.69100e-002           6.91003e-003           9.10026e-004
                   37.90    345.20213                                8.75202             82.547                                        3.45202e+002           4.52021e+001           5.20213e+000           2.02127e-001           2.12726e-003           2.12726e-003           1.27259e-004
                   38.00    345.23913                                8.83567             82.547                                        3.45239e+002           4.52391e+001           5.23913e+000           2.39126e-001           3.91260e-002           9.12604e-003           1.26045e-004
                   38.10    345.26916                                8.91832             82.547                                        3.45269e+002           4.52692e+001           5.26916e+000           2.69162e-001           6.91620e-002           9.16196e-003           1.61964e-004
                   38.20    345.29802                                8.99981             82.547                                        3.45298e+002           4.52980e+001           5.29802e+000           2.98023e-001           9.80229e-002           8.02288e-003           2.28840e-005
                   38.30    345.32093                                9.08016             82.547                                        3.45321e+002           4.53209e+001           5.32093e+000           3.20934e-001           2.09336e-002           9.33583e-004           9.33583e-004
                   38.40    345.34488                                9.15934             82.547                                        3.45345e+002           4.53449e+001           5.34488e+000           3.44878e-001           4.48781e-002           4.87806e-003           8.78057e-004
