~VERSION INFORMATION
VERS                    .            2.0                                    :CWLS LOG ASCII STANDARD
WRAP                    .            NO                                     :ONE LINE PER TIME STEP


~WELL INFORMATION
#MNEM                   .UNIT        DATA                                    DESCRIPTION
#________________________________________________________________________________________
STRTTIME                .HH/MM/SS    11:44:47                               :START TIME
STOPTIME                .HH/MM/SS    11:47:33                               :STOP TIME
STRT                    .s           2.10                                   :START DATA
STOP                    .s           164.50                                 :STOP DATA
STEP                    .s           0.10                                   :MEASUREMENT TIME INTERVAL
NULL                    .            -999.25                                :NULL VALUE
COMP                    .            Statoil ASA                            :COMPANY
FLD                     .            Volve                                  :FIELD
WELL                    .            15/9-F-11 A                            :WELL
RUN                     .            8                                      :RUN
LOC                     .            Maersk Inspirer                        :LOCATION
PROV                    .            na                                     :PROVINCE
SRVC                    .            Baker Hughes INTEQ                     :SERVICE COMPANY
DATE                    .YY/MM/DD    13/05/21                               :LOG DATE
UWI                     .                                                   :UNIQUE WELL ID
DEPTHMD                 .m           3624.0                                 :MEASURED DEPTH
DEPTHTVD                .m           3020.7                                 :TRUE VERTICAL DEPTH


~CURVE INFORMATION
#MNEM                   .UNIT        API CODES                               DESCRIPTION
#________________________________________________________________________________________
TIME                    .s                                                  :01 TIME
DD_PRESS                .bar                                                :02 DRAW DOWN PRESSURE
DD_VOLUME               .cm3                                                :03 INCREMENTAL DRAW DOWN VOLUME
TEMP                    .degC                                               :04 TRANSDUCER TEMPERATURE
DD_PRESS_MOD_1000       .bar                                                :05 DRAW DOWN PRESSURE MOD 1000
DD_PRESS_MOD_100        .bar                                                :06 DRAW DOWN PRESSURE MOD 100
DD_PRESS_MOD_10         .bar                                                :07 DRAW DOWN PRESSURE MOD 10
DD_PRESS_MOD_1          .bar                                                :08 DRAW DOWN PRESSURE MOD 1
DD_PRESS_MOD_01         .bar                                                :09 DRAW DOWN PRESSURE MOD 01
DD_PRESS_MOD_001        .bar                                                :10 DRAW DOWN PRESSURE MOD 001
DD_PRESS_MOD_0001       .bar                                                :11 DRAW DOWN PRESSURE MOD 0001


~PARAMETER INFORMATION
#MNEM                   .UNIT        VALUE                                   DESCRIPTION
#________________________________________________________________________________________
TOOLFACE                .deg         61.7                                   :01 TOOLFACE
PUMP_CAPACITY           .bar         400                                    :02 NOMINAL DRAW DOWN PUMP CAPACITY
PUMP_LIMIT              .bar         240                                    :03 DOWNLINK PUMP LIMIT
TIME_LIMIT              .min         10                                     :04 DOWNLINK MAX TIME
TEST_TYPE               .            REPEAT                                 :05 DOWNLINK
TEST_TYPE               .            HIGH MOBILITY                          :06 DOWNLINK
DD_PIST_A               .cm2         3.1416                                 :07 DRAW DOWN PISTON AREA
V_SYS                   .cm3         131.0000                               :08 SYSTEM VOLUME
PROBE_ID                .cm          1.2700                                 :09 TTK PROBE ID
G0                      .            4.6700                                 :10 GEOMETRY FACTOR


~A                  TIME     DD_PRESS                              DD_VOLUME               TEMP                                   DD_PRESS_MOD_1000       DD_PRESS_MOD_100        DD_PRESS_MOD_10         DD_PRESS_MOD_1        DD_PRESS_MOD_01       DD_PRESS_MOD_001      DD_PRESS_MOD_0001
# ...
                   77.70    342.11674                               10.66840             81.445                                        3.42117e+002           4.21167e+001           2.11674e+000           1.16744e-001           1.67444e-002           6.74443e-003           7.44430e-004
                   77.80    342.10687                               10.67799             81.445                                        3.42107e+002           4.21069e+001           2.10687e+000           1.06868e-001           6.86820e-003           6.86820e-003           8.68199e-004
                   77.90    342.09262                               10.69099             81.445                                        3.42093e+002           4.20926e+001           2.09262e+000           9.26209e-002           9.26209e-002           2.62087e-003           6.20867e-004
                   78.00    342.07791                               10.70774             81.445                                        3.42078e+002           4.20779e+001           2.07791e+000           7.79078e-002           7.79078e-002           7.90779e-003           9.07792e-004
                   78.10    342.06230                               10.72856             81.445                                        3.42062e+002           4.20623e+001           2.06230e+000           6.22960e-002           6.22960e-002           2.29604e-003           2.96041e-004
                   78.20    342.04309                               10.75435             81.445                                        3.42043e+002           4.20431e+001           2.04309e+000           4.30863e-002           4.30863e-002           3.08627e-003           8.62685e-005
                   78.30    342.02036                               10.78603             81.445                                        3.42020e+002           4.20204e+001           2.02036e+000           2.03602e-002           2.03602e-002           3.60240e-004           3.60240e-004
                   78.40    341.99528                               10.82383             81.445                                        3.41995e+002           4.19953e+001           1.99528e+000           9.95282e-001           9.52821e-002           5.28206e-003           2.82061e-004
                   78.50    341.96727                               10.86819             81.445                                        3.41967e+002           4.19673e+001           1.96727e+000           9.67266e-001           6.72660e-002           7.26597e-003           2.65971e-004
                   78.60    341.93623                               10.92005             81.445                                        3.41936e+002           4.19362e+001           1.93623e+000           9.36229e-001           3.62292e-002           6.22923e-003           2.29231e-004
                   78.70    341.90213                               10.98033             81.445                                        3.41902e+002           4.19021e+001           1.90213e+000           9.02130e-001           2.12954e-003           2.12954e-003           1.29541e-004
                   78.80    341.86323                               11.04957             81.445                                        3.41863e+002           4.18632e+001           1.86323e+000           8.63229e-001           6.32286e-002           3.22858e-003           2.28579e-004
                   78.90    341.82100                               11.12824             81.445                                        3.41821e+002           4.18210e+001           1.82100e+000           8.20996e-001           2.09961e-002           9.96061e-004           9.96061e-004
                   79.00    341.77582                               11.21710             81.445                                        3.41776e+002           4.17758e+001           1.77582e+000           7.75825e-001           7.58248e-002           5.82476e-003           8.24757e-004
                   79.10    341.72529                               11.31721             81.445                                        3.41725e+002           4.17253e+001           1.72529e+000           7.25295e-001           2.52948e-002           5.29481e-003           2.94805e-004
                   79.20    341.67020                               11.42938             81.445                                        3.41670e+002           4.16702e+001           1.67020e+000           6.70199e-001           7.01995e-002           1.99497e-004           1.99497e-004
                   79.30    341.61295                               11.55449             81.445                                        3.41613e+002           4.16130e+001           1.61295e+000           6.12952e-001           1.29517e-002           2.95166e-003           9.51665e-004
                   79.40    341.55264                               11.69338             81.445                                        3.41553e+002           4.15526e+001           1.55264e+000           5.52635e-001           5.26353e-002           2.63526e-003           6.35262e-004
                   79.50    341.48921                               11.84651             81.445                                        3.41489e+002           4.14892e+001           1.48921e+000           4.89210e-001           8.92103e-002           9.21025e-003           2.10254e-004
                   79.60    341.42109                               12.01435             81.445                                        3.41421e+002           4.14211e+001           1.42109e+000           4.21085e-001           2.10853e-002           1.08533e-003           8.53299e-005
                   79.70    341.34997                               12.19776             81.445                                        3.41350e+002           4.13500e+001           1.34997e+000           3.49965e-001           4.99654e-002           9.96544e-003           9.65438e-004
                   79.80    341.28312                               12.39824             81.445                                        3.41283e+002           4.12831e+001           1.28312e+000           2.83115e-001           8.31154e-002           3.11539e-003           1.15394e-004
                   79.90    341.21282                               12.61706             81.445                                        3.41213e+002           4.12128e+001           1.21282e+000           2.12825e-001           1.28250e-002           2.82495e-003           8.24954e-004
                   80.00    341.13112                               12.85452             81.445                                        3.41131e+002           4.11311e+001           1.13112e+000           1.31117e-001           3.11168e-002           1.11684e-003           1.16843e-004
                   80.10    341.03981                               13.11123             81.445                                        3.41040e+002           4.10398e+001           1.03981e+000           3.98148e-002           3.98148e-002           9.81484e-003           8.14839e-004
                   80.20    340.95925                               13.38722             81.445                                        3.40959e+002           4.09592e+001           9.59248e-001           9.59248e-001           5.92479e-002           9.24791e-003           2.47914e-004
                   80.30    340.92136                               13.67685             81.445                                        3.40921e+002           4.09214e+001           9.21362e-001           9.21362e-001           2.13622e-002           1.36225e-003           3.62246e-004
                   80.40    340.92036                               13.97149             81.445                                        3.40920e+002           4.09204e+001           9.20359e-001           9.20359e-001           2.03593e-002           3.59337e-004           3.59337e-004
