~VERSION INFORMATION
VERS                    .            2.0                                    :CWLS LOG ASCII STANDARD
WRAP                    .            NO                                     :ONE LINE PER TIME STEP


~WELL INFORMATION
#MNEM                   .UNIT        DATA                                    DESCRIPTION
#________________________________________________________________________________________
STRTTIME                .HH/MM/SS    03:28:02                               :START TIME
STOPTIME                .HH/MM/SS    03:30:44                               :STOP TIME
STRT                    .s           2.10                                   :START DATA
STOP                    .s           160.80                                 :STOP DATA
STEP                    .s           0.10                                   :MEASUREMENT TIME INTERVAL
NULL                    .            -999.25                                :NULL VALUE
COMP                    .            Statoil ASA                            :COMPANY
FLD                     .            Volve                                  :FIELD
WELL                    .            15/9-F-1 C                             :WELL
RUN                     .            4                                      :RUN
LOC                     .                                                   :LOCATION
PROV                    .            na                                     :PROVINCE
SRVC                    .            Baker Hughes INTEQ                     :SERVICE COMPANY
DATE                    .YY/MM/DD    14/03/15                               :LOG DATE
UWI                     .                                                   :UNIQUE WELL ID
DEPTHMD                 .m           3493.0                                 :MEASURED DEPTH
DEPTHTVD                .m           2980.2                                 :TRUE VERTICAL DEPTH


~CURVE INFORMATION
#MNEM                   .UNIT        API CODES                               DESCRIPTION
#________________________________________________________________________________________
TIME                    .s                                                  :01 TIME
DD_PRESS                .bar                                                :02 DRAW DOWN PRESSURE
DD_VOLUME               .cm3                                                :03 INCREMENTAL DRAW DOWN VOLUME
TEMP                    .degC                                               :04 TRANSDUCER TEMPERATURE
DD_PRESS_MOD_1000       .bar                                                :05 DRAW DOWN PRESSURE MOD 1000
DD_PRESS_MOD_100        .bar                                                :06 DRAW DOWN PRESSURE MOD 100
DD_PRESS_MOD_10         .bar                                                :07 DRAW DOWN PRESSURE MOD 10
DD_PRESS_MOD_1          .bar                                                :08 DRAW DOWN PRESSURE MOD 1
DD_PRESS_MOD_01         .bar                                                :09 DRAW DOWN PRESSURE MOD 01
DD_PRESS_MOD_001        .bar                                                :10 DRAW DOWN PRESSURE MOD 001
DD_PRESS_MOD_0001       .bar                                                :11 DRAW DOWN PRESSURE MOD 0001


~PARAMETER INFORMATION
#MNEM                   .UNIT        VALUE                                   DESCRIPTION
#________________________________________________________________________________________
TOOLFACE                .deg         89.6                                   :01 TOOLFACE
PUMP_CAPACITY           .bar         400                                    :02 NOMINAL DRAW DOWN PUMP CAPACITY
PUMP_LIMIT              .bar         240                                    :03 DOWNLINK PUMP LIMIT
TIME_LIMIT              .min         10                                     :04 DOWNLINK MAX TIME
TEST_TYPE               .            REPEAT                                 :05 DOWNLINK
TEST_TYPE               .            HIGH MOBILITY                          :06 DOWNLINK
DD_PIST_A               .cm2         3.1416                                 :07 DRAW DOWN PISTON AREA
V_SYS                   .cm3         131.0000                               :08 SYSTEM VOLUME
PROBE_ID                .cm          1.2700                                 :09 TTK PROBE ID
G0                      .            4.6700                                 :10 GEOMETRY FACTOR


~A                  TIME     DD_PRESS                              DD_VOLUME               TEMP                                   DD_PRESS_MOD_1000       DD_PRESS_MOD_100        DD_PRESS_MOD_10         DD_PRESS_MOD_1        DD_PRESS_MOD_01       DD_PRESS_MOD_001      DD_PRESS_MOD_0001
# ...
                   74.90    340.42980                               10.77295             83.727                                        3.40430e+002           4.04298e+001           4.29805e-001           4.29805e-001           2.98046e-002           9.80458e-003           8.04580e-004
                   75.00    340.41824                               10.77707             83.727                                        3.40418e+002           4.04182e+001           4.18236e-001           4.18236e-001           1.82365e-002           8.23648e-003           2.36483e-004
                   75.10    340.40006                               10.78299             83.727                                        3.40400e+002           4.04001e+001           4.00058e-001           4.00058e-001           5.80195e-005           5.80195e-005           5.80195e-005
                   75.20    340.37322                               10.79117             83.727                                        3.40373e+002           4.03732e+001           3.73215e-001           3.73215e-001           7.32154e-002           3.21541e-003           2.15415e-004
                   75.30    340.34092                               10.80193             83.727                                        3.40341e+002           4.03409e+001           3.40917e-001           3.40917e-001           4.09171e-002           9.17089e-004           9.17089e-004
                   75.40    340.31127                               10.81553             83.727                                        3.40311e+002           4.03113e+001           3.11271e-001           3.11271e-001           1.12713e-002           1.27126e-003           2.71255e-004
                   75.50    340.28396                               10.83242             83.727                                        3.40284e+002           4.02840e+001           2.83957e-001           2.83957e-001           8.39569e-002           3.95687e-003           9.56869e-004
                   75.60    340.24593                               10.85313             83.727                                        3.40246e+002           4.02459e+001           2.45932e-001           2.45932e-001           4.59324e-002           5.93236e-003           9.32359e-004
                   75.70    340.19965                               10.87830             83.727                                        3.40200e+002           4.01996e+001           1.99649e-001           1.99649e-001           9.96489e-002           9.64892e-003           6.48921e-004
                   75.80    340.15001                               10.90850             83.727                                        3.40150e+002           4.01500e+001           1.50009e-001           1.50009e-001           5.00086e-002           8.56817e-006           8.56817e-006
                   75.90    340.09935                               10.94409             83.727                                        3.40099e+002           4.00994e+001           9.93544e-002           9.93544e-002           9.93544e-002           9.35437e-003           3.54366e-004
                   76.00    340.04589                               10.98543             83.727                                        3.40046e+002           4.00459e+001           4.58927e-002           4.58927e-002           4.58927e-002           5.89266e-003           8.92656e-004
                   76.10    339.98446                               11.03333             83.727                                        3.39984e+002           3.99845e+001           9.98446e+000           9.84458e-001           8.44584e-002           4.45836e-003           4.58359e-004
                   76.20    339.92141                               11.08862             83.727                                        3.39921e+002           3.99214e+001           9.92141e+000           9.21414e-001           2.14143e-002           1.41432e-003           4.14316e-004
                   76.30    339.85713                               11.15174             83.727                                        3.39857e+002           3.98571e+001           9.85713e+000           8.57128e-001           5.71280e-002           7.12798e-003           1.27981e-004
                   76.40    339.78543                               11.22298             83.727                                        3.39785e+002           3.97854e+001           9.78543e+000           7.85432e-001           8.54323e-002           5.43231e-003           4.32314e-004
                   76.50    339.70642                               11.30301             83.727                                        3.39706e+002           3.97064e+001           9.70642e+000           7.06417e-001           6.41697e-003           6.41697e-003           4.16969e-004
                   76.60    339.62701                               11.39269             83.727                                        3.39627e+002           3.96270e+001           9.62701e+000           6.27009e-001           2.70093e-002           7.00927e-003           9.26833e-006
                   76.70    339.54605                               11.49245             83.727                                        3.39546e+002           3.95460e+001           9.54605e+000           5.46049e-001           4.60487e-002           6.04875e-003           4.87500e-005
                   76.80    339.46018                               11.60282             83.727                                        3.39460e+002           3.94602e+001           9.46018e+000           4.60183e-001           6.01835e-002           1.83467e-004           1.83467e-004
                   76.90    339.36879                               11.72469             83.727                                        3.39369e+002           3.93688e+001           9.36879e+000           3.68790e-001           6.87902e-002           8.79019e-003           7.90192e-004
                   77.00    339.27277                               11.85910             83.727                                        3.39273e+002           3.92728e+001           9.27277e+000           2.72770e-001           7.27698e-002           2.76978e-003           7.69784e-004
                   77.10    339.17779                               12.00690             83.727                                        3.39178e+002           3.91778e+001           9.17779e+000           1.77786e-001           7.77861e-002           7.78608e-003           7.86077e-004
                   77.20    339.08262                               12.16858             83.727                                        3.39083e+002           3.90826e+001           9.08262e+000           8.26247e-002           8.26247e-002           2.62475e-003           6.24747e-004
                   77.30    338.98452                               12.34480             83.727                                        3.38985e+002           3.89845e+001           8.98452e+000           9.84522e-001           8.45218e-002           4.52181e-003           5.21814e-004
                   77.40    338.87830                               12.53665             83.727                                        3.38878e+002           3.88783e+001           8.87830e+000           8.78304e-001           7.83044e-002           8.30444e-003           3.04437e-004
                   77.50    338.76963                               12.74503             83.727                                        3.38770e+002           3.87696e+001           8.76963e+000           7.69634e-001           6.96337e-002           9.63368e-003           6.33683e-004
                   77.60    338.65857                               12.97022             83.727                                        3.38659e+002           3.86586e+001           8.65857e+000           6.58573e-001           5.85731e-002           8.57310e-003           5.73101e-004
