~VERSION INFORMATION
VERS                    .            2.0                                    :CWLS LOG ASCII STANDARD
WRAP                    .            NO                                     :ONE LINE PER TIME STEP


~WELL INFORMATION
#MNEM                   .UNIT        DATA                                    DESCRIPTION
#________________________________________________________________________________________
STRTTIME                .HH/MM/SS    22:05:32                               :START TIME
STOPTIME                .HH/MM/SS    22:09:32                               :STOP TIME
STRT                    .s           2.10                                   :START DATA
STOP                    .s           238.90                                 :STOP DATA
STEP                    .s           0.10                                   :MEASUREMENT TIME INTERVAL
NULL                    .            -999.25                                :NULL VALUE
COMP                    .            Statoil                                :COMPANY
FLD                     .            Volve                                  :FIELD
WELL                    .            15/9-F-11 T2                           :WELL
RUN                     .            7                                      :RUN
LOC                     .            Maersk Inspirer                        :LOCATION
PROV                    .            na                                     :PROVINCE
SRVC                    .            Baker Hughes INTEQ                     :SERVICE COMPANY
DATE                    .YY/MM/DD    13/05/04                               :LOG DATE
UWI                     .                                                   :UNIQUE WELL ID
DEPTHMD                 .m           4490.1                                 :MEASURED DEPTH
DEPTHTVD                .m           3328.5                                 :TRUE VERTICAL DEPTH


~CURVE INFORMATION
#MNEM                   .UNIT        API CODES                               DESCRIPTION
#________________________________________________________________________________________
TIME                    .s                                                  :01 TIME
DD_PRESS                .bar                                                :02 DRAW DOWN PRESSURE
DD_VOLUME               .cm3                                                :03 INCREMENTAL DRAW DOWN VOLUME
TEMP                    .degC                                               :04 TRANSDUCER TEMPERATURE
DD_PRESS_MOD_1000       .bar                                                :05 DRAW DOWN PRESSURE MOD 1000
DD_PRESS_MOD_100        .bar                                                :06 DRAW DOWN PRESSURE MOD 100
DD_PRESS_MOD_10         .bar                                                :07 DRAW DOWN PRESSURE MOD 10
DD_PRESS_MOD_1          .bar                                                :08 DRAW DOWN PRESSURE MOD 1
DD_PRESS_MOD_01         .bar                                                :09 DRAW DOWN PRESSURE MOD 01
DD_PRESS_MOD_001        .bar                                                :10 DRAW DOWN PRESSURE MOD 001
DD_PRESS_MOD_0001       .bar                                                :11 DRAW DOWN PRESSURE MOD 0001


~PARAMETER INFORMATION
#MNEM                   .UNIT        VALUE                                   DESCRIPTION
#________________________________________________________________________________________
TOOLFACE                .deg         na                                     :01 TOOLFACE
PUMP_CAPACITY           .bar         400                                    :02 NOMINAL DRAW DOWN PUMP CAPACITY
PUMP_LIMIT              .bar         240                                    :03 DOWNLINK PUMP LIMIT
TIME_LIMIT              .min         10                                     :04 DOWNLINK MAX TIME
TEST_TYPE               .            HIGH MOBILITY                          :05 DOWNLINK
DD_PIST_A               .cm2         3.1416                                 :06 DRAW DOWN PISTON AREA
V_SYS                   .cm3         131.0000                               :07 SYSTEM VOLUME
PROBE_ID                .cm          1.2700                                 :08 TTK PROBE ID
G0                      .            4.6700                                 :09 GEOMETRY FACTOR


~A                  TIME     DD_PRESS                              DD_VOLUME               TEMP                                   DD_PRESS_MOD_1000       DD_PRESS_MOD_100        DD_PRESS_MOD_10         DD_PRESS_MOD_1        DD_PRESS_MOD_01       DD_PRESS_MOD_001      DD_PRESS_MOD_0001
# ...
                  158.90    367.44043                               17.96449             97.242                                        3.67440e+002           6.74404e+001           7.44043e+000           4.40430e-001           4.04298e-002           4.29810e-004           4.29810e-004
                  159.00    367.44810                               17.96449             97.242                                        3.67448e+002           6.74481e+001           7.44810e+000           4.48101e-001           4.81008e-002           8.10084e-003           1.00837e-004
                  159.10    367.48183                               17.96449             97.242                                        3.67482e+002           6.74818e+001           7.48183e+000           4.81829e-001           8.18289e-002           1.82888e-003           8.28885e-004
                  159.20    367.50486                               17.96449             97.242                                        3.67505e+002           6.75049e+001           7.50486e+000           5.04862e-001           4.86203e-003           4.86203e-003           8.62035e-004
                  159.30    367.51632                               17.96449             97.242                                        3.67516e+002           6.75163e+001           7.51632e+000           5.16317e-001           1.63169e-002           6.31690e-003           3.16901e-004
                  159.40    367.51666                               17.96449             97.242                                        3.67517e+002           6.75167e+001           7.51666e+000           5.16655e-001           1.66552e-002           6.65520e-003           6.55201e-004
                  159.50    367.51296                               17.96449             97.242                                        3.67513e+002           6.75130e+001           7.51296e+000           5.12959e-001           1.29588e-002           2.95881e-003           9.58808e-004
                  159.60    367.52361                               17.96449             97.242                                        3.67524e+002           6.75236e+001           7.52361e+000           5.23608e-001           2.36082e-002           3.60824e-003           6.08239e-004
                  159.70    367.51164                               17.96449             97.242                                        3.67512e+002           6.75116e+001           7.51164e+000           5.11637e-001           1.16371e-002           1.63707e-003           6.37074e-004
                  159.80    367.47917                               17.96449             97.242                                        3.67479e+002           6.74792e+001           7.47917e+000           4.79174e-001           7.91736e-002           9.17360e-003           1.73598e-004
                  159.90    367.47740                               17.96449             97.242                                        3.67477e+002           6.74774e+001           7.47740e+000           4.77404e-001           7.74037e-002           7.40374e-003           4.03739e-004
                  160.00    367.48830                               17.96449             97.242                                        3.67488e+002           6.74883e+001           7.48830e+000           4.88299e-001           8.82987e-002           8.29869e-003           2.98694e-004
                  160.10    367.48840                               17.96449             97.242                                        3.67488e+002           6.74884e+001           7.48840e+000           4.88396e-001           8.83962e-002           8.39621e-003           3.96215e-004
                  160.20    367.48748                               17.96449             97.242                                        3.67487e+002           6.74875e+001           7.48748e+000           4.87484e-001           8.74842e-002           7.48415e-003           4.84153e-004
                  160.30    367.47891                               17.96449             97.242                                        3.67479e+002           6.74789e+001           7.47891e+000           4.78909e-001           7.89092e-002           8.90916e-003           9.09158e-004
                  160.40    367.45501                               17.96449             97.242                                        3.67455e+002           6.74550e+001           7.45501e+000           4.55006e-001           5.50060e-002           5.00603e-003           6.02876e-006
                  160.50    367.44996                               17.96449             97.242                                        3.67450e+002           6.74500e+001           7.44996e+000           4.49955e-001           4.99552e-002           9.95525e-003           9.55248e-004
                  160.60    367.47382                               17.96449             97.242                                        3.67474e+002           6.74738e+001           7.47382e+000           4.73822e-001           7.38224e-002           3.82238e-003           8.22380e-004
                  160.70    367.52145                               17.96449             97.242                                        3.67521e+002           6.75214e+001           7.52145e+000           5.21448e-001           2.14484e-002           1.44841e-003           4.48413e-004
                  160.80    367.54034                               17.96449             97.242                                        3.67540e+002           6.75403e+001           7.54034e+000           5.40343e-001           4.03426e-002           3.42555e-004           3.42555e-004
                  160.90    367.53153                               17.96449             97.242                                        3.67532e+002           6.75315e+001           7.53153e+000           5.31529e-001           3.15293e-002           1.52933e-003           5.29331e-004
                  161.00    367.52131                               17.96449             97.242                                        3.67521e+002           6.75213e+001           7.52131e+000           5.21308e-001           2.13082e-002           1.30817e-003           3.08170e-004
                  161.10    367.49590                               17.96449             97.242                                        3.67496e+002           6.74959e+001           7.49590e+000           4.95897e-001           9.58965e-002           5.89654e-003           8.96540e-004
                  161.20    367.46740                               17.96449             97.242                                        3.67467e+002           6.74674e+001           7.46740e+000           4.67405e-001           6.74049e-002           7.40487e-003           4.04875e-004
                  161.30    367.48569                               17.96449             97.242                                        3.67486e+002           6.74857e+001           7.48569e+000           4.85686e-001           8.56860e-002           5.68604e-003           6.86041e-004
                  161.40    367.52351                               17.96449             97.242                                        3.67524e+002           6.75235e+001           7.52351e+000           5.23507e-001           2.35068e-002           3.50685e-003           5.06847e-004
                  161.50    367.54954                               17.96449             97.242                                        3.67550e+002           6.75495e+001           7.54954e+000           5.49545e-001           4.95445e-002           9.54454e-003           5.44535e-004
                  161.60    367.54764                               17.96449             97.242                                        3.67548e+002           6.75476e+001           7.54764e+000           5.47645e-001           4.76447e-002           7.64474e-003           6.44739e-004
