~VERSION INFORMATION
VERS                    .            2.0                                    :CWLS LOG ASCII STANDARD
WRAP                    .            NO                                     :ONE LINE PER TIME STEP


~WELL INFORMATION
#MNEM                   .UNIT        DATA                                    DESCRIPTION
#________________________________________________________________________________________
STRTTIME                .HH/MM/SS    01:44:52                               :START TIME
STOPTIME                .HH/MM/SS    01:47:47                               :STOP TIME
STRT                    .s           2.10                                   :START DATA
STOP                    .s           173.40                                 :STOP DATA
STEP                    .s           0.10                                   :MEASUREMENT TIME INTERVAL
NULL                    .            -999.25                                :NULL VALUE
COMP                    .            Statoil ASA                            :COMPANY
FLD                     .            Volve                                  :FIELD
WELL                    .            15/9-F-1 C                             :WELL
RUN                     .            4                                      :RUN
LOC                     .                                                   :LOCATION
PROV                    .            na                                     :PROVINCE
SRVC                    .            Baker Hughes INTEQ                     :SERVICE COMPANY
DATE                    .YY/MM/DD    14/03/15                               :LOG DATE
UWI                     .                                                   :UNIQUE WELL ID
DEPTHMD                 .m           3620.2                                 :MEASURED DEPTH
DEPTHTVD                .m           3012.3                                 :TRUE VERTICAL DEPTH


~CURVE INFORMATION
#MNEM                   .UNIT        API CODES                               DESCRIPTION
#________________________________________________________________________________________
TIME                    .s                                                  :01 TIME
DD_PRESS                .bar                                                :02 DRAW DOWN PRESSURE
DD_VOLUME               .cm3                                                :03 INCREMENTAL DRAW DOWN VOLUME
TEMP                    .degC                                               :04 TRANSDUCER TEMPERATURE
DD_PRESS_MOD_1000       .bar                                                :05 DRAW DOWN PRESSURE MOD 1000
DD_PRESS_MOD_100        .bar                                                :06 DRAW DOWN PRESSURE MOD 100
DD_PRESS_MOD_10         .bar                                                :07 DRAW DOWN PRESSURE MOD 10
DD_PRESS_MOD_1          .bar                                                :08 DRAW DOWN PRESSURE MOD 1
DD_PRESS_MOD_01         .bar                                                :09 DRAW DOWN PRESSURE MOD 01
DD_PRESS_MOD_001        .bar                                                :10 DRAW DOWN PRESSURE MOD 001
DD_PRESS_MOD_0001       .bar                                                :11 DRAW DOWN PRESSURE MOD 0001


~PARAMETER INFORMATION
#MNEM                   .UNIT        VALUE                                   DESCRIPTION
#________________________________________________________________________________________
TOOLFACE                .deg         108.7                                  :01 TOOLFACE
PUMP_CAPACITY           .bar         400                                    :02 NOMINAL DRAW DOWN PUMP CAPACITY
PUMP_LIMIT              .bar         240                                    :03 DOWNLINK PUMP LIMIT
TIME_LIMIT              .min         10                                     :04 DOWNLINK MAX TIME
TEST_TYPE               .            REPEAT                                 :05 DOWNLINK
TEST_TYPE               .            HIGH MOBILITY                          :06 DOWNLINK
DD_PIST_A               .cm2         3.1416                                 :07 DRAW DOWN PISTON AREA
V_SYS                   .cm3         131.0000                               :08 SYSTEM VOLUME
PROBE_ID                .cm          1.2700                                 :09 TTK PROBE ID
G0                      .            4.6700                                 :10 GEOMETRY FACTOR


~A                  TIME     DD_PRESS                              DD_VOLUME               TEMP                                   DD_PRESS_MOD_1000       DD_PRESS_MOD_100        DD_PRESS_MOD_10         DD_PRESS_MOD_1        DD_PRESS_MOD_01       DD_PRESS_MOD_001      DD_PRESS_MOD_0001
# ...
                  147.70    344.35218                               29.45288             87.078                                        3.44352e+002           4.43522e+001           4.35218e+000           3.52181e-001           5.21806e-002           2.18055e-003           1.80554e-004
                  147.80    344.35087                               29.45288             87.078                                        3.44351e+002           4.43509e+001           4.35087e+000           3.50873e-001           5.08727e-002           8.72666e-004           8.72666e-004
                  147.90    344.34958                                0.00000             87.078                                        3.44350e+002           4.43496e+001           4.34958e+000           3.49577e-001           4.95770e-002           9.57704e-003           5.77039e-004
                  148.00    344.46807                                0.00000             87.078                                        3.44468e+002           4.44681e+001           4.46807e+000           4.68065e-001           6.80652e-002           8.06524e-003           6.52444e-005
                  148.10    345.79270                                0.00000             87.078                                        3.45793e+002           4.57927e+001           5.79270e+000           7.92704e-001           9.27044e-002           2.70439e-003           7.04386e-004
                  148.20    349.39689                                0.00000             87.078                                        3.49397e+002           4.93969e+001           9.39689e+000           3.96892e-001           9.68918e-002           6.89185e-003           8.91848e-004
                  148.30    354.72485                                0.00000             87.076                                        3.54725e+002           5.47248e+001           4.72485e+000           7.24849e-001           2.48492e-002           4.84924e-003           8.49238e-004
                  148.40    360.43964                                0.00000             87.072                                        3.60440e+002           6.04396e+001           4.39643e-001           4.39643e-001           3.96428e-002           9.64281e-003           6.42807e-004
                  148.50    366.12495                                0.00000             87.070                                        3.66125e+002           6.61250e+001           6.12495e+000           1.24950e-001           2.49500e-002           4.95000e-003           9.50001e-004
                  148.60    371.69753                                0.00000             87.070                                        3.71698e+002           7.16975e+001           1.69753e+000           6.97534e-001           9.75344e-002           7.53437e-003           5.34370e-004
                  148.70    377.16849                                0.00000             87.070                                        3.77168e+002           7.71685e+001           7.16849e+000           1.68495e-001           6.84950e-002           8.49498e-003           4.94978e-004
                  148.80    382.53189                                0.00000             87.070                                        3.82532e+002           8.25319e+001           2.53189e+000           5.31888e-001           3.18877e-002           1.88765e-003           8.87652e-004
                  148.90    387.74313                                0.00000             87.070                                        3.87743e+002           8.77431e+001           7.74313e+000           7.43126e-001           4.31260e-002           3.12600e-003           1.26002e-004
                  149.00    392.82205                                0.00000             87.073                                        3.92822e+002           9.28221e+001           2.82205e+000           8.22051e-001           2.20506e-002           2.05062e-003           5.06178e-005
                  149.10    398.25905                                0.00000             87.076                                        3.98259e+002           9.82591e+001           8.25905e+000           2.59053e-001           5.90529e-002           9.05291e-003           5.29144e-005
                  149.20    409.71890                                0.00000             87.078                                        4.09719e+002           9.71890e+000           9.71890e+000           7.18900e-001           1.89002e-002           8.90024e-003           9.00241e-004
                  149.30    422.57905                                0.00000             87.078                                        4.22579e+002           2.25791e+001           2.57905e+000           5.79051e-001           7.90510e-002           9.05095e-003           5.09501e-005
                  149.40    428.79116                                0.00000             87.078                                        4.28791e+002           2.87912e+001           8.79116e+000           7.91158e-001           9.11576e-002           1.15757e-003           1.57572e-004
                  149.50    428.87437                                0.00000             87.078                                        4.28874e+002           2.88744e+001           8.87437e+000           8.74367e-001           7.43673e-002           4.36735e-003           3.67346e-004
                  149.60    428.88293                                0.00000             87.078                                        4.28883e+002           2.88829e+001           8.88293e+000           8.82927e-001           8.29266e-002           2.92664e-003           9.26636e-004
                  149.70    428.89606                                0.00000             87.078                                        4.28896e+002           2.88961e+001           8.89606e+000           8.96062e-001           9.60617e-002           6.06168e-003           6.16760e-005
                  149.80    428.87967                                0.00000             87.078                                        4.28880e+002           2.88797e+001           8.87967e+000           8.79666e-001           7.96658e-002           9.66575e-003           6.65751e-004
                  149.90    428.85667                                0.00000             87.078                                        4.28857e+002           2.88567e+001           8.85667e+000           8.56673e-001           5.66734e-002           6.67339e-003           6.73390e-004
                  150.00    428.86825                                0.00000             87.078                                        4.28868e+002           2.88683e+001           8.86825e+000           8.68255e-001           6.82547e-002           8.25475e-003           2.54746e-004
                  150.10    428.90754                                0.00000             87.078                                        4.28908e+002           2.89075e+001           8.90754e+000           9.07538e-001           7.53777e-003           7.53777e-003           5.37772e-004
                  150.20    428.93032                                0.00000             87.078                                        4.28930e+002           2.89303e+001           8.93032e+000           9.30317e-001           3.03166e-002           3.16576e-004           3.16576e-004
                  150.30    428.92643                                0.00000             87.078                                        4.28926e+002           2.89264e+001           8.92643e+000           9.26433e-001           2.64333e-002           6.43334e-003           4.33344e-004
                  150.40    428.91862                                0.00000             87.078                                        4.28919e+002           2.89186e+001           8.91862e+000           9.18621e-001           1.86209e-002           8.62086e-003           6.20857e-004
