~VERSION INFORMATION
VERS                    .            2.0                                    :CWLS LOG ASCII STANDARD
WRAP                    .            NO                                     :ONE LINE PER TIME STEP


~WELL INFORMATION
#MNEM                   .UNIT        DATA                                    DESCRIPTION
#________________________________________________________________________________________
STRTTIME                .HH/MM/SS    19:37:02                               :START TIME
STOPTIME                .HH/MM/SS    19:40:38                               :STOP TIME
STRT                    .s           2.10                                   :START DATA
STOP                    .s           214.10                                 :STOP DATA
STEP                    .s           0.10                                   :MEASUREMENT TIME INTERVAL
NULL                    .            -999.25                                :NULL VALUE
COMP                    .            Statoil ASA                            :COMPANY
FLD                     .            Volve                                  :FIELD
WELL                    .            15/9-F-11 A                            :WELL
RUN                     .            8                                      :RUN
LOC                     .            Maersk Inspirer                        :LOCATION
PROV                    .            na                                     :PROVINCE
SRVC                    .            Baker Hughes INTEQ                     :SERVICE COMPANY
DATE                    .YY/MM/DD    13/05/23                               :LOG DATE
UWI                     .                                                   :UNIQUE WELL ID
DEPTHMD                 .m           3607.9                                 :MEASURED DEPTH
DEPTHTVD                .m           3008.4                                 :TRUE VERTICAL DEPTH


~CURVE INFORMATION
#MNEM                   .UNIT        API CODES                               DESCRIPTION
#________________________________________________________________________________________
TIME                    .s                                                  :01 TIME
DD_PRESS                .bar                                                :02 DRAW DOWN PRESSURE
DD_VOLUME               .cm3                                                :03 INCREMENTAL DRAW DOWN VOLUME
TEMP                    .degC                                               :04 TRANSDUCER TEMPERATURE
DD_PRESS_MOD_1000       .bar                                                :05 DRAW DOWN PRESSURE MOD 1000
DD_PRESS_MOD_100        .bar                                                :06 DRAW DOWN PRESSURE MOD 100
DD_PRESS_MOD_10         .bar                                                :07 DRAW DOWN PRESSURE MOD 10
DD_PRESS_MOD_1          .bar                                                :08 DRAW DOWN PRESSURE MOD 1
DD_PRESS_MOD_01         .bar                                                :09 DRAW DOWN PRESSURE MOD 01
DD_PRESS_MOD_001        .bar                                                :10 DRAW DOWN PRESSURE MOD 001
DD_PRESS_MOD_0001       .bar                                                :11 DRAW DOWN PRESSURE MOD 0001


~PARAMETER INFORMATION
#MNEM                   .UNIT        VALUE                                   DESCRIPTION
#________________________________________________________________________________________
TOOLFACE                .deg         -38.9                                  :01 TOOLFACE
PUMP_CAPACITY           .bar         400                                    :02 NOMINAL DRAW DOWN PUMP CAPACITY
PUMP_LIMIT              .bar         240                                    :03 DOWNLINK PUMP LIMIT
TIME_LIMIT              .min         10                                     :04 DOWNLINK MAX TIME
TEST_TYPE               .            REPEAT                                 :05 DOWNLINK
TEST_TYPE               .            HIGH MOBILITY                          :06 DOWNLINK
DD_PIST_A               .cm2         3.1416                                 :07 DRAW DOWN PISTON AREA
V_SYS                   .cm3         131.0000                               :08 SYSTEM VOLUME
PROBE_ID                .cm          1.2700                                 :09 TTK PROBE ID
G0                      .            4.6700                                 :10 GEOMETRY FACTOR


~A                  TIME     DD_PRESS                              DD_VOLUME               TEMP                                   DD_PRESS_MOD_1000       DD_PRESS_MOD_100        DD_PRESS_MOD_10         DD_PRESS_MOD_1        DD_PRESS_MOD_01       DD_PRESS_MOD_001      DD_PRESS_MOD_0001
# ...
                  100.10    340.32566                               18.95888             71.203                                        3.40326e+002           4.03257e+001           3.25664e-001           3.25664e-001           2.56638e-002           5.66380e-003           6.63795e-004
                  100.20    340.31896                               18.95888             71.203                                        3.40319e+002           4.03190e+001           3.18964e-001           3.18964e-001           1.89636e-002           8.96356e-003           9.63558e-004
                  100.30    340.32153                               18.95888             71.203                                        3.40322e+002           4.03215e+001           3.21528e-001           3.21528e-001           2.15283e-002           1.52826e-003           5.28260e-004
                  100.40    340.32164                               18.95888             71.203                                        3.40322e+002           4.03216e+001           3.21639e-001           3.21639e-001           2.16387e-002           1.63870e-003           6.38700e-004
                  100.50    340.32006                               18.95888             71.203                                        3.40320e+002           4.03201e+001           3.20057e-001           3.20057e-001           2.00567e-002           5.66928e-005           5.66928e-005
                  100.60    340.32278                               18.95888             71.203                                        3.40323e+002           4.03228e+001           3.22783e-001           3.22783e-001           2.27828e-002           2.78282e-003           7.82818e-004
                  100.70    340.32156                               18.95888             71.203                                        3.40322e+002           4.03216e+001           3.21555e-001           3.21555e-001           2.15553e-002           1.55534e-003           5.55335e-004
                  100.80    340.32261                               18.95888             71.203                                        3.40323e+002           4.03226e+001           3.22614e-001           3.22614e-001           2.26142e-002           2.61417e-003           6.14171e-004
                  100.90    340.32891                               18.95888             71.203                                        3.40329e+002           4.03289e+001           3.28906e-001           3.28906e-001           2.89059e-002           8.90589e-003           9.05890e-004
                  101.00    340.32681                               18.95888             71.203                                        3.40327e+002           4.03268e+001           3.26806e-001           3.26806e-001           2.68058e-002           6.80582e-003           8.05815e-004
                  101.10    340.31667                               18.95888             71.203                                        3.40317e+002           4.03167e+001           3.16672e-001           3.16672e-001           1.66716e-002           6.67155e-003           6.71551e-004
                  101.20    340.31841                               18.95888             71.203                                        3.40318e+002           4.03184e+001           3.18406e-001           3.18406e-001           1.84065e-002           8.40647e-003           4.06470e-004
                  101.30    340.32903                               18.95888             71.203                                        3.40329e+002           4.03290e+001           3.29025e-001           3.29025e-001           2.90252e-002           9.02520e-003           2.52009e-005
                  101.40    340.33205                               18.95888             71.203                                        3.40332e+002           4.03321e+001           3.32055e-001           3.32055e-001           3.20548e-002           2.05479e-003           5.47922e-005
                  101.50    340.32318                               18.95888             71.203                                        3.40323e+002           4.03232e+001           3.23176e-001           3.23176e-001           2.31756e-002           3.17563e-003           1.75634e-004
                  101.60    340.32168                               18.95888             71.203                                        3.40322e+002           4.03217e+001           3.21682e-001           3.21682e-001           2.16824e-002           1.68240e-003           6.82397e-004
                  101.70    340.32757                               18.95888             71.203                                        3.40328e+002           4.03276e+001           3.27573e-001           3.27573e-001           2.75730e-002           7.57304e-003           5.73044e-004
                  101.80    340.33354                               18.95888             71.203                                        3.40334e+002           4.03335e+001           3.33543e-001           3.33543e-001           3.35428e-002           3.54280e-003           5.42798e-004
                  101.90    340.32900                               18.95888             71.203                                        3.40329e+002           4.03290e+001           3.28995e-001           3.28995e-001           2.89953e-002           8.99531e-003           9.95308e-004
                  102.00    340.32739                               18.95888             71.203                                        3.40327e+002           4.03274e+001           3.27390e-001           3.27390e-001           2.73902e-002           7.39017e-003           3.90167e-004
                  102.10    340.32900                               18.95888             71.203                                        3.40329e+002           4.03290e+001           3.28997e-001           3.28997e-001           2.89968e-002           8.99677e-003           9.96769e-004
                  102.20    340.32685                               18.95888             71.203                                        3.40327e+002           4.03268e+001           3.26849e-001           3.26849e-001           2.68492e-002           6.84919e-003           8.49191e-004
                  102.30    340.32045                               18.95888             71.203                                        3.40320e+002           4.03205e+001           3.20450e-001           3.20450e-001           2.04502e-002           4.50185e-004           4.50185e-004
                  102.40    340.32629                               18.95888             71.203                                        3.40326e+002           4.03263e+001           3.26294e-001           3.26294e-001           2.62944e-002           6.29440e-003           2.94400e-004
                  102.50    340.33952                               18.95888             71.203                                        3.40340e+002           4.03395e+001           3.39516e-001           3.39516e-001           3.95158e-002           9.51580e-003           5.15804e-004
                  102.60    340.33609                               18.95888             71.203                                        3.40336e+002           4.03361e+001           3.36091e-001           3.36091e-001           3.60907e-002           6.09067e-003           9.06729e-005
                  102.70    340.32619                               18.95888             71.203                                        3.40326e+002           4.03262e+001           3.26193e-001           3.26193e-001           2.61933e-002           6.19327e-003           1.93275e-004
                  102.80    340.33194                               18.95888             71.203                                        3.40332e+002           4.03319e+001           3.31939e-001           3.31939e-001           3.19388e-002           1.93882e-003           9.38822e-004
