~VERSION INFORMATION
VERS                    .            2.0                                    :CWLS LOG ASCII STANDARD
WRAP                    .            NO                                     :ONE LINE PER TIME STEP


~WELL INFORMATION
#MNEM                   .UNIT        DATA                                    DESCRIPTION
#________________________________________________________________________________________
STRTTIME                .HH/MM/SS    04:27:44                               :START TIME
STOPTIME                .HH/MM/SS    04:30:31                               :STOP TIME
STRT                    .s           2.10                                   :START DATA
STOP                    .s           165.30                                 :STOP DATA
STEP                    .s           0.10                                   :MEASUREMENT TIME INTERVAL
NULL                    .            -999.25                                :NULL VALUE
COMP                    .            Statoil ASA                            :COMPANY
FLD                     .            Volve                                  :FIELD
WELL                    .            15/9-F-1 C                             :WELL
RUN                     .            4                                      :RUN
LOC                     .                                                   :LOCATION
PROV                    .            na                                     :PROVINCE
SRVC                    .            Baker Hughes INTEQ                     :SERVICE COMPANY
DATE                    .YY/MM/DD    14/03/15                               :LOG DATE
UWI                     .                                                   :UNIQUE WELL ID
DEPTHMD                 .m           3273.1                                 :MEASURED DEPTH
DEPTHTVD                .m           2948.3                                 :TRUE VERTICAL DEPTH


~CURVE INFORMATION
#MNEM                   .UNIT        API CODES                               DESCRIPTION
#________________________________________________________________________________________
TIME                    .s                                                  :01 TIME
DD_PRESS                .bar                                                :02 DRAW DOWN PRESSURE
DD_VOLUME               .cm3                                                :03 INCREMENTAL DRAW DOWN VOLUME
TEMP                    .degC                                               :04 TRANSDUCER TEMPERATURE
DD_PRESS_MOD_1000       .bar                                                :05 DRAW DOWN PRESSURE MOD 1000
DD_PRESS_MOD_100        .bar                                                :06 DRAW DOWN PRESSURE MOD 100
DD_PRESS_MOD_10         .bar                                                :07 DRAW DOWN PRESSURE MOD 10
DD_PRESS_MOD_1          .bar                                                :08 DRAW DOWN PRESSURE MOD 1
DD_PRESS_MOD_01         .bar                                                :09 DRAW DOWN PRESSURE MOD 01
DD_PRESS_MOD_001        .bar                                                :10 DRAW DOWN PRESSURE MOD 001
DD_PRESS_MOD_0001       .bar                                                :11 DRAW DOWN PRESSURE MOD 0001


~PARAMETER INFORMATION
#MNEM                   .UNIT        VALUE                                   DESCRIPTION
#________________________________________________________________________________________
TOOLFACE                .deg         76.8                                   :01 TOOLFACE
PUMP_CAPACITY           .bar         400                                    :02 NOMINAL DRAW DOWN PUMP CAPACITY
PUMP_LIMIT              .bar         240                                    :03 DOWNLINK PUMP LIMIT
TIME_LIMIT              .min         10                                     :04 DOWNLINK MAX TIME
TEST_TYPE               .            REPEAT                                 :05 DOWNLINK
TEST_TYPE               .            HIGH MOBILITY                          :06 DOWNLINK
DD_PIST_A               .cm2         3.1416                                 :07 DRAW DOWN PISTON AREA
V_SYS                   .cm3         131.0000                               :08 SYSTEM VOLUME
PROBE_ID                .cm          1.2700                                 :09 TTK PROBE ID
G0                      .            4.6700                                 :10 GEOMETRY FACTOR


~A                  TIME     DD_PRESS                              DD_VOLUME               TEMP                                   DD_PRESS_MOD_1000       DD_PRESS_MOD_100        DD_PRESS_MOD_10         DD_PRESS_MOD_1        DD_PRESS_MOD_01       DD_PRESS_MOD_001      DD_PRESS_MOD_0001
# ...
                   24.50    415.06653                                0.00000             85.102                                        4.15067e+002           1.50665e+001           5.06653e+000           6.65317e-002           6.65317e-002           6.53172e-003           5.31719e-004
                   24.60    415.10618                                0.00000             85.102                                        4.15106e+002           1.51062e+001           5.10618e+000           1.06180e-001           6.17972e-003           6.17972e-003           1.79720e-004
                   24.70    415.13200                                0.00000             85.102                                        4.15132e+002           1.51320e+001           5.13200e+000           1.31995e-001           3.19951e-002           1.99507e-003           9.95074e-004
                   24.80    415.15428                                0.00000             85.102                                        4.15154e+002           1.51543e+001           5.15428e+000           1.54279e-001           5.42786e-002           4.27857e-003           2.78565e-004
                   24.90    415.19104                                0.00000             85.102                                        4.15191e+002           1.51910e+001           5.19104e+000           1.91041e-001           9.10413e-002           1.04132e-003           4.13190e-005
                   25.00    415.23179                                0.00000             85.102                                        4.15232e+002           1.52318e+001           5.23179e+000           2.31791e-001           3.17910e-002           1.79097e-003           7.90968e-004
                   25.10    415.25361                                0.00000             85.102                                        4.15254e+002           1.52536e+001           5.25361e+000           2.53608e-001           5.36085e-002           3.60847e-003           6.08474e-004
                   25.20    415.27093                                0.00000             85.102                                        4.15271e+002           1.52709e+001           5.27093e+000           2.70933e-001           7.09325e-002           9.32534e-004           9.32534e-004
                   25.30    415.28810                                0.00000             85.102                                        4.15288e+002           1.52881e+001           5.28810e+000           2.88098e-001           8.80983e-002           8.09834e-003           9.83432e-005
                   25.40    415.30952                                0.78697             85.102                                        4.15310e+002           1.53095e+001           5.30952e+000           3.09517e-001           9.51744e-003           9.51744e-003           5.17442e-004
                   25.50    415.33976                                0.78776             85.099                                        4.15340e+002           1.53398e+001           5.33976e+000           3.39759e-001           3.97590e-002           9.75901e-003           7.59011e-004
                   25.60    415.35102                                0.78900             85.096                                        4.15351e+002           1.53510e+001           5.35102e+000           3.51018e-001           5.10180e-002           1.01805e-003           1.80463e-005
                   25.70    415.30713                                0.79149             85.094                                        4.15307e+002           1.53071e+001           5.30713e+000           3.07125e-001           7.12506e-003           7.12506e-003           1.25062e-004
                   25.80    415.19142                                0.79594             85.096                                        4.15191e+002           1.51914e+001           5.19142e+000           1.91419e-001           9.14193e-002           1.41930e-003           4.19302e-004
                   25.90    415.01411                                0.80232             85.097                                        4.15014e+002           1.50141e+001           5.01411e+000           1.41073e-002           1.41073e-002           4.10735e-003           1.07348e-004
                   26.00    414.76694                                0.81066             85.096                                        4.14767e+002           1.47669e+001           4.76694e+000           7.66941e-001           6.69407e-002           6.94073e-003           9.40732e-004
                   26.10    414.43928                                0.82109             85.094                                        4.14439e+002           1.44393e+001           4.43928e+000           4.39275e-001           3.92755e-002           9.27549e-003           2.75486e-004
                   26.20    414.04306                                0.83342             85.094                                        4.14043e+002           1.40431e+001           4.04306e+000           4.30582e-002           4.30582e-002           3.05819e-003           5.81879e-005
                   26.30    413.60857                                0.84752             85.094                                        4.13609e+002           1.36086e+001           3.60857e+000           6.08573e-001           8.57337e-003           8.57337e-003           5.73367e-004
                   26.40    413.12292                                0.86370             85.094                                        4.13123e+002           1.31229e+001           3.12292e+000           1.22925e-001           2.29246e-002           2.92455e-003           9.24554e-004
                   26.50    412.55878                                0.88196             85.094                                        4.12559e+002           1.25588e+001           2.55878e+000           5.58776e-001           5.87760e-002           8.77597e-003           7.75967e-004
                   26.60    411.92679                                0.90221             85.094                                        4.11927e+002           1.19268e+001           1.92679e+000           9.26788e-001           2.67882e-002           6.78822e-003           7.88219e-004
                   26.70    411.25268                                0.92445             85.094                                        4.11253e+002           1.12527e+001           1.25268e+000           2.52679e-001           5.26788e-002           2.67877e-003           6.78766e-004
                   26.80    410.52403                                0.94848             85.094                                        4.10524e+002           1.05240e+001           5.24027e-001           5.24027e-001           2.40266e-002           4.02662e-003           2.66207e-005
                   26.90    409.70753                                0.97435             85.094                                        4.09708e+002           9.70753e+000           9.70753e+000           7.07526e-001           7.52613e-003           7.52613e-003           5.26135e-004
                   27.00    408.80087                                1.00226             85.094                                        4.08801e+002           8.80087e+000           8.80087e+000           8.00867e-001           8.66589e-004           8.66589e-004           8.66589e-004
                   27.10    407.74729                                1.03204             85.094                                        4.07747e+002           7.74729e+000           7.74729e+000           7.47289e-001           4.72892e-002           7.28922e-003           2.89220e-004
                   27.20    406.43896                                1.06364             85.094                                        4.06439e+002           6.43896e+000           6.43896e+000           4.38962e-001           3.89619e-002           8.96189e-003           9.61894e-004
