~VERSION INFORMATION
VERS                    .            2.0                                    :CWLS LOG ASCII STANDARD
WRAP                    .            NO                                     :ONE LINE PER TIME STEP


~WELL INFORMATION
#MNEM                   .UNIT        DATA                                    DESCRIPTION
#________________________________________________________________________________________
STRTTIME                .HH/MM/SS    19:37:02                               :START TIME
STOPTIME                .HH/MM/SS    19:40:38                               :STOP TIME
STRT                    .s           2.10                                   :START DATA
STOP                    .s           214.10                                 :STOP DATA
STEP                    .s           0.10                                   :MEASUREMENT TIME INTERVAL
NULL                    .            -999.25                                :NULL VALUE
COMP                    .            Statoil ASA                            :COMPANY
FLD                     .            Volve                                  :FIELD
WELL                    .            15/9-F-11 A                            :WELL
RUN                     .            8                                      :RUN
LOC                     .            Maersk Inspirer                        :LOCATION
PROV                    .            na                                     :PROVINCE
SRVC                    .            Baker Hughes INTEQ                     :SERVICE COMPANY
DATE                    .YY/MM/DD    13/05/23                               :LOG DATE
UWI                     .                                                   :UNIQUE WELL ID
DEPTHMD                 .m           3607.9                                 :MEASURED DEPTH
DEPTHTVD                .m           3008.4                                 :TRUE VERTICAL DEPTH


~CURVE INFORMATION
#MNEM                   .UNIT        API CODES                               DESCRIPTION
#________________________________________________________________________________________
TIME                    .s                                                  :01 TIME
DD_PRESS                .bar                                                :02 DRAW DOWN PRESSURE
DD_VOLUME               .cm3                                                :03 INCREMENTAL DRAW DOWN VOLUME
TEMP                    .degC                                               :04 TRANSDUCER TEMPERATURE
DD_PRESS_MOD_1000       .bar                                                :05 DRAW DOWN PRESSURE MOD 1000
DD_PRESS_MOD_100        .bar                                                :06 DRAW DOWN PRESSURE MOD 100
DD_PRESS_MOD_10         .bar                                                :07 DRAW DOWN PRESSURE MOD 10
DD_PRESS_MOD_1          .bar                                                :08 DRAW DOWN PRESSURE MOD 1
DD_PRESS_MOD_01         .bar                                                :09 DRAW DOWN PRESSURE MOD 01
DD_PRESS_MOD_001        .bar                                                :10 DRAW DOWN PRESSURE MOD 001
DD_PRESS_MOD_0001       .bar                                                :11 DRAW DOWN PRESSURE MOD 0001


~PARAMETER INFORMATION
#MNEM                   .UNIT        VALUE                                   DESCRIPTION
#________________________________________________________________________________________
TOOLFACE                .deg         -38.9                                  :01 TOOLFACE
PUMP_CAPACITY           .bar         400                                    :02 NOMINAL DRAW DOWN PUMP CAPACITY
PUMP_LIMIT              .bar         240                                    :03 DOWNLINK PUMP LIMIT
TIME_LIMIT              .min         10                                     :04 DOWNLINK MAX TIME
TEST_TYPE               .            REPEAT                                 :05 DOWNLINK
TEST_TYPE               .            HIGH MOBILITY                          :06 DOWNLINK
DD_PIST_A               .cm2         3.1416                                 :07 DRAW DOWN PISTON AREA
V_SYS                   .cm3         131.0000                               :08 SYSTEM VOLUME
PROBE_ID                .cm          1.2700                                 :09 TTK PROBE ID
G0                      .            4.6700                                 :10 GEOMETRY FACTOR


~A                  TIME     DD_PRESS                              DD_VOLUME               TEMP                                   DD_PRESS_MOD_1000       DD_PRESS_MOD_100        DD_PRESS_MOD_10         DD_PRESS_MOD_1        DD_PRESS_MOD_01       DD_PRESS_MOD_001      DD_PRESS_MOD_0001
# ...
                  128.10    340.32771                               18.95888             71.188                                        3.40328e+002           4.03277e+001           3.27706e-001           3.27706e-001           2.77055e-002           7.70555e-003           7.05547e-004
                  128.20    340.32508                               18.95888             71.188                                        3.40325e+002           4.03251e+001           3.25076e-001           3.25076e-001           2.50760e-002           5.07597e-003           7.59655e-005
                  128.30    340.33830                               18.95888             71.188                                        3.40338e+002           4.03383e+001           3.38302e-001           3.38302e-001           3.83019e-002           8.30188e-003           3.01885e-004
                  128.40    340.34399                               18.95888             71.188                                        3.40344e+002           4.03440e+001           3.43988e-001           3.43988e-001           4.39878e-002           3.98778e-003           9.87779e-004
                  128.50    340.32958                               18.95888             71.188                                        3.40330e+002           4.03296e+001           3.29580e-001           3.29580e-001           2.95802e-002           9.58024e-003           5.80242e-004
                  128.60    340.32660                               18.95888             71.188                                        3.40327e+002           4.03266e+001           3.26598e-001           3.26598e-001           2.65984e-002           6.59838e-003           5.98379e-004
                  128.70    340.34364                               18.95888             71.188                                        3.40344e+002           4.03436e+001           3.43639e-001           3.43639e-001           4.36389e-002           3.63892e-003           6.38923e-004
                  128.80    340.33990                               18.95888             71.188                                        3.40340e+002           4.03399e+001           3.39898e-001           3.39898e-001           3.98977e-002           9.89766e-003           8.97657e-004
                  128.90    340.33279                               18.95888             71.188                                        3.40333e+002           4.03328e+001           3.32785e-001           3.32785e-001           3.27851e-002           2.78513e-003           7.85127e-004
                  129.00    340.33855                               18.95888             71.188                                        3.40339e+002           4.03385e+001           3.38550e-001           3.38550e-001           3.85497e-002           8.54970e-003           5.49696e-004
                  129.10    340.34296                               18.95888             71.188                                        3.40343e+002           4.03430e+001           3.42961e-001           3.42961e-001           4.29605e-002           2.96054e-003           9.60542e-004
                  129.20    340.33766                               18.95888             71.188                                        3.40338e+002           4.03377e+001           3.37657e-001           3.37657e-001           3.76571e-002           7.65714e-003           6.57137e-004
                  129.30    340.32433                               18.95888             71.188                                        3.40324e+002           4.03243e+001           3.24332e-001           3.24332e-001           2.43320e-002           4.33201e-003           3.32011e-004
                  129.40    340.32451                               18.95888             71.188                                        3.40325e+002           4.03245e+001           3.24509e-001           3.24509e-001           2.45086e-002           4.50857e-003           5.08565e-004
                  129.50    340.33614                               18.95888             71.188                                        3.40336e+002           4.03361e+001           3.36141e-001           3.36141e-001           3.61415e-002           6.14148e-003           1.41475e-004
                  129.60    340.33730                               18.95888             71.188                                        3.40337e+002           4.03373e+001           3.37303e-001           3.37303e-001           3.73027e-002           7.30270e-003           3.02698e-004
                  129.70    340.33454                               18.95888             71.188                                        3.40335e+002           4.03345e+001           3.34544e-001           3.34544e-001           3.45438e-002           4.54384e-003           5.43836e-004
                  129.80    340.33218                               18.95888             71.188                                        3.40332e+002           4.03322e+001           3.32179e-001           3.32179e-001           3.21790e-002           2.17899e-003           1.78988e-004
                  129.90    340.32856                               18.95888             71.188                                        3.40329e+002           4.03286e+001           3.28556e-001           3.28556e-001           2.85560e-002           8.55602e-003           5.56018e-004
                  130.00    340.32660                               18.95888             71.188                                        3.40327e+002           4.03266e+001           3.26602e-001           3.26602e-001           2.66016e-002           6.60164e-003           6.01642e-004
                  130.10    340.33218                               18.95888             71.188                                        3.40332e+002           4.03322e+001           3.32177e-001           3.32177e-001           3.21767e-002           2.17671e-003           1.76709e-004
                  130.20    340.34040                               18.95888             71.188                                        3.40340e+002           4.03404e+001           3.40403e-001           3.40403e-001           4.04025e-002           4.02516e-004           4.02516e-004
                  130.30    340.34444                               18.95888             71.188                                        3.40344e+002           4.03444e+001           3.44437e-001           3.44437e-001           4.44367e-002           4.43665e-003           4.36650e-004
                  130.40    340.34345                               18.95888             71.188                                        3.40343e+002           4.03435e+001           3.43454e-001           3.43454e-001           4.34540e-002           3.45399e-003           4.53994e-004
                  130.50    340.34096                               18.95888             71.188                                        3.40341e+002           4.03410e+001           3.40964e-001           3.40964e-001           4.09638e-002           9.63835e-004           9.63835e-004
                  130.60    340.34004                               18.95888             71.188                                        3.40340e+002           4.03400e+001           3.40038e-001           3.40038e-001           4.00376e-002           3.76421e-005           3.76421e-005
                  130.70    340.33654                               18.95888             71.188                                        3.40337e+002           4.03365e+001           3.36535e-001           3.36535e-001           3.65353e-002           6.53527e-003           5.35265e-004
                  130.80    340.33165                               18.95888             71.188                                        3.40332e+002           4.03317e+001           3.31651e-001           3.31651e-001           3.16510e-002           1.65098e-003           6.50985e-004
