~VERSION INFORMATION
VERS                    .            2.0                                    :CWLS LOG ASCII STANDARD
WRAP                    .            NO                                     :ONE LINE PER TIME STEP


~WELL INFORMATION
#MNEM                   .UNIT        DATA                                    DESCRIPTION
#________________________________________________________________________________________
STRTTIME                .HH/MM/SS    14:04:48                               :START TIME
STOPTIME                .HH/MM/SS    14:07:57                               :STOP TIME
STRT                    .s           2.10                                   :START DATA
STOP                    .s           187.50                                 :STOP DATA
STEP                    .s           0.10                                   :MEASUREMENT TIME INTERVAL
NULL                    .            -999.25                                :NULL VALUE
COMP                    .            Statoil ASA                            :COMPANY
FLD                     .            Volve                                  :FIELD
WELL                    .            15/9-F-1 B                             :WELL
RUN                     .            7                                      :RUN
LOC                     .            Maersk Inspirer                        :LOCATION
PROV                    .            na                                     :PROVINCE
SRVC                    .            Baker Hughes INTEQ                     :SERVICE COMPANY
DATE                    .YY/MM/DD    13/09/06                               :LOG DATE
UWI                     .                                                   :UNIQUE WELL ID
DEPTHMD                 .m           3296.0                                 :MEASURED DEPTH
DEPTHTVD                .m           3091.5                                 :TRUE VERTICAL DEPTH


~CURVE INFORMATION
#MNEM                   .UNIT        API CODES                               DESCRIPTION
#________________________________________________________________________________________
TIME                    .s                                                  :01 TIME
DD_PRESS                .bar                                                :02 DRAW DOWN PRESSURE
DD_VOLUME               .cm3                                                :03 INCREMENTAL DRAW DOWN VOLUME
TEMP                    .degC                                               :04 TRANSDUCER TEMPERATURE
DD_PRESS_MOD_1000       .bar                                                :05 DRAW DOWN PRESSURE MOD 1000
DD_PRESS_MOD_100        .bar                                                :06 DRAW DOWN PRESSURE MOD 100
DD_PRESS_MOD_10         .bar                                                :07 DRAW DOWN PRESSURE MOD 10
DD_PRESS_MOD_1          .bar                                                :08 DRAW DOWN PRESSURE MOD 1
DD_PRESS_MOD_01         .bar                                                :09 DRAW DOWN PRESSURE MOD 01
DD_PRESS_MOD_001        .bar                                                :10 DRAW DOWN PRESSURE MOD 001
DD_PRESS_MOD_0001       .bar                                                :11 DRAW DOWN PRESSURE MOD 0001


~PARAMETER INFORMATION
#MNEM                   .UNIT        VALUE                                   DESCRIPTION
#________________________________________________________________________________________
TOOLFACE                .deg         na                                     :01 TOOLFACE
PUMP_CAPACITY           .bar         400                                    :02 NOMINAL DRAW DOWN PUMP CAPACITY
PUMP_LIMIT              .bar         400                                    :03 DOWNLINK PUMP LIMIT
TIME_LIMIT              .min         10                                     :04 DOWNLINK MAX TIME
TEST_TYPE               .            LOW MOBILITY                           :05 DOWNLINK
DD_PIST_A               .cm2         3.1416                                 :06 DRAW DOWN PISTON AREA
V_SYS                   .cm3         131.0000                               :07 SYSTEM VOLUME
PROBE_ID                .cm          1.2700                                 :08 TTK PROBE ID
G0                      .            4.6700                                 :09 GEOMETRY FACTOR


~A                  TIME     DD_PRESS                              DD_VOLUME               TEMP                                   DD_PRESS_MOD_1000       DD_PRESS_MOD_100        DD_PRESS_MOD_10         DD_PRESS_MOD_1        DD_PRESS_MOD_01       DD_PRESS_MOD_001      DD_PRESS_MOD_0001
# ...
                  158.90    348.62604                               29.21840             83.234                                        3.48626e+002           4.86260e+001           8.62604e+000           6.26042e-001           2.60420e-002           6.04198e-003           4.19770e-005
                  159.00    348.64462                               29.21840             83.234                                        3.48645e+002           4.86446e+001           8.64462e+000           6.44624e-001           4.46243e-002           4.62435e-003           6.24349e-004
                  159.10    348.65915                               29.21840             83.234                                        3.48659e+002           4.86591e+001           8.65915e+000           6.59149e-001           5.91491e-002           9.14915e-003           1.49148e-004
                  159.20    348.64567                               29.21840             83.234                                        3.48646e+002           4.86457e+001           8.64567e+000           6.45673e-001           4.56725e-002           5.67253e-003           6.72535e-004
                  159.30    348.62390                               29.21840             83.234                                        3.48624e+002           4.86239e+001           8.62390e+000           6.23905e-001           2.39048e-002           3.90482e-003           9.04820e-004
                  159.40    348.62064                               29.21840             83.234                                        3.48621e+002           4.86206e+001           8.62064e+000           6.20642e-001           2.06421e-002           6.42071e-004           6.42071e-004
                  159.50    348.64549                               29.21840             83.234                                        3.48645e+002           4.86455e+001           8.64549e+000           6.45485e-001           4.54853e-002           5.48526e-003           4.85257e-004
                  159.60    348.65697                               29.21840             83.234                                        3.48657e+002           4.86570e+001           8.65697e+000           6.56967e-001           5.69668e-002           6.96681e-003           9.66811e-004
                  159.70    348.64026                               29.21840             83.234                                        3.48640e+002           4.86403e+001           8.64026e+000           6.40264e-001           4.02641e-002           2.64101e-004           2.64101e-004
                  159.80    348.63325                               29.21840             83.234                                        3.48633e+002           4.86333e+001           8.63325e+000           6.33254e-001           3.32538e-002           3.25384e-003           2.53841e-004
                  159.90    348.63719                               29.21840             83.234                                        3.48637e+002           4.86372e+001           8.63719e+000           6.37191e-001           3.71907e-002           7.19075e-003           1.90747e-004
                  160.00    348.62911                               29.21840             83.234                                        3.48629e+002           4.86291e+001           8.62911e+000           6.29107e-001           2.91069e-002           9.10692e-003           1.06916e-004
                  160.10    348.62643                               29.21840             83.234                                        3.48626e+002           4.86264e+001           8.62643e+000           6.26431e-001           2.64309e-002           6.43088e-003           4.30881e-004
                  160.20    348.64248                               29.21840             83.234                                        3.48642e+002           4.86425e+001           8.64248e+000           6.42476e-001           4.24757e-002           2.47570e-003           4.75696e-004
                  160.30    348.65061                               29.21840             83.234                                        3.48651e+002           4.86506e+001           8.65061e+000           6.50609e-001           5.06095e-002           6.09478e-004           6.09478e-004
                  160.40    348.64902                               29.21840             83.234                                        3.48649e+002           4.86490e+001           8.64902e+000           6.49018e-001           4.90179e-002           9.01786e-003           1.78557e-005
                  160.50    348.62596                               29.21840             83.234                                        3.48626e+002           4.86260e+001           8.62596e+000           6.25956e-001           2.59558e-002           5.95582e-003           9.55817e-004
                  160.60    348.62269                               29.21840             83.234                                        3.48623e+002           4.86227e+001           8.62269e+000           6.22688e-001           2.26877e-002           2.68771e-003           6.87711e-004
                  160.70    348.64392                               29.21840             83.234                                        3.48644e+002           4.86439e+001           8.64392e+000           6.43919e-001           4.39190e-002           3.91895e-003           9.18953e-004
                  160.80    348.64773                               29.21840             83.234                                        3.48648e+002           4.86477e+001           8.64773e+000           6.47731e-001           4.77314e-002           7.73136e-003           7.31358e-004
                  160.90    348.63622                               29.21840             83.234                                        3.48636e+002           4.86362e+001           8.63622e+000           6.36218e-001           3.62176e-002           6.21757e-003           2.17572e-004
                  161.00    348.63997                               29.21840             83.234                                        3.48640e+002           4.86400e+001           8.63997e+000           6.39974e-001           3.99740e-002           9.97403e-003           9.74028e-004
                  161.10    348.64622                               29.21840             83.234                                        3.48646e+002           4.86462e+001           8.64622e+000           6.46221e-001           4.62208e-002           6.22078e-003           2.20785e-004
                  161.20    348.62858                               29.21840             83.234                                        3.48629e+002           4.86286e+001           8.62858e+000           6.28578e-001           2.85777e-002           8.57765e-003           5.77651e-004
                  161.30    348.61748                               29.21840             83.234                                        3.48617e+002           4.86175e+001           8.61748e+000           6.17481e-001           1.74810e-002           7.48105e-003           4.81046e-004
                  161.40    348.62311                               29.21840             83.234                                        3.48623e+002           4.86231e+001           8.62311e+000           6.23107e-001           2.31071e-002           3.10715e-003           1.07148e-004
                  161.50    348.64883                               29.21840             83.234                                        3.48649e+002           4.86488e+001           8.64883e+000           6.48829e-001           4.88291e-002           8.82911e-003           8.29107e-004
                  161.60    348.65529                               29.21840             83.234                                        3.48655e+002           4.86553e+001           8.65529e+000           6.55288e-001           5.52884e-002           5.28845e-003           2.88448e-004
