~VERSION INFORMATION
VERS                    .            2.0                                    :CWLS LOG ASCII STANDARD
WRAP                    .            NO                                     :ONE LINE PER TIME STEP


~WELL INFORMATION
#MNEM                   .UNIT        DATA                                    DESCRIPTION
#________________________________________________________________________________________
STRTTIME                .HH/MM/SS    18:24:11                               :START TIME
STOPTIME                .HH/MM/SS    18:26:54                               :STOP TIME
STRT                    .s           2.10                                   :START DATA
STOP                    .s           161.30                                 :STOP DATA
STEP                    .s           0.10                                   :MEASUREMENT TIME INTERVAL
NULL                    .            -999.25                                :NULL VALUE
COMP                    .            Statoil ASA                            :COMPANY
FLD                     .            Volve                                  :FIELD
WELL                    .            15/9-F-11 A                            :WELL
RUN                     .            8                                      :RUN
LOC                     .            Maersk Inspirer                        :LOCATION
PROV                    .            na                                     :PROVINCE
SRVC                    .            Baker Hughes INTEQ                     :SERVICE COMPANY
DATE                    .YY/MM/DD    13/05/23                               :LOG DATE
UWI                     .                                                   :UNIQUE WELL ID
DEPTHMD                 .m           3681.0                                 :MEASURED DEPTH
DEPTHTVD                .m           3064.4                                 :TRUE VERTICAL DEPTH


~CURVE INFORMATION
#MNEM                   .UNIT        API CODES                               DESCRIPTION
#________________________________________________________________________________________
TIME                    .s                                                  :01 TIME
DD_PRESS                .bar                                                :02 DRAW DOWN PRESSURE
DD_VOLUME               .cm3                                                :03 INCREMENTAL DRAW DOWN VOLUME
TEMP                    .degC                                               :04 TRANSDUCER TEMPERATURE
DD_PRESS_MOD_1000       .bar                                                :05 DRAW DOWN PRESSURE MOD 1000
DD_PRESS_MOD_100        .bar                                                :06 DRAW DOWN PRESSURE MOD 100
DD_PRESS_MOD_10         .bar                                                :07 DRAW DOWN PRESSURE MOD 10
DD_PRESS_MOD_1          .bar                                                :08 DRAW DOWN PRESSURE MOD 1
DD_PRESS_MOD_01         .bar                                                :09 DRAW DOWN PRESSURE MOD 01
DD_PRESS_MOD_001        .bar                                                :10 DRAW DOWN PRESSURE MOD 001
DD_PRESS_MOD_0001       .bar                                                :11 DRAW DOWN PRESSURE MOD 0001


~PARAMETER INFORMATION
#MNEM                   .UNIT        VALUE                                   DESCRIPTION
#________________________________________________________________________________________
TOOLFACE                .deg         -38.1                                  :01 TOOLFACE
PUMP_CAPACITY           .bar         400                                    :02 NOMINAL DRAW DOWN PUMP CAPACITY
PUMP_LIMIT              .bar         240                                    :03 DOWNLINK PUMP LIMIT
TIME_LIMIT              .min         10                                     :04 DOWNLINK MAX TIME
TEST_TYPE               .            HIGH MOBILITY                          :05 DOWNLINK
DD_PIST_A               .cm2         3.1416                                 :06 DRAW DOWN PISTON AREA
V_SYS                   .cm3         131.0000                               :07 SYSTEM VOLUME
PROBE_ID                .cm          1.2700                                 :08 TTK PROBE ID
G0                      .            4.6700                                 :09 GEOMETRY FACTOR


~A                  TIME     DD_PRESS                              DD_VOLUME               TEMP                                   DD_PRESS_MOD_1000       DD_PRESS_MOD_100        DD_PRESS_MOD_10         DD_PRESS_MOD_1        DD_PRESS_MOD_01       DD_PRESS_MOD_001      DD_PRESS_MOD_0001
                    2.10    426.52577                                0.00000             75.336                                        4.26526e+002           2.65258e+001           6.52577e+000           5.25774e-001           2.57742e-002           5.77425e-003           7.74248e-004
                    2.20    426.58534                                0.00000             75.336                                        4.26585e+002           2.65853e+001           6.58534e+000           5.85338e-001           8.53377e-002           5.33771e-003           3.37711e-004
                    2.30    426.62633                                0.00000             75.336                                        4.26626e+002           2.66263e+001           6.62633e+000           6.26325e-001           2.63252e-002           6.32522e-003           3.25217e-004
                    2.40    426.61171                                0.00000             75.336                                        4.26612e+002           2.66117e+001           6.61171e+000           6.11712e-001           1.17117e-002           1.71168e-003           7.11676e-004
                    2.50    426.55893                                0.00000             75.336                                        4.26559e+002           2.65589e+001           6.55893e+000           5.58930e-001           5.89297e-002           8.92973e-003           9.29730e-004
                    2.60    426.51147                                0.00000             75.336                                        4.26511e+002           2.65115e+001           6.51147e+000           5.11470e-001           1.14703e-002           1.47030e-003           4.70298e-004
                    2.70    426.46295                                0.00000             75.336                                        4.26463e+002           2.64630e+001           6.46295e+000           4.62954e-001           6.29536e-002           2.95360e-003           9.53601e-004
                    2.80    426.39909                                0.00000             75.336                                        4.26399e+002           2.63991e+001           6.39909e+000           3.99091e-001           9.90913e-002           9.09126e-003           9.12623e-005
                    2.90    426.35186                                0.00000             75.336                                        4.26352e+002           2.63519e+001           6.35186e+000           3.51864e-001           5.18639e-002           1.86385e-003           8.63854e-004
                    3.00    426.35731                                0.00000             75.336                                        4.26357e+002           2.63573e+001           6.35731e+000           3.57311e-001           5.73109e-002           7.31095e-003           3.10950e-004
                    3.10    426.38213                                0.00000             75.336                                        4.26382e+002           2.63821e+001           6.38213e+000           3.82133e-001           8.21329e-002           2.13289e-003           1.32887e-004
                    3.20    426.40533                                0.00000             75.336                                        4.26405e+002           2.64053e+001           6.40533e+000           4.05330e-001           5.32989e-003           5.32989e-003           3.29885e-004
                    3.30    426.42649                                0.00000             75.336                                        4.26426e+002           2.64265e+001           6.42649e+000           4.26492e-001           2.64923e-002           6.49233e-003           4.92332e-004
                    3.40    426.48593                                0.00000             75.336                                        4.26486e+002           2.64859e+001           6.48593e+000           4.85933e-001           8.59327e-002           5.93274e-003           9.32736e-004
                    3.50    426.56771                                0.00000             75.336                                        4.26568e+002           2.65677e+001           6.56771e+000           5.67713e-001           6.77135e-002           7.71347e-003           7.13473e-004
                    3.60    426.64050                                0.00000             75.336                                        4.26641e+002           2.66405e+001           6.64050e+000           6.40503e-001           4.05034e-002           5.03439e-004           5.03439e-004
                    3.70    426.69359                                0.00000             75.336                                        4.26694e+002           2.66936e+001           6.69359e+000           6.93588e-001           9.35884e-002           3.58838e-003           5.88383e-004
                    3.80    426.72298                                0.00000             75.336                                        4.26723e+002           2.67230e+001           6.72298e+000           7.22978e-001           2.29780e-002           2.97800e-003           9.78003e-004
                    3.90    426.72731                                0.00000             75.334                                        4.26727e+002           2.67273e+001           6.72731e+000           7.27307e-001           2.73067e-002           7.30672e-003           3.06717e-004
                    4.00    426.71435                                0.00000             75.330                                        4.26714e+002           2.67144e+001           6.71435e+000           7.14353e-001           1.43525e-002           4.35253e-003           3.52526e-004
                    4.10    426.66857                                0.00000             75.328                                        4.26669e+002           2.66686e+001           6.66857e+000           6.68565e-001           6.85653e-002           8.56530e-003           5.65299e-004
                    4.20    426.61496                                0.00000             75.328                                        4.26615e+002           2.66150e+001           6.61496e+000           6.14956e-001           1.49556e-002           4.95564e-003           9.55642e-004
                    4.30    426.57357                                0.00000             75.328                                        4.26574e+002           2.65736e+001           6.57357e+000           5.73572e-001           7.35723e-002           3.57234e-003           5.72344e-004
                    4.40    426.51306                                0.00000             75.328                                        4.26513e+002           2.65131e+001           6.51306e+000           5.13060e-001           1.30598e-002           3.05984e-003           5.98382e-005
                    4.50    426.44658                                0.00000             75.328                                        4.26447e+002           2.64466e+001           6.44658e+000           4.46580e-001           4.65797e-002           6.57970e-003           5.79702e-004
                    4.60    426.40956                                0.00000             75.328                                        4.26410e+002           2.64096e+001           6.40956e+000           4.09558e-001           9.55793e-003           9.55793e-003           5.57926e-004
                    4.70    426.41055                                0.00000             75.328                                        4.26411e+002           2.64105e+001           6.41055e+000           4.10546e-001           1.05463e-002           5.46319e-004           5.46319e-004
                    4.80    426.39036                                0.00000             75.328                                        4.26390e+002           2.63904e+001           6.39036e+000           3.90360e-001           9.03602e-002           3.60168e-004           3.60168e-004
