~VERSION INFORMATION
VERS                    .            2.0                                    :CWLS LOG ASCII STANDARD
WRAP                    .            NO                                     :ONE LINE PER TIME STEP


~WELL INFORMATION
#MNEM                   .UNIT        DATA                                    DESCRIPTION
#________________________________________________________________________________________
STRTTIME                .HH/MM/SS    11:07:04                               :START TIME
STOPTIME                .HH/MM/SS    11:10:49                               :STOP TIME
STRT                    .s           2.10                                   :START DATA
STOP                    .s           223.10                                 :STOP DATA
STEP                    .s           0.10                                   :MEASUREMENT TIME INTERVAL
NULL                    .            -999.25                                :NULL VALUE
COMP                    .            Statoil ASA                            :COMPANY
FLD                     .            Volve                                  :FIELD
WELL                    .            15/9-F-11 A                            :WELL
RUN                     .            8                                      :RUN
LOC                     .            Maersk Inspirer                        :LOCATION
PROV                    .            na                                     :PROVINCE
SRVC                    .            Baker Hughes INTEQ                     :SERVICE COMPANY
DATE                    .YY/MM/DD    13/05/21                               :LOG DATE
UWI                     .                                                   :UNIQUE WELL ID
DEPTHMD                 .m           3632.0                                 :MEASURED DEPTH
DEPTHTVD                .m           3026.9                                 :TRUE VERTICAL DEPTH


~CURVE INFORMATION
#MNEM                   .UNIT        API CODES                               DESCRIPTION
#________________________________________________________________________________________
TIME                    .s                                                  :01 TIME
DD_PRESS                .bar                                                :02 DRAW DOWN PRESSURE
DD_VOLUME               .cm3                                                :03 INCREMENTAL DRAW DOWN VOLUME
TEMP                    .degC                                               :04 TRANSDUCER TEMPERATURE
DD_PRESS_MOD_1000       .bar                                                :05 DRAW DOWN PRESSURE MOD 1000
DD_PRESS_MOD_100        .bar                                                :06 DRAW DOWN PRESSURE MOD 100
DD_PRESS_MOD_10         .bar                                                :07 DRAW DOWN PRESSURE MOD 10
DD_PRESS_MOD_1          .bar                                                :08 DRAW DOWN PRESSURE MOD 1
DD_PRESS_MOD_01         .bar                                                :09 DRAW DOWN PRESSURE MOD 01
DD_PRESS_MOD_001        .bar                                                :10 DRAW DOWN PRESSURE MOD 001
DD_PRESS_MOD_0001       .bar                                                :11 DRAW DOWN PRESSURE MOD 0001


~PARAMETER INFORMATION
#MNEM                   .UNIT        VALUE                                   DESCRIPTION
#________________________________________________________________________________________
TOOLFACE                .deg         66.7                                   :01 TOOLFACE
PUMP_CAPACITY           .bar         400                                    :02 NOMINAL DRAW DOWN PUMP CAPACITY
PUMP_LIMIT              .bar         240                                    :03 DOWNLINK PUMP LIMIT
TIME_LIMIT              .min         10                                     :04 DOWNLINK MAX TIME
TEST_TYPE               .            REPEAT                                 :05 DOWNLINK
TEST_TYPE               .            HIGH MOBILITY                          :06 DOWNLINK
DD_PIST_A               .cm2         3.1416                                 :07 DRAW DOWN PISTON AREA
V_SYS                   .cm3         131.0000                               :08 SYSTEM VOLUME
PROBE_ID                .cm          1.2700                                 :09 TTK PROBE ID
G0                      .            4.6700                                 :10 GEOMETRY FACTOR


~A                  TIME     DD_PRESS                              DD_VOLUME               TEMP                                   DD_PRESS_MOD_1000       DD_PRESS_MOD_100        DD_PRESS_MOD_10         DD_PRESS_MOD_1        DD_PRESS_MOD_01       DD_PRESS_MOD_001      DD_PRESS_MOD_0001
# ...
                   74.90    342.72726                               10.50478             80.602                                        3.42727e+002           4.27273e+001           2.72726e+000           7.27258e-001           2.72579e-002           7.25785e-003           2.57852e-004
                   75.00    342.72681                               10.50478             80.602                                        3.42727e+002           4.27268e+001           2.72681e+000           7.26810e-001           2.68101e-002           6.81014e-003           8.10142e-004
                   75.10    342.72454                               10.50478             80.602                                        3.42725e+002           4.27245e+001           2.72454e+000           7.24536e-001           2.45360e-002           4.53601e-003           5.36006e-004
                   75.20    342.72873                               10.50478             80.602                                        3.42729e+002           4.27287e+001           2.72873e+000           7.28727e-001           2.87273e-002           8.72731e-003           7.27312e-004
                   75.30    342.73285                               10.50478             80.602                                        3.42733e+002           4.27328e+001           2.73285e+000           7.32845e-001           3.28452e-002           2.84524e-003           8.45237e-004
                   75.40    342.72951                               10.50478             80.602                                        3.42730e+002           4.27295e+001           2.72951e+000           7.29507e-001           2.95069e-002           9.50691e-003           5.06911e-004
                   75.50    342.72295                               10.50478             80.602                                        3.42723e+002           4.27229e+001           2.72295e+000           7.22947e-001           2.29466e-002           2.94655e-003           9.46550e-004
                   75.60    342.72100                               10.50478             80.602                                        3.42721e+002           4.27210e+001           2.72100e+000           7.21001e-001           2.10007e-002           1.00075e-003           7.47081e-007
                   75.70    342.71681                               10.50478             80.602                                        3.42717e+002           4.27168e+001           2.71681e+000           7.16807e-001           1.68075e-002           6.80747e-003           8.07468e-004
                   75.80    342.71111                               10.50478             80.602                                        3.42711e+002           4.27111e+001           2.71111e+000           7.11105e-001           1.11051e-002           1.10509e-003           1.05093e-004
                   75.90    342.71193                               10.50478             80.604                                        3.42712e+002           4.27119e+001           2.71193e+000           7.11930e-001           1.19304e-002           1.93039e-003           9.30387e-004
                   76.00    342.71475                               10.50478             80.607                                        3.42715e+002           4.27148e+001           2.71475e+000           7.14755e-001           1.47548e-002           4.75482e-003           7.54825e-004
                   76.10    342.72153                               10.50478             80.607                                        3.42722e+002           4.27215e+001           2.72153e+000           7.21533e-001           2.15332e-002           1.53320e-003           5.33195e-004
                   76.20    342.72912                               10.50478             80.604                                        3.42729e+002           4.27291e+001           2.72912e+000           7.29118e-001           2.91181e-002           9.11806e-003           1.18055e-004
                   76.30    342.73091                               10.50478             80.602                                        3.42731e+002           4.27309e+001           2.73091e+000           7.30911e-001           3.09114e-002           9.11358e-004           9.11358e-004
                   76.40    342.73086                               10.50478             80.602                                        3.42731e+002           4.27309e+001           2.73086e+000           7.30858e-001           3.08579e-002           8.57853e-004           8.57853e-004
                   76.50    342.73163                               10.50478             80.602                                        3.42732e+002           4.27316e+001           2.73163e+000           7.31626e-001           3.16259e-002           1.62595e-003           6.25948e-004
                   76.60    342.72372                               10.50478             80.602                                        3.42724e+002           4.27237e+001           2.72372e+000           7.23718e-001           2.37180e-002           3.71799e-003           7.17994e-004
                   76.70    342.71519                               10.50478             80.602                                        3.42715e+002           4.27152e+001           2.71519e+000           7.15185e-001           1.51853e-002           5.18533e-003           1.85332e-004
                   76.80    342.71683                               10.50478             80.602                                        3.42717e+002           4.27168e+001           2.71683e+000           7.16834e-001           1.68338e-002           6.83384e-003           8.33840e-004
                   76.90    342.71793                               10.50478             80.602                                        3.42718e+002           4.27179e+001           2.71793e+000           7.17929e-001           1.79290e-002           7.92897e-003           9.28972e-004
                   77.00    342.71185                               10.50478             80.602                                        3.42712e+002           4.27119e+001           2.71185e+000           7.11850e-001           1.18505e-002           1.85046e-003           8.50461e-004
                   77.10    342.71513                               10.50478             80.602                                        3.42715e+002           4.27151e+001           2.71513e+000           7.15132e-001           1.51316e-002           5.13162e-003           1.31624e-004
                   77.20    342.72618                               10.50478             80.602                                        3.42726e+002           4.27262e+001           2.72618e+000           7.26180e-001           2.61801e-002           6.18013e-003           1.80132e-004
                   77.30    342.73081                               10.50478             80.602                                        3.42731e+002           4.27308e+001           2.73081e+000           7.30812e-001           3.08118e-002           8.11757e-004           8.11757e-004
                   77.40    342.72989                               10.50478             80.602                                        3.42730e+002           4.27299e+001           2.72989e+000           7.29891e-001           2.98913e-002           9.89125e-003           8.91254e-004
                   77.50    342.73112                               10.50478             80.602                                        3.42731e+002           4.27311e+001           2.73112e+000           7.31121e-001           3.11207e-002           1.12068e-003           1.20684e-004
                   77.60    342.73252                               10.50478             80.602                                        3.42733e+002           4.27325e+001           2.73252e+000           7.32522e-001           3.25221e-002           2.52212e-003           5.22118e-004
