~VERSION INFORMATION
VERS                    .            2.0                                    :CWLS LOG ASCII STANDARD
WRAP                    .            NO                                     :ONE LINE PER TIME STEP


~WELL INFORMATION
#MNEM                   .UNIT        DATA                                    DESCRIPTION
#________________________________________________________________________________________
STRTTIME                .HH/MM/SS    03:28:02                               :START TIME
STOPTIME                .HH/MM/SS    03:30:44                               :STOP TIME
STRT                    .s           2.10                                   :START DATA
STOP                    .s           160.80                                 :STOP DATA
STEP                    .s           0.10                                   :MEASUREMENT TIME INTERVAL
NULL                    .            -999.25                                :NULL VALUE
COMP                    .            Statoil ASA                            :COMPANY
FLD                     .            Volve                                  :FIELD
WELL                    .            15/9-F-1 C                             :WELL
RUN                     .            4                                      :RUN
LOC                     .                                                   :LOCATION
PROV                    .            na                                     :PROVINCE
SRVC                    .            Baker Hughes INTEQ                     :SERVICE COMPANY
DATE                    .YY/MM/DD    14/03/15                               :LOG DATE
UWI                     .                                                   :UNIQUE WELL ID
DEPTHMD                 .m           3493.0                                 :MEASURED DEPTH
DEPTHTVD                .m           2980.2                                 :TRUE VERTICAL DEPTH


~CURVE INFORMATION
#MNEM                   .UNIT        API CODES                               DESCRIPTION
#________________________________________________________________________________________
TIME                    .s                                                  :01 TIME
DD_PRESS                .bar                                                :02 DRAW DOWN PRESSURE
DD_VOLUME               .cm3                                                :03 INCREMENTAL DRAW DOWN VOLUME
TEMP                    .degC                                               :04 TRANSDUCER TEMPERATURE
DD_PRESS_MOD_1000       .bar                                                :05 DRAW DOWN PRESSURE MOD 1000
DD_PRESS_MOD_100        .bar                                                :06 DRAW DOWN PRESSURE MOD 100
DD_PRESS_MOD_10         .bar                                                :07 DRAW DOWN PRESSURE MOD 10
DD_PRESS_MOD_1          .bar                                                :08 DRAW DOWN PRESSURE MOD 1
DD_PRESS_MOD_01         .bar                                                :09 DRAW DOWN PRESSURE MOD 01
DD_PRESS_MOD_001        .bar                                                :10 DRAW DOWN PRESSURE MOD 001
DD_PRESS_MOD_0001       .bar                                                :11 DRAW DOWN PRESSURE MOD 0001


~PARAMETER INFORMATION
#MNEM                   .UNIT        VALUE                                   DESCRIPTION
#________________________________________________________________________________________
TOOLFACE                .deg         89.6                                   :01 TOOLFACE
PUMP_CAPACITY           .bar         400                                    :02 NOMINAL DRAW DOWN PUMP CAPACITY
PUMP_LIMIT              .bar         240                                    :03 DOWNLINK PUMP LIMIT
TIME_LIMIT              .min         10                                     :04 DOWNLINK MAX TIME
TEST_TYPE               .            REPEAT                                 :05 DOWNLINK
TEST_TYPE               .            HIGH MOBILITY                          :06 DOWNLINK
DD_PIST_A               .cm2         3.1416                                 :07 DRAW DOWN PISTON AREA
V_SYS                   .cm3         131.0000                               :08 SYSTEM VOLUME
PROBE_ID                .cm          1.2700                                 :09 TTK PROBE ID
G0                      .            4.6700                                 :10 GEOMETRY FACTOR


~A                  TIME     DD_PRESS                              DD_VOLUME               TEMP                                   DD_PRESS_MOD_1000       DD_PRESS_MOD_100        DD_PRESS_MOD_10         DD_PRESS_MOD_1        DD_PRESS_MOD_01       DD_PRESS_MOD_001      DD_PRESS_MOD_0001
# ...
                   97.30    340.45020                               19.84034             83.703                                        3.40450e+002           4.04502e+001           4.50204e-001           4.50204e-001           5.02038e-002           2.03826e-004           2.03826e-004
                   97.40    340.45141                               19.84034             83.703                                        3.40451e+002           4.04514e+001           4.51408e-001           4.51408e-001           5.14084e-002           1.40837e-003           4.08374e-004
                   97.50    340.45085                               19.84034             83.703                                        3.40451e+002           4.04508e+001           4.50847e-001           4.50847e-001           5.08467e-002           8.46731e-004           8.46731e-004
                   97.60    340.45055                               19.84034             83.703                                        3.40451e+002           4.04506e+001           4.50553e-001           4.50553e-001           5.05527e-002           5.52677e-004           5.52677e-004
                   97.70    340.45054                               19.84034             83.703                                        3.40451e+002           4.04505e+001           4.50542e-001           4.50542e-001           5.05418e-002           5.41835e-004           5.41835e-004
                   97.80    340.45064                               19.84034             83.703                                        3.40451e+002           4.04506e+001           4.50643e-001           4.50643e-001           5.06431e-002           6.43068e-004           6.43068e-004
                   97.90    340.45067                               19.84034             83.703                                        3.40451e+002           4.04507e+001           4.50669e-001           4.50669e-001           5.06691e-002           6.69115e-004           6.69115e-004
                   98.00    340.45060                               19.84034             83.703                                        3.40451e+002           4.04506e+001           4.50599e-001           4.50599e-001           5.05991e-002           5.99089e-004           5.99089e-004
                   98.10    340.45054                               19.84034             83.703                                        3.40451e+002           4.04505e+001           4.50543e-001           4.50543e-001           5.05432e-002           5.43237e-004           5.43237e-004
                   98.20    340.45082                               19.84034             83.703                                        3.40451e+002           4.04508e+001           4.50824e-001           4.50824e-001           5.08235e-002           8.23547e-004           8.23547e-004
                   98.30    340.45265                               19.84034             83.703                                        3.40453e+002           4.04526e+001           4.52647e-001           4.52647e-001           5.26470e-002           2.64697e-003           6.46967e-004
                   98.40    340.45344                               19.84034             83.703                                        3.40453e+002           4.04534e+001           4.53435e-001           4.53435e-001           5.34355e-002           3.43547e-003           4.35468e-004
                   98.50    340.45204                               19.84034             83.703                                        3.40452e+002           4.04520e+001           4.52039e-001           4.52039e-001           5.20389e-002           2.03891e-003           3.89094e-005
                   98.60    340.45063                               19.84034             83.703                                        3.40451e+002           4.04506e+001           4.50626e-001           4.50626e-001           5.06257e-002           6.25723e-004           6.25723e-004
                   98.70    340.45054                               19.84034             83.703                                        3.40451e+002           4.04505e+001           4.50537e-001           4.50537e-001           5.05371e-002           5.37122e-004           5.37122e-004
                   98.80    340.45100                               19.84034             83.703                                        3.40451e+002           4.04510e+001           4.51004e-001           4.51004e-001           5.10044e-002           1.00437e-003           4.37109e-006
                   98.90    340.45115                               19.84034             83.703                                        3.40451e+002           4.04512e+001           4.51150e-001           4.51150e-001           5.11503e-002           1.15029e-003           1.50286e-004
                   99.00    340.45107                               19.84034             83.703                                        3.40451e+002           4.04511e+001           4.51066e-001           4.51066e-001           5.10655e-002           1.06552e-003           6.55186e-005
                   99.10    340.45035                               19.84034             83.703                                        3.40450e+002           4.04503e+001           4.50345e-001           4.50345e-001           5.03452e-002           3.45167e-004           3.45167e-004
                   99.20    340.44953                               19.84034             83.703                                        3.40450e+002           4.04495e+001           4.49532e-001           4.49532e-001           4.95317e-002           9.53175e-003           5.31745e-004
                   99.30    340.44947                               19.84034             83.703                                        3.40449e+002           4.04495e+001           4.49466e-001           4.49466e-001           4.94661e-002           9.46610e-003           4.66097e-004
                   99.40    340.45053                               19.84034             83.703                                        3.40451e+002           4.04505e+001           4.50534e-001           4.50534e-001           5.05338e-002           5.33807e-004           5.33807e-004
                   99.50    340.44837                               19.84034             83.703                                        3.40448e+002           4.04484e+001           4.48365e-001           4.48365e-001           4.83654e-002           8.36540e-003           3.65404e-004
                   99.60    340.44764                               19.84034             83.703                                        3.40448e+002           4.04476e+001           4.47637e-001           4.47637e-001           4.76371e-002           7.63708e-003           6.37079e-004
                   99.70    340.44936                               19.84034             83.703                                        3.40449e+002           4.04494e+001           4.49356e-001           4.49356e-001           4.93564e-002           9.35641e-003           3.56407e-004
                   99.80    340.45067                               19.84034             83.703                                        3.40451e+002           4.04507e+001           4.50666e-001           4.50666e-001           5.06662e-002           6.66199e-004           6.66199e-004
                   99.90    340.45074                               19.84034             83.703                                        3.40451e+002           4.04507e+001           4.50735e-001           4.50735e-001           5.07354e-002           7.35384e-004           7.35384e-004
                  100.00    340.45054                               19.84034             83.703                                        3.40451e+002           4.04505e+001           4.50541e-001           4.50541e-001           5.05414e-002           5.41426e-004           5.41426e-004
