~VERSION INFORMATION
VERS                    .            2.0                                    :CWLS LOG ASCII STANDARD
WRAP                    .            NO                                     :ONE LINE PER TIME STEP


~WELL INFORMATION
#MNEM                   .UNIT        DATA                                    DESCRIPTION
#________________________________________________________________________________________
STRTTIME                .HH/MM/SS    01:04:55                               :START TIME
STOPTIME                .HH/MM/SS    01:07:44                               :STOP TIME
STRT                    .s           2.10                                   :START DATA
STOP                    .s           167.40                                 :STOP DATA
STEP                    .s           0.10                                   :MEASUREMENT TIME INTERVAL
NULL                    .            -999.25                                :NULL VALUE
COMP                    .            Statoil ASA                            :COMPANY
FLD                     .            Volve                                  :FIELD
WELL                    .            15/9-F-1 C                             :WELL
RUN                     .            4                                      :RUN
LOC                     .                                                   :LOCATION
PROV                    .            na                                     :PROVINCE
SRVC                    .            Baker Hughes INTEQ                     :SERVICE COMPANY
DATE                    .YY/MM/DD    14/03/15                               :LOG DATE
UWI                     .                                                   :UNIQUE WELL ID
DEPTHMD                 .m           3720.1                                 :MEASURED DEPTH
DEPTHTVD                .m           3050.6                                 :TRUE VERTICAL DEPTH


~CURVE INFORMATION
#MNEM                   .UNIT        API CODES                               DESCRIPTION
#________________________________________________________________________________________
TIME                    .s                                                  :01 TIME
DD_PRESS                .bar                                                :02 DRAW DOWN PRESSURE
DD_VOLUME               .cm3                                                :03 INCREMENTAL DRAW DOWN VOLUME
TEMP                    .degC                                               :04 TRANSDUCER TEMPERATURE
DD_PRESS_MOD_1000       .bar                                                :05 DRAW DOWN PRESSURE MOD 1000
DD_PRESS_MOD_100        .bar                                                :06 DRAW DOWN PRESSURE MOD 100
DD_PRESS_MOD_10         .bar                                                :07 DRAW DOWN PRESSURE MOD 10
DD_PRESS_MOD_1          .bar                                                :08 DRAW DOWN PRESSURE MOD 1
DD_PRESS_MOD_01         .bar                                                :09 DRAW DOWN PRESSURE MOD 01
DD_PRESS_MOD_001        .bar                                                :10 DRAW DOWN PRESSURE MOD 001
DD_PRESS_MOD_0001       .bar                                                :11 DRAW DOWN PRESSURE MOD 0001


~PARAMETER INFORMATION
#MNEM                   .UNIT        VALUE                                   DESCRIPTION
#________________________________________________________________________________________
TOOLFACE                .deg         134.6                                  :01 TOOLFACE
PUMP_CAPACITY           .bar         400                                    :02 NOMINAL DRAW DOWN PUMP CAPACITY
PUMP_LIMIT              .bar         240                                    :03 DOWNLINK PUMP LIMIT
TIME_LIMIT              .min         10                                     :04 DOWNLINK MAX TIME
TEST_TYPE               .            REPEAT                                 :05 DOWNLINK
TEST_TYPE               .            HIGH MOBILITY                          :06 DOWNLINK
DD_PIST_A               .cm2         3.1416                                 :07 DRAW DOWN PISTON AREA
V_SYS                   .cm3         131.0000                               :08 SYSTEM VOLUME
PROBE_ID                .cm          1.2700                                 :09 TTK PROBE ID
G0                      .            4.6700                                 :10 GEOMETRY FACTOR


~A                  TIME     DD_PRESS                              DD_VOLUME               TEMP                                   DD_PRESS_MOD_1000       DD_PRESS_MOD_100        DD_PRESS_MOD_10         DD_PRESS_MOD_1        DD_PRESS_MOD_01       DD_PRESS_MOD_001      DD_PRESS_MOD_0001
# ...
                  164.50    434.11833                                0.00000             87.238                                        4.34118e+002           3.41183e+001           4.11833e+000           1.18326e-001           1.83260e-002           8.32597e-003           3.25967e-004
                  164.60    434.10791                                0.00000             87.236                                        4.34108e+002           3.41079e+001           4.10791e+000           1.07914e-001           7.91419e-003           7.91419e-003           9.14191e-004
                  164.70    434.09814                                0.00000             87.234                                        4.34098e+002           3.40981e+001           4.09814e+000           9.81426e-002           9.81426e-002           8.14264e-003           1.42638e-004
                  164.80    434.09054                                0.00000             87.234                                        4.34091e+002           3.40905e+001           4.09054e+000           9.05400e-002           9.05400e-002           5.39964e-004           5.39964e-004
                  164.90    434.09126                                0.00000             87.237                                        4.34091e+002           3.40913e+001           4.09126e+000           9.12650e-002           9.12650e-002           1.26498e-003           2.64977e-004
                  165.00    434.08990                                0.00000             87.240                                        4.34090e+002           3.40899e+001           4.08990e+000           8.99007e-002           8.99007e-002           9.90073e-003           9.00728e-004
                  165.10    434.08583                                0.00000             87.242                                        4.34086e+002           3.40858e+001           4.08583e+000           8.58260e-002           8.58260e-002           5.82604e-003           8.26042e-004
                  165.20    434.08781                                0.00000             87.240                                        4.34088e+002           3.40878e+001           4.08781e+000           8.78057e-002           8.78057e-002           7.80570e-003           8.05704e-004
                  165.30    434.09620                                0.00000             87.236                                        4.34096e+002           3.40962e+001           4.09620e+000           9.62041e-002           9.62041e-002           6.20412e-003           2.04117e-004
                  165.40    434.10778                                0.00000             87.234                                        4.34108e+002           3.41078e+001           4.10778e+000           1.07783e-001           7.78333e-003           7.78333e-003           7.83331e-004
                  165.50    434.10970                                0.00000             87.234                                        4.34110e+002           3.41097e+001           4.10970e+000           1.09698e-001           9.69808e-003           9.69808e-003           6.98083e-004
                  165.60    434.10234                                0.00000             87.234                                        4.34102e+002           3.41023e+001           4.10234e+000           1.02342e-001           2.34223e-003           2.34223e-003           3.42225e-004
                  165.70    434.10185                                0.00000             87.234                                        4.34102e+002           3.41019e+001           4.10185e+000           1.01854e-001           1.85428e-003           1.85428e-003           8.54276e-004
                  165.80    434.11533                                0.00000             87.234                                        4.34115e+002           3.41153e+001           4.11533e+000           1.15326e-001           1.53265e-002           5.32649e-003           3.26485e-004
                  165.90    434.12584                                0.00000             87.234                                        4.34126e+002           3.41258e+001           4.12584e+000           1.25836e-001           2.58365e-002           5.83649e-003           8.36486e-004
                  166.00    434.11313                                0.00000             87.234                                        4.34113e+002           3.41131e+001           4.11313e+000           1.13132e-001           1.31320e-002           3.13199e-003           1.31987e-004
                  166.10    434.09346                                0.00000             87.234                                        4.34093e+002           3.40935e+001           4.09346e+000           9.34563e-002           9.34563e-002           3.45635e-003           4.56346e-004
                  166.20    434.08898                                0.00000             87.234                                        4.34089e+002           3.40890e+001           4.08898e+000           8.89849e-002           8.89849e-002           8.98485e-003           9.84853e-004
                  166.30    434.09425                                0.00000             87.234                                        4.34094e+002           3.40943e+001           4.09425e+000           9.42513e-002           9.42513e-002           4.25125e-003           2.51253e-004
                  166.40    434.10139                                0.00000             87.234                                        4.34101e+002           3.41014e+001           4.10139e+000           1.01387e-001           1.38655e-003           1.38655e-003           3.86548e-004
                  166.50    434.10213                                0.00000             87.234                                        4.34102e+002           3.41021e+001           4.10213e+000           1.02134e-001           2.13369e-003           2.13369e-003           1.33695e-004
                  166.60    434.09724                                0.00000             87.234                                        4.34097e+002           3.40972e+001           4.09724e+000           9.72364e-002           9.72364e-002           7.23642e-003           2.36417e-004
                  166.70    434.08976                                0.00000             87.234                                        4.34090e+002           3.40898e+001           4.08976e+000           8.97586e-002           8.97586e-002           9.75860e-003           7.58597e-004
                  166.80    434.09328                                0.00000             87.234                                        4.34093e+002           3.40933e+001           4.09328e+000           9.32795e-002           9.32795e-002           3.27951e-003           2.79512e-004
                  166.90    434.10215                                0.00000             87.234                                        4.34102e+002           3.41022e+001           4.10215e+000           1.02152e-001           2.15163e-003           2.15163e-003           1.51631e-004
                  167.00    434.09615                                0.00000             87.234                                        4.34096e+002           3.40961e+001           4.09615e+000           9.61485e-002           9.61485e-002           6.14852e-003           1.48523e-004
                  167.10    434.08537                                0.00000             87.234                                        4.34085e+002           3.40854e+001           4.08537e+000           8.53683e-002           8.53683e-002           5.36834e-003           3.68336e-004
                  167.20    434.09120                                0.00000             87.234                                        4.34091e+002           3.40912e+001           4.09120e+000           9.12014e-002           9.12014e-002           1.20143e-003           2.01430e-004
