~VERSION INFORMATION
VERS                    .            2.0                                    :CWLS LOG ASCII STANDARD
WRAP                    .            NO                                     :ONE LINE PER TIME STEP


~WELL INFORMATION
#MNEM                   .UNIT        DATA                                    DESCRIPTION
#________________________________________________________________________________________
STRTTIME                .HH/MM/SS    10:22:55                               :START TIME
STOPTIME                .HH/MM/SS    10:26:06                               :STOP TIME
STRT                    .s           2.10                                   :START DATA
STOP                    .s           189.80                                 :STOP DATA
STEP                    .s           0.10                                   :MEASUREMENT TIME INTERVAL
NULL                    .            -999.25                                :NULL VALUE
COMP                    .            Statoil ASA                            :COMPANY
FLD                     .            Volve                                  :FIELD
WELL                    .            15/9-F-11 A                            :WELL
RUN                     .            8                                      :RUN
LOC                     .            Maersk Inspirer                        :LOCATION
PROV                    .            na                                     :PROVINCE
SRVC                    .            Baker Hughes INTEQ                     :SERVICE COMPANY
DATE                    .YY/MM/DD    13/05/21                               :LOG DATE
UWI                     .                                                   :UNIQUE WELL ID
DEPTHMD                 .m           3651.0                                 :MEASURED DEPTH
DEPTHTVD                .m           3041.4                                 :TRUE VERTICAL DEPTH


~CURVE INFORMATION
#MNEM                   .UNIT        API CODES                               DESCRIPTION
#________________________________________________________________________________________
TIME                    .s                                                  :01 TIME
DD_PRESS                .bar                                                :02 DRAW DOWN PRESSURE
DD_VOLUME               .cm3                                                :03 INCREMENTAL DRAW DOWN VOLUME
TEMP                    .degC                                               :04 TRANSDUCER TEMPERATURE
DD_PRESS_MOD_1000       .bar                                                :05 DRAW DOWN PRESSURE MOD 1000
DD_PRESS_MOD_100        .bar                                                :06 DRAW DOWN PRESSURE MOD 100
DD_PRESS_MOD_10         .bar                                                :07 DRAW DOWN PRESSURE MOD 10
DD_PRESS_MOD_1          .bar                                                :08 DRAW DOWN PRESSURE MOD 1
DD_PRESS_MOD_01         .bar                                                :09 DRAW DOWN PRESSURE MOD 01
DD_PRESS_MOD_001        .bar                                                :10 DRAW DOWN PRESSURE MOD 001
DD_PRESS_MOD_0001       .bar                                                :11 DRAW DOWN PRESSURE MOD 0001


~PARAMETER INFORMATION
#MNEM                   .UNIT        VALUE                                   DESCRIPTION
#________________________________________________________________________________________
TOOLFACE                .deg         61.5                                   :01 TOOLFACE
PUMP_CAPACITY           .bar         400                                    :02 NOMINAL DRAW DOWN PUMP CAPACITY
PUMP_LIMIT              .bar         240                                    :03 DOWNLINK PUMP LIMIT
TIME_LIMIT              .min         10                                     :04 DOWNLINK MAX TIME
TEST_TYPE               .            REPEAT                                 :05 DOWNLINK
TEST_TYPE               .            HIGH MOBILITY                          :06 DOWNLINK
DD_PIST_A               .cm2         3.1416                                 :07 DRAW DOWN PISTON AREA
V_SYS                   .cm3         131.0000                               :08 SYSTEM VOLUME
PROBE_ID                .cm          1.2700                                 :09 TTK PROBE ID
G0                      .            4.6700                                 :10 GEOMETRY FACTOR


~A                  TIME     DD_PRESS                              DD_VOLUME               TEMP                                   DD_PRESS_MOD_1000       DD_PRESS_MOD_100        DD_PRESS_MOD_10         DD_PRESS_MOD_1        DD_PRESS_MOD_01       DD_PRESS_MOD_001      DD_PRESS_MOD_0001
# ...
                  136.50    343.78566                               19.78571             81.078                                        3.43786e+002           4.37857e+001           3.78566e+000           7.85660e-001           8.56601e-002           5.66008e-003           6.60079e-004
                  136.60    343.78585                               19.78571             81.078                                        3.43786e+002           4.37859e+001           3.78585e+000           7.85853e-001           8.58525e-002           5.85251e-003           8.52512e-004
                  136.70    343.78490                               19.78571             81.078                                        3.43785e+002           4.37849e+001           3.78490e+000           7.84904e-001           8.49044e-002           4.90441e-003           9.04407e-004
                  136.80    343.78416                               19.78571             81.078                                        3.43784e+002           4.37842e+001           3.78416e+000           7.84156e-001           8.41557e-002           4.15569e-003           1.55690e-004
                  136.90    343.76823                               19.78703             81.078                                        3.43768e+002           4.37682e+001           3.76823e+000           7.68234e-001           6.82339e-002           8.23392e-003           2.33921e-004
                  137.00    343.57164                               19.83239             81.078                                        3.43572e+002           4.35716e+001           3.57164e+000           5.71642e-001           7.16424e-002           1.64242e-003           6.42416e-004
                  137.10    343.24273                               19.99200             81.078                                        3.43243e+002           4.32427e+001           3.24273e+000           2.42733e-001           4.27326e-002           2.73259e-003           7.32595e-004
                  137.20    343.03535                               20.25599             81.078                                        3.43035e+002           4.30354e+001           3.03535e+000           3.53546e-002           3.53546e-002           5.35465e-003           3.54645e-004
                  137.30    343.00385                               20.54937             81.078                                        3.43004e+002           4.30039e+001           3.00385e+000           3.85335e-003           3.85335e-003           3.85335e-003           8.53348e-004
                  137.40    342.99389                               20.84376             81.078                                        3.42994e+002           4.29939e+001           2.99389e+000           9.93888e-001           9.38877e-002           3.88774e-003           8.87737e-004
                  137.50    342.98659                               21.13862             81.078                                        3.42987e+002           4.29866e+001           2.98659e+000           9.86586e-001           8.65865e-002           6.58648e-003           5.86480e-004
                  137.60    342.98162                               21.43352             81.078                                        3.42982e+002           4.29816e+001           2.98162e+000           9.81621e-001           8.16215e-002           1.62146e-003           6.21463e-004
                  137.70    342.97870                               21.72847             81.078                                        3.42979e+002           4.29787e+001           2.97870e+000           9.78698e-001           7.86979e-002           8.69786e-003           6.97857e-004
                  137.80    342.97596                               22.02340             81.078                                        3.42976e+002           4.29760e+001           2.97596e+000           9.75958e-001           7.59576e-002           5.95762e-003           9.57618e-004
                  137.90    342.96927                               22.31839             81.078                                        3.42969e+002           4.29693e+001           2.96927e+000           9.69270e-001           6.92703e-002           9.27029e-003           2.70290e-004
                  138.00    342.96512                               22.61336             81.078                                        3.42965e+002           4.29651e+001           2.96512e+000           9.65117e-001           6.51168e-002           5.11678e-003           1.16776e-004
                  138.10    342.96613                               22.90826             81.078                                        3.42966e+002           4.29661e+001           2.96613e+000           9.66130e-001           6.61301e-002           6.13011e-003           1.30114e-004
                  138.20    342.96529                               23.20325             81.078                                        3.42965e+002           4.29653e+001           2.96529e+000           9.65287e-001           6.52871e-002           5.28708e-003           2.87076e-004
                  138.30    342.96188                               23.49814             81.078                                        3.42962e+002           4.29619e+001           2.96188e+000           9.61878e-001           6.18781e-002           1.87811e-003           8.78114e-004
                  138.40    342.96162                               23.79307             81.078                                        3.42962e+002           4.29616e+001           2.96162e+000           9.61623e-001           6.16231e-002           1.62309e-003           6.23095e-004
                  138.50    342.96236                               24.08803             81.078                                        3.42962e+002           4.29624e+001           2.96236e+000           9.62357e-001           6.23570e-002           2.35698e-003           3.56981e-004
                  138.60    342.96248                               24.38299             81.078                                        3.42962e+002           4.29625e+001           2.96248e+000           9.62476e-001           6.24755e-002           2.47553e-003           4.75526e-004
                  138.70    342.95885                               24.67795             81.078                                        3.42959e+002           4.29588e+001           2.95885e+000           9.58847e-001           5.88473e-002           8.84725e-003           8.47252e-004
                  138.80    342.95712                               24.97285             81.078                                        3.42957e+002           4.29571e+001           2.95712e+000           9.57118e-001           5.71180e-002           7.11795e-003           1.17954e-004
                  138.90    342.95837                               25.26773             81.078                                        3.42958e+002           4.29584e+001           2.95837e+000           9.58367e-001           5.83665e-002           8.36652e-003           3.66524e-004
                  139.00    342.96043                               25.56274             81.078                                        3.42960e+002           4.29604e+001           2.96043e+000           9.60428e-001           6.04278e-002           4.27765e-004           4.27765e-004
                  139.10    342.95960                               25.85777             81.078                                        3.42960e+002           4.29596e+001           2.95960e+000           9.59596e-001           5.95963e-002           9.59629e-003           5.96286e-004
                  139.20    342.95625                               26.15270             81.078                                        3.42956e+002           4.29562e+001           2.95625e+000           9.56247e-001           5.62472e-002           6.24720e-003           2.47195e-004
