~VERSION INFORMATION
VERS                    .            2.0                                    :CWLS LOG ASCII STANDARD
WRAP                    .            NO                                     :ONE LINE PER TIME STEP


~WELL INFORMATION
#MNEM                   .UNIT        DATA                                    DESCRIPTION
#________________________________________________________________________________________
STRTTIME                .HH/MM/SS    01:44:52                               :START TIME
STOPTIME                .HH/MM/SS    01:47:47                               :STOP TIME
STRT                    .s           2.10                                   :START DATA
STOP                    .s           173.40                                 :STOP DATA
STEP                    .s           0.10                                   :MEASUREMENT TIME INTERVAL
NULL                    .            -999.25                                :NULL VALUE
COMP                    .            Statoil ASA                            :COMPANY
FLD                     .            Volve                                  :FIELD
WELL                    .            15/9-F-1 C                             :WELL
RUN                     .            4                                      :RUN
LOC                     .                                                   :LOCATION
PROV                    .            na                                     :PROVINCE
SRVC                    .            Baker Hughes INTEQ                     :SERVICE COMPANY
DATE                    .YY/MM/DD    14/03/15                               :LOG DATE
UWI                     .                                                   :UNIQUE WELL ID
DEPTHMD                 .m           3620.2                                 :MEASURED DEPTH
DEPTHTVD                .m           3012.3                                 :TRUE VERTICAL DEPTH


~CURVE INFORMATION
#MNEM                   .UNIT        API CODES                               DESCRIPTION
#________________________________________________________________________________________
TIME                    .s                                                  :01 TIME
DD_PRESS                .bar                                                :02 DRAW DOWN PRESSURE
DD_VOLUME               .cm3                                                :03 INCREMENTAL DRAW DOWN VOLUME
TEMP                    .degC                                               :04 TRANSDUCER TEMPERATURE
DD_PRESS_MOD_1000       .bar                                                :05 DRAW DOWN PRESSURE MOD 1000
DD_PRESS_MOD_100        .bar                                                :06 DRAW DOWN PRESSURE MOD 100
DD_PRESS_MOD_10         .bar                                                :07 DRAW DOWN PRESSURE MOD 10
DD_PRESS_MOD_1          .bar                                                :08 DRAW DOWN PRESSURE MOD 1
DD_PRESS_MOD_01         .bar                                                :09 DRAW DOWN PRESSURE MOD 01
DD_PRESS_MOD_001        .bar                                                :10 DRAW DOWN PRESSURE MOD 001
DD_PRESS_MOD_0001       .bar                                                :11 DRAW DOWN PRESSURE MOD 0001


~PARAMETER INFORMATION
#MNEM                   .UNIT        VALUE                                   DESCRIPTION
#________________________________________________________________________________________
TOOLFACE                .deg         108.7                                  :01 TOOLFACE
PUMP_CAPACITY           .bar         400                                    :02 NOMINAL DRAW DOWN PUMP CAPACITY
PUMP_LIMIT              .bar         240                                    :03 DOWNLINK PUMP LIMIT
TIME_LIMIT              .min         10                                     :04 DOWNLINK MAX TIME
TEST_TYPE               .            REPEAT                                 :05 DOWNLINK
TEST_TYPE               .            HIGH MOBILITY                          :06 DOWNLINK
DD_PIST_A               .cm2         3.1416                                 :07 DRAW DOWN PISTON AREA
V_SYS                   .cm3         131.0000                               :08 SYSTEM VOLUME
PROBE_ID                .cm          1.2700                                 :09 TTK PROBE ID
G0                      .            4.6700                                 :10 GEOMETRY FACTOR


~A                  TIME     DD_PRESS                              DD_VOLUME               TEMP                                   DD_PRESS_MOD_1000       DD_PRESS_MOD_100        DD_PRESS_MOD_10         DD_PRESS_MOD_1        DD_PRESS_MOD_01       DD_PRESS_MOD_001      DD_PRESS_MOD_0001
# ...
                  125.30    344.35075                               29.45288             87.094                                        3.44351e+002           4.43508e+001           4.35075e+000           3.50753e-001           5.07533e-002           7.53265e-004           7.53265e-004
                  125.40    344.35175                               29.45288             87.094                                        3.44352e+002           4.43518e+001           4.35175e+000           3.51754e-001           5.17543e-002           1.75427e-003           7.54268e-004
                  125.50    344.35424                               29.45288             87.094                                        3.44354e+002           4.43542e+001           4.35424e+000           3.54242e-001           5.42418e-002           4.24185e-003           2.41849e-004
                  125.60    344.35488                               29.45288             87.094                                        3.44355e+002           4.43549e+001           4.35488e+000           3.54875e-001           5.48753e-002           4.87533e-003           8.75332e-004
                  125.70    344.35280                               29.45288             87.094                                        3.44353e+002           4.43528e+001           4.35280e+000           3.52795e-001           5.27954e-002           2.79543e-003           7.95427e-004
                  125.80    344.35028                               29.45288             87.094                                        3.44350e+002           4.43503e+001           4.35028e+000           3.50283e-001           5.02832e-002           2.83243e-004           2.83243e-004
                  125.90    344.34951                               29.45288             87.094                                        3.44350e+002           4.43495e+001           4.34951e+000           3.49514e-001           4.95145e-002           9.51449e-003           5.14493e-004
                  126.00    344.35053                               29.45288             87.094                                        3.44351e+002           4.43505e+001           4.35053e+000           3.50526e-001           5.05257e-002           5.25693e-004           5.25693e-004
                  126.10    344.35343                               29.45288             87.094                                        3.44353e+002           4.43534e+001           4.35343e+000           3.53433e-001           5.34328e-002           3.43280e-003           4.32800e-004
                  126.20    344.35481                               29.45288             87.094                                        3.44355e+002           4.43548e+001           4.35481e+000           3.54814e-001           5.48138e-002           4.81381e-003           8.13813e-004
                  126.30    344.35456                               29.45288             87.094                                        3.44355e+002           4.43546e+001           4.35456e+000           3.54564e-001           5.45639e-002           4.56394e-003           5.63937e-004
                  126.40    344.35439                               29.45288             87.094                                        3.44354e+002           4.43544e+001           4.35439e+000           3.54387e-001           5.43875e-002           4.38749e-003           3.87486e-004
                  126.50    344.35433                               29.45288             87.094                                        3.44354e+002           4.43543e+001           4.35433e+000           3.54325e-001           5.43253e-002           4.32532e-003           3.25321e-004
                  126.60    344.35534                               29.45288             87.094                                        3.44355e+002           4.43553e+001           4.35534e+000           3.55341e-001           5.53412e-002           5.34118e-003           3.41177e-004
                  126.70    344.35371                               29.45288             87.094                                        3.44354e+002           4.43537e+001           4.35371e+000           3.53707e-001           5.37067e-002           3.70672e-003           7.06716e-004
                  126.80    344.35078                               29.45288             87.094                                        3.44351e+002           4.43508e+001           4.35078e+000           3.50779e-001           5.07792e-002           7.79229e-004           7.79229e-004
                  126.90    344.35083                               29.45288             87.094                                        3.44351e+002           4.43508e+001           4.35083e+000           3.50831e-001           5.08313e-002           8.31339e-004           8.31339e-004
                  127.00    344.35178                               29.45288             87.094                                        3.44352e+002           4.43518e+001           4.35178e+000           3.51784e-001           5.17836e-002           1.78362e-003           7.83622e-004
                  127.10    344.35122                               29.45288             87.094                                        3.44351e+002           4.43512e+001           4.35122e+000           3.51219e-001           5.12189e-002           1.21894e-003           2.18942e-004
                  127.20    344.35089                               29.45288             87.094                                        3.44351e+002           4.43509e+001           4.35089e+000           3.50887e-001           5.08871e-002           8.87059e-004           8.87059e-004
                  127.30    344.35161                               29.45288             87.094                                        3.44352e+002           4.43516e+001           4.35161e+000           3.51606e-001           5.16058e-002           1.60583e-003           6.05825e-004
                  127.40    344.35251                               29.45288             87.094                                        3.44353e+002           4.43525e+001           4.35251e+000           3.52514e-001           5.25138e-002           2.51383e-003           5.13827e-004
                  127.50    344.35176                               29.45288             87.094                                        3.44352e+002           4.43518e+001           4.35176e+000           3.51762e-001           5.17620e-002           1.76202e-003           7.62024e-004
                  127.60    344.35238                               29.45288             87.094                                        3.44352e+002           4.43524e+001           4.35238e+000           3.52381e-001           5.23812e-002           2.38115e-003           3.81154e-004
                  127.70    344.35290                               29.45288             87.094                                        3.44353e+002           4.43529e+001           4.35290e+000           3.52898e-001           5.28984e-002           2.89841e-003           8.98408e-004
                  127.80    344.35100                               29.45288             87.094                                        3.44351e+002           4.43510e+001           4.35100e+000           3.51001e-001           5.10008e-002           1.00077e-003           7.67563e-007
                  127.90    344.35002                               29.45288             87.094                                        3.44350e+002           4.43500e+001           4.35002e+000           3.50017e-001           5.00166e-002           1.65571e-005           1.65571e-005
                  128.00    344.35128                               29.45288             87.094                                        3.44351e+002           4.43513e+001           4.35128e+000           3.51277e-001           5.12773e-002           1.27735e-003           2.77349e-004
