~VERSION INFORMATION
VERS                    .            2.0                                    :CWLS LOG ASCII STANDARD
WRAP                    .            NO                                     :ONE LINE PER TIME STEP


~WELL INFORMATION
#MNEM                   .UNIT        DATA                                    DESCRIPTION
#________________________________________________________________________________________
STRTTIME                .HH/MM/SS    16:20:20                               :START TIME
STOPTIME                .HH/MM/SS    16:23:23                               :STOP TIME
STRT                    .s           2.10                                   :START DATA
STOP                    .s           182.00                                 :STOP DATA
STEP                    .s           0.10                                   :MEASUREMENT TIME INTERVAL
NULL                    .            -999.25                                :NULL VALUE
COMP                    .            Statoil ASA                            :COMPANY
FLD                     .            Volve                                  :FIELD
WELL                    .            15/9-F-1 B                             :WELL
RUN                     .            7                                      :RUN
LOC                     .            Maersk Inspirer                        :LOCATION
PROV                    .            na                                     :PROVINCE
SRVC                    .            Baker Hughes INTEQ                     :SERVICE COMPANY
DATE                    .YY/MM/DD    13/09/06                               :LOG DATE
UWI                     .                                                   :UNIQUE WELL ID
DEPTHMD                 .m           3255.0                                 :MEASURED DEPTH
DEPTHTVD                .m           3051.1                                 :TRUE VERTICAL DEPTH


~CURVE INFORMATION
#MNEM                   .UNIT        API CODES                               DESCRIPTION
#________________________________________________________________________________________
TIME                    .s                                                  :01 TIME
DD_PRESS                .bar                                                :02 DRAW DOWN PRESSURE
DD_VOLUME               .cm3                                                :03 INCREMENTAL DRAW DOWN VOLUME
TEMP                    .degC                                               :04 TRANSDUCER TEMPERATURE
DD_PRESS_MOD_1000       .bar                                                :05 DRAW DOWN PRESSURE MOD 1000
DD_PRESS_MOD_100        .bar                                                :06 DRAW DOWN PRESSURE MOD 100
DD_PRESS_MOD_10         .bar                                                :07 DRAW DOWN PRESSURE MOD 10
DD_PRESS_MOD_1          .bar                                                :08 DRAW DOWN PRESSURE MOD 1
DD_PRESS_MOD_01         .bar                                                :09 DRAW DOWN PRESSURE MOD 01
DD_PRESS_MOD_001        .bar                                                :10 DRAW DOWN PRESSURE MOD 001
DD_PRESS_MOD_0001       .bar                                                :11 DRAW DOWN PRESSURE MOD 0001


~PARAMETER INFORMATION
#MNEM                   .UNIT        VALUE                                   DESCRIPTION
#________________________________________________________________________________________
TOOLFACE                .deg         na                                     :01 TOOLFACE
PUMP_CAPACITY           .bar         400                                    :02 NOMINAL DRAW DOWN PUMP CAPACITY
PUMP_LIMIT              .bar         400                                    :03 DOWNLINK PUMP LIMIT
TIME_LIMIT              .min         10                                     :04 DOWNLINK MAX TIME
TEST_TYPE               .            LOW MOBILITY                           :05 DOWNLINK
DD_PIST_A               .cm2         3.1416                                 :06 DRAW DOWN PISTON AREA
V_SYS                   .cm3         131.0000                               :07 SYSTEM VOLUME
PROBE_ID                .cm          1.2700                                 :08 TTK PROBE ID
G0                      .            4.6700                                 :09 GEOMETRY FACTOR


~A                  TIME     DD_PRESS                              DD_VOLUME               TEMP                                   DD_PRESS_MOD_1000       DD_PRESS_MOD_100        DD_PRESS_MOD_10         DD_PRESS_MOD_1        DD_PRESS_MOD_01       DD_PRESS_MOD_001      DD_PRESS_MOD_0001
# ...
                   60.90    345.13249                               10.99651             81.789                                        3.45132e+002           4.51325e+001           5.13249e+000           1.32487e-001           3.24871e-002           2.48714e-003           4.87139e-004
                   61.00    345.11366                               10.99651             81.789                                        3.45114e+002           4.51137e+001           5.11366e+000           1.13655e-001           1.36554e-002           3.65537e-003           6.55370e-004
                   61.10    345.11867                               10.99651             81.789                                        3.45119e+002           4.51187e+001           5.11867e+000           1.18667e-001           1.86666e-002           8.66658e-003           6.66579e-004
                   61.20    345.13821                               10.99651             81.787                                        3.45138e+002           4.51382e+001           5.13821e+000           1.38214e-001           3.82140e-002           8.21397e-003           2.13968e-004
                   61.30    345.13334                               10.99651             81.783                                        3.45133e+002           4.51333e+001           5.13334e+000           1.33340e-001           3.33404e-002           3.34038e-003           3.40377e-004
                   61.40    345.11431                               10.99651             81.781                                        3.45114e+002           4.51143e+001           5.11431e+000           1.14308e-001           1.43077e-002           4.30769e-003           3.07689e-004
                   61.50    345.11734                               10.99651             81.781                                        3.45117e+002           4.51173e+001           5.11734e+000           1.17337e-001           1.73369e-002           7.33691e-003           3.36907e-004
                   61.60    345.12945                               10.99651             81.781                                        3.45129e+002           4.51294e+001           5.12945e+000           1.29448e-001           2.94478e-002           9.44782e-003           4.47821e-004
                   61.70    345.12508                               10.99651             81.784                                        3.45125e+002           4.51251e+001           5.12508e+000           1.25079e-001           2.50787e-002           5.07870e-003           7.86980e-005
                   61.80    345.11709                               10.99651             81.787                                        3.45117e+002           4.51171e+001           5.11709e+000           1.17088e-001           1.70881e-002           7.08813e-003           8.81327e-005
                   61.90    345.12001                               10.99651             81.789                                        3.45120e+002           4.51200e+001           5.12001e+000           1.20011e-001           2.00114e-002           1.13738e-005           1.13738e-005
                   62.00    345.12507                               10.99651             81.789                                        3.45125e+002           4.51251e+001           5.12507e+000           1.25067e-001           2.50673e-002           5.06726e-003           6.72619e-005
                   62.10    345.12799                               10.99651             81.787                                        3.45128e+002           4.51280e+001           5.12799e+000           1.27989e-001           2.79892e-002           7.98916e-003           9.89165e-004
                   62.20    345.13016                               10.99651             81.783                                        3.45130e+002           4.51302e+001           5.13016e+000           1.30164e-001           3.01637e-002           1.63673e-004           1.63673e-004
                   62.30    345.13557                               10.99651             81.781                                        3.45136e+002           4.51356e+001           5.13557e+000           1.35566e-001           3.55661e-002           5.56610e-003           5.66102e-004
                   62.40    345.13920                               10.99651             81.784                                        3.45139e+002           4.51392e+001           5.13920e+000           1.39201e-001           3.92010e-002           9.20103e-003           2.01027e-004
                   62.50    345.13189                               10.99651             81.787                                        3.45132e+002           4.51319e+001           5.13189e+000           1.31893e-001           3.18928e-002           1.89277e-003           8.92769e-004
                   62.60    345.11967                               10.99651             81.787                                        3.45120e+002           4.51197e+001           5.11967e+000           1.19672e-001           1.96720e-002           9.67200e-003           6.72004e-004
                   62.70    345.12732                               10.99651             81.783                                        3.45127e+002           4.51273e+001           5.12732e+000           1.27323e-001           2.73226e-002           7.32261e-003           3.22611e-004
                   62.80    345.13455                               10.99651             81.781                                        3.45135e+002           4.51346e+001           5.13455e+000           1.34550e-001           3.45502e-002           4.55017e-003           5.50168e-004
                   62.90    345.12426                               10.99651             81.784                                        3.45124e+002           4.51243e+001           5.12426e+000           1.24256e-001           2.42562e-002           4.25625e-003           2.56248e-004
                   63.00    345.11193                               10.99651             81.787                                        3.45112e+002           4.51119e+001           5.11193e+000           1.11932e-001           1.19315e-002           1.93151e-003           9.31513e-004
                   63.10    345.12679                               10.99651             81.787                                        3.45127e+002           4.51268e+001           5.12679e+000           1.26792e-001           2.67919e-002           6.79188e-003           7.91878e-004
                   63.20    345.14203                               10.99651             81.783                                        3.45142e+002           4.51420e+001           5.14203e+000           1.42034e-001           4.20338e-002           2.03376e-003           3.37597e-005
                   63.30    345.12702                               10.99651             81.781                                        3.45127e+002           4.51270e+001           5.12702e+000           1.27023e-001           2.70231e-002           7.02310e-003           2.31033e-005
                   63.40    345.10773                               10.99651             81.781                                        3.45108e+002           4.51077e+001           5.10773e+000           1.07731e-001           7.73078e-003           7.73078e-003           7.30776e-004
                   63.50    345.11911                               10.99651             81.781                                        3.45119e+002           4.51191e+001           5.11911e+000           1.19107e-001           1.91074e-002           9.10740e-003           1.07405e-004
                   63.60    345.13426                               10.99651             81.781                                        3.45134e+002           4.51343e+001           5.13426e+000           1.34260e-001           3.42603e-002           4.26029e-003           2.60290e-004
