~VERSION INFORMATION
VERS                    .            2.0                                    :CWLS LOG ASCII STANDARD
WRAP                    .            NO                                     :ONE LINE PER TIME STEP


~WELL INFORMATION
#MNEM                   .UNIT        DATA                                    DESCRIPTION
#________________________________________________________________________________________
STRTTIME                .HH/MM/SS    10:02:47                               :START TIME
STOPTIME                .HH/MM/SS    10:07:04                               :STOP TIME
STRT                    .s           2.10                                   :START DATA
STOP                    .s           255.20                                 :STOP DATA
STEP                    .s           0.10                                   :MEASUREMENT TIME INTERVAL
NULL                    .            -999.25                                :NULL VALUE
COMP                    .            Statoil ASA                            :COMPANY
FLD                     .            Volve                                  :FIELD
WELL                    .            15/9-F-11 A                            :WELL
RUN                     .            8                                      :RUN
LOC                     .            Maersk Inspirer                        :LOCATION
PROV                    .            na                                     :PROVINCE
SRVC                    .            Baker Hughes INTEQ                     :SERVICE COMPANY
DATE                    .YY/MM/DD    13/05/21                               :LOG DATE
UWI                     .                                                   :UNIQUE WELL ID
DEPTHMD                 .m           3657.3                                 :MEASURED DEPTH
DEPTHTVD                .m           3046.2                                 :TRUE VERTICAL DEPTH


~CURVE INFORMATION
#MNEM                   .UNIT        API CODES                               DESCRIPTION
#________________________________________________________________________________________
TIME                    .s                                                  :01 TIME
DD_PRESS                .bar                                                :02 DRAW DOWN PRESSURE
DD_VOLUME               .cm3                                                :03 INCREMENTAL DRAW DOWN VOLUME
TEMP                    .degC                                               :04 TRANSDUCER TEMPERATURE
DD_PRESS_MOD_1000       .bar                                                :05 DRAW DOWN PRESSURE MOD 1000
DD_PRESS_MOD_100        .bar                                                :06 DRAW DOWN PRESSURE MOD 100
DD_PRESS_MOD_10         .bar                                                :07 DRAW DOWN PRESSURE MOD 10
DD_PRESS_MOD_1          .bar                                                :08 DRAW DOWN PRESSURE MOD 1
DD_PRESS_MOD_01         .bar                                                :09 DRAW DOWN PRESSURE MOD 01
DD_PRESS_MOD_001        .bar                                                :10 DRAW DOWN PRESSURE MOD 001
DD_PRESS_MOD_0001       .bar                                                :11 DRAW DOWN PRESSURE MOD 0001


~PARAMETER INFORMATION
#MNEM                   .UNIT        VALUE                                   DESCRIPTION
#________________________________________________________________________________________
TOOLFACE                .deg         60.1                                   :01 TOOLFACE
PUMP_CAPACITY           .bar         400                                    :02 NOMINAL DRAW DOWN PUMP CAPACITY
PUMP_LIMIT              .bar         240                                    :03 DOWNLINK PUMP LIMIT
TIME_LIMIT              .min         10                                     :04 DOWNLINK MAX TIME
TEST_TYPE               .            REPEAT                                 :05 DOWNLINK
TEST_TYPE               .            HIGH MOBILITY                          :06 DOWNLINK
DD_PIST_A               .cm2         3.1416                                 :07 DRAW DOWN PISTON AREA
V_SYS                   .cm3         131.0000                               :08 SYSTEM VOLUME
PROBE_ID                .cm          1.2700                                 :09 TTK PROBE ID
G0                      .            4.6700                                 :10 GEOMETRY FACTOR


~A                  TIME     DD_PRESS                              DD_VOLUME               TEMP                                   DD_PRESS_MOD_1000       DD_PRESS_MOD_100        DD_PRESS_MOD_10         DD_PRESS_MOD_1        DD_PRESS_MOD_01       DD_PRESS_MOD_001      DD_PRESS_MOD_0001
# ...
                  102.90    344.39866                               10.48171             82.133                                        3.44399e+002           4.43987e+001           4.39866e+000           3.98662e-001           9.86623e-002           8.66233e-003           6.62330e-004
                  103.00    344.39961                               10.48171             82.133                                        3.44400e+002           4.43996e+001           4.39961e+000           3.99607e-001           9.96073e-002           9.60730e-003           6.07304e-004
                  103.10    344.39846                               10.48171             82.133                                        3.44398e+002           4.43985e+001           4.39846e+000           3.98458e-001           9.84580e-002           8.45797e-003           4.57968e-004
                  103.20    344.40260                               10.48171             82.133                                        3.44403e+002           4.44026e+001           4.40260e+000           4.02598e-001           2.59767e-003           2.59767e-003           5.97671e-004
                  103.30    344.40230                               10.48171             82.133                                        3.44402e+002           4.44023e+001           4.40230e+000           4.02301e-001           2.30142e-003           2.30142e-003           3.01420e-004
                  103.40    344.39694                               10.48171             82.133                                        3.44397e+002           4.43969e+001           4.39694e+000           3.96941e-001           9.69414e-002           6.94143e-003           9.41434e-004
                  103.50    344.39566                               10.48171             82.133                                        3.44396e+002           4.43957e+001           4.39566e+000           3.95657e-001           9.56566e-002           5.65657e-003           6.56566e-004
                  103.60    344.40148                               10.48171             82.133                                        3.44401e+002           4.44015e+001           4.40148e+000           4.01484e-001           1.48434e-003           1.48434e-003           4.84343e-004
                  103.70    344.40574                               10.48171             82.133                                        3.44406e+002           4.44057e+001           4.40574e+000           4.05743e-001           5.74287e-003           5.74287e-003           7.42869e-004
                  103.80    344.39613                               10.48171             82.133                                        3.44396e+002           4.43961e+001           4.39613e+000           3.96133e-001           9.61327e-002           6.13266e-003           1.32656e-004
                  103.90    344.38848                               10.48171             82.133                                        3.44388e+002           4.43885e+001           4.38848e+000           3.88483e-001           8.84827e-002           8.48266e-003           4.82656e-004
                  104.00    344.40073                               10.48171             82.133                                        3.44401e+002           4.44007e+001           4.40073e+000           4.00726e-001           7.26140e-004           7.26140e-004           7.26140e-004
                  104.10    344.41081                               10.48171             82.130                                        3.44411e+002           4.44108e+001           4.41081e+000           4.10813e-001           1.08133e-002           8.13295e-004           8.13295e-004
                  104.20    344.40009                               10.48171             82.129                                        3.44400e+002           4.44001e+001           4.40009e+000           4.00093e-001           9.33552e-005           9.33552e-005           9.33552e-005
                  104.30    344.39332                               10.48171             82.129                                        3.44393e+002           4.43933e+001           4.39332e+000           3.93323e-001           9.33233e-002           3.32328e-003           3.23282e-004
                  104.40    344.40086                               10.48171             82.129                                        3.44401e+002           4.44009e+001           4.40086e+000           4.00865e-001           8.64914e-004           8.64914e-004           8.64914e-004
                  104.50    344.40528                               10.48171             82.129                                        3.44405e+002           4.44053e+001           4.40528e+000           4.05280e-001           5.27963e-003           5.27963e-003           2.79632e-004
                  104.60    344.39552                               10.48171             82.127                                        3.44396e+002           4.43955e+001           4.39552e+000           3.95518e-001           9.55181e-002           5.51813e-003           5.18128e-004
                  104.70    344.39276                               10.48171             82.125                                        3.44393e+002           4.43928e+001           4.39276e+000           3.92755e-001           9.27554e-002           2.75538e-003           7.55380e-004
                  104.80    344.40787                               10.48171             82.125                                        3.44408e+002           4.44079e+001           4.40787e+000           4.07870e-001           7.87010e-003           7.87010e-003           8.70101e-004
                  104.90    344.41633                               10.48171             82.125                                        3.44416e+002           4.44163e+001           4.41633e+000           4.16327e-001           1.63266e-002           6.32657e-003           3.26566e-004
                  105.00    344.40520                               10.48171             82.125                                        3.44405e+002           4.44052e+001           4.40520e+000           4.05202e-001           5.20169e-003           5.20169e-003           2.01690e-004
                  105.10    344.39487                               10.48171             82.125                                        3.44395e+002           4.43949e+001           4.39487e+000           3.94869e-001           9.48686e-002           4.86858e-003           8.68580e-004
                  105.20    344.39398                               10.48171             82.125                                        3.44394e+002           4.43940e+001           4.39398e+000           3.93982e-001           9.39823e-002           3.98229e-003           9.82294e-004
                  105.30    344.39501                               10.48171             82.127                                        3.44395e+002           4.43950e+001           4.39501e+000           3.95006e-001           9.50061e-002           5.00608e-003           6.08154e-006
                  105.40    344.39211                               10.48171             82.129                                        3.44392e+002           4.43921e+001           4.39211e+000           3.92107e-001           9.21075e-002           2.10750e-003           1.07497e-004
                  105.50    344.39401                               10.48171             82.127                                        3.44394e+002           4.43940e+001           4.39401e+000           3.94014e-001           9.40142e-002           4.01423e-003           1.42326e-005
                  105.60    344.39938                               10.48171             82.125                                        3.44399e+002           4.43994e+001           4.39938e+000           3.99376e-001           9.93763e-002           9.37629e-003           3.76285e-004
