~VERSION INFORMATION
VERS                    .            2.0                                    :CWLS LOG ASCII STANDARD
WRAP                    .            NO                                     :ONE LINE PER TIME STEP


~WELL INFORMATION
#MNEM                   .UNIT        DATA                                    DESCRIPTION
#________________________________________________________________________________________
STRTTIME                .HH/MM/SS    15:31:36                               :START TIME
STOPTIME                .HH/MM/SS    15:34:21                               :STOP TIME
STRT                    .s           2.10                                   :START DATA
STOP                    .s           163.50                                 :STOP DATA
STEP                    .s           0.10                                   :MEASUREMENT TIME INTERVAL
NULL                    .            -999.25                                :NULL VALUE
COMP                    .            Statoil ASA                            :COMPANY
FLD                     .            Volve                                  :FIELD
WELL                    .            15/9-F-11 A                            :WELL
RUN                     .            8                                      :RUN
LOC                     .            Maersk Inspirer                        :LOCATION
PROV                    .            na                                     :PROVINCE
SRVC                    .            Baker Hughes INTEQ                     :SERVICE COMPANY
DATE                    .YY/MM/DD    13/05/21                               :LOG DATE
UWI                     .                                                   :UNIQUE WELL ID
DEPTHMD                 .m           3617.2                                 :MEASURED DEPTH
DEPTHTVD                .m           3015.5                                 :TRUE VERTICAL DEPTH


~CURVE INFORMATION
#MNEM                   .UNIT        API CODES                               DESCRIPTION
#________________________________________________________________________________________
TIME                    .s                                                  :01 TIME
DD_PRESS                .bar                                                :02 DRAW DOWN PRESSURE
DD_VOLUME               .cm3                                                :03 INCREMENTAL DRAW DOWN VOLUME
TEMP                    .degC                                               :04 TRANSDUCER TEMPERATURE
DD_PRESS_MOD_1000       .bar                                                :05 DRAW DOWN PRESSURE MOD 1000
DD_PRESS_MOD_100        .bar                                                :06 DRAW DOWN PRESSURE MOD 100
DD_PRESS_MOD_10         .bar                                                :07 DRAW DOWN PRESSURE MOD 10
DD_PRESS_MOD_1          .bar                                                :08 DRAW DOWN PRESSURE MOD 1
DD_PRESS_MOD_01         .bar                                                :09 DRAW DOWN PRESSURE MOD 01
DD_PRESS_MOD_001        .bar                                                :10 DRAW DOWN PRESSURE MOD 001
DD_PRESS_MOD_0001       .bar                                                :11 DRAW DOWN PRESSURE MOD 0001


~PARAMETER INFORMATION
#MNEM                   .UNIT        VALUE                                   DESCRIPTION
#________________________________________________________________________________________
TOOLFACE                .deg         63.0                                   :01 TOOLFACE
PUMP_CAPACITY           .bar         400                                    :02 NOMINAL DRAW DOWN PUMP CAPACITY
PUMP_LIMIT              .bar         240                                    :03 DOWNLINK PUMP LIMIT
TIME_LIMIT              .min         10                                     :04 DOWNLINK MAX TIME
TEST_TYPE               .            HIGH MOBILITY                          :05 DOWNLINK
DD_PIST_A               .cm2         3.1416                                 :06 DRAW DOWN PISTON AREA
V_SYS                   .cm3         131.0000                               :07 SYSTEM VOLUME
PROBE_ID                .cm          1.2700                                 :08 TTK PROBE ID
G0                      .            4.6700                                 :09 GEOMETRY FACTOR


~A                  TIME     DD_PRESS                              DD_VOLUME               TEMP                                   DD_PRESS_MOD_1000       DD_PRESS_MOD_100        DD_PRESS_MOD_10         DD_PRESS_MOD_1        DD_PRESS_MOD_01       DD_PRESS_MOD_001      DD_PRESS_MOD_0001
# ...
                   66.50    341.69673                               10.92973             80.109                                        3.41697e+002           4.16967e+001           1.69673e+000           6.96725e-001           9.67253e-002           6.72534e-003           7.25338e-004
                   66.60    341.69982                               10.92973             80.109                                        3.41700e+002           4.16998e+001           1.69982e+000           6.99823e-001           9.98229e-002           9.82287e-003           8.22868e-004
                   66.70    341.69760                               10.92973             80.109                                        3.41698e+002           4.16976e+001           1.69760e+000           6.97601e-001           9.76014e-002           7.60144e-003           6.01440e-004
                   66.80    341.69381                               10.92973             80.109                                        3.41694e+002           4.16938e+001           1.69381e+000           6.93810e-001           9.38100e-002           3.81001e-003           8.10008e-004
                   66.90    341.69409                               10.92973             80.109                                        3.41694e+002           4.16941e+001           1.69409e+000           6.94085e-001           9.40853e-002           4.08533e-003           8.53305e-005
                   67.00    341.69792                               10.92973             80.109                                        3.41698e+002           4.16979e+001           1.69792e+000           6.97920e-001           9.79201e-002           7.92006e-003           9.20063e-004
                   67.10    341.70036                               10.92973             80.109                                        3.41700e+002           4.17004e+001           1.70036e+000           7.00363e-001           3.62667e-004           3.62667e-004           3.62667e-004
                   67.20    341.69717                               10.92973             80.109                                        3.41697e+002           4.16972e+001           1.69717e+000           6.97174e-001           9.71740e-002           7.17403e-003           1.74026e-004
                   67.30    341.69583                               10.92973             80.112                                        3.41696e+002           4.16958e+001           1.69583e+000           6.95826e-001           9.58255e-002           5.82555e-003           8.25546e-004
                   67.40    341.69684                               10.92973             80.115                                        3.41697e+002           4.16968e+001           1.69684e+000           6.96838e-001           9.68384e-002           6.83841e-003           8.38407e-004
                   67.50    341.69669                               10.92973             80.117                                        3.41697e+002           4.16967e+001           1.69669e+000           6.96694e-001           9.66942e-002           6.69418e-003           6.94176e-004
                   67.60    341.69699                               10.92973             80.117                                        3.41697e+002           4.16970e+001           1.69699e+000           6.96994e-001           9.69941e-002           6.99407e-003           9.94074e-004
                   67.70    341.69848                               10.92973             80.117                                        3.41698e+002           4.16985e+001           1.69848e+000           6.98475e-001           9.84753e-002           8.47529e-003           4.75294e-004
                   67.80    341.69817                               10.92973             80.117                                        3.41698e+002           4.16982e+001           1.69817e+000           6.98171e-001           9.81712e-002           8.17122e-003           1.71224e-004
                   67.90    341.69524                               10.92973             80.117                                        3.41695e+002           4.16952e+001           1.69524e+000           6.95237e-001           9.52370e-002           5.23696e-003           2.36964e-004
                   68.00    341.69628                               10.92973             80.117                                        3.41696e+002           4.16963e+001           1.69628e+000           6.96283e-001           9.62830e-002           6.28299e-003           2.82986e-004
                   68.10    341.69859                               10.92973             80.117                                        3.41699e+002           4.16986e+001           1.69859e+000           6.98587e-001           9.85869e-002           8.58694e-003           5.86941e-004
                   68.20    341.69835                               10.92973             80.117                                        3.41698e+002           4.16984e+001           1.69835e+000           6.98352e-001           9.83522e-002           8.35223e-003           3.52233e-004
                   68.30    341.69721                               10.92973             80.117                                        3.41697e+002           4.16972e+001           1.69721e+000           6.97209e-001           9.72095e-002           7.20949e-003           2.09489e-004
                   68.40    341.69511                               10.92973             80.117                                        3.41695e+002           4.16951e+001           1.69511e+000           6.95111e-001           9.51113e-002           5.11128e-003           1.11285e-004
                   68.50    341.69768                               10.92973             80.117                                        3.41698e+002           4.16977e+001           1.69768e+000           6.97680e-001           9.76802e-002           7.68020e-003           6.80202e-004
                   68.60    341.70076                               10.92973             80.117                                        3.41701e+002           4.17008e+001           1.70076e+000           7.00764e-001           7.63716e-004           7.63716e-004           7.63716e-004
                   68.70    341.69684                               10.92973             80.117                                        3.41697e+002           4.16968e+001           1.69684e+000           6.96839e-001           9.68393e-002           6.83932e-003           8.39322e-004
                   68.80    341.69487                               10.92973             80.117                                        3.41695e+002           4.16949e+001           1.69487e+000           6.94868e-001           9.48679e-002           4.86790e-003           8.67898e-004
                   68.90    341.69684                               10.92973             80.117                                        3.41697e+002           4.16968e+001           1.69684e+000           6.96842e-001           9.68418e-002           6.84177e-003           8.41767e-004
                   69.00    341.69675                               10.92973             80.117                                        3.41697e+002           4.16968e+001           1.69675e+000           6.96754e-001           9.67544e-002           6.75445e-003           7.54450e-004
                   69.10    341.69597                               10.92973             80.117                                        3.41696e+002           4.16960e+001           1.69597e+000           6.95967e-001           9.59671e-002           5.96707e-003           9.67072e-004
                   69.20    341.69627                               10.92973             80.117                                        3.41696e+002           4.16963e+001           1.69627e+000           6.96274e-001           9.62745e-002           6.27448e-003           2.74481e-004
