~VERSION INFORMATION
VERS                    .            2.0                                    :CWLS LOG ASCII STANDARD
WRAP                    .            NO                                     :ONE LINE PER TIME STEP


~WELL INFORMATION
#MNEM                   .UNIT        DATA                                    DESCRIPTION
#________________________________________________________________________________________
STRTTIME                .HH/MM/SS    11:07:04                               :START TIME
STOPTIME                .HH/MM/SS    11:10:49                               :STOP TIME
STRT                    .s           2.10                                   :START DATA
STOP                    .s           223.10                                 :STOP DATA
STEP                    .s           0.10                                   :MEASUREMENT TIME INTERVAL
NULL                    .            -999.25                                :NULL VALUE
COMP                    .            Statoil ASA                            :COMPANY
FLD                     .            Volve                                  :FIELD
WELL                    .            15/9-F-11 A                            :WELL
RUN                     .            8                                      :RUN
LOC                     .            Maersk Inspirer                        :LOCATION
PROV                    .            na                                     :PROVINCE
SRVC                    .            Baker Hughes INTEQ                     :SERVICE COMPANY
DATE                    .YY/MM/DD    13/05/21                               :LOG DATE
UWI                     .                                                   :UNIQUE WELL ID
DEPTHMD                 .m           3632.0                                 :MEASURED DEPTH
DEPTHTVD                .m           3026.9                                 :TRUE VERTICAL DEPTH


~CURVE INFORMATION
#MNEM                   .UNIT        API CODES                               DESCRIPTION
#________________________________________________________________________________________
TIME                    .s                                                  :01 TIME
DD_PRESS                .bar                                                :02 DRAW DOWN PRESSURE
DD_VOLUME               .cm3                                                :03 INCREMENTAL DRAW DOWN VOLUME
TEMP                    .degC                                               :04 TRANSDUCER TEMPERATURE
DD_PRESS_MOD_1000       .bar                                                :05 DRAW DOWN PRESSURE MOD 1000
DD_PRESS_MOD_100        .bar                                                :06 DRAW DOWN PRESSURE MOD 100
DD_PRESS_MOD_10         .bar                                                :07 DRAW DOWN PRESSURE MOD 10
DD_PRESS_MOD_1          .bar                                                :08 DRAW DOWN PRESSURE MOD 1
DD_PRESS_MOD_01         .bar                                                :09 DRAW DOWN PRESSURE MOD 01
DD_PRESS_MOD_001        .bar                                                :10 DRAW DOWN PRESSURE MOD 001
DD_PRESS_MOD_0001       .bar                                                :11 DRAW DOWN PRESSURE MOD 0001


~PARAMETER INFORMATION
#MNEM                   .UNIT        VALUE                                   DESCRIPTION
#________________________________________________________________________________________
TOOLFACE                .deg         66.7                                   :01 TOOLFACE
PUMP_CAPACITY           .bar         400                                    :02 NOMINAL DRAW DOWN PUMP CAPACITY
PUMP_LIMIT              .bar         240                                    :03 DOWNLINK PUMP LIMIT
TIME_LIMIT              .min         10                                     :04 DOWNLINK MAX TIME
TEST_TYPE               .            REPEAT                                 :05 DOWNLINK
TEST_TYPE               .            HIGH MOBILITY                          :06 DOWNLINK
DD_PIST_A               .cm2         3.1416                                 :07 DRAW DOWN PISTON AREA
V_SYS                   .cm3         131.0000                               :08 SYSTEM VOLUME
PROBE_ID                .cm          1.2700                                 :09 TTK PROBE ID
G0                      .            4.6700                                 :10 GEOMETRY FACTOR


~A                  TIME     DD_PRESS                              DD_VOLUME               TEMP                                   DD_PRESS_MOD_1000       DD_PRESS_MOD_100        DD_PRESS_MOD_10         DD_PRESS_MOD_1        DD_PRESS_MOD_01       DD_PRESS_MOD_001      DD_PRESS_MOD_0001
                    2.10    415.52518                                0.00000             80.672                                        4.15525e+002           1.55252e+001           5.52518e+000           5.25181e-001           2.51808e-002           5.18079e-003           1.80794e-004
                    2.20    415.56572                                0.00000             80.672                                        4.15566e+002           1.55657e+001           5.56572e+000           5.65717e-001           6.57174e-002           5.71740e-003           7.17399e-004
                    2.30    415.61485                                0.00000             80.672                                        4.15615e+002           1.56149e+001           5.61485e+000           6.14851e-001           1.48509e-002           4.85090e-003           8.50897e-004
                    2.40    415.65418                                0.00000             80.672                                        4.15654e+002           1.56542e+001           5.65418e+000           6.54181e-001           5.41815e-002           4.18147e-003           1.81469e-004
                    2.50    415.68195                                0.00000             80.672                                        4.15682e+002           1.56819e+001           5.68195e+000           6.81948e-001           8.19477e-002           1.94775e-003           9.47749e-004
                    2.60    415.71863                                0.00000             80.670                                        4.15719e+002           1.57186e+001           5.71863e+000           7.18629e-001           1.86293e-002           8.62928e-003           6.29284e-004
                    2.70    415.74492                                0.00000             80.668                                        4.15745e+002           1.57449e+001           5.74492e+000           7.44918e-001           4.49175e-002           4.91755e-003           9.17548e-004
                    2.80    415.74848                                0.00000             80.670                                        4.15748e+002           1.57485e+001           5.74848e+000           7.48478e-001           4.84785e-002           8.47847e-003           4.78468e-004
                    2.90    415.73162                                0.00000             80.672                                        4.15732e+002           1.57316e+001           5.73162e+000           7.31619e-001           3.16185e-002           1.61853e-003           6.18529e-004
                    3.00    415.70640                                0.00000             80.672                                        4.15706e+002           1.57064e+001           5.70640e+000           7.06398e-001           6.39842e-003           6.39842e-003           3.98415e-004
                    3.10    415.67856                                0.00000             80.672                                        4.15679e+002           1.56786e+001           5.67856e+000           6.78563e-001           7.85625e-002           8.56251e-003           5.62514e-004
                    3.20    415.63517                                0.00000             80.672                                        4.15635e+002           1.56352e+001           5.63517e+000           6.35166e-001           3.51658e-002           5.16577e-003           1.65768e-004
                    3.30    415.58010                                0.00000             80.672                                        4.15580e+002           1.55801e+001           5.58010e+000           5.80098e-001           8.00983e-002           9.82824e-005           9.82824e-005
                    3.40    415.54204                                0.00000             80.672                                        4.15542e+002           1.55420e+001           5.54204e+000           5.42035e-001           4.20354e-002           2.03541e-003           3.54084e-005
                    3.50    415.52583                                0.00000             80.672                                        4.15526e+002           1.55258e+001           5.52583e+000           5.25829e-001           2.58293e-002           5.82934e-003           8.29343e-004
                    3.60    415.49246                                0.00000             80.670                                        4.15492e+002           1.54925e+001           5.49246e+000           4.92465e-001           9.24648e-002           2.46478e-003           4.64778e-004
                    3.70    415.47219                                0.00000             80.666                                        4.15472e+002           1.54722e+001           5.47219e+000           4.72192e-001           7.21918e-002           2.19180e-003           1.91802e-004
                    3.80    415.49388                                0.00000             80.664                                        4.15494e+002           1.54939e+001           5.49388e+000           4.93878e-001           9.38778e-002           3.87783e-003           8.77826e-004
                    3.90    415.50668                                0.00000             80.664                                        4.15507e+002           1.55067e+001           5.50668e+000           5.06680e-001           6.67972e-003           6.67972e-003           6.79717e-004
                    4.00    415.47524                                0.00000             80.664                                        4.15475e+002           1.54752e+001           5.47524e+000           4.75239e-001           7.52392e-002           5.23922e-003           2.39221e-004
                    4.10    415.46512                                0.00000             80.664                                        4.15465e+002           1.54651e+001           5.46512e+000           4.65116e-001           6.51160e-002           5.11604e-003           1.16040e-004
                    4.20    415.49202                                0.00000             80.664                                        4.15492e+002           1.54920e+001           5.49202e+000           4.92021e-001           9.20207e-002           2.02073e-003           2.07266e-005
                    4.30    415.49025                                0.00000             80.664                                        4.15490e+002           1.54903e+001           5.49025e+000           4.90252e-001           9.02523e-002           2.52306e-004           2.52306e-004
                    4.40    415.44648                                0.00000             80.664                                        4.15446e+002           1.54465e+001           5.44648e+000           4.46480e-001           4.64799e-002           6.47985e-003           4.79853e-004
                    4.50    415.42699                                0.00000             80.664                                        4.15427e+002           1.54270e+001           5.42699e+000           4.26990e-001           2.69901e-002           6.99011e-003           9.90109e-004
                    4.60    415.45718                                0.00000             80.664                                        4.15457e+002           1.54572e+001           5.45718e+000           4.57177e-001           5.71768e-002           7.17678e-003           1.76784e-004
                    4.70    415.47647                                0.00000             80.664                                        4.15476e+002           1.54765e+001           5.47647e+000           4.76474e-001           7.64736e-002           6.47363e-003           4.73629e-004
                    4.80    415.46003                                0.00000             80.664                                        4.15460e+002           1.54600e+001           5.46003e+000           4.60030e-001           6.00301e-002           3.00615e-005           3.00615e-005
