~VERSION INFORMATION
VERS                    .            2.0                                    :CWLS LOG ASCII STANDARD
WRAP                    .            NO                                     :ONE LINE PER TIME STEP


~WELL INFORMATION
#MNEM                   .UNIT        DATA                                    DESCRIPTION
#________________________________________________________________________________________
STRTTIME                .HH/MM/SS    03:28:02                               :START TIME
STOPTIME                .HH/MM/SS    03:30:44                               :STOP TIME
STRT                    .s           2.10                                   :START DATA
STOP                    .s           160.80                                 :STOP DATA
STEP                    .s           0.10                                   :MEASUREMENT TIME INTERVAL
NULL                    .            -999.25                                :NULL VALUE
COMP                    .            Statoil ASA                            :COMPANY
FLD                     .            Volve                                  :FIELD
WELL                    .            15/9-F-1 C                             :WELL
RUN                     .            4                                      :RUN
LOC                     .                                                   :LOCATION
PROV                    .            na                                     :PROVINCE
SRVC                    .            Baker Hughes INTEQ                     :SERVICE COMPANY
DATE                    .YY/MM/DD    14/03/15                               :LOG DATE
UWI                     .                                                   :UNIQUE WELL ID
DEPTHMD                 .m           3493.0                                 :MEASURED DEPTH
DEPTHTVD                .m           2980.2                                 :TRUE VERTICAL DEPTH


~CURVE INFORMATION
#MNEM                   .UNIT        API CODES                               DESCRIPTION
#________________________________________________________________________________________
TIME                    .s                                                  :01 TIME
DD_PRESS                .bar                                                :02 DRAW DOWN PRESSURE
DD_VOLUME               .cm3                                                :03 INCREMENTAL DRAW DOWN VOLUME
TEMP                    .degC                                               :04 TRANSDUCER TEMPERATURE
DD_PRESS_MOD_1000       .bar                                                :05 DRAW DOWN PRESSURE MOD 1000
DD_PRESS_MOD_100        .bar                                                :06 DRAW DOWN PRESSURE MOD 100
DD_PRESS_MOD_10         .bar                                                :07 DRAW DOWN PRESSURE MOD 10
DD_PRESS_MOD_1          .bar                                                :08 DRAW DOWN PRESSURE MOD 1
DD_PRESS_MOD_01         .bar                                                :09 DRAW DOWN PRESSURE MOD 01
DD_PRESS_MOD_001        .bar                                                :10 DRAW DOWN PRESSURE MOD 001
DD_PRESS_MOD_0001       .bar                                                :11 DRAW DOWN PRESSURE MOD 0001


~PARAMETER INFORMATION
#MNEM                   .UNIT        VALUE                                   DESCRIPTION
#________________________________________________________________________________________
TOOLFACE                .deg         89.6                                   :01 TOOLFACE
PUMP_CAPACITY           .bar         400                                    :02 NOMINAL DRAW DOWN PUMP CAPACITY
PUMP_LIMIT              .bar         240                                    :03 DOWNLINK PUMP LIMIT
TIME_LIMIT              .min         10                                     :04 DOWNLINK MAX TIME
TEST_TYPE               .            REPEAT                                 :05 DOWNLINK
TEST_TYPE               .            HIGH MOBILITY                          :06 DOWNLINK
DD_PIST_A               .cm2         3.1416                                 :07 DRAW DOWN PISTON AREA
V_SYS                   .cm3         131.0000                               :08 SYSTEM VOLUME
PROBE_ID                .cm          1.2700                                 :09 TTK PROBE ID
G0                      .            4.6700                                 :10 GEOMETRY FACTOR


~A                  TIME     DD_PRESS                              DD_VOLUME               TEMP                                   DD_PRESS_MOD_1000       DD_PRESS_MOD_100        DD_PRESS_MOD_10         DD_PRESS_MOD_1        DD_PRESS_MOD_01       DD_PRESS_MOD_001      DD_PRESS_MOD_0001
# ...
                   13.30    421.57609                                0.00000             83.828                                        4.21576e+002           2.15761e+001           1.57609e+000           5.76085e-001           7.60851e-002           6.08510e-003           8.50984e-005
                   13.40    421.56712                                0.00000             83.828                                        4.21567e+002           2.15671e+001           1.56712e+000           5.67118e-001           6.71181e-002           7.11813e-003           1.18134e-004
                   13.50    421.56875                                0.00000             83.828                                        4.21569e+002           2.15687e+001           1.56875e+000           5.68750e-001           6.87497e-002           8.74968e-003           7.49679e-004
                   13.60    421.57574                                0.00000             83.828                                        4.21576e+002           2.15757e+001           1.57574e+000           5.75739e-001           7.57394e-002           5.73940e-003           7.39398e-004
                   13.70    421.57714                                0.00000             83.828                                        4.21577e+002           2.15771e+001           1.57714e+000           5.77143e-001           7.71425e-002           7.14252e-003           1.42524e-004
                   13.80    421.56663                                0.00000             83.828                                        4.21567e+002           2.15666e+001           1.56663e+000           5.66631e-001           6.66314e-002           6.63138e-003           6.31383e-004
                   13.90    421.55716                                0.00000             83.828                                        4.21557e+002           2.15572e+001           1.55716e+000           5.57164e-001           5.71640e-002           7.16398e-003           1.63984e-004
                   14.00    421.56383                                0.00000             83.828                                        4.21564e+002           2.15638e+001           1.56383e+000           5.63826e-001           6.38265e-002           3.82647e-003           8.26471e-004
                   14.10    421.58391                                0.00000             83.828                                        4.21584e+002           2.15839e+001           1.58391e+000           5.83907e-001           8.39068e-002           3.90681e-003           9.06811e-004
                   14.20    421.59049                                0.00000             83.828                                        4.21590e+002           2.15905e+001           1.59049e+000           5.90491e-001           9.04907e-002           4.90695e-004           4.90695e-004
                   14.30    421.57120                                0.00000             83.828                                        4.21571e+002           2.15712e+001           1.57120e+000           5.71199e-001           7.11989e-002           1.19891e-003           1.98913e-004
                   14.40    421.56520                                0.00000             83.828                                        4.21565e+002           2.15652e+001           1.56520e+000           5.65202e-001           6.52024e-002           5.20241e-003           2.02409e-004
                   14.50    421.58392                                0.00000             83.828                                        4.21584e+002           2.15839e+001           1.58392e+000           5.83917e-001           8.39172e-002           3.91722e-003           9.17220e-004
                   14.60    421.59613                                0.00000             83.828                                        4.21596e+002           2.15961e+001           1.59613e+000           5.96131e-001           9.61314e-002           6.13143e-003           1.31432e-004
                   14.70    421.58901                                0.00000             83.828                                        4.21589e+002           2.15890e+001           1.58901e+000           5.89010e-001           8.90103e-002           9.01029e-003           1.02850e-005
                   14.80    421.58437                                0.00000             83.828                                        4.21584e+002           2.15844e+001           1.58437e+000           5.84372e-001           8.43722e-002           4.37222e-003           3.72220e-004
                   14.90    421.59679                                0.00000             83.828                                        4.21597e+002           2.15968e+001           1.59679e+000           5.96791e-001           9.67910e-002           6.79105e-003           7.91050e-004
                   15.00    421.61181                                0.00000             83.828                                        4.21612e+002           2.16118e+001           1.61181e+000           6.11807e-001           1.18067e-002           1.80669e-003           8.06694e-004
                   15.10    421.61290                                0.00000             83.828                                        4.21613e+002           2.16129e+001           1.61290e+000           6.12898e-001           1.28976e-002           2.89759e-003           8.97592e-004
                   15.20    421.60107                                0.00000             83.828                                        4.21601e+002           2.16011e+001           1.60107e+000           6.01069e-001           1.06921e-003           1.06921e-003           6.92110e-005
                   15.30    421.60818                                0.00000             83.828                                        4.21608e+002           2.16082e+001           1.60818e+000           6.08184e-001           8.18359e-003           8.18359e-003           1.83595e-004
                   15.40    421.62861                                0.00000             83.828                                        4.21629e+002           2.16286e+001           1.62861e+000           6.28605e-001           2.86051e-002           8.60506e-003           6.05060e-004
                   15.50    421.62712                                0.00000             83.828                                        4.21627e+002           2.16271e+001           1.62712e+000           6.27117e-001           2.71175e-002           7.11747e-003           1.17466e-004
                   15.60    421.61324                                0.00000             83.828                                        4.21613e+002           2.16132e+001           1.61324e+000           6.13244e-001           1.32443e-002           3.24433e-003           2.44333e-004
                   15.70    421.62105                                0.00000             83.828                                        4.21621e+002           2.16211e+001           1.62105e+000           6.21050e-001           2.10500e-002           1.05001e-003           5.00087e-005
                   15.80    421.63278                                0.00000             83.828                                        4.21633e+002           2.16328e+001           1.63278e+000           6.32777e-001           3.27773e-002           2.77732e-003           7.77317e-004
                   15.90    421.63580                                0.00000             83.828                                        4.21636e+002           2.16358e+001           1.63580e+000           6.35799e-001           3.57991e-002           5.79911e-003           7.99111e-004
                   16.00    421.63466                                0.00000             83.828                                        4.21635e+002           2.16347e+001           1.63466e+000           6.34663e-001           3.46631e-002           4.66308e-003           6.63077e-004
