~VERSION INFORMATION
VERS                    .            2.0                                    :CWLS LOG ASCII STANDARD
WRAP                    .            NO                                     :ONE LINE PER TIME STEP


~WELL INFORMATION
#MNEM                   .UNIT        DATA                                    DESCRIPTION
#________________________________________________________________________________________
STRTTIME                .HH/MM/SS    19:20:48                               :START TIME
STOPTIME                .HH/MM/SS    19:23:33                               :STOP TIME
STRT                    .s           2.10                                   :START DATA
STOP                    .s           164.00                                 :STOP DATA
STEP                    .s           0.10                                   :MEASUREMENT TIME INTERVAL
NULL                    .            -999.25                                :NULL VALUE
COMP                    .            Statoil ASA                            :COMPANY
FLD                     .            Volve                                  :FIELD
WELL                    .            15/9-F-11 A                            :WELL
RUN                     .            8                                      :RUN
LOC                     .            Maersk Inspirer                        :LOCATION
PROV                    .            na                                     :PROVINCE
SRVC                    .            Baker Hughes INTEQ                     :SERVICE COMPANY
DATE                    .YY/MM/DD    13/05/23                               :LOG DATE
UWI                     .                                                   :UNIQUE WELL ID
DEPTHMD                 .m           3617.0                                 :MEASURED DEPTH
DEPTHTVD                .m           3015.4                                 :TRUE VERTICAL DEPTH


~CURVE INFORMATION
#MNEM                   .UNIT        API CODES                               DESCRIPTION
#________________________________________________________________________________________
TIME                    .s                                                  :01 TIME
DD_PRESS                .bar                                                :02 DRAW DOWN PRESSURE
DD_VOLUME               .cm3                                                :03 INCREMENTAL DRAW DOWN VOLUME
TEMP                    .degC                                               :04 TRANSDUCER TEMPERATURE
DD_PRESS_MOD_1000       .bar                                                :05 DRAW DOWN PRESSURE MOD 1000
DD_PRESS_MOD_100        .bar                                                :06 DRAW DOWN PRESSURE MOD 100
DD_PRESS_MOD_10         .bar                                                :07 DRAW DOWN PRESSURE MOD 10
DD_PRESS_MOD_1          .bar                                                :08 DRAW DOWN PRESSURE MOD 1
DD_PRESS_MOD_01         .bar                                                :09 DRAW DOWN PRESSURE MOD 01
DD_PRESS_MOD_001        .bar                                                :10 DRAW DOWN PRESSURE MOD 001
DD_PRESS_MOD_0001       .bar                                                :11 DRAW DOWN PRESSURE MOD 0001


~PARAMETER INFORMATION
#MNEM                   .UNIT        VALUE                                   DESCRIPTION
#________________________________________________________________________________________
TOOLFACE                .deg         -39.9                                  :01 TOOLFACE
PUMP_CAPACITY           .bar         400                                    :02 NOMINAL DRAW DOWN PUMP CAPACITY
PUMP_LIMIT              .bar         240                                    :03 DOWNLINK PUMP LIMIT
TIME_LIMIT              .min         10                                     :04 DOWNLINK MAX TIME
TEST_TYPE               .            REPEAT                                 :05 DOWNLINK
TEST_TYPE               .            HIGH MOBILITY                          :06 DOWNLINK
DD_PIST_A               .cm2         3.1416                                 :07 DRAW DOWN PISTON AREA
V_SYS                   .cm3         131.0000                               :08 SYSTEM VOLUME
PROBE_ID                .cm          1.2700                                 :09 TTK PROBE ID
G0                      .            4.6700                                 :10 GEOMETRY FACTOR


~A                  TIME     DD_PRESS                              DD_VOLUME               TEMP                                   DD_PRESS_MOD_1000       DD_PRESS_MOD_100        DD_PRESS_MOD_10         DD_PRESS_MOD_1        DD_PRESS_MOD_01       DD_PRESS_MOD_001      DD_PRESS_MOD_0001
# ...
                  108.50    337.26450                               22.30118             72.078                                        3.37264e+002           3.72645e+001           7.26450e+000           2.64496e-001           6.44962e-002           4.49622e-003           4.96217e-004
                  108.60    337.24618                               22.59618             72.078                                        3.37246e+002           3.72462e+001           7.24618e+000           2.46177e-001           4.61772e-002           6.17718e-003           1.77175e-004
                  108.70    337.22687                               22.89121             72.078                                        3.37227e+002           3.72269e+001           7.22687e+000           2.26875e-001           2.68747e-002           6.87472e-003           8.74718e-004
                  108.80    337.20549                               23.18614             72.078                                        3.37205e+002           3.72055e+001           7.20549e+000           2.05492e-001           5.49157e-003           5.49157e-003           4.91569e-004
                  108.90    337.17907                               23.48105             72.078                                        3.37179e+002           3.71791e+001           7.17907e+000           1.79069e-001           7.90693e-002           9.06930e-003           6.93032e-005
                  109.00    337.15702                               23.77601             72.078                                        3.37157e+002           3.71570e+001           7.15702e+000           1.57018e-001           5.70175e-002           7.01754e-003           1.75362e-005
                  109.10    337.13813                               24.07095             72.078                                        3.37138e+002           3.71381e+001           7.13813e+000           1.38133e-001           3.81327e-002           8.13271e-003           1.32711e-004
                  109.20    337.11890                               24.36588             72.078                                        3.37119e+002           3.71189e+001           7.11890e+000           1.18901e-001           1.89012e-002           8.90116e-003           9.01160e-004
                  109.30    337.09081                               24.66080             72.078                                        3.37091e+002           3.70908e+001           7.09081e+000           9.08139e-002           9.08139e-002           8.13935e-004           8.13935e-004
                  109.40    337.07082                               24.95575             72.078                                        3.37071e+002           3.70708e+001           7.07082e+000           7.08163e-002           7.08163e-002           8.16283e-004           8.16283e-004
                  109.50    337.05486                               25.25068             72.078                                        3.37055e+002           3.70549e+001           7.05486e+000           5.48590e-002           5.48590e-002           4.85904e-003           8.59044e-004
                  109.60    337.04636                               25.54567             72.078                                        3.37046e+002           3.70464e+001           7.04636e+000           4.63636e-002           4.63636e-002           6.36359e-003           3.63594e-004
                  109.70    337.04260                               25.84061             72.078                                        3.37043e+002           3.70426e+001           7.04260e+000           4.25951e-002           4.25951e-002           2.59514e-003           5.95136e-004
                  109.80    337.03570                               26.13550             72.078                                        3.37036e+002           3.70357e+001           7.03570e+000           3.57008e-002           3.57008e-002           5.70077e-003           7.00770e-004
                  109.90    337.01644                               26.43045             72.078                                        3.37016e+002           3.70164e+001           7.01644e+000           1.64436e-002           1.64436e-002           6.44363e-003           4.43633e-004
                  110.00    337.00740                               26.72539             72.078                                        3.37007e+002           3.70074e+001           7.00740e+000           7.40319e-003           7.40319e-003           7.40319e-003           4.03187e-004
                  110.10    337.00514                               27.02033             72.078                                        3.37005e+002           3.70051e+001           7.00514e+000           5.14458e-003           5.14458e-003           5.14458e-003           1.44577e-004
                  110.20    336.98952                               27.31528             72.078                                        3.36990e+002           3.69895e+001           6.98952e+000           9.89523e-001           8.95231e-002           9.52309e-003           5.23093e-004
                  110.30    336.96675                               27.61011             72.078                                        3.36967e+002           3.69667e+001           6.96675e+000           9.66749e-001           6.67490e-002           6.74904e-003           7.49037e-004
                  110.40    336.96695                               27.90501             72.078                                        3.36967e+002           3.69669e+001           6.96695e+000           9.66948e-001           6.69480e-002           6.94797e-003           9.47974e-004
                  110.50    336.98060                               28.20006             72.078                                        3.36981e+002           3.69806e+001           6.98060e+000           9.80599e-001           8.05987e-002           5.98708e-004           5.98708e-004
                  110.60    336.97093                               28.49504             72.078                                        3.36971e+002           3.69709e+001           6.97093e+000           9.70929e-001           7.09292e-002           9.29248e-004           9.29248e-004
                  110.70    336.95712                               28.78998             72.078                                        3.36957e+002           3.69571e+001           6.95712e+000           9.57118e-001           5.71176e-002           7.11760e-003           1.17596e-004
                  110.80    337.05445                               29.08323             72.078                                        3.37054e+002           3.70545e+001           7.05445e+000           5.44538e-002           5.44538e-002           4.45383e-003           4.53826e-004
                  110.90    338.33260                               29.31761             72.078                                        3.38333e+002           3.83326e+001           8.33260e+000           3.32603e-001           3.26030e-002           2.60296e-003           6.02965e-004
                  111.00    340.03546                               29.42675             72.078                                        3.40035e+002           4.00355e+001           3.54564e-002           3.54564e-002           3.54564e-002           5.45639e-003           4.56391e-004
                  111.10    340.82802                               29.44059             72.078                                        3.40828e+002           4.08280e+001           8.28020e-001           8.28020e-001           2.80200e-002           8.01998e-003           1.99785e-005
                  111.20    340.82894                               29.44059             72.078                                        3.40829e+002           4.08289e+001           8.28940e-001           8.28940e-001           2.89400e-002           8.94002e-003           9.40025e-004
