~VERSION INFORMATION
VERS                    .            2.0                                    :CWLS LOG ASCII STANDARD
WRAP                    .            NO                                     :ONE LINE PER TIME STEP


~WELL INFORMATION
#MNEM                   .UNIT        DATA                                    DESCRIPTION
#________________________________________________________________________________________
STRTTIME                .HH/MM/SS    11:07:04                               :START TIME
STOPTIME                .HH/MM/SS    11:10:49                               :STOP TIME
STRT                    .s           2.10                                   :START DATA
STOP                    .s           223.10                                 :STOP DATA
STEP                    .s           0.10                                   :MEASUREMENT TIME INTERVAL
NULL                    .            -999.25                                :NULL VALUE
COMP                    .            Statoil ASA                            :COMPANY
FLD                     .            Volve                                  :FIELD
WELL                    .            15/9-F-11 A                            :WELL
RUN                     .            8                                      :RUN
LOC                     .            Maersk Inspirer                        :LOCATION
PROV                    .            na                                     :PROVINCE
SRVC                    .            Baker Hughes INTEQ                     :SERVICE COMPANY
DATE                    .YY/MM/DD    13/05/21                               :LOG DATE
UWI                     .                                                   :UNIQUE WELL ID
DEPTHMD                 .m           3632.0                                 :MEASURED DEPTH
DEPTHTVD                .m           3026.9                                 :TRUE VERTICAL DEPTH


~CURVE INFORMATION
#MNEM                   .UNIT        API CODES                               DESCRIPTION
#________________________________________________________________________________________
TIME                    .s                                                  :01 TIME
DD_PRESS                .bar                                                :02 DRAW DOWN PRESSURE
DD_VOLUME               .cm3                                                :03 INCREMENTAL DRAW DOWN VOLUME
TEMP                    .degC                                               :04 TRANSDUCER TEMPERATURE
DD_PRESS_MOD_1000       .bar                                                :05 DRAW DOWN PRESSURE MOD 1000
DD_PRESS_MOD_100        .bar                                                :06 DRAW DOWN PRESSURE MOD 100
DD_PRESS_MOD_10         .bar                                                :07 DRAW DOWN PRESSURE MOD 10
DD_PRESS_MOD_1          .bar                                                :08 DRAW DOWN PRESSURE MOD 1
DD_PRESS_MOD_01         .bar                                                :09 DRAW DOWN PRESSURE MOD 01
DD_PRESS_MOD_001        .bar                                                :10 DRAW DOWN PRESSURE MOD 001
DD_PRESS_MOD_0001       .bar                                                :11 DRAW DOWN PRESSURE MOD 0001


~PARAMETER INFORMATION
#MNEM                   .UNIT        VALUE                                   DESCRIPTION
#________________________________________________________________________________________
TOOLFACE                .deg         66.7                                   :01 TOOLFACE
PUMP_CAPACITY           .bar         400                                    :02 NOMINAL DRAW DOWN PUMP CAPACITY
PUMP_LIMIT              .bar         240                                    :03 DOWNLINK PUMP LIMIT
TIME_LIMIT              .min         10                                     :04 DOWNLINK MAX TIME
TEST_TYPE               .            REPEAT                                 :05 DOWNLINK
TEST_TYPE               .            HIGH MOBILITY                          :06 DOWNLINK
DD_PIST_A               .cm2         3.1416                                 :07 DRAW DOWN PISTON AREA
V_SYS                   .cm3         131.0000                               :08 SYSTEM VOLUME
PROBE_ID                .cm          1.2700                                 :09 TTK PROBE ID
G0                      .            4.6700                                 :10 GEOMETRY FACTOR


~A                  TIME     DD_PRESS                              DD_VOLUME               TEMP                                   DD_PRESS_MOD_1000       DD_PRESS_MOD_100        DD_PRESS_MOD_10         DD_PRESS_MOD_1        DD_PRESS_MOD_01       DD_PRESS_MOD_001      DD_PRESS_MOD_0001
# ...
                   60.90    342.72423                               10.50478             80.609                                        3.42724e+002           4.27242e+001           2.72423e+000           7.24232e-001           2.42321e-002           4.23209e-003           2.32092e-004
                   61.00    342.72136                               10.50478             80.609                                        3.42721e+002           4.27214e+001           2.72136e+000           7.21359e-001           2.13593e-002           1.35926e-003           3.59264e-004
                   61.10    342.72062                               10.50478             80.609                                        3.42721e+002           4.27206e+001           2.72062e+000           7.20618e-001           2.06179e-002           6.17905e-004           6.17905e-004
                   61.20    342.72161                               10.50478             80.609                                        3.42722e+002           4.27216e+001           2.72161e+000           7.21613e-001           2.16133e-002           1.61333e-003           6.13326e-004
                   61.30    342.72484                               10.50478             80.609                                        3.42725e+002           4.27248e+001           2.72484e+000           7.24843e-001           2.48425e-002           4.84253e-003           8.42526e-004
                   61.40    342.73042                               10.50478             80.609                                        3.42730e+002           4.27304e+001           2.73042e+000           7.30420e-001           3.04202e-002           4.20249e-004           4.20249e-004
                   61.50    342.73113                               10.50478             80.609                                        3.42731e+002           4.27311e+001           2.73113e+000           7.31131e-001           3.11312e-002           1.13115e-003           1.31152e-004
                   61.60    342.72898                               10.50478             80.609                                        3.42729e+002           4.27290e+001           2.72898e+000           7.28983e-001           2.89830e-002           8.98304e-003           9.83038e-004
                   61.70    342.72623                               10.50478             80.609                                        3.42726e+002           4.27262e+001           2.72623e+000           7.26230e-001           2.62301e-002           6.23005e-003           2.30054e-004
                   61.80    342.72305                               10.50478             80.609                                        3.42723e+002           4.27230e+001           2.72305e+000           7.23049e-001           2.30486e-002           3.04859e-003           4.85880e-005
                   61.90    342.72104                               10.50478             80.609                                        3.42721e+002           4.27210e+001           2.72104e+000           7.21040e-001           2.10401e-002           1.04007e-003           4.00730e-005
                   62.00    342.72102                               10.50478             80.609                                        3.42721e+002           4.27210e+001           2.72102e+000           7.21020e-001           2.10195e-002           1.01951e-003           1.95128e-005
                   62.10    342.71932                               10.50478             80.609                                        3.42719e+002           4.27193e+001           2.71932e+000           7.19317e-001           1.93170e-002           9.31698e-003           3.16976e-004
                   62.20    342.71806                               10.50478             80.609                                        3.42718e+002           4.27181e+001           2.71806e+000           7.18057e-001           1.80568e-002           8.05677e-003           5.67726e-005
                   62.30    342.72323                               10.50478             80.609                                        3.42723e+002           4.27232e+001           2.72323e+000           7.23228e-001           2.32279e-002           3.22795e-003           2.27945e-004
                   62.40    342.72693                               10.50478             80.609                                        3.42727e+002           4.27269e+001           2.72693e+000           7.26926e-001           2.69258e-002           6.92584e-003           9.25840e-004
                   62.50    342.72294                               10.50478             80.609                                        3.42723e+002           4.27229e+001           2.72294e+000           7.22938e-001           2.29377e-002           2.93766e-003           9.37661e-004
                   62.60    342.71797                               10.50478             80.609                                        3.42718e+002           4.27180e+001           2.71797e+000           7.17969e-001           1.79685e-002           7.96852e-003           9.68523e-004
                   62.70    342.71797                               10.50478             80.609                                        3.42718e+002           4.27180e+001           2.71797e+000           7.17972e-001           1.79721e-002           7.97213e-003           9.72134e-004
                   62.80    342.71776                               10.50478             80.609                                        3.42718e+002           4.27178e+001           2.71776e+000           7.17762e-001           1.77623e-002           7.76228e-003           7.62276e-004
                   62.90    342.71781                               10.50478             80.609                                        3.42718e+002           4.27178e+001           2.71781e+000           7.17811e-001           1.78106e-002           7.81062e-003           8.10616e-004
                   63.00    342.72211                               10.50478             80.609                                        3.42722e+002           4.27221e+001           2.72211e+000           7.22107e-001           2.21071e-002           2.10713e-003           1.07128e-004
                   63.10    342.72237                               10.50478             80.609                                        3.42722e+002           4.27224e+001           2.72237e+000           7.22367e-001           2.23669e-002           2.36690e-003           3.66897e-004
                   63.20    342.71719                               10.50478             80.609                                        3.42717e+002           4.27172e+001           2.71719e+000           7.17193e-001           1.71925e-002           7.19255e-003           1.92547e-004
                   63.30    342.71172                               10.50478             80.609                                        3.42712e+002           4.27117e+001           2.71172e+000           7.11722e-001           1.17222e-002           1.72225e-003           7.22249e-004
                   63.40    342.71149                               10.50478             80.609                                        3.42711e+002           4.27115e+001           2.71149e+000           7.11486e-001           1.14861e-002           1.48606e-003           4.86060e-004
                   63.50    342.71623                               10.50478             80.609                                        3.42716e+002           4.27162e+001           2.71623e+000           7.16225e-001           1.62254e-002           6.22541e-003           2.25413e-004
                   63.60    342.72194                               10.50478             80.609                                        3.42722e+002           4.27219e+001           2.72194e+000           7.21944e-001           2.19441e-002           1.94415e-003           9.44147e-004
