~VERSION INFORMATION
VERS                    .            2.0                                    :CWLS LOG ASCII STANDARD
WRAP                    .            NO                                     :ONE LINE PER TIME STEP


~WELL INFORMATION
#MNEM                   .UNIT        DATA                                    DESCRIPTION
#________________________________________________________________________________________
STRTTIME                .HH/MM/SS    19:37:02                               :START TIME
STOPTIME                .HH/MM/SS    19:40:38                               :STOP TIME
STRT                    .s           2.10                                   :START DATA
STOP                    .s           214.10                                 :STOP DATA
STEP                    .s           0.10                                   :MEASUREMENT TIME INTERVAL
NULL                    .            -999.25                                :NULL VALUE
COMP                    .            Statoil ASA                            :COMPANY
FLD                     .            Volve                                  :FIELD
WELL                    .            15/9-F-11 A                            :WELL
RUN                     .            8                                      :RUN
LOC                     .            Maersk Inspirer                        :LOCATION
PROV                    .            na                                     :PROVINCE
SRVC                    .            Baker Hughes INTEQ                     :SERVICE COMPANY
DATE                    .YY/MM/DD    13/05/23                               :LOG DATE
UWI                     .                                                   :UNIQUE WELL ID
DEPTHMD                 .m           3607.9                                 :MEASURED DEPTH
DEPTHTVD                .m           3008.4                                 :TRUE VERTICAL DEPTH


~CURVE INFORMATION
#MNEM                   .UNIT        API CODES                               DESCRIPTION
#________________________________________________________________________________________
TIME                    .s                                                  :01 TIME
DD_PRESS                .bar                                                :02 DRAW DOWN PRESSURE
DD_VOLUME               .cm3                                                :03 INCREMENTAL DRAW DOWN VOLUME
TEMP                    .degC                                               :04 TRANSDUCER TEMPERATURE
DD_PRESS_MOD_1000       .bar                                                :05 DRAW DOWN PRESSURE MOD 1000
DD_PRESS_MOD_100        .bar                                                :06 DRAW DOWN PRESSURE MOD 100
DD_PRESS_MOD_10         .bar                                                :07 DRAW DOWN PRESSURE MOD 10
DD_PRESS_MOD_1          .bar                                                :08 DRAW DOWN PRESSURE MOD 1
DD_PRESS_MOD_01         .bar                                                :09 DRAW DOWN PRESSURE MOD 01
DD_PRESS_MOD_001        .bar                                                :10 DRAW DOWN PRESSURE MOD 001
DD_PRESS_MOD_0001       .bar                                                :11 DRAW DOWN PRESSURE MOD 0001


~PARAMETER INFORMATION
#MNEM                   .UNIT        VALUE                                   DESCRIPTION
#________________________________________________________________________________________
TOOLFACE                .deg         -38.9                                  :01 TOOLFACE
PUMP_CAPACITY           .bar         400                                    :02 NOMINAL DRAW DOWN PUMP CAPACITY
PUMP_LIMIT              .bar         240                                    :03 DOWNLINK PUMP LIMIT
TIME_LIMIT              .min         10                                     :04 DOWNLINK MAX TIME
TEST_TYPE               .            REPEAT                                 :05 DOWNLINK
TEST_TYPE               .            HIGH MOBILITY                          :06 DOWNLINK
DD_PIST_A               .cm2         3.1416                                 :07 DRAW DOWN PISTON AREA
V_SYS                   .cm3         131.0000                               :08 SYSTEM VOLUME
PROBE_ID                .cm          1.2700                                 :09 TTK PROBE ID
G0                      .            4.6700                                 :10 GEOMETRY FACTOR


~A                  TIME     DD_PRESS                              DD_VOLUME               TEMP                                   DD_PRESS_MOD_1000       DD_PRESS_MOD_100        DD_PRESS_MOD_10         DD_PRESS_MOD_1        DD_PRESS_MOD_01       DD_PRESS_MOD_001      DD_PRESS_MOD_0001
# ...
                  184.10    340.32534                               28.01154             71.180                                        3.40325e+002           4.03253e+001           3.25344e-001           3.25344e-001           2.53436e-002           5.34356e-003           3.43562e-004
                  184.20    340.32733                               28.01154             71.180                                        3.40327e+002           4.03273e+001           3.27327e-001           3.27327e-001           2.73267e-002           7.32675e-003           3.26746e-004
                  184.30    340.32586                               28.01154             71.180                                        3.40326e+002           4.03259e+001           3.25863e-001           3.25863e-001           2.58630e-002           5.86303e-003           8.63028e-004
                  184.40    340.32733                               28.01154             71.180                                        3.40327e+002           4.03273e+001           3.27331e-001           3.27331e-001           2.73309e-002           7.33086e-003           3.30861e-004
                  184.50    340.33394                               28.01154             71.180                                        3.40334e+002           4.03339e+001           3.33935e-001           3.33935e-001           3.39352e-002           3.93517e-003           9.35171e-004
                  184.60    340.33948                               28.01154             71.180                                        3.40339e+002           4.03395e+001           3.39480e-001           3.39480e-001           3.94805e-002           9.48049e-003           4.80490e-004
                  184.70    340.33428                               28.01154             71.180                                        3.40334e+002           4.03343e+001           3.34277e-001           3.34277e-001           3.42769e-002           4.27690e-003           2.76899e-004
                  184.80    340.33103                               28.01154             71.180                                        3.40331e+002           4.03310e+001           3.31032e-001           3.31032e-001           3.10321e-002           1.03214e-003           3.21395e-005
                  184.90    340.33672                               28.01154             71.180                                        3.40337e+002           4.03367e+001           3.36725e-001           3.36725e-001           3.67247e-002           6.72474e-003           7.24741e-004
                  185.00    340.32876                               28.01154             71.180                                        3.40329e+002           4.03288e+001           3.28758e-001           3.28758e-001           2.87576e-002           8.75762e-003           7.57619e-004
                  185.10    340.31768                               28.01154             71.180                                        3.40318e+002           4.03177e+001           3.17677e-001           3.17677e-001           1.76767e-002           7.67667e-003           6.76665e-004
                  185.20    340.32244                               28.01154             71.180                                        3.40322e+002           4.03224e+001           3.22435e-001           3.22435e-001           2.24350e-002           2.43504e-003           4.35043e-004
                  185.30    340.33139                               28.01154             71.180                                        3.40331e+002           4.03314e+001           3.31394e-001           3.31394e-001           3.13940e-002           1.39404e-003           3.94036e-004
                  185.40    340.33369                               28.01154             71.180                                        3.40334e+002           4.03337e+001           3.33695e-001           3.33695e-001           3.36947e-002           3.69470e-003           6.94699e-004
                  185.50    340.33029                               28.01154             71.180                                        3.40330e+002           4.03303e+001           3.30289e-001           3.30289e-001           3.02890e-002           2.88994e-004           2.88994e-004
                  185.60    340.33344                               28.01154             71.180                                        3.40333e+002           4.03334e+001           3.33439e-001           3.33439e-001           3.34393e-002           3.43930e-003           4.39303e-004
                  185.70    340.33932                               28.01154             71.180                                        3.40339e+002           4.03393e+001           3.39316e-001           3.39316e-001           3.93162e-002           9.31618e-003           3.16181e-004
                  185.80    340.33203                               28.01154             71.180                                        3.40332e+002           4.03320e+001           3.32029e-001           3.32029e-001           3.20287e-002           2.02873e-003           2.87335e-005
                  185.90    340.32285                               28.01154             71.180                                        3.40323e+002           4.03229e+001           3.22851e-001           3.22851e-001           2.28506e-002           2.85063e-003           8.50634e-004
                  186.00    340.32397                               28.01154             71.180                                        3.40324e+002           4.03240e+001           3.23969e-001           3.23969e-001           2.39686e-002           3.96856e-003           9.68558e-004
                  186.10    340.32658                               28.01154             71.180                                        3.40327e+002           4.03266e+001           3.26583e-001           3.26583e-001           2.65826e-002           6.58257e-003           5.82566e-004
                  186.20    340.32974                               28.01154             71.180                                        3.40330e+002           4.03297e+001           3.29744e-001           3.29744e-001           2.97439e-002           9.74386e-003           7.43855e-004
                  186.30    340.32990                               28.01154             71.180                                        3.40330e+002           4.03299e+001           3.29897e-001           3.29897e-001           2.98972e-002           9.89718e-003           8.97177e-004
                  186.40    340.32301                               28.01154             71.180                                        3.40323e+002           4.03230e+001           3.23006e-001           3.23006e-001           2.30057e-002           3.00572e-003           5.72279e-006
                  186.50    340.31931                               28.01154             71.180                                        3.40319e+002           4.03193e+001           3.19306e-001           3.19306e-001           1.93057e-002           9.30570e-003           3.05696e-004
                  186.60    340.32641                               28.01154             71.180                                        3.40326e+002           4.03264e+001           3.26409e-001           3.26409e-001           2.64092e-002           6.40916e-003           4.09156e-004
                  186.70    340.33029                               28.01154             71.180                                        3.40330e+002           4.03303e+001           3.30290e-001           3.30290e-001           3.02900e-002           2.89989e-004           2.89989e-004
                  186.80    340.32668                               28.01154             71.180                                        3.40327e+002           4.03267e+001           3.26682e-001           3.26682e-001           2.66818e-002           6.68183e-003           6.81828e-004
