~VERSION INFORMATION
VERS                    .            2.0                                    :CWLS LOG ASCII STANDARD
WRAP                    .            NO                                     :ONE LINE PER TIME STEP


~WELL INFORMATION
#MNEM                   .UNIT        DATA                                    DESCRIPTION
#________________________________________________________________________________________
STRTTIME                .HH/MM/SS    15:31:36                               :START TIME
STOPTIME                .HH/MM/SS    15:34:21                               :STOP TIME
STRT                    .s           2.10                                   :START DATA
STOP                    .s           163.50                                 :STOP DATA
STEP                    .s           0.10                                   :MEASUREMENT TIME INTERVAL
NULL                    .            -999.25                                :NULL VALUE
COMP                    .            Statoil ASA                            :COMPANY
FLD                     .            Volve                                  :FIELD
WELL                    .            15/9-F-11 A                            :WELL
RUN                     .            8                                      :RUN
LOC                     .            Maersk Inspirer                        :LOCATION
PROV                    .            na                                     :PROVINCE
SRVC                    .            Baker Hughes INTEQ                     :SERVICE COMPANY
DATE                    .YY/MM/DD    13/05/21                               :LOG DATE
UWI                     .                                                   :UNIQUE WELL ID
DEPTHMD                 .m           3617.2                                 :MEASURED DEPTH
DEPTHTVD                .m           3015.5                                 :TRUE VERTICAL DEPTH


~CURVE INFORMATION
#MNEM                   .UNIT        API CODES                               DESCRIPTION
#________________________________________________________________________________________
TIME                    .s                                                  :01 TIME
DD_PRESS                .bar                                                :02 DRAW DOWN PRESSURE
DD_VOLUME               .cm3                                                :03 INCREMENTAL DRAW DOWN VOLUME
TEMP                    .degC                                               :04 TRANSDUCER TEMPERATURE
DD_PRESS_MOD_1000       .bar                                                :05 DRAW DOWN PRESSURE MOD 1000
DD_PRESS_MOD_100        .bar                                                :06 DRAW DOWN PRESSURE MOD 100
DD_PRESS_MOD_10         .bar                                                :07 DRAW DOWN PRESSURE MOD 10
DD_PRESS_MOD_1          .bar                                                :08 DRAW DOWN PRESSURE MOD 1
DD_PRESS_MOD_01         .bar                                                :09 DRAW DOWN PRESSURE MOD 01
DD_PRESS_MOD_001        .bar                                                :10 DRAW DOWN PRESSURE MOD 001
DD_PRESS_MOD_0001       .bar                                                :11 DRAW DOWN PRESSURE MOD 0001


~PARAMETER INFORMATION
#MNEM                   .UNIT        VALUE                                   DESCRIPTION
#________________________________________________________________________________________
TOOLFACE                .deg         63.0                                   :01 TOOLFACE
PUMP_CAPACITY           .bar         400                                    :02 NOMINAL DRAW DOWN PUMP CAPACITY
PUMP_LIMIT              .bar         240                                    :03 DOWNLINK PUMP LIMIT
TIME_LIMIT              .min         10                                     :04 DOWNLINK MAX TIME
TEST_TYPE               .            HIGH MOBILITY                          :05 DOWNLINK
DD_PIST_A               .cm2         3.1416                                 :06 DRAW DOWN PISTON AREA
V_SYS                   .cm3         131.0000                               :07 SYSTEM VOLUME
PROBE_ID                .cm          1.2700                                 :08 TTK PROBE ID
G0                      .            4.6700                                 :09 GEOMETRY FACTOR


~A                  TIME     DD_PRESS                              DD_VOLUME               TEMP                                   DD_PRESS_MOD_1000       DD_PRESS_MOD_100        DD_PRESS_MOD_10         DD_PRESS_MOD_1        DD_PRESS_MOD_01       DD_PRESS_MOD_001      DD_PRESS_MOD_0001
# ...
                  108.50    339.73193                               20.16057             80.195                                        3.39732e+002           3.97319e+001           9.73193e+000           7.31934e-001           3.19339e-002           1.93389e-003           9.33888e-004
                  108.60    339.01542                               20.43052             80.195                                        3.39015e+002           3.90154e+001           9.01542e+000           1.54150e-002           1.54150e-002           5.41504e-003           4.15036e-004
                  108.70    338.90964                               20.72432             80.195                                        3.38910e+002           3.89096e+001           8.90964e+000           9.09637e-001           9.63722e-003           9.63722e-003           6.37218e-004
                  108.80    338.88833                               21.01873             80.195                                        3.38888e+002           3.88883e+001           8.88833e+000           8.88333e-001           8.83331e-002           8.33306e-003           3.33058e-004
                  108.90    338.87787                               21.31363             80.195                                        3.38878e+002           3.88779e+001           8.87787e+000           8.77875e-001           7.78750e-002           7.87498e-003           8.74981e-004
                  109.00    338.87306                               21.60856             80.195                                        3.38873e+002           3.88731e+001           8.87306e+000           8.73065e-001           7.30650e-002           3.06496e-003           6.49560e-005
                  109.10    338.86927                               21.90350             80.195                                        3.38869e+002           3.88693e+001           8.86927e+000           8.69271e-001           6.92708e-002           9.27082e-003           2.70821e-004
                  109.20    338.86304                               22.19849             80.195                                        3.38863e+002           3.88630e+001           8.86304e+000           8.63043e-001           6.30431e-002           3.04310e-003           4.31044e-005
                  109.30    338.85817                               22.49341             80.195                                        3.38858e+002           3.88582e+001           8.85817e+000           8.58174e-001           5.81737e-002           8.17366e-003           1.73657e-004
                  109.40    338.86379                               22.78837             80.195                                        3.38864e+002           3.88638e+001           8.86379e+000           8.63790e-001           6.37904e-002           3.79045e-003           7.90447e-004
                  109.50    338.88213                               23.08339             80.195                                        3.38882e+002           3.88821e+001           8.88213e+000           8.82132e-001           8.21320e-002           2.13198e-003           1.31983e-004
                  109.60    338.89957                               23.37839             80.198                                        3.38900e+002           3.88996e+001           8.89957e+000           8.99572e-001           9.95723e-002           9.57233e-003           5.72333e-004
                  109.70    338.89978                               23.67330             80.201                                        3.38900e+002           3.88998e+001           8.89978e+000           8.99783e-001           9.97827e-002           9.78266e-003           7.82662e-004
                  109.80    338.88997                               23.96812             80.203                                        3.38890e+002           3.88900e+001           8.88997e+000           8.89966e-001           8.99664e-002           9.96640e-003           9.66405e-004
                  109.90    338.88361                               24.26310             80.203                                        3.38884e+002           3.88836e+001           8.88361e+000           8.83612e-001           8.36119e-002           3.61191e-003           6.11914e-004
                  110.00    338.87843                               24.55805             80.203                                        3.38878e+002           3.88784e+001           8.87843e+000           8.78428e-001           7.84278e-002           8.42783e-003           4.27833e-004
                  110.10    338.86845                               24.85299             80.203                                        3.38868e+002           3.88684e+001           8.86845e+000           8.68445e-001           6.84452e-002           8.44519e-003           4.45189e-004
                  110.20    338.85920                               25.14790             80.203                                        3.38859e+002           3.88592e+001           8.85920e+000           8.59202e-001           5.92023e-002           9.20229e-003           2.02288e-004
                  110.30    338.85480                               25.44277             80.203                                        3.38855e+002           3.88548e+001           8.85480e+000           8.54800e-001           5.48003e-002           4.80029e-003           8.00294e-004
                  110.40    338.85170                               25.73774             80.203                                        3.38852e+002           3.88517e+001           8.85170e+000           8.51704e-001           5.17045e-002           1.70447e-003           7.04466e-004
                  110.50    338.84643                               26.03272             80.203                                        3.38846e+002           3.88464e+001           8.84643e+000           8.46428e-001           4.64284e-002           6.42838e-003           4.28377e-004
                  110.60    338.84106                               26.32763             80.203                                        3.38841e+002           3.88411e+001           8.84106e+000           8.41060e-001           4.10603e-002           1.06031e-003           6.03148e-005
                  110.70    338.84871                               26.62261             80.203                                        3.38849e+002           3.88487e+001           8.84871e+000           8.48708e-001           4.87078e-002           8.70783e-003           7.07829e-004
                  110.80    338.85711                               26.91758             80.203                                        3.38857e+002           3.88571e+001           8.85711e+000           8.57111e-001           5.71111e-002           7.11114e-003           1.11142e-004
                  110.90    338.85193                               27.21245             80.203                                        3.38852e+002           3.88519e+001           8.85193e+000           8.51928e-001           5.19278e-002           1.92781e-003           9.27811e-004
                  111.00    338.84252                               27.50741             80.203                                        3.38843e+002           3.88425e+001           8.84252e+000           8.42522e-001           4.25224e-002           2.52243e-003           5.22430e-004
                  111.10    338.84304                               27.80237             80.203                                        3.38843e+002           3.88430e+001           8.84304e+000           8.43037e-001           4.30373e-002           3.03731e-003           3.73139e-005
                  111.20    338.84534                               28.09732             80.203                                        3.38845e+002           3.88453e+001           8.84534e+000           8.45337e-001           4.53365e-002           5.33650e-003           3.36501e-004
