~VERSION INFORMATION
VERS                    .            2.0                                    :CWLS LOG ASCII STANDARD
WRAP                    .            NO                                     :ONE LINE PER TIME STEP


~WELL INFORMATION
#MNEM                   .UNIT        DATA                                    DESCRIPTION
#________________________________________________________________________________________
STRTTIME                .HH/MM/SS    08:08:34                               :START TIME
STOPTIME                .HH/MM/SS    08:11:25                               :STOP TIME
STRT                    .s           2.10                                   :START DATA
STOP                    .s           169.10                                 :STOP DATA
STEP                    .s           0.10                                   :MEASUREMENT TIME INTERVAL
NULL                    .            -999.25                                :NULL VALUE
COMP                    .            Statoil ASA                            :COMPANY
FLD                     .            Volve                                  :FIELD
WELL                    .            15/9-F-11 A                            :WELL
RUN                     .            8                                      :RUN
LOC                     .            Maersk Inspirer                        :LOCATION
PROV                    .            na                                     :PROVINCE
SRVC                    .            Baker Hughes INTEQ                     :SERVICE COMPANY
DATE                    .YY/MM/DD    13/05/21                               :LOG DATE
UWI                     .                                                   :UNIQUE WELL ID
DEPTHMD                 .m           3694.5                                 :MEASURED DEPTH
DEPTHTVD                .m           3074.7                                 :TRUE VERTICAL DEPTH


~CURVE INFORMATION
#MNEM                   .UNIT        API CODES                               DESCRIPTION
#________________________________________________________________________________________
TIME                    .s                                                  :01 TIME
DD_PRESS                .bar                                                :02 DRAW DOWN PRESSURE
DD_VOLUME               .cm3                                                :03 INCREMENTAL DRAW DOWN VOLUME
TEMP                    .degC                                               :04 TRANSDUCER TEMPERATURE
DD_PRESS_MOD_1000       .bar                                                :05 DRAW DOWN PRESSURE MOD 1000
DD_PRESS_MOD_100        .bar                                                :06 DRAW DOWN PRESSURE MOD 100
DD_PRESS_MOD_10         .bar                                                :07 DRAW DOWN PRESSURE MOD 10
DD_PRESS_MOD_1          .bar                                                :08 DRAW DOWN PRESSURE MOD 1
DD_PRESS_MOD_01         .bar                                                :09 DRAW DOWN PRESSURE MOD 01
DD_PRESS_MOD_001        .bar                                                :10 DRAW DOWN PRESSURE MOD 001
DD_PRESS_MOD_0001       .bar                                                :11 DRAW DOWN PRESSURE MOD 0001


~PARAMETER INFORMATION
#MNEM                   .UNIT        VALUE                                   DESCRIPTION
#________________________________________________________________________________________
TOOLFACE                .deg         -107.9                                 :01 TOOLFACE
PUMP_CAPACITY           .bar         400                                    :02 NOMINAL DRAW DOWN PUMP CAPACITY
PUMP_LIMIT              .bar         240                                    :03 DOWNLINK PUMP LIMIT
TIME_LIMIT              .min         10                                     :04 DOWNLINK MAX TIME
TEST_TYPE               .            HIGH MOBILITY                          :05 DOWNLINK
DD_PIST_A               .cm2         3.1416                                 :06 DRAW DOWN PISTON AREA
V_SYS                   .cm3         131.0000                               :07 SYSTEM VOLUME
PROBE_ID                .cm          1.2700                                 :08 TTK PROBE ID
G0                      .            4.6700                                 :09 GEOMETRY FACTOR


~A                  TIME     DD_PRESS                              DD_VOLUME               TEMP                                   DD_PRESS_MOD_1000       DD_PRESS_MOD_100        DD_PRESS_MOD_10         DD_PRESS_MOD_1        DD_PRESS_MOD_01       DD_PRESS_MOD_001      DD_PRESS_MOD_0001
# ...
                   13.30    425.13266                                0.00000             84.930                                        4.25133e+002           2.51327e+001           5.13266e+000           1.32658e-001           3.26580e-002           2.65796e-003           6.57964e-004
                   13.40    425.14227                                0.00000             84.930                                        4.25142e+002           2.51423e+001           5.14227e+000           1.42272e-001           4.22721e-002           2.27213e-003           2.72131e-004
                   13.50    425.15007                                0.00000             84.930                                        4.25150e+002           2.51501e+001           5.15007e+000           1.50069e-001           5.00693e-002           6.92606e-005           6.92606e-005
                   13.60    425.15236                                0.00000             84.930                                        4.25152e+002           2.51524e+001           5.15236e+000           1.52360e-001           5.23603e-002           2.36029e-003           3.60293e-004
                   13.70    425.15002                                0.00000             84.930                                        4.25150e+002           2.51500e+001           5.15002e+000           1.50018e-001           5.00179e-002           1.79229e-005           1.79229e-005
                   13.80    425.15711                                0.00000             84.930                                        4.25157e+002           2.51571e+001           5.15711e+000           1.57109e-001           5.71094e-002           7.10943e-003           1.09433e-004
                   13.90    425.15940                                0.00000             84.930                                        4.25159e+002           2.51594e+001           5.15940e+000           1.59395e-001           5.93952e-002           9.39521e-003           3.95206e-004
                   14.00    425.16799                                0.00000             84.930                                        4.25168e+002           2.51680e+001           5.16799e+000           1.67993e-001           6.79931e-002           7.99311e-003           9.93114e-004
                   14.10    425.16893                                0.00000             84.930                                        4.25169e+002           2.51689e+001           5.16893e+000           1.68932e-001           6.89320e-002           8.93202e-003           9.32018e-004
                   14.20    425.16959                                0.00000             84.930                                        4.25170e+002           2.51696e+001           5.16959e+000           1.69585e-001           6.95854e-002           9.58539e-003           5.85386e-004
                   14.30    425.17378                                0.00000             84.930                                        4.25174e+002           2.51738e+001           5.17378e+000           1.73778e-001           7.37776e-002           3.77755e-003           7.77555e-004
                   14.40    425.18373                                0.00000             84.930                                        4.25184e+002           2.51837e+001           5.18373e+000           1.83727e-001           8.37267e-002           3.72673e-003           7.26727e-004
                   14.50    425.18496                                0.00000             84.930                                        4.25185e+002           2.51850e+001           5.18496e+000           1.84964e-001           8.49639e-002           4.96395e-003           9.63948e-004
                   14.60    425.18890                                0.00000             84.930                                        4.25189e+002           2.51889e+001           5.18890e+000           1.88897e-001           8.88967e-002           8.89667e-003           8.96666e-004
                   14.70    425.19696                                0.00000             84.930                                        4.25197e+002           2.51970e+001           5.19696e+000           1.96963e-001           9.69630e-002           6.96301e-003           9.63010e-004
                   14.80    425.20157                                0.00000             84.930                                        4.25202e+002           2.52016e+001           5.20157e+000           2.01567e-001           1.56714e-003           1.56714e-003           5.67139e-004
                   14.90    425.20958                                0.00000             84.930                                        4.25210e+002           2.52096e+001           5.20958e+000           2.09580e-001           9.58028e-003           9.58028e-003           5.80278e-004
                   15.00    425.22606                                0.00000             84.930                                        4.25226e+002           2.52261e+001           5.22606e+000           2.26064e-001           2.60641e-002           6.06410e-003           6.41034e-005
                   15.10    425.23542                                0.00000             84.930                                        4.25235e+002           2.52354e+001           5.23542e+000           2.35421e-001           3.54207e-002           5.42067e-003           4.20669e-004
                   15.20    425.22648                                0.00000             84.930                                        4.25226e+002           2.52265e+001           5.22648e+000           2.26484e-001           2.64839e-002           6.48391e-003           4.83905e-004
                   15.30    425.22317                                0.00000             84.930                                        4.25223e+002           2.52232e+001           5.22317e+000           2.23168e-001           2.31684e-002           3.16842e-003           1.68422e-004
                   15.40    425.23158                                0.00000             84.930                                        4.25232e+002           2.52316e+001           5.23158e+000           2.31582e-001           3.15821e-002           1.58207e-003           5.82069e-004
                   15.50    425.25115                                0.00000             84.930                                        4.25251e+002           2.52511e+001           5.25115e+000           2.51148e-001           5.11482e-002           1.14820e-003           1.48201e-004
                   15.60    425.25140                                0.00000             84.930                                        4.25251e+002           2.52514e+001           5.25140e+000           2.51401e-001           5.14005e-002           1.40051e-003           4.00508e-004
                   15.70    425.24312                                0.00000             84.930                                        4.25243e+002           2.52431e+001           5.24312e+000           2.43117e-001           4.31168e-002           3.11679e-003           1.16788e-004
                   15.80    425.24177                                0.00000             84.930                                        4.25242e+002           2.52418e+001           5.24177e+000           2.41765e-001           4.17651e-002           1.76510e-003           7.65104e-004
                   15.90    425.25130                                0.00000             84.930                                        4.25251e+002           2.52513e+001           5.25130e+000           2.51301e-001           5.13009e-002           1.30087e-003           3.00866e-004
                   16.00    425.25943                                0.00000             84.930                                        4.25259e+002           2.52594e+001           5.25943e+000           2.59435e-001           5.94346e-002           9.43457e-003           4.34570e-004
