~VERSION INFORMATION
VERS                    .            2.0                                    :CWLS LOG ASCII STANDARD
WRAP                    .            NO                                     :ONE LINE PER TIME STEP


~WELL INFORMATION
#MNEM                   .UNIT        DATA                                    DESCRIPTION
#________________________________________________________________________________________
STRTTIME                .HH/MM/SS    22:39:37                               :START TIME
STOPTIME                .HH/MM/SS    22:43:03                               :STOP TIME
STRT                    .s           2.10                                   :START DATA
STOP                    .s           204.10                                 :STOP DATA
STEP                    .s           0.10                                   :MEASUREMENT TIME INTERVAL
NULL                    .            -999.25                                :NULL VALUE
COMP                    .            Statoil ASA                            :COMPANY
FLD                     .            Volve                                  :FIELD
WELL                    .            15/9-F-1 C                             :WELL
RUN                     .            4                                      :RUN
LOC                     .                                                   :LOCATION
PROV                    .            na                                     :PROVINCE
SRVC                    .            Baker Hughes INTEQ                     :SERVICE COMPANY
DATE                    .YY/MM/DD    14/03/14                               :LOG DATE
UWI                     .                                                   :UNIQUE WELL ID
DEPTHMD                 .m           3925.1                                 :MEASURED DEPTH
DEPTHTVD                .m           3120.2                                 :TRUE VERTICAL DEPTH


~CURVE INFORMATION
#MNEM                   .UNIT        API CODES                               DESCRIPTION
#________________________________________________________________________________________
TIME                    .s                                                  :01 TIME
DD_PRESS                .bar                                                :02 DRAW DOWN PRESSURE
DD_VOLUME               .cm3                                                :03 INCREMENTAL DRAW DOWN VOLUME
TEMP                    .degC                                               :04 TRANSDUCER TEMPERATURE
DD_PRESS_MOD_1000       .bar                                                :05 DRAW DOWN PRESSURE MOD 1000
DD_PRESS_MOD_100        .bar                                                :06 DRAW DOWN PRESSURE MOD 100
DD_PRESS_MOD_10         .bar                                                :07 DRAW DOWN PRESSURE MOD 10
DD_PRESS_MOD_1          .bar                                                :08 DRAW DOWN PRESSURE MOD 1
DD_PRESS_MOD_01         .bar                                                :09 DRAW DOWN PRESSURE MOD 01
DD_PRESS_MOD_001        .bar                                                :10 DRAW DOWN PRESSURE MOD 001
DD_PRESS_MOD_0001       .bar                                                :11 DRAW DOWN PRESSURE MOD 0001


~PARAMETER INFORMATION
#MNEM                   .UNIT        VALUE                                   DESCRIPTION
#________________________________________________________________________________________
TOOLFACE                .deg         -7.4                                   :01 TOOLFACE
PUMP_CAPACITY           .bar         400                                    :02 NOMINAL DRAW DOWN PUMP CAPACITY
PUMP_LIMIT              .bar         240                                    :03 DOWNLINK PUMP LIMIT
TIME_LIMIT              .min         10                                     :04 DOWNLINK MAX TIME
TEST_TYPE               .            HIGH MOBILITY                          :05 DOWNLINK
DD_PIST_A               .cm2         3.1416                                 :06 DRAW DOWN PISTON AREA
V_SYS                   .cm3         131.0000                               :07 SYSTEM VOLUME
PROBE_ID                .cm          1.2700                                 :08 TTK PROBE ID
G0                      .            4.6700                                 :09 GEOMETRY FACTOR


~A                  TIME     DD_PRESS                              DD_VOLUME               TEMP                                   DD_PRESS_MOD_1000       DD_PRESS_MOD_100        DD_PRESS_MOD_10         DD_PRESS_MOD_1        DD_PRESS_MOD_01       DD_PRESS_MOD_001      DD_PRESS_MOD_0001
                    2.10    443.57352                                0.00000             91.445                                        4.43574e+002           4.35735e+001           3.57352e+000           5.73525e-001           7.35246e-002           3.52456e-003           5.24561e-004
                    2.20    443.57804                                0.00000             91.445                                        4.43578e+002           4.35780e+001           3.57804e+000           5.78045e-001           7.80447e-002           8.04473e-003           4.47307e-005
                    2.30    443.57912                                0.00000             91.443                                        4.43579e+002           4.35791e+001           3.57912e+000           5.79125e-001           7.91246e-002           9.12465e-003           1.24649e-004
                    2.40    443.57460                                0.00000             91.439                                        4.43575e+002           4.35746e+001           3.57460e+000           5.74599e-001           7.45993e-002           4.59931e-003           5.99306e-004
                    2.50    443.57640                                0.00000             91.438                                        4.43576e+002           4.35764e+001           3.57640e+000           5.76404e-001           7.64037e-002           6.40370e-003           4.03698e-004
                    2.60    443.59044                                0.00000             91.438                                        4.43590e+002           4.35904e+001           3.59044e+000           5.90436e-001           9.04356e-002           4.35569e-004           4.35569e-004
                    2.70    443.60372                                0.00000             91.438                                        4.43604e+002           4.36037e+001           3.60372e+000           6.03716e-001           3.71604e-003           3.71604e-003           7.16041e-004
                    2.80    443.62093                                0.00000             91.438                                        4.43621e+002           4.36209e+001           3.62093e+000           6.20927e-001           2.09265e-002           9.26515e-004           9.26515e-004
                    2.90    443.62538                                0.00000             91.438                                        4.43625e+002           4.36254e+001           3.62538e+000           6.25383e-001           2.53831e-002           5.38308e-003           3.83077e-004
                    3.00    443.61870                                0.00000             91.438                                        4.43619e+002           4.36187e+001           3.61870e+000           6.18703e-001           1.87030e-002           8.70303e-003           7.03032e-004
                    3.10    443.61453                                0.00000             91.438                                        4.43615e+002           4.36145e+001           3.61453e+000           6.14530e-001           1.45297e-002           4.52967e-003           5.29673e-004
                    3.20    443.61940                                0.00000             91.438                                        4.43619e+002           4.36194e+001           3.61940e+000           6.19403e-001           1.94025e-002           9.40253e-003           4.02529e-004
                    3.30    443.62859                                0.00000             91.438                                        4.43629e+002           4.36286e+001           3.62859e+000           6.28590e-001           2.85898e-002           8.58982e-003           5.89823e-004
                    3.40    443.63297                                0.00000             91.438                                        4.43633e+002           4.36330e+001           3.63297e+000           6.32966e-001           3.29660e-002           2.96603e-003           9.66030e-004
                    3.50    443.62827                                0.00000             91.438                                        4.43628e+002           4.36283e+001           3.62827e+000           6.28269e-001           2.82691e-002           8.26909e-003           2.69088e-004
                    3.60    443.63277                                0.00000             91.438                                        4.43633e+002           4.36328e+001           3.63277e+000           6.32770e-001           3.27695e-002           2.76950e-003           7.69502e-004
                    3.70    443.64618                                0.00000             91.438                                        4.43646e+002           4.36462e+001           3.64618e+000           6.46184e-001           4.61842e-002           6.18415e-003           1.84151e-004
                    3.80    443.65049                                0.00000             91.438                                        4.43650e+002           4.36505e+001           3.65049e+000           6.50494e-001           5.04939e-002           4.93867e-004           4.93867e-004
                    3.90    443.65759                                0.00000             91.438                                        4.43658e+002           4.36576e+001           3.65759e+000           6.57592e-001           5.75923e-002           7.59231e-003           5.92314e-004
                    4.00    443.69308                                0.00000             91.438                                        4.43693e+002           4.36931e+001           3.69308e+000           6.93082e-001           9.30821e-002           3.08212e-003           8.21166e-005
                    4.10    443.73957                                0.00000             91.438                                        4.43740e+002           4.37396e+001           3.73957e+000           7.39567e-001           3.95668e-002           9.56678e-003           5.66784e-004
                    4.20    443.76318                                0.00000             91.438                                        4.43763e+002           4.37632e+001           3.76318e+000           7.63177e-001           6.31770e-002           3.17696e-003           1.76961e-004
                    4.30    443.75962                                0.00000             91.438                                        4.43760e+002           4.37596e+001           3.75962e+000           7.59616e-001           5.96164e-002           9.61639e-003           6.16392e-004
                    4.40    443.76371                                0.00000             91.438                                        4.43764e+002           4.37637e+001           3.76371e+000           7.63709e-001           6.37090e-002           3.70898e-003           7.08981e-004
                    4.50    443.80564                                0.00000             91.438                                        4.43806e+002           4.38056e+001           3.80564e+000           8.05637e-001           5.63725e-003           5.63725e-003           6.37249e-004
                    4.60    443.85051                                0.00000             91.438                                        4.43851e+002           4.38505e+001           3.85051e+000           8.50511e-001           5.05112e-002           5.11195e-004           5.11195e-004
                    4.70    443.85352                                0.00000             91.438                                        4.43854e+002           4.38535e+001           3.85352e+000           8.53523e-001           5.35229e-002           3.52285e-003           5.22852e-004
                    4.80    443.83846                                0.00000             91.438                                        4.43838e+002           4.38385e+001           3.83846e+000           8.38464e-001           3.84644e-002           8.46443e-003           4.64434e-004
