~VERSION INFORMATION
VERS                    .            2.0                                    :CWLS LOG ASCII STANDARD
WRAP                    .            NO                                     :ONE LINE PER TIME STEP


~WELL INFORMATION
#MNEM                   .UNIT        DATA                                    DESCRIPTION
#________________________________________________________________________________________
STRTTIME                .HH/MM/SS    15:44:09                               :START TIME
STOPTIME                .HH/MM/SS    15:46:59                               :STOP TIME
STRT                    .s           2.10                                   :START DATA
STOP                    .s           168.10                                 :STOP DATA
STEP                    .s           0.10                                   :MEASUREMENT TIME INTERVAL
NULL                    .            -999.25                                :NULL VALUE
COMP                    .            Statoil ASA                            :COMPANY
FLD                     .            Volve                                  :FIELD
WELL                    .            15/9-F-1 B                             :WELL
RUN                     .            7                                      :RUN
LOC                     .            Maersk Inspirer                        :LOCATION
PROV                    .            na                                     :PROVINCE
SRVC                    .            Baker Hughes INTEQ                     :SERVICE COMPANY
DATE                    .YY/MM/DD    13/09/06                               :LOG DATE
UWI                     .                                                   :UNIQUE WELL ID
DEPTHMD                 .m           3266.5                                 :MEASURED DEPTH
DEPTHTVD                .m           3062.4                                 :TRUE VERTICAL DEPTH


~CURVE INFORMATION
#MNEM                   .UNIT        API CODES                               DESCRIPTION
#________________________________________________________________________________________
TIME                    .s                                                  :01 TIME
DD_PRESS                .bar                                                :02 DRAW DOWN PRESSURE
DD_VOLUME               .cm3                                                :03 INCREMENTAL DRAW DOWN VOLUME
TEMP                    .degC                                               :04 TRANSDUCER TEMPERATURE
DD_PRESS_MOD_1000       .bar                                                :05 DRAW DOWN PRESSURE MOD 1000
DD_PRESS_MOD_100        .bar                                                :06 DRAW DOWN PRESSURE MOD 100
DD_PRESS_MOD_10         .bar                                                :07 DRAW DOWN PRESSURE MOD 10
DD_PRESS_MOD_1          .bar                                                :08 DRAW DOWN PRESSURE MOD 1
DD_PRESS_MOD_01         .bar                                                :09 DRAW DOWN PRESSURE MOD 01
DD_PRESS_MOD_001        .bar                                                :10 DRAW DOWN PRESSURE MOD 001
DD_PRESS_MOD_0001       .bar                                                :11 DRAW DOWN PRESSURE MOD 0001


~PARAMETER INFORMATION
#MNEM                   .UNIT        VALUE                                   DESCRIPTION
#________________________________________________________________________________________
TOOLFACE                .deg         na                                     :01 TOOLFACE
PUMP_CAPACITY           .bar         400                                    :02 NOMINAL DRAW DOWN PUMP CAPACITY
PUMP_LIMIT              .bar         400                                    :03 DOWNLINK PUMP LIMIT
TIME_LIMIT              .min         10                                     :04 DOWNLINK MAX TIME
TEST_TYPE               .            LOW MOBILITY                           :05 DOWNLINK
DD_PIST_A               .cm2         3.1416                                 :06 DRAW DOWN PISTON AREA
V_SYS                   .cm3         131.0000                               :07 SYSTEM VOLUME
PROBE_ID                .cm          1.2700                                 :08 TTK PROBE ID
G0                      .            4.6700                                 :09 GEOMETRY FACTOR


~A                  TIME     DD_PRESS                              DD_VOLUME               TEMP                                   DD_PRESS_MOD_1000       DD_PRESS_MOD_100        DD_PRESS_MOD_10         DD_PRESS_MOD_1        DD_PRESS_MOD_01       DD_PRESS_MOD_001      DD_PRESS_MOD_0001
                    2.10    436.30219                                0.00000             82.594                                        4.36302e+002           3.63022e+001           6.30219e+000           3.02189e-001           2.18855e-003           2.18855e-003           1.88555e-004
                    2.20    436.34060                                0.00000             82.594                                        4.36341e+002           3.63406e+001           6.34060e+000           3.40600e-001           4.05995e-002           5.99528e-004           5.99528e-004
                    2.30    436.37504                                0.00000             82.594                                        4.36375e+002           3.63750e+001           6.37504e+000           3.75045e-001           7.50445e-002           5.04452e-003           4.45180e-005
                    2.40    436.40727                                0.00000             82.594                                        4.36407e+002           3.64073e+001           6.40727e+000           4.07272e-001           7.27186e-003           7.27186e-003           2.71863e-004
                    2.50    436.45472                                0.00000             82.594                                        4.36455e+002           3.64547e+001           6.45472e+000           4.54720e-001           5.47197e-002           4.71972e-003           7.19719e-004
                    2.60    436.51679                                0.00000             82.594                                        4.36517e+002           3.65168e+001           6.51679e+000           5.16788e-001           1.67879e-002           6.78790e-003           7.87904e-004
                    2.70    436.58672                                0.00000             82.594                                        4.36587e+002           3.65867e+001           6.58672e+000           5.86722e-001           8.67218e-002           6.72185e-003           7.21850e-004
                    2.80    436.65891                                0.00000             82.594                                        4.36659e+002           3.66589e+001           6.65891e+000           6.58913e-001           5.89129e-002           8.91287e-003           9.12874e-004
                    2.90    436.73218                                0.00000             82.594                                        4.36732e+002           3.67322e+001           6.73218e+000           7.32180e-001           3.21796e-002           2.17955e-003           1.79552e-004
                    3.00    436.76908                                0.00000             82.594                                        4.36769e+002           3.67691e+001           6.76908e+000           7.69080e-001           6.90797e-002           9.07968e-003           7.96797e-005
                    3.10    436.74558                                0.00000             82.594                                        4.36746e+002           3.67456e+001           6.74558e+000           7.45580e-001           4.55803e-002           5.58033e-003           5.80326e-004
                    3.20    436.70151                                0.00000             82.594                                        4.36702e+002           3.67015e+001           6.70151e+000           7.01505e-001           1.50542e-003           1.50542e-003           5.05418e-004
                    3.30    436.68625                                0.00000             82.594                                        4.36686e+002           3.66862e+001           6.68625e+000           6.86248e-001           8.62478e-002           6.24781e-003           2.47809e-004
                    3.40    436.64954                                0.00000             82.594                                        4.36650e+002           3.66495e+001           6.64954e+000           6.49539e-001           4.95392e-002           9.53922e-003           5.39224e-004
                    3.50    436.61611                                0.00000             82.594                                        4.36616e+002           3.66161e+001           6.61611e+000           6.16112e-001           1.61125e-002           6.11246e-003           1.12459e-004
                    3.60    436.61370                                0.00000             82.594                                        4.36614e+002           3.66137e+001           6.61370e+000           6.13698e-001           1.36975e-002           3.69753e-003           6.97532e-004
                    3.70    436.60585                                0.00000             82.594                                        4.36606e+002           3.66059e+001           6.60585e+000           6.05855e-001           5.85466e-003           5.85466e-003           8.54664e-004
                    3.80    436.57465                                0.00000             82.594                                        4.36575e+002           3.65746e+001           6.57465e+000           5.74648e-001           7.46478e-002           4.64785e-003           6.47847e-004
                    3.90    436.60908                                0.00000             82.591                                        4.36609e+002           3.66091e+001           6.60908e+000           6.09085e-001           9.08477e-003           9.08477e-003           8.47744e-005
                    4.00    436.66280                                0.00000             82.588                                        4.36663e+002           3.66628e+001           6.66280e+000           6.62800e-001           6.27998e-002           2.79975e-003           7.99753e-004
                    4.10    436.66012                                0.00000             82.588                                        4.36660e+002           3.66601e+001           6.66012e+000           6.60117e-001           6.01170e-002           1.16955e-004           1.16955e-004
                    4.20    436.64416                                0.00000             82.592                                        4.36644e+002           3.66442e+001           6.64416e+000           6.44158e-001           4.41578e-002           4.15777e-003           1.57774e-004
                    4.30    436.69266                                0.00000             82.594                                        4.36693e+002           3.66927e+001           6.69266e+000           6.92662e-001           9.26624e-002           2.66241e-003           6.62412e-004
                    4.40    436.72749                                0.00000             82.594                                        4.36727e+002           3.67275e+001           6.72749e+000           7.27489e-001           2.74885e-002           7.48852e-003           4.88522e-004
                    4.50    436.74333                                0.00000             82.594                                        4.36743e+002           3.67433e+001           6.74333e+000           7.43331e-001           4.33309e-002           3.33090e-003           3.30898e-004
                    4.60    436.75588                                0.00000             82.591                                        4.36756e+002           3.67559e+001           6.75588e+000           7.55882e-001           5.58820e-002           5.88203e-003           8.82028e-004
                    4.70    436.79389                                0.00000             82.588                                        4.36794e+002           3.67939e+001           6.79389e+000           7.93885e-001           9.38855e-002           3.88545e-003           8.85450e-004
                    4.80    436.82612                                0.00000             82.586                                        4.36826e+002           3.68261e+001           6.82612e+000           8.26119e-001           2.61187e-002           6.11872e-003           1.18719e-004
