~VERSION INFORMATION
VERS                    .            2.0                                    :CWLS LOG ASCII STANDARD
WRAP                    .            NO                                     :ONE LINE PER TIME STEP


~WELL INFORMATION
#MNEM                   .UNIT        DATA                                    DESCRIPTION
#________________________________________________________________________________________
STRTTIME                .HH/MM/SS    19:52:58                               :START TIME
STOPTIME                .HH/MM/SS    19:58:21                               :STOP TIME
STRT                    .s           2.10                                   :START DATA
STOP                    .s           321.30                                 :STOP DATA
STEP                    .s           0.10                                   :MEASUREMENT TIME INTERVAL
NULL                    .            -999.25                                :NULL VALUE
COMP                    .            Statoil ASA                            :COMPANY
FLD                     .            Volve                                  :FIELD
WELL                    .            15/9-F-11 A                            :WELL
RUN                     .            8                                      :RUN
LOC                     .            Maersk Inspirer                        :LOCATION
PROV                    .            na                                     :PROVINCE
SRVC                    .            Baker Hughes INTEQ                     :SERVICE COMPANY
DATE                    .YY/MM/DD    13/05/23                               :LOG DATE
UWI                     .                                                   :UNIQUE WELL ID
DEPTHMD                 .m           3602.0                                 :MEASURED DEPTH
DEPTHTVD                .m           3003.9                                 :TRUE VERTICAL DEPTH


~CURVE INFORMATION
#MNEM                   .UNIT        API CODES                               DESCRIPTION
#________________________________________________________________________________________
TIME                    .s                                                  :01 TIME
DD_PRESS                .bar                                                :02 DRAW DOWN PRESSURE
DD_VOLUME               .cm3                                                :03 INCREMENTAL DRAW DOWN VOLUME
TEMP                    .degC                                               :04 TRANSDUCER TEMPERATURE
DD_PRESS_MOD_1000       .bar                                                :05 DRAW DOWN PRESSURE MOD 1000
DD_PRESS_MOD_100        .bar                                                :06 DRAW DOWN PRESSURE MOD 100
DD_PRESS_MOD_10         .bar                                                :07 DRAW DOWN PRESSURE MOD 10
DD_PRESS_MOD_1          .bar                                                :08 DRAW DOWN PRESSURE MOD 1
DD_PRESS_MOD_01         .bar                                                :09 DRAW DOWN PRESSURE MOD 01
DD_PRESS_MOD_001        .bar                                                :10 DRAW DOWN PRESSURE MOD 001
DD_PRESS_MOD_0001       .bar                                                :11 DRAW DOWN PRESSURE MOD 0001


~PARAMETER INFORMATION
#MNEM                   .UNIT        VALUE                                   DESCRIPTION
#________________________________________________________________________________________
TOOLFACE                .deg         -40.9                                  :01 TOOLFACE
PUMP_CAPACITY           .bar         400                                    :02 NOMINAL DRAW DOWN PUMP CAPACITY
PUMP_LIMIT              .bar         240                                    :03 DOWNLINK PUMP LIMIT
TIME_LIMIT              .min         10                                     :04 DOWNLINK MAX TIME
TEST_TYPE               .            REPEAT                                 :05 DOWNLINK
TEST_TYPE               .            HIGH MOBILITY                          :06 DOWNLINK
DD_PIST_A               .cm2         3.1416                                 :07 DRAW DOWN PISTON AREA
V_SYS                   .cm3         131.0000                               :08 SYSTEM VOLUME
PROBE_ID                .cm          1.2700                                 :09 TTK PROBE ID
G0                      .            4.6700                                 :10 GEOMETRY FACTOR


~A                  TIME     DD_PRESS                              DD_VOLUME               TEMP                                   DD_PRESS_MOD_1000       DD_PRESS_MOD_100        DD_PRESS_MOD_10         DD_PRESS_MOD_1        DD_PRESS_MOD_01       DD_PRESS_MOD_001      DD_PRESS_MOD_0001
# ...
                  234.50    321.62258                               12.90205             71.055                                        3.21623e+002           2.16226e+001           1.62258e+000           6.22584e-001           2.25840e-002           2.58405e-003           5.84047e-004
                  234.60    321.58939                               12.91765             71.055                                        3.21589e+002           2.15894e+001           1.58939e+000           5.89385e-001           8.93853e-002           9.38528e-003           3.85278e-004
                  234.70    321.60725                               12.93288             71.055                                        3.21607e+002           2.16073e+001           1.60725e+000           6.07251e-001           7.25061e-003           7.25061e-003           2.50615e-004
                  234.80    321.63421                               12.94931             71.055                                        3.21634e+002           2.16342e+001           1.63421e+000           6.34206e-001           3.42065e-002           4.20645e-003           2.06452e-004
                  234.90    321.61109                               12.96582             71.055                                        3.21611e+002           2.16111e+001           1.61109e+000           6.11095e-001           1.10948e-002           1.09480e-003           9.47977e-005
                  235.00    321.59420                               12.98124             71.055                                        3.21594e+002           2.15942e+001           1.59420e+000           5.94203e-001           9.42032e-002           4.20316e-003           2.03161e-004
                  235.10    321.63121                               12.99680             71.055                                        3.21631e+002           2.16312e+001           1.63121e+000           6.31207e-001           3.12072e-002           1.20718e-003           2.07180e-004
                  235.20    321.64179                               13.01367             71.055                                        3.21642e+002           2.16418e+001           1.64179e+000           6.41785e-001           4.17851e-002           1.78509e-003           7.85089e-004
                  235.30    321.64903                               13.02970             71.055                                        3.21649e+002           2.16490e+001           1.64903e+000           6.49032e-001           4.90318e-002           9.03175e-003           3.17534e-005
                  235.40    322.06933                               13.03949             71.055                                        3.22069e+002           2.20693e+001           2.06933e+000           6.93277e-002           6.93277e-002           9.32770e-003           3.27696e-004
                  235.50    323.06411                               13.04230             71.055                                        3.23064e+002           2.30641e+001           3.06411e+000           6.41060e-002           6.41060e-002           4.10602e-003           1.06022e-004
                  235.60    324.30624                               13.04235             71.055                                        3.24306e+002           2.43062e+001           4.30624e+000           3.06240e-001           6.24029e-003           6.24029e-003           2.40292e-004
                  235.70    325.40339                               13.04235             71.055                                        3.25403e+002           2.54034e+001           5.40339e+000           4.03391e-001           3.39136e-003           3.39136e-003           3.91362e-004
                  235.80    326.31930                               13.04235             71.055                                        3.26319e+002           2.63193e+001           6.31930e+000           3.19301e-001           1.93011e-002           9.30111e-003           3.01112e-004
                  235.90    327.16049                               13.04235             71.055                                        3.27160e+002           2.71605e+001           7.16049e+000           1.60490e-001           6.04900e-002           4.89988e-004           4.89988e-004
                  236.00    327.98173                               13.04235             71.055                                        3.27982e+002           2.79817e+001           7.98173e+000           9.81726e-001           8.17256e-002           1.72563e-003           7.25628e-004
                  236.10    328.77542                               13.04235             71.055                                        3.28775e+002           2.87754e+001           8.77542e+000           7.75424e-001           7.54240e-002           5.42403e-003           4.24026e-004
                  236.20    329.55333                               13.04235             71.055                                        3.29553e+002           2.95533e+001           9.55333e+000           5.53328e-001           5.33283e-002           3.32828e-003           3.28277e-004
                  236.30    330.24233                               13.04235             71.055                                        3.30242e+002           3.02423e+001           2.42332e-001           2.42332e-001           4.23323e-002           2.33227e-003           3.32271e-004
                  236.40    330.86729                               13.04235             71.055                                        3.30867e+002           3.08673e+001           8.67292e-001           8.67292e-001           6.72915e-002           7.29154e-003           2.91540e-004
                  236.50    331.49657                               13.04235             71.055                                        3.31497e+002           3.14966e+001           1.49657e+000           4.96573e-001           9.65729e-002           6.57294e-003           5.72936e-004
                  236.60    332.13200                               13.04235             71.055                                        3.32132e+002           3.21320e+001           2.13200e+000           1.32002e-001           3.20024e-002           2.00244e-003           2.44205e-006
                  236.70    332.66894                               13.04235             71.055                                        3.32669e+002           3.26689e+001           2.66894e+000           6.68945e-001           6.89449e-002           8.94490e-003           9.44897e-004
                  236.80    333.12602                               13.04235             71.055                                        3.33126e+002           3.31260e+001           3.12602e+000           1.26018e-001           2.60183e-002           6.01827e-003           1.82655e-005
                  236.90    333.63471                               13.04235             71.055                                        3.33635e+002           3.36347e+001           3.63471e+000           6.34714e-001           3.47144e-002           4.71440e-003           7.14401e-004
                  237.00    334.14475                               13.04235             71.055                                        3.34145e+002           3.41448e+001           4.14475e+000           1.44751e-001           4.47506e-002           4.75059e-003           7.50592e-004
                  237.10    334.52428                               13.04235             71.055                                        3.34524e+002           3.45243e+001           4.52428e+000           5.24282e-001           2.42815e-002           4.28153e-003           2.81530e-004
                  237.20    334.82880                               13.04235             71.055                                        3.34829e+002           3.48288e+001           4.82880e+000           8.28802e-001           2.88019e-002           8.80192e-003           8.01917e-004
