~VERSION INFORMATION
VERS                    .            2.0                                    :CWLS LOG ASCII STANDARD
WRAP                    .            NO                                     :ONE LINE PER TIME STEP


~WELL INFORMATION
#MNEM                   .UNIT        DATA                                    DESCRIPTION
#________________________________________________________________________________________
STRTTIME                .HH/MM/SS    15:31:36                               :START TIME
STOPTIME                .HH/MM/SS    15:34:21                               :STOP TIME
STRT                    .s           2.10                                   :START DATA
STOP                    .s           163.50                                 :STOP DATA
STEP                    .s           0.10                                   :MEASUREMENT TIME INTERVAL
NULL                    .            -999.25                                :NULL VALUE
COMP                    .            Statoil ASA                            :COMPANY
FLD                     .            Volve                                  :FIELD
WELL                    .            15/9-F-11 A                            :WELL
RUN                     .            8                                      :RUN
LOC                     .            Maersk Inspirer                        :LOCATION
PROV                    .            na                                     :PROVINCE
SRVC                    .            Baker Hughes INTEQ                     :SERVICE COMPANY
DATE                    .YY/MM/DD    13/05/21                               :LOG DATE
UWI                     .                                                   :UNIQUE WELL ID
DEPTHMD                 .m           3617.2                                 :MEASURED DEPTH
DEPTHTVD                .m           3015.5                                 :TRUE VERTICAL DEPTH


~CURVE INFORMATION
#MNEM                   .UNIT        API CODES                               DESCRIPTION
#________________________________________________________________________________________
TIME                    .s                                                  :01 TIME
DD_PRESS                .bar                                                :02 DRAW DOWN PRESSURE
DD_VOLUME               .cm3                                                :03 INCREMENTAL DRAW DOWN VOLUME
TEMP                    .degC                                               :04 TRANSDUCER TEMPERATURE
DD_PRESS_MOD_1000       .bar                                                :05 DRAW DOWN PRESSURE MOD 1000
DD_PRESS_MOD_100        .bar                                                :06 DRAW DOWN PRESSURE MOD 100
DD_PRESS_MOD_10         .bar                                                :07 DRAW DOWN PRESSURE MOD 10
DD_PRESS_MOD_1          .bar                                                :08 DRAW DOWN PRESSURE MOD 1
DD_PRESS_MOD_01         .bar                                                :09 DRAW DOWN PRESSURE MOD 01
DD_PRESS_MOD_001        .bar                                                :10 DRAW DOWN PRESSURE MOD 001
DD_PRESS_MOD_0001       .bar                                                :11 DRAW DOWN PRESSURE MOD 0001


~PARAMETER INFORMATION
#MNEM                   .UNIT        VALUE                                   DESCRIPTION
#________________________________________________________________________________________
TOOLFACE                .deg         63.0                                   :01 TOOLFACE
PUMP_CAPACITY           .bar         400                                    :02 NOMINAL DRAW DOWN PUMP CAPACITY
PUMP_LIMIT              .bar         240                                    :03 DOWNLINK PUMP LIMIT
TIME_LIMIT              .min         10                                     :04 DOWNLINK MAX TIME
TEST_TYPE               .            HIGH MOBILITY                          :05 DOWNLINK
DD_PIST_A               .cm2         3.1416                                 :06 DRAW DOWN PISTON AREA
V_SYS                   .cm3         131.0000                               :07 SYSTEM VOLUME
PROBE_ID                .cm          1.2700                                 :08 TTK PROBE ID
G0                      .            4.6700                                 :09 GEOMETRY FACTOR


~A                  TIME     DD_PRESS                              DD_VOLUME               TEMP                                   DD_PRESS_MOD_1000       DD_PRESS_MOD_100        DD_PRESS_MOD_10         DD_PRESS_MOD_1        DD_PRESS_MOD_01       DD_PRESS_MOD_001      DD_PRESS_MOD_0001
# ...
                   13.30    414.56491                                0.00000             80.039                                        4.14565e+002           1.45649e+001           4.56491e+000           5.64909e-001           6.49092e-002           4.90917e-003           9.09166e-004
                   13.40    414.55718                                0.00000             80.039                                        4.14557e+002           1.45572e+001           4.55718e+000           5.57178e-001           5.71785e-002           7.17849e-003           1.78489e-004
                   13.50    414.56215                                0.00000             80.039                                        4.14562e+002           1.45622e+001           4.56215e+000           5.62155e-001           6.21550e-002           2.15495e-003           1.54950e-004
                   13.60    414.58831                                0.00000             80.041                                        4.14588e+002           1.45883e+001           4.58831e+000           5.88313e-001           8.83135e-002           8.31345e-003           3.13455e-004
                   13.70    414.60288                                0.00000             80.045                                        4.14603e+002           1.46029e+001           4.60288e+000           6.02878e-001           2.87794e-003           2.87794e-003           8.77936e-004
                   13.80    414.59748                                0.00000             80.047                                        4.14597e+002           1.45975e+001           4.59748e+000           5.97479e-001           9.74795e-002           7.47950e-003           4.79498e-004
                   13.90    414.60127                                0.00000             80.047                                        4.14601e+002           1.46013e+001           4.60127e+000           6.01274e-001           1.27373e-003           1.27373e-003           2.73727e-004
                   14.00    414.61930                                0.00000             80.047                                        4.14619e+002           1.46193e+001           4.61930e+000           6.19304e-001           1.93039e-002           9.30386e-003           3.03860e-004
                   14.10    414.64078                                0.00000             80.047                                        4.14641e+002           1.46408e+001           4.64078e+000           6.40781e-001           4.07810e-002           7.80994e-004           7.80994e-004
                   14.20    414.64919                                0.00000             80.047                                        4.14649e+002           1.46492e+001           4.64919e+000           6.49191e-001           4.91910e-002           9.19103e-003           1.91028e-004
                   14.30    414.64967                                0.00000             80.047                                        4.14650e+002           1.46497e+001           4.64967e+000           6.49665e-001           4.96655e-002           9.66546e-003           6.65456e-004
                   14.40    414.65682                                0.00000             80.047                                        4.14657e+002           1.46568e+001           4.65682e+000           6.56818e-001           5.68179e-002           6.81792e-003           8.17917e-004
                   14.50    414.66430                                0.00000             80.047                                        4.14664e+002           1.46643e+001           4.66430e+000           6.64299e-001           6.42988e-002           4.29881e-003           2.98810e-004
                   14.60    414.64654                                0.00000             80.047                                        4.14647e+002           1.46465e+001           4.64654e+000           6.46540e-001           4.65403e-002           6.54028e-003           5.40283e-004
                   14.70    414.64150                                0.00000             80.047                                        4.14642e+002           1.46415e+001           4.64150e+000           6.41501e-001           4.15006e-002           1.50055e-003           5.00552e-004
                   14.80    414.66021                                0.00000             80.047                                        4.14660e+002           1.46602e+001           4.66021e+000           6.60212e-001           6.02117e-002           2.11651e-004           2.11651e-004
                   14.90    414.66335                                0.00000             80.047                                        4.14663e+002           1.46634e+001           4.66335e+000           6.63350e-001           6.33504e-002           3.35037e-003           3.50375e-004
                   15.00    414.65215                                0.00000             80.047                                        4.14652e+002           1.46522e+001           4.65215e+000           6.52155e-001           5.21548e-002           2.15480e-003           1.54800e-004
                   15.10    414.67308                                0.00000             80.047                                        4.14673e+002           1.46731e+001           4.67308e+000           6.73077e-001           7.30767e-002           3.07674e-003           7.67374e-005
                   15.20    414.70706                                0.00000             80.047                                        4.14707e+002           1.47071e+001           4.70706e+000           7.07056e-001           7.05570e-003           7.05570e-003           5.56981e-005
                   15.30    414.71413                                0.00000             80.047                                        4.14714e+002           1.47141e+001           4.71413e+000           7.14130e-001           1.41299e-002           4.12985e-003           1.29855e-004
                   15.40    414.70448                                0.00000             80.047                                        4.14704e+002           1.47045e+001           4.70448e+000           7.04478e-001           4.47773e-003           4.47773e-003           4.77727e-004
                   15.50    414.71295                                0.00000             80.047                                        4.14713e+002           1.47129e+001           4.71295e+000           7.12948e-001           1.29476e-002           2.94761e-003           9.47614e-004
                   15.60    414.73673                                0.00000             80.047                                        4.14737e+002           1.47367e+001           4.73673e+000           7.36729e-001           3.67289e-002           6.72894e-003           7.28944e-004
                   15.70    414.72439                                0.00000             80.047                                        4.14724e+002           1.47244e+001           4.72439e+000           7.24386e-001           2.43861e-002           4.38610e-003           3.86100e-004
                   15.80    414.70728                                0.00000             80.047                                        4.14707e+002           1.47073e+001           4.70728e+000           7.07284e-001           7.28376e-003           7.28376e-003           2.83759e-004
                   15.90    414.72143                                0.00000             80.047                                        4.14721e+002           1.47214e+001           4.72143e+000           7.21431e-001           2.14309e-002           1.43085e-003           4.30855e-004
                   16.00    414.75283                                0.00000             80.047                                        4.14753e+002           1.47528e+001           4.75283e+000           7.52828e-001           5.28279e-002           2.82786e-003           8.27863e-004
