~VERSION INFORMATION
VERS                    .            2.0                                    :CWLS LOG ASCII STANDARD
WRAP                    .            NO                                     :ONE LINE PER TIME STEP


~WELL INFORMATION
#MNEM                   .UNIT        DATA                                    DESCRIPTION
#________________________________________________________________________________________
STRTTIME                .HH/MM/SS    19:37:02                               :START TIME
STOPTIME                .HH/MM/SS    19:40:38                               :STOP TIME
STRT                    .s           2.10                                   :START DATA
STOP                    .s           214.10                                 :STOP DATA
STEP                    .s           0.10                                   :MEASUREMENT TIME INTERVAL
NULL                    .            -999.25                                :NULL VALUE
COMP                    .            Statoil ASA                            :COMPANY
FLD                     .            Volve                                  :FIELD
WELL                    .            15/9-F-11 A                            :WELL
RUN                     .            8                                      :RUN
LOC                     .            Maersk Inspirer                        :LOCATION
PROV                    .            na                                     :PROVINCE
SRVC                    .            Baker Hughes INTEQ                     :SERVICE COMPANY
DATE                    .YY/MM/DD    13/05/23                               :LOG DATE
UWI                     .                                                   :UNIQUE WELL ID
DEPTHMD                 .m           3607.9                                 :MEASURED DEPTH
DEPTHTVD                .m           3008.4                                 :TRUE VERTICAL DEPTH


~CURVE INFORMATION
#MNEM                   .UNIT        API CODES                               DESCRIPTION
#________________________________________________________________________________________
TIME                    .s                                                  :01 TIME
DD_PRESS                .bar                                                :02 DRAW DOWN PRESSURE
DD_VOLUME               .cm3                                                :03 INCREMENTAL DRAW DOWN VOLUME
TEMP                    .degC                                               :04 TRANSDUCER TEMPERATURE
DD_PRESS_MOD_1000       .bar                                                :05 DRAW DOWN PRESSURE MOD 1000
DD_PRESS_MOD_100        .bar                                                :06 DRAW DOWN PRESSURE MOD 100
DD_PRESS_MOD_10         .bar                                                :07 DRAW DOWN PRESSURE MOD 10
DD_PRESS_MOD_1          .bar                                                :08 DRAW DOWN PRESSURE MOD 1
DD_PRESS_MOD_01         .bar                                                :09 DRAW DOWN PRESSURE MOD 01
DD_PRESS_MOD_001        .bar                                                :10 DRAW DOWN PRESSURE MOD 001
DD_PRESS_MOD_0001       .bar                                                :11 DRAW DOWN PRESSURE MOD 0001


~PARAMETER INFORMATION
#MNEM                   .UNIT        VALUE                                   DESCRIPTION
#________________________________________________________________________________________
TOOLFACE                .deg         -38.9                                  :01 TOOLFACE
PUMP_CAPACITY           .bar         400                                    :02 NOMINAL DRAW DOWN PUMP CAPACITY
PUMP_LIMIT              .bar         240                                    :03 DOWNLINK PUMP LIMIT
TIME_LIMIT              .min         10                                     :04 DOWNLINK MAX TIME
TEST_TYPE               .            REPEAT                                 :05 DOWNLINK
TEST_TYPE               .            HIGH MOBILITY                          :06 DOWNLINK
DD_PIST_A               .cm2         3.1416                                 :07 DRAW DOWN PISTON AREA
V_SYS                   .cm3         131.0000                               :08 SYSTEM VOLUME
PROBE_ID                .cm          1.2700                                 :09 TTK PROBE ID
G0                      .            4.6700                                 :10 GEOMETRY FACTOR


~A                  TIME     DD_PRESS                              DD_VOLUME               TEMP                                   DD_PRESS_MOD_1000       DD_PRESS_MOD_100        DD_PRESS_MOD_10         DD_PRESS_MOD_1        DD_PRESS_MOD_01       DD_PRESS_MOD_001      DD_PRESS_MOD_0001
# ...
                   72.10    340.35542                               10.63955             71.219                                        3.40355e+002           4.03554e+001           3.55415e-001           3.55415e-001           5.54153e-002           5.41525e-003           4.15251e-004
                   72.20    340.35352                               10.63955             71.219                                        3.40354e+002           4.03535e+001           3.53524e-001           3.53524e-001           5.35240e-002           3.52400e-003           5.23998e-004
                   72.30    340.34312                               10.63955             71.219                                        3.40343e+002           4.03431e+001           3.43118e-001           3.43118e-001           4.31177e-002           3.11771e-003           1.17706e-004
                   72.40    340.34219                               10.63955             71.219                                        3.40342e+002           4.03422e+001           3.42193e-001           3.42193e-001           4.21930e-002           2.19298e-003           1.92980e-004
                   72.50    340.35861                               10.63955             71.219                                        3.40359e+002           4.03586e+001           3.58608e-001           3.58608e-001           5.86079e-002           8.60785e-003           6.07852e-004
                   72.60    340.35718                               10.63955             71.219                                        3.40357e+002           4.03572e+001           3.57179e-001           3.57179e-001           5.71789e-002           7.17889e-003           1.78892e-004
                   72.70    340.34507                               10.63955             71.219                                        3.40345e+002           4.03451e+001           3.45073e-001           3.45073e-001           4.50731e-002           5.07314e-003           7.31414e-005
                   72.80    340.34915                               10.63955             71.219                                        3.40349e+002           4.03492e+001           3.49152e-001           3.49152e-001           4.91522e-002           9.15216e-003           1.52157e-004
                   72.90    340.36011                               10.63955             71.219                                        3.40360e+002           4.03601e+001           3.60110e-001           3.60110e-001           6.01097e-002           1.09667e-004           1.09667e-004
                   73.00    340.35341                               10.63955             71.219                                        3.40353e+002           4.03534e+001           3.53410e-001           3.53410e-001           5.34095e-002           3.40952e-003           4.09524e-004
                   73.10    340.34628                               10.63955             71.219                                        3.40346e+002           4.03463e+001           3.46283e-001           3.46283e-001           4.62834e-002           6.28342e-003           2.83422e-004
                   73.20    340.35167                               10.63955             71.219                                        3.40352e+002           4.03517e+001           3.51673e-001           3.51673e-001           5.16735e-002           1.67347e-003           6.73470e-004
                   73.30    340.35963                               10.63955             71.219                                        3.40360e+002           4.03596e+001           3.59633e-001           3.59633e-001           5.96334e-002           9.63339e-003           6.33395e-004
                   73.40    340.36003                               10.63955             71.219                                        3.40360e+002           4.03600e+001           3.60029e-001           3.60029e-001           6.00286e-002           2.86481e-005           2.86481e-005
                   73.50    340.35008                               10.63955             71.219                                        3.40350e+002           4.03501e+001           3.50084e-001           3.50084e-001           5.00843e-002           8.43322e-005           8.43322e-005
                   73.60    340.35309                               10.63955             71.219                                        3.40353e+002           4.03531e+001           3.53088e-001           3.53088e-001           5.30883e-002           3.08828e-003           8.82833e-005
                   73.70    340.36590                               10.63955             71.219                                        3.40366e+002           4.03659e+001           3.65898e-001           3.65898e-001           6.58979e-002           5.89794e-003           8.97943e-004
                   73.80    340.35894                               10.63955             71.219                                        3.40359e+002           4.03589e+001           3.58939e-001           3.58939e-001           5.89387e-002           8.93868e-003           9.38684e-004
                   73.90    340.34697                               10.63955             71.219                                        3.40347e+002           4.03470e+001           3.46967e-001           3.46967e-001           4.69674e-002           6.96744e-003           9.67443e-004
                   74.00    340.35066                               10.63955             71.219                                        3.40351e+002           4.03507e+001           3.50659e-001           3.50659e-001           5.06593e-002           6.59266e-004           6.59266e-004
                   74.10    340.36338                               10.63955             71.219                                        3.40363e+002           4.03634e+001           3.63383e-001           3.63383e-001           6.33826e-002           3.38259e-003           3.82591e-004
                   74.20    340.35734                               10.63955             71.219                                        3.40357e+002           4.03573e+001           3.57335e-001           3.57335e-001           5.73352e-002           7.33518e-003           3.35182e-004
                   74.30    340.34780                               10.63955             71.219                                        3.40348e+002           4.03478e+001           3.47804e-001           3.47804e-001           4.78041e-002           7.80409e-003           8.04091e-004
                   74.40    340.36492                               10.63955             71.219                                        3.40365e+002           4.03649e+001           3.64915e-001           3.64915e-001           6.49150e-002           4.91500e-003           9.15005e-004
                   74.50    340.36877                               10.63955             71.219                                        3.40369e+002           4.03688e+001           3.68771e-001           3.68771e-001           6.87707e-002           8.77069e-003           7.70692e-004
                   74.60    340.34922                               10.63955             71.219                                        3.40349e+002           4.03492e+001           3.49224e-001           3.49224e-001           4.92240e-002           9.22400e-003           2.23998e-004
                   74.70    340.33991                               10.63955             71.219                                        3.40340e+002           4.03399e+001           3.39906e-001           3.39906e-001           3.99064e-002           9.90641e-003           9.06409e-004
                   74.80    340.34533                               10.63955             71.219                                        3.40345e+002           4.03453e+001           3.45326e-001           3.45326e-001           4.53261e-002           5.32613e-003           3.26125e-004
