~VERSION INFORMATION
VERS                    .            2.0                                    :CWLS LOG ASCII STANDARD
WRAP                    .            NO                                     :ONE LINE PER TIME STEP


~WELL INFORMATION
#MNEM                   .UNIT        DATA                                    DESCRIPTION
#________________________________________________________________________________________
STRTTIME                .HH/MM/SS    02:42:03                               :START TIME
STOPTIME                .HH/MM/SS    02:44:56                               :STOP TIME
STRT                    .s           2.10                                   :START DATA
STOP                    .s           171.40                                 :STOP DATA
STEP                    .s           0.10                                   :MEASUREMENT TIME INTERVAL
NULL                    .            -999.25                                :NULL VALUE
COMP                    .            Statoil ASA                            :COMPANY
FLD                     .            Volve                                  :FIELD
WELL                    .            15/9-F-1 C                             :WELL
RUN                     .            4                                      :RUN
LOC                     .                                                   :LOCATION
PROV                    .            na                                     :PROVINCE
SRVC                    .            Baker Hughes INTEQ                     :SERVICE COMPANY
DATE                    .YY/MM/DD    14/03/15                               :LOG DATE
UWI                     .                                                   :UNIQUE WELL ID
DEPTHMD                 .m           3551.1                                 :MEASURED DEPTH
DEPTHTVD                .m           2992.9                                 :TRUE VERTICAL DEPTH


~CURVE INFORMATION
#MNEM                   .UNIT        API CODES                               DESCRIPTION
#________________________________________________________________________________________
TIME                    .s                                                  :01 TIME
DD_PRESS                .bar                                                :02 DRAW DOWN PRESSURE
DD_VOLUME               .cm3                                                :03 INCREMENTAL DRAW DOWN VOLUME
TEMP                    .degC                                               :04 TRANSDUCER TEMPERATURE
DD_PRESS_MOD_1000       .bar                                                :05 DRAW DOWN PRESSURE MOD 1000
DD_PRESS_MOD_100        .bar                                                :06 DRAW DOWN PRESSURE MOD 100
DD_PRESS_MOD_10         .bar                                                :07 DRAW DOWN PRESSURE MOD 10
DD_PRESS_MOD_1          .bar                                                :08 DRAW DOWN PRESSURE MOD 1
DD_PRESS_MOD_01         .bar                                                :09 DRAW DOWN PRESSURE MOD 01
DD_PRESS_MOD_001        .bar                                                :10 DRAW DOWN PRESSURE MOD 001
DD_PRESS_MOD_0001       .bar                                                :11 DRAW DOWN PRESSURE MOD 0001


~PARAMETER INFORMATION
#MNEM                   .UNIT        VALUE                                   DESCRIPTION
#________________________________________________________________________________________
TOOLFACE                .deg         84.6                                   :01 TOOLFACE
PUMP_CAPACITY           .bar         400                                    :02 NOMINAL DRAW DOWN PUMP CAPACITY
PUMP_LIMIT              .bar         240                                    :03 DOWNLINK PUMP LIMIT
TIME_LIMIT              .min         10                                     :04 DOWNLINK MAX TIME
TEST_TYPE               .            REPEAT                                 :05 DOWNLINK
TEST_TYPE               .            HIGH MOBILITY                          :06 DOWNLINK
DD_PIST_A               .cm2         3.1416                                 :07 DRAW DOWN PISTON AREA
V_SYS                   .cm3         131.0000                               :08 SYSTEM VOLUME
PROBE_ID                .cm          1.2700                                 :09 TTK PROBE ID
G0                      .            4.6700                                 :10 GEOMETRY FACTOR


~A                  TIME     DD_PRESS                              DD_VOLUME               TEMP                                   DD_PRESS_MOD_1000       DD_PRESS_MOD_100        DD_PRESS_MOD_10         DD_PRESS_MOD_1        DD_PRESS_MOD_01       DD_PRESS_MOD_001      DD_PRESS_MOD_0001
# ...
                   58.10    341.51625                               10.74275             85.164                                        3.41516e+002           4.15163e+001           1.51625e+000           5.16254e-001           1.62541e-002           6.25408e-003           2.54077e-004
                   58.20    341.51505                               10.74275             85.164                                        3.41515e+002           4.15150e+001           1.51505e+000           5.15048e-001           1.50479e-002           5.04786e-003           4.78610e-005
                   58.30    341.50896                               10.74275             85.164                                        3.41509e+002           4.15090e+001           1.50896e+000           5.08955e-001           8.95548e-003           8.95548e-003           9.55478e-004
                   58.40    341.50651                               10.74275             85.164                                        3.41507e+002           4.15065e+001           1.50651e+000           5.06510e-001           6.51024e-003           6.51024e-003           5.10243e-004
                   58.50    341.51188                               10.74275             85.164                                        3.41512e+002           4.15119e+001           1.51188e+000           5.11880e-001           1.18800e-002           1.87997e-003           8.79974e-004
                   58.60    341.51573                               10.74275             85.164                                        3.41516e+002           4.15157e+001           1.51573e+000           5.15731e-001           1.57314e-002           5.73142e-003           7.31420e-004
                   58.70    341.51542                               10.74275             85.164                                        3.41515e+002           4.15154e+001           1.51542e+000           5.15417e-001           1.54171e-002           5.41711e-003           4.17115e-004
                   58.80    341.51357                               10.74275             85.164                                        3.41514e+002           4.15136e+001           1.51357e+000           5.13570e-001           1.35699e-002           3.56990e-003           5.69903e-004
                   58.90    341.51317                               10.74275             85.164                                        3.41513e+002           4.15132e+001           1.51317e+000           5.13173e-001           1.31727e-002           3.17272e-003           1.72718e-004
                   59.00    341.51505                               10.74275             85.164                                        3.41515e+002           4.15151e+001           1.51505e+000           5.15052e-001           1.50522e-002           5.05220e-003           5.22047e-005
                   59.10    341.51749                               10.74275             85.164                                        3.41517e+002           4.15175e+001           1.51749e+000           5.17495e-001           1.74945e-002           7.49452e-003           4.94522e-004
                   59.20    341.51222                               10.74275             85.164                                        3.41512e+002           4.15122e+001           1.51222e+000           5.12221e-001           1.22212e-002           2.22123e-003           2.21235e-004
                   59.30    341.50715                               10.74275             85.164                                        3.41507e+002           4.15071e+001           1.50715e+000           5.07149e-001           7.14943e-003           7.14943e-003           1.49432e-004
                   59.40    341.50981                               10.74275             85.164                                        3.41510e+002           4.15098e+001           1.50981e+000           5.09807e-001           9.80707e-003           9.80707e-003           8.07067e-004
                   59.50    341.51274                               10.74275             85.164                                        3.41513e+002           4.15127e+001           1.51274e+000           5.12739e-001           1.27390e-002           2.73903e-003           7.39034e-004
                   59.60    341.51253                               10.74275             85.164                                        3.41513e+002           4.15125e+001           1.51253e+000           5.12527e-001           1.25272e-002           2.52717e-003           5.27174e-004
                   59.70    341.51455                               10.74275             85.164                                        3.41515e+002           4.15145e+001           1.51455e+000           5.14545e-001           1.45454e-002           4.54544e-003           5.45444e-004
                   59.80    341.51985                               10.74275             85.164                                        3.41520e+002           4.15199e+001           1.51985e+000           5.19853e-001           1.98525e-002           9.85253e-003           8.52527e-004
                   59.90    341.51566                               10.74275             85.164                                        3.41516e+002           4.15157e+001           1.51566e+000           5.15659e-001           1.56592e-002           5.65922e-003           6.59219e-004
                   60.00    341.50738                               10.74275             85.164                                        3.41507e+002           4.15074e+001           1.50738e+000           5.07381e-001           7.38091e-003           7.38091e-003           3.80906e-004
                   60.10    341.51204                               10.74275             85.164                                        3.41512e+002           4.15120e+001           1.51204e+000           5.12037e-001           1.20367e-002           2.03665e-003           3.66515e-005
                   60.20    341.52049                               10.74275             85.164                                        3.41520e+002           4.15205e+001           1.52049e+000           5.20494e-001           2.04940e-002           4.93979e-004           4.93979e-004
                   60.30    341.51961                               10.74275             85.164                                        3.41520e+002           4.15196e+001           1.51961e+000           5.19609e-001           1.96092e-002           9.60917e-003           6.09167e-004
                   60.40    341.51255                               10.74275             85.162                                        3.41513e+002           4.15125e+001           1.51255e+000           5.12547e-001           1.25472e-002           2.54718e-003           5.47181e-004
                   60.50    341.51051                               10.74275             85.158                                        3.41511e+002           4.15105e+001           1.51051e+000           5.10508e-001           1.05083e-002           5.08314e-004           5.08314e-004
                   60.60    341.51475                               10.74275             85.156                                        3.41515e+002           4.15148e+001           1.51475e+000           5.14753e-001           1.47529e-002           4.75285e-003           7.52853e-004
                   60.70    341.51768                               10.74275             85.156                                        3.41518e+002           4.15177e+001           1.51768e+000           5.17676e-001           1.76757e-002           7.67568e-003           6.75676e-004
                   60.80    341.51302                               10.74275             85.156                                        3.41513e+002           4.15130e+001           1.51302e+000           5.13018e-001           1.30178e-002           3.01778e-003           1.77830e-005
