~VERSION INFORMATION
VERS                    .            2.0                                    :CWLS LOG ASCII STANDARD
WRAP                    .            NO                                     :ONE LINE PER TIME STEP


~WELL INFORMATION
#MNEM                   .UNIT        DATA                                    DESCRIPTION
#________________________________________________________________________________________
STRTTIME                .HH/MM/SS    02:14:19                               :START TIME
STOPTIME                .HH/MM/SS    02:17:23                               :STOP TIME
STRT                    .s           2.10                                   :START DATA
STOP                    .s           182.70                                 :STOP DATA
STEP                    .s           0.10                                   :MEASUREMENT TIME INTERVAL
NULL                    .            -999.25                                :NULL VALUE
COMP                    .            Statoil ASA                            :COMPANY
FLD                     .            Volve                                  :FIELD
WELL                    .            15/9-F-1 C                             :WELL
RUN                     .            4                                      :RUN
LOC                     .                                                   :LOCATION
PROV                    .            na                                     :PROVINCE
SRVC                    .            Baker Hughes INTEQ                     :SERVICE COMPANY
DATE                    .YY/MM/DD    14/03/15                               :LOG DATE
UWI                     .                                                   :UNIQUE WELL ID
DEPTHMD                 .m           3603.0                                 :MEASURED DEPTH
DEPTHTVD                .m           3006.7                                 :TRUE VERTICAL DEPTH


~CURVE INFORMATION
#MNEM                   .UNIT        API CODES                               DESCRIPTION
#________________________________________________________________________________________
TIME                    .s                                                  :01 TIME
DD_PRESS                .bar                                                :02 DRAW DOWN PRESSURE
DD_VOLUME               .cm3                                                :03 INCREMENTAL DRAW DOWN VOLUME
TEMP                    .degC                                               :04 TRANSDUCER TEMPERATURE
DD_PRESS_MOD_1000       .bar                                                :05 DRAW DOWN PRESSURE MOD 1000
DD_PRESS_MOD_100        .bar                                                :06 DRAW DOWN PRESSURE MOD 100
DD_PRESS_MOD_10         .bar                                                :07 DRAW DOWN PRESSURE MOD 10
DD_PRESS_MOD_1          .bar                                                :08 DRAW DOWN PRESSURE MOD 1
DD_PRESS_MOD_01         .bar                                                :09 DRAW DOWN PRESSURE MOD 01
DD_PRESS_MOD_001        .bar                                                :10 DRAW DOWN PRESSURE MOD 001
DD_PRESS_MOD_0001       .bar                                                :11 DRAW DOWN PRESSURE MOD 0001


~PARAMETER INFORMATION
#MNEM                   .UNIT        VALUE                                   DESCRIPTION
#________________________________________________________________________________________
TOOLFACE                .deg         109.6                                  :01 TOOLFACE
PUMP_CAPACITY           .bar         400                                    :02 NOMINAL DRAW DOWN PUMP CAPACITY
PUMP_LIMIT              .bar         240                                    :03 DOWNLINK PUMP LIMIT
TIME_LIMIT              .min         10                                     :04 DOWNLINK MAX TIME
TEST_TYPE               .            REPEAT                                 :05 DOWNLINK
TEST_TYPE               .            HIGH MOBILITY                          :06 DOWNLINK
DD_PIST_A               .cm2         3.1416                                 :07 DRAW DOWN PISTON AREA
V_SYS                   .cm3         131.0000                               :08 SYSTEM VOLUME
PROBE_ID                .cm          1.2700                                 :09 TTK PROBE ID
G0                      .            4.6700                                 :10 GEOMETRY FACTOR


~A                  TIME     DD_PRESS                              DD_VOLUME               TEMP                                   DD_PRESS_MOD_1000       DD_PRESS_MOD_100        DD_PRESS_MOD_10         DD_PRESS_MOD_1        DD_PRESS_MOD_01       DD_PRESS_MOD_001      DD_PRESS_MOD_0001
# ...
                   49.70    345.39002                               10.76461             86.135                                        3.45390e+002           4.53900e+001           5.39002e+000           3.90022e-001           9.00223e-002           2.23122e-005           2.23122e-005
                   49.80    345.38788                               10.76461             86.133                                        3.45388e+002           4.53879e+001           5.38788e+000           3.87877e-001           8.78767e-002           7.87674e-003           8.76744e-004
                   49.90    345.38789                               10.76461             86.133                                        3.45388e+002           4.53879e+001           5.38789e+000           3.87886e-001           8.78860e-002           7.88602e-003           8.86020e-004
                   50.00    345.38531                               10.76461             86.135                                        3.45385e+002           4.53853e+001           5.38531e+000           3.85306e-001           8.53057e-002           5.30570e-003           3.05701e-004
                   50.10    345.37918                               10.76461             86.136                                        3.45379e+002           4.53792e+001           5.37918e+000           3.79177e-001           7.91767e-002           9.17674e-003           1.76738e-004
                   50.20    345.37881                               10.76461             86.137                                        3.45379e+002           4.53788e+001           5.37881e+000           3.78812e-001           7.88118e-002           8.81184e-003           8.11843e-004
                   50.30    345.38480                               10.76461             86.136                                        3.45385e+002           4.53848e+001           5.38480e+000           3.84798e-001           8.47981e-002           4.79809e-003           7.98088e-004
                   50.40    345.38712                               10.76461             86.137                                        3.45387e+002           4.53871e+001           5.38712e+000           3.87119e-001           8.71191e-002           7.11910e-003           1.19097e-004
                   50.50    345.38166                               10.76461             86.136                                        3.45382e+002           4.53817e+001           5.38166e+000           3.81661e-001           8.16614e-002           1.66138e-003           6.61375e-004
                   50.60    345.37536                               10.76461             86.135                                        3.45375e+002           4.53754e+001           5.37536e+000           3.75362e-001           7.53623e-002           5.36233e-003           3.62331e-004
                   50.70    345.37587                               10.76461             86.133                                        3.45376e+002           4.53759e+001           5.37587e+000           3.75872e-001           7.58715e-002           5.87150e-003           8.71503e-004
                   50.80    345.38229                               10.76461             86.133                                        3.45382e+002           4.53823e+001           5.38229e+000           3.82286e-001           8.22860e-002           2.28602e-003           2.86016e-004
                   50.90    345.38720                               10.76461             86.133                                        3.45387e+002           4.53872e+001           5.38720e+000           3.87205e-001           8.72046e-002           7.20463e-003           2.04631e-004
                   51.00    345.38526                               10.76461             86.133                                        3.45385e+002           4.53853e+001           5.38526e+000           3.85263e-001           8.52629e-002           5.26293e-003           2.62932e-004
                   51.10    345.38074                               10.76461             86.133                                        3.45381e+002           4.53807e+001           5.38074e+000           3.80745e-001           8.07449e-002           7.44938e-004           7.44938e-004
                   51.20    345.38501                               10.76461             86.133                                        3.45385e+002           4.53850e+001           5.38501e+000           3.85006e-001           8.50057e-002           5.00567e-003           5.67184e-006
                   51.30    345.39186                               10.76461             86.133                                        3.45392e+002           4.53919e+001           5.39186e+000           3.91856e-001           9.18560e-002           1.85597e-003           8.55972e-004
                   51.40    345.38711                               10.76461             86.133                                        3.45387e+002           4.53871e+001           5.38711e+000           3.87113e-001           8.71130e-002           7.11303e-003           1.13035e-004
                   51.50    345.38074                               10.76461             86.133                                        3.45381e+002           4.53807e+001           5.38074e+000           3.80735e-001           8.07353e-002           7.35340e-004           7.35340e-004
                   51.60    345.38289                               10.76461             86.133                                        3.45383e+002           4.53829e+001           5.38289e+000           3.82888e-001           8.28881e-002           2.88808e-003           8.88081e-004
                   51.70    345.38596                               10.76461             86.133                                        3.45386e+002           4.53860e+001           5.38596e+000           3.85960e-001           8.59599e-002           5.95986e-003           9.59861e-004
                   51.80    345.38490                               10.76461             86.133                                        3.45385e+002           4.53849e+001           5.38490e+000           3.84899e-001           8.48993e-002           4.89932e-003           8.99316e-004
                   51.90    345.37905                               10.76461             86.133                                        3.45379e+002           4.53791e+001           5.37905e+000           3.79054e-001           7.90541e-002           9.05410e-003           5.41000e-005
                   52.00    345.37885                               10.76461             86.133                                        3.45379e+002           4.53789e+001           5.37885e+000           3.78853e-001           7.88528e-002           8.85275e-003           8.52752e-004
                   52.10    345.38465                               10.76461             86.133                                        3.45385e+002           4.53847e+001           5.38465e+000           3.84650e-001           8.46500e-002           4.65002e-003           6.50019e-004
                   52.20    345.38792                               10.76461             86.133                                        3.45388e+002           4.53879e+001           5.38792e+000           3.87915e-001           8.79154e-002           7.91543e-003           9.15432e-004
                   52.30    345.38602                               10.76461             86.133                                        3.45386e+002           4.53860e+001           5.38602e+000           3.86017e-001           8.60171e-002           6.01713e-003           1.71342e-005
                   52.40    345.38366                               10.76461             86.133                                        3.45384e+002           4.53837e+001           5.38366e+000           3.83661e-001           8.36612e-002           3.66122e-003           6.61225e-004
