~VERSION INFORMATION
VERS                    .            2.0                                    :CWLS LOG ASCII STANDARD
WRAP                    .            NO                                     :ONE LINE PER TIME STEP


~WELL INFORMATION
#MNEM                   .UNIT        DATA                                    DESCRIPTION
#________________________________________________________________________________________
STRTTIME                .HH/MM/SS    16:20:20                               :START TIME
STOPTIME                .HH/MM/SS    16:23:23                               :STOP TIME
STRT                    .s           2.10                                   :START DATA
STOP                    .s           182.00                                 :STOP DATA
STEP                    .s           0.10                                   :MEASUREMENT TIME INTERVAL
NULL                    .            -999.25                                :NULL VALUE
COMP                    .            Statoil ASA                            :COMPANY
FLD                     .            Volve                                  :FIELD
WELL                    .            15/9-F-1 B                             :WELL
RUN                     .            7                                      :RUN
LOC                     .            Maersk Inspirer                        :LOCATION
PROV                    .            na                                     :PROVINCE
SRVC                    .            Baker Hughes INTEQ                     :SERVICE COMPANY
DATE                    .YY/MM/DD    13/09/06                               :LOG DATE
UWI                     .                                                   :UNIQUE WELL ID
DEPTHMD                 .m           3255.0                                 :MEASURED DEPTH
DEPTHTVD                .m           3051.1                                 :TRUE VERTICAL DEPTH


~CURVE INFORMATION
#MNEM                   .UNIT        API CODES                               DESCRIPTION
#________________________________________________________________________________________
TIME                    .s                                                  :01 TIME
DD_PRESS                .bar                                                :02 DRAW DOWN PRESSURE
DD_VOLUME               .cm3                                                :03 INCREMENTAL DRAW DOWN VOLUME
TEMP                    .degC                                               :04 TRANSDUCER TEMPERATURE
DD_PRESS_MOD_1000       .bar                                                :05 DRAW DOWN PRESSURE MOD 1000
DD_PRESS_MOD_100        .bar                                                :06 DRAW DOWN PRESSURE MOD 100
DD_PRESS_MOD_10         .bar                                                :07 DRAW DOWN PRESSURE MOD 10
DD_PRESS_MOD_1          .bar                                                :08 DRAW DOWN PRESSURE MOD 1
DD_PRESS_MOD_01         .bar                                                :09 DRAW DOWN PRESSURE MOD 01
DD_PRESS_MOD_001        .bar                                                :10 DRAW DOWN PRESSURE MOD 001
DD_PRESS_MOD_0001       .bar                                                :11 DRAW DOWN PRESSURE MOD 0001


~PARAMETER INFORMATION
#MNEM                   .UNIT        VALUE                                   DESCRIPTION
#________________________________________________________________________________________
TOOLFACE                .deg         na                                     :01 TOOLFACE
PUMP_CAPACITY           .bar         400                                    :02 NOMINAL DRAW DOWN PUMP CAPACITY
PUMP_LIMIT              .bar         400                                    :03 DOWNLINK PUMP LIMIT
TIME_LIMIT              .min         10                                     :04 DOWNLINK MAX TIME
TEST_TYPE               .            LOW MOBILITY                           :05 DOWNLINK
DD_PIST_A               .cm2         3.1416                                 :06 DRAW DOWN PISTON AREA
V_SYS                   .cm3         131.0000                               :07 SYSTEM VOLUME
PROBE_ID                .cm          1.2700                                 :08 TTK PROBE ID
G0                      .            4.6700                                 :09 GEOMETRY FACTOR


~A                  TIME     DD_PRESS                              DD_VOLUME               TEMP                                   DD_PRESS_MOD_1000       DD_PRESS_MOD_100        DD_PRESS_MOD_10         DD_PRESS_MOD_1        DD_PRESS_MOD_01       DD_PRESS_MOD_001      DD_PRESS_MOD_0001
# ...
                   49.70    345.12880                               10.99651             81.789                                        3.45129e+002           4.51288e+001           5.12880e+000           1.28799e-001           2.87988e-002           8.79883e-003           7.98830e-004
                   49.80    345.11598                               10.99651             81.789                                        3.45116e+002           4.51160e+001           5.11598e+000           1.15977e-001           1.59767e-002           5.97669e-003           9.76691e-004
                   49.90    345.10288                               10.99651             81.789                                        3.45103e+002           4.51029e+001           5.10288e+000           1.02885e-001           2.88497e-003           2.88497e-003           8.84970e-004
                   50.00    345.10885                               10.99651             81.789                                        3.45109e+002           4.51089e+001           5.10885e+000           1.08854e-001           8.85401e-003           8.85401e-003           8.54010e-004
                   50.10    345.12368                               10.99651             81.789                                        3.45124e+002           4.51237e+001           5.12368e+000           1.23678e-001           2.36785e-002           3.67849e-003           6.78490e-004
                   50.20    345.12804                               10.99651             81.789                                        3.45128e+002           4.51280e+001           5.12804e+000           1.28037e-001           2.80369e-002           8.03686e-003           3.68573e-005
                   50.30    345.11929                               10.99651             81.789                                        3.45119e+002           4.51193e+001           5.11929e+000           1.19291e-001           1.92909e-002           9.29094e-003           2.90944e-004
                   50.40    345.12456                               10.99651             81.789                                        3.45125e+002           4.51246e+001           5.12456e+000           1.24555e-001           2.45554e-002           4.55542e-003           5.55416e-004
                   50.50    345.13203                               10.99651             81.789                                        3.45132e+002           4.51320e+001           5.13203e+000           1.32031e-001           3.20309e-002           2.03090e-003           3.08993e-005
                   50.60    345.11609                               10.99651             81.789                                        3.45116e+002           4.51161e+001           5.11609e+000           1.16090e-001           1.60903e-002           6.09025e-003           9.02547e-005
                   50.70    345.10262                               10.99651             81.789                                        3.45103e+002           4.51026e+001           5.10262e+000           1.02622e-001           2.62239e-003           2.62239e-003           6.22393e-004
                   50.80    345.11526                               10.99651             81.789                                        3.45115e+002           4.51153e+001           5.11526e+000           1.15259e-001           1.52588e-002           5.25880e-003           2.58796e-004
                   50.90    345.12069                               10.99651             81.789                                        3.45121e+002           4.51207e+001           5.12069e+000           1.20687e-001           2.06873e-002           6.87266e-004           6.87266e-004
                   51.00    345.10860                               10.99651             81.789                                        3.45109e+002           4.51086e+001           5.10860e+000           1.08597e-001           8.59724e-003           8.59724e-003           5.97242e-004
                   51.10    345.10436                               10.99651             81.789                                        3.45104e+002           4.51044e+001           5.10436e+000           1.04356e-001           4.35642e-003           4.35642e-003           3.56419e-004
                   51.20    345.11837                               10.99651             81.789                                        3.45118e+002           4.51184e+001           5.11837e+000           1.18371e-001           1.83707e-002           8.37071e-003           3.70708e-004
                   51.30    345.12388                               10.99651             81.789                                        3.45124e+002           4.51239e+001           5.12388e+000           1.23876e-001           2.38760e-002           3.87595e-003           8.75951e-004
                   51.40    345.10983                               10.99651             81.789                                        3.45110e+002           4.51098e+001           5.10983e+000           1.09829e-001           9.82885e-003           9.82885e-003           8.28855e-004
                   51.50    345.10322                               10.99651             81.789                                        3.45103e+002           4.51032e+001           5.10322e+000           1.03224e-001           3.22432e-003           3.22432e-003           2.24319e-004
                   51.60    345.11897                               10.99651             81.789                                        3.45119e+002           4.51190e+001           5.11897e+000           1.18968e-001           1.89680e-002           8.96800e-003           9.67997e-004
                   51.70    345.13471                               10.99651             81.789                                        3.45135e+002           4.51347e+001           5.13471e+000           1.34713e-001           3.47131e-002           4.71309e-003           7.13094e-004
                   51.80    345.12612                               10.99651             81.789                                        3.45126e+002           4.51261e+001           5.12612e+000           1.26124e-001           2.61235e-002           6.12354e-003           1.23539e-004
                   51.90    345.11458                               10.99651             81.789                                        3.45115e+002           4.51146e+001           5.11458e+000           1.14581e-001           1.45807e-002           4.58074e-003           5.80742e-004
                   52.00    345.12480                               10.99651             81.789                                        3.45125e+002           4.51248e+001           5.12480e+000           1.24796e-001           2.47959e-002           4.79591e-003           7.95914e-004
                   52.10    345.12998                               10.99651             81.789                                        3.45130e+002           4.51300e+001           5.12998e+000           1.29982e-001           2.99824e-002           9.98243e-003           9.82426e-004
                   52.20    345.11141                               10.99651             81.789                                        3.45111e+002           4.51114e+001           5.11141e+000           1.11410e-001           1.14100e-002           1.41000e-003           4.10001e-004
                   52.30    345.09969                               10.99651             81.789                                        3.45100e+002           4.50997e+001           5.09969e+000           9.96859e-002           9.96859e-002           9.68591e-003           6.85914e-004
                   52.40    345.12001                               10.99651             81.789                                        3.45120e+002           4.51200e+001           5.12001e+000           1.20011e-001           2.00111e-002           1.11420e-005           1.11420e-005
