~VERSION INFORMATION
VERS                    .            2.0                                    :CWLS LOG ASCII STANDARD
WRAP                    .            NO                                     :ONE LINE PER TIME STEP


~WELL INFORMATION
#MNEM                   .UNIT        DATA                                    DESCRIPTION
#________________________________________________________________________________________
STRTTIME                .HH/MM/SS    23:39:21                               :START TIME
STOPTIME                .HH/MM/SS    23:43:19                               :STOP TIME
STRT                    .s           2.10                                   :START DATA
STOP                    .s           236.60                                 :STOP DATA
STEP                    .s           0.10                                   :MEASUREMENT TIME INTERVAL
NULL                    .            -999.25                                :NULL VALUE
COMP                    .            Statoil                                :COMPANY
FLD                     .            Volve                                  :FIELD
WELL                    .            15/9-F-11 T2                           :WELL
RUN                     .            7                                      :RUN
LOC                     .            Maersk Inspirer                        :LOCATION
PROV                    .            na                                     :PROVINCE
SRVC                    .            Baker Hughes INTEQ                     :SERVICE COMPANY
DATE                    .YY/MM/DD    13/05/04                               :LOG DATE
UWI                     .                                                   :UNIQUE WELL ID
DEPTHMD                 .m           4417.0                                 :MEASURED DEPTH
DEPTHTVD                .m           3257.6                                 :TRUE VERTICAL DEPTH


~CURVE INFORMATION
#MNEM                   .UNIT        API CODES                               DESCRIPTION
#________________________________________________________________________________________
TIME                    .s                                                  :01 TIME
DD_PRESS                .bar                                                :02 DRAW DOWN PRESSURE
DD_VOLUME               .cm3                                                :03 INCREMENTAL DRAW DOWN VOLUME
TEMP                    .degC                                               :04 TRANSDUCER TEMPERATURE
DD_PRESS_MOD_1000       .bar                                                :05 DRAW DOWN PRESSURE MOD 1000
DD_PRESS_MOD_100        .bar                                                :06 DRAW DOWN PRESSURE MOD 100
DD_PRESS_MOD_10         .bar                                                :07 DRAW DOWN PRESSURE MOD 10
DD_PRESS_MOD_1          .bar                                                :08 DRAW DOWN PRESSURE MOD 1
DD_PRESS_MOD_01         .bar                                                :09 DRAW DOWN PRESSURE MOD 01
DD_PRESS_MOD_001        .bar                                                :10 DRAW DOWN PRESSURE MOD 001
DD_PRESS_MOD_0001       .bar                                                :11 DRAW DOWN PRESSURE MOD 0001


~PARAMETER INFORMATION
#MNEM                   .UNIT        VALUE                                   DESCRIPTION
#________________________________________________________________________________________
TOOLFACE                .deg         na                                     :01 TOOLFACE
PUMP_CAPACITY           .bar         400                                    :02 NOMINAL DRAW DOWN PUMP CAPACITY
PUMP_LIMIT              .bar         240                                    :03 DOWNLINK PUMP LIMIT
TIME_LIMIT              .min         10                                     :04 DOWNLINK MAX TIME
TEST_TYPE               .            REPEAT                                 :05 DOWNLINK
TEST_TYPE               .            HIGH MOBILITY                          :06 DOWNLINK
DD_PIST_A               .cm2         3.1416                                 :07 DRAW DOWN PISTON AREA
V_SYS                   .cm3         131.0000                               :08 SYSTEM VOLUME
PROBE_ID                .cm          1.2700                                 :09 TTK PROBE ID
G0                      .            4.6700                                 :10 GEOMETRY FACTOR


~A                  TIME     DD_PRESS                              DD_VOLUME               TEMP                                   DD_PRESS_MOD_1000       DD_PRESS_MOD_100        DD_PRESS_MOD_10         DD_PRESS_MOD_1        DD_PRESS_MOD_01       DD_PRESS_MOD_001      DD_PRESS_MOD_0001
# ...
                  234.50    458.04724                                0.00000             96.047                                        4.58047e+002           5.80472e+001           8.04724e+000           4.72432e-002           4.72432e-002           7.24324e-003           2.43243e-004
                  234.60    458.01224                                0.00000             96.047                                        4.58012e+002           5.80122e+001           8.01224e+000           1.22433e-002           1.22433e-002           2.24333e-003           2.43327e-004
                  234.70    458.03944                                0.00000             96.047                                        4.58039e+002           5.80394e+001           8.03944e+000           3.94353e-002           3.94353e-002           9.43527e-003           4.35273e-004
                  234.80    458.06518                                0.00000             96.047                                        4.58065e+002           5.80652e+001           8.06518e+000           6.51781e-002           6.51781e-002           5.17814e-003           1.78143e-004
                  234.90    458.02415                                0.00000             96.047                                        4.58024e+002           5.80241e+001           8.02415e+000           2.41477e-002           2.41477e-002           4.14769e-003           1.47685e-004
                  235.00    457.99650                                0.00000             96.047                                        4.57997e+002           5.79965e+001           7.99650e+000           9.96503e-001           9.65031e-002           6.50312e-003           5.03117e-004
                  235.10    458.03785                                0.00000             96.047                                        4.58038e+002           5.80379e+001           8.03785e+000           3.78527e-002           3.78527e-002           7.85272e-003           8.52719e-004
                  235.20    458.05513                                0.00000             96.047                                        4.58055e+002           5.80551e+001           8.05513e+000           5.51279e-002           5.51279e-002           5.12788e-003           1.27883e-004
                  235.30    458.00263                                0.00000             96.047                                        4.58003e+002           5.80026e+001           8.00263e+000           2.63150e-003           2.63150e-003           2.63150e-003           6.31503e-004
                  235.40    457.97701                                0.00000             96.047                                        4.57977e+002           5.79770e+001           7.97701e+000           9.77012e-001           7.70118e-002           7.01176e-003           1.17595e-005
                  235.50    458.01866                                0.00000             96.047                                        4.58019e+002           5.80187e+001           8.01866e+000           1.86555e-002           1.86555e-002           8.65545e-003           6.55452e-004
                  235.60    458.02702                                0.00000             96.047                                        4.58027e+002           5.80270e+001           8.02702e+000           2.70247e-002           2.70247e-002           7.02473e-003           2.47250e-005
                  235.70    457.97751                                0.00000             96.047                                        4.57978e+002           5.79775e+001           7.97751e+000           9.77511e-001           7.75109e-002           7.51087e-003           5.10872e-004
                  235.80    457.98106                                0.00000             96.045                                        4.57981e+002           5.79811e+001           7.98106e+000           9.81063e-001           8.10628e-002           1.06278e-003           6.27805e-005
                  235.90    458.04781                                0.00000             96.041                                        4.58048e+002           5.80478e+001           8.04781e+000           4.78141e-002           4.78141e-002           7.81414e-003           8.14138e-004
                  236.00    458.04996                                0.00000             96.039                                        4.58050e+002           5.80500e+001           8.04996e+000           4.99631e-002           4.99631e-002           9.96307e-003           9.63075e-004
                  236.10    457.99670                                0.00000             96.039                                        4.57997e+002           5.79967e+001           7.99670e+000           9.96697e-001           9.66966e-002           6.69657e-003           6.96573e-004
                  236.20    458.00692                                0.00000             96.041                                        4.58007e+002           5.80069e+001           8.00692e+000           6.91539e-003           6.91539e-003           6.91539e-003           9.15389e-004
                  236.30    458.06479                                0.00000             96.043                                        4.58065e+002           5.80648e+001           8.06479e+000           6.47911e-002           6.47911e-002           4.79108e-003           7.91079e-004
                  236.40    458.06322                                0.00000             96.041                                        4.58063e+002           5.80632e+001           8.06322e+000           6.32206e-002           6.32206e-002           3.22059e-003           2.20595e-004
                  236.50    458.01871                                0.00000             96.039                                        4.58019e+002           5.80187e+001           8.01871e+000           1.87111e-002           1.87111e-002           8.71107e-003           7.11073e-004
                  236.60    458.02552                                0.00000             96.039                                        4.58026e+002           5.80255e+001           8.02552e+000           2.55155e-002           2.55155e-002           5.51553e-003           5.15530e-004
