~VERSION INFORMATION
VERS                    .            2.0                                    :CWLS LOG ASCII STANDARD
WRAP                    .            NO                                     :ONE LINE PER TIME STEP


~WELL INFORMATION
#MNEM                   .UNIT        DATA                                    DESCRIPTION
#________________________________________________________________________________________
STRTTIME                .HH/MM/SS    03:28:02                               :START TIME
STOPTIME                .HH/MM/SS    03:30:44                               :STOP TIME
STRT                    .s           2.10                                   :START DATA
STOP                    .s           160.80                                 :STOP DATA
STEP                    .s           0.10                                   :MEASUREMENT TIME INTERVAL
NULL                    .            -999.25                                :NULL VALUE
COMP                    .            Statoil ASA                            :COMPANY
FLD                     .            Volve                                  :FIELD
WELL                    .            15/9-F-1 C                             :WELL
RUN                     .            4                                      :RUN
LOC                     .                                                   :LOCATION
PROV                    .            na                                     :PROVINCE
SRVC                    .            Baker Hughes INTEQ                     :SERVICE COMPANY
DATE                    .YY/MM/DD    14/03/15                               :LOG DATE
UWI                     .                                                   :UNIQUE WELL ID
DEPTHMD                 .m           3493.0                                 :MEASURED DEPTH
DEPTHTVD                .m           2980.2                                 :TRUE VERTICAL DEPTH


~CURVE INFORMATION
#MNEM                   .UNIT        API CODES                               DESCRIPTION
#________________________________________________________________________________________
TIME                    .s                                                  :01 TIME
DD_PRESS                .bar                                                :02 DRAW DOWN PRESSURE
DD_VOLUME               .cm3                                                :03 INCREMENTAL DRAW DOWN VOLUME
TEMP                    .degC                                               :04 TRANSDUCER TEMPERATURE
DD_PRESS_MOD_1000       .bar                                                :05 DRAW DOWN PRESSURE MOD 1000
DD_PRESS_MOD_100        .bar                                                :06 DRAW DOWN PRESSURE MOD 100
DD_PRESS_MOD_10         .bar                                                :07 DRAW DOWN PRESSURE MOD 10
DD_PRESS_MOD_1          .bar                                                :08 DRAW DOWN PRESSURE MOD 1
DD_PRESS_MOD_01         .bar                                                :09 DRAW DOWN PRESSURE MOD 01
DD_PRESS_MOD_001        .bar                                                :10 DRAW DOWN PRESSURE MOD 001
DD_PRESS_MOD_0001       .bar                                                :11 DRAW DOWN PRESSURE MOD 0001


~PARAMETER INFORMATION
#MNEM                   .UNIT        VALUE                                   DESCRIPTION
#________________________________________________________________________________________
TOOLFACE                .deg         89.6                                   :01 TOOLFACE
PUMP_CAPACITY           .bar         400                                    :02 NOMINAL DRAW DOWN PUMP CAPACITY
PUMP_LIMIT              .bar         240                                    :03 DOWNLINK PUMP LIMIT
TIME_LIMIT              .min         10                                     :04 DOWNLINK MAX TIME
TEST_TYPE               .            REPEAT                                 :05 DOWNLINK
TEST_TYPE               .            HIGH MOBILITY                          :06 DOWNLINK
DD_PIST_A               .cm2         3.1416                                 :07 DRAW DOWN PISTON AREA
V_SYS                   .cm3         131.0000                               :08 SYSTEM VOLUME
PROBE_ID                .cm          1.2700                                 :09 TTK PROBE ID
G0                      .            4.6700                                 :10 GEOMETRY FACTOR


~A                  TIME     DD_PRESS                              DD_VOLUME               TEMP                                   DD_PRESS_MOD_1000       DD_PRESS_MOD_100        DD_PRESS_MOD_10         DD_PRESS_MOD_1        DD_PRESS_MOD_01       DD_PRESS_MOD_001      DD_PRESS_MOD_0001
                    2.10    420.98143                                0.00000             83.844                                        4.20981e+002           2.09814e+001           9.81432e-001           9.81432e-001           8.14317e-002           1.43173e-003           4.31728e-004
                    2.20    420.99460                                0.00000             83.844                                        4.20995e+002           2.09946e+001           9.94596e-001           9.94596e-001           9.45961e-002           4.59606e-003           5.96062e-004
                    2.30    421.01068                                0.00000             83.844                                        4.21011e+002           2.10107e+001           1.01068e+000           1.06793e-002           1.06793e-002           6.79252e-004           6.79252e-004
                    2.40    421.01766                                0.00000             83.844                                        4.21018e+002           2.10177e+001           1.01766e+000           1.76572e-002           1.76572e-002           7.65720e-003           6.57202e-004
                    2.50    421.02992                                0.00000             83.844                                        4.21030e+002           2.10299e+001           1.02992e+000           2.99195e-002           2.99195e-002           9.91949e-003           9.19486e-004
                    2.60    421.04247                                0.00000             83.844                                        4.21042e+002           2.10425e+001           1.04247e+000           4.24722e-002           4.24722e-002           2.47223e-003           4.72230e-004
                    2.70    421.05021                                0.00000             83.844                                        4.21050e+002           2.10502e+001           1.05021e+000           5.02080e-002           5.02080e-002           2.08025e-004           2.08025e-004
                    2.80    421.04472                                0.00000             83.844                                        4.21045e+002           2.10447e+001           1.04472e+000           4.47246e-002           4.47246e-002           4.72459e-003           7.24587e-004
                    2.90    421.04656                                0.00000             83.844                                        4.21047e+002           2.10466e+001           1.04656e+000           4.65576e-002           4.65576e-002           6.55761e-003           5.57609e-004
                    3.00    421.07088                                0.00000             83.844                                        4.21071e+002           2.10709e+001           1.07088e+000           7.08816e-002           7.08816e-002           8.81594e-004           8.81594e-004
                    3.10    421.09476                                0.00000             83.844                                        4.21095e+002           2.10948e+001           1.09476e+000           9.47579e-002           9.47579e-002           4.75794e-003           7.57943e-004
                    3.20    421.10522                                0.00000             83.844                                        4.21105e+002           2.11052e+001           1.10522e+000           1.05224e-001           5.22391e-003           5.22391e-003           2.23908e-004
                    3.30    421.11387                                0.00000             83.844                                        4.21114e+002           2.11139e+001           1.11387e+000           1.13874e-001           1.38744e-002           3.87443e-003           8.74431e-004
                    3.40    421.12669                                0.00000             83.844                                        4.21127e+002           2.11267e+001           1.12669e+000           1.26689e-001           2.66895e-002           6.68947e-003           6.89466e-004
                    3.50    421.13993                                0.00000             83.844                                        4.21140e+002           2.11399e+001           1.13993e+000           1.39926e-001           3.99257e-002           9.92569e-003           9.25689e-004
                    3.60    421.14568                                0.00000             83.844                                        4.21146e+002           2.11457e+001           1.14568e+000           1.45679e-001           4.56795e-002           5.67949e-003           6.79492e-004
                    3.70    421.15056                                0.00000             83.844                                        4.21151e+002           2.11506e+001           1.15056e+000           1.50564e-001           5.05638e-002           5.63798e-004           5.63798e-004
                    3.80    421.16965                                0.00000             83.844                                        4.21170e+002           2.11697e+001           1.16965e+000           1.69653e-001           6.96527e-002           9.65272e-003           6.52722e-004
                    3.90    421.19341                                0.00000             83.844                                        4.21193e+002           2.11934e+001           1.19341e+000           1.93413e-001           9.34132e-002           3.41324e-003           4.13243e-004
                    4.00    421.19539                                0.00000             83.844                                        4.21195e+002           2.11954e+001           1.19539e+000           1.95388e-001           9.53884e-002           5.38840e-003           3.88397e-004
                    4.10    421.18807                                0.00000             83.844                                        4.21188e+002           2.11881e+001           1.18807e+000           1.88068e-001           8.80678e-002           8.06780e-003           6.77965e-005
                    4.20    421.20487                                0.00000             83.844                                        4.21205e+002           2.12049e+001           1.20487e+000           2.04872e-001           4.87230e-003           4.87230e-003           8.72302e-004
                    4.30    421.23944                                0.00000             83.844                                        4.21239e+002           2.12394e+001           1.23944e+000           2.39443e-001           3.94429e-002           9.44294e-003           4.42941e-004
                    4.40    421.25567                                0.00000             83.844                                        4.21256e+002           2.12557e+001           1.25567e+000           2.55669e-001           5.56688e-002           5.66882e-003           6.68817e-004
                    4.50    421.25342                                0.00000             83.844                                        4.21253e+002           2.12534e+001           1.25342e+000           2.53422e-001           5.34223e-002           3.42229e-003           4.22288e-004
                    4.60    421.24933                                0.00000             83.844                                        4.21249e+002           2.12493e+001           1.24933e+000           2.49325e-001           4.93252e-002           9.32523e-003           3.25234e-004
                    4.70    421.26453                                0.00000             83.844                                        4.21265e+002           2.12645e+001           1.26453e+000           2.64528e-001           6.45284e-002           4.52838e-003           5.28383e-004
                    4.80    421.28944                                0.00000             83.844                                        4.21289e+002           2.12894e+001           1.28944e+000           2.89441e-001           8.94406e-002           9.44058e-003           4.40576e-004
