~VERSION INFORMATION
VERS                    .            2.0                                    :CWLS LOG ASCII STANDARD
WRAP                    .            NO                                     :ONE LINE PER TIME STEP


~WELL INFORMATION
#MNEM                   .UNIT        DATA                                    DESCRIPTION
#________________________________________________________________________________________
STRTTIME                .HH/MM/SS    10:48:38                               :START TIME
STOPTIME                .HH/MM/SS    10:51:35                               :STOP TIME
STRT                    .s           2.10                                   :START DATA
STOP                    .s           175.10                                 :STOP DATA
STEP                    .s           0.10                                   :MEASUREMENT TIME INTERVAL
NULL                    .            -999.25                                :NULL VALUE
COMP                    .            Statoil ASA                            :COMPANY
FLD                     .            Volve                                  :FIELD
WELL                    .            15/9-F-11 A                            :WELL
RUN                     .            8                                      :RUN
LOC                     .            Maersk Inspirer                        :LOCATION
PROV                    .            na                                     :PROVINCE
SRVC                    .            Baker Hughes INTEQ                     :SERVICE COMPANY
DATE                    .YY/MM/DD    13/05/21                               :LOG DATE
UWI                     .                                                   :UNIQUE WELL ID
DEPTHMD                 .m           3635.2                                 :MEASURED DEPTH
DEPTHTVD                .m           3029.3                                 :TRUE VERTICAL DEPTH


~CURVE INFORMATION
#MNEM                   .UNIT        API CODES                               DESCRIPTION
#________________________________________________________________________________________
TIME                    .s                                                  :01 TIME
DD_PRESS                .bar                                                :02 DRAW DOWN PRESSURE
DD_VOLUME               .cm3                                                :03 INCREMENTAL DRAW DOWN VOLUME
TEMP                    .degC                                               :04 TRANSDUCER TEMPERATURE
DD_PRESS_MOD_1000       .bar                                                :05 DRAW DOWN PRESSURE MOD 1000
DD_PRESS_MOD_100        .bar                                                :06 DRAW DOWN PRESSURE MOD 100
DD_PRESS_MOD_10         .bar                                                :07 DRAW DOWN PRESSURE MOD 10
DD_PRESS_MOD_1          .bar                                                :08 DRAW DOWN PRESSURE MOD 1
DD_PRESS_MOD_01         .bar                                                :09 DRAW DOWN PRESSURE MOD 01
DD_PRESS_MOD_001        .bar                                                :10 DRAW DOWN PRESSURE MOD 001
DD_PRESS_MOD_0001       .bar                                                :11 DRAW DOWN PRESSURE MOD 0001


~PARAMETER INFORMATION
#MNEM                   .UNIT        VALUE                                   DESCRIPTION
#________________________________________________________________________________________
TOOLFACE                .deg         69.1                                   :01 TOOLFACE
PUMP_CAPACITY           .bar         400                                    :02 NOMINAL DRAW DOWN PUMP CAPACITY
PUMP_LIMIT              .bar         240                                    :03 DOWNLINK PUMP LIMIT
TIME_LIMIT              .min         10                                     :04 DOWNLINK MAX TIME
TEST_TYPE               .            REPEAT                                 :05 DOWNLINK
TEST_TYPE               .            HIGH MOBILITY                          :06 DOWNLINK
DD_PIST_A               .cm2         3.1416                                 :07 DRAW DOWN PISTON AREA
V_SYS                   .cm3         131.0000                               :08 SYSTEM VOLUME
PROBE_ID                .cm          1.2700                                 :09 TTK PROBE ID
G0                      .            4.6700                                 :10 GEOMETRY FACTOR


~A                  TIME     DD_PRESS                              DD_VOLUME               TEMP                                   DD_PRESS_MOD_1000       DD_PRESS_MOD_100        DD_PRESS_MOD_10         DD_PRESS_MOD_1        DD_PRESS_MOD_01       DD_PRESS_MOD_001      DD_PRESS_MOD_0001
# ...
                   13.30    416.06168                                0.00000             80.672                                        4.16062e+002           1.60617e+001           6.06168e+000           6.16767e-002           6.16767e-002           1.67671e-003           6.76712e-004
                   13.40    416.08642                                0.00000             80.672                                        4.16086e+002           1.60864e+001           6.08642e+000           8.64166e-002           8.64166e-002           6.41665e-003           4.16645e-004
                   13.50    416.10004                                0.00000             80.672                                        4.16100e+002           1.61000e+001           6.10004e+000           1.00037e-001           3.66110e-005           3.66110e-005           3.66110e-005
                   13.60    416.08644                                0.00000             80.672                                        4.16086e+002           1.60864e+001           6.08644e+000           8.64418e-002           8.64418e-002           6.44181e-003           4.41813e-004
                   13.70    416.08527                                0.00000             80.672                                        4.16085e+002           1.60853e+001           6.08527e+000           8.52715e-002           8.52715e-002           5.27151e-003           2.71506e-004
                   13.80    416.09846                                0.00000             80.672                                        4.16098e+002           1.60985e+001           6.09846e+000           9.84596e-002           9.84596e-002           8.45960e-003           4.59596e-004
                   13.90    416.10785                                0.00000             80.672                                        4.16108e+002           1.61079e+001           6.10785e+000           1.07851e-001           7.85058e-003           7.85058e-003           8.50576e-004
                   14.00    416.10973                                0.00000             80.672                                        4.16110e+002           1.61097e+001           6.10973e+000           1.09734e-001           9.73430e-003           9.73430e-003           7.34297e-004
                   14.10    416.12794                                0.00000             80.672                                        4.16128e+002           1.61279e+001           6.12794e+000           1.27938e-001           2.79382e-002           7.93816e-003           9.38157e-004
                   14.20    416.15643                                0.00000             80.672                                        4.16156e+002           1.61564e+001           6.15643e+000           1.56431e-001           5.64308e-002           6.43083e-003           4.30826e-004
                   14.30    416.15395                                0.00000             80.672                                        4.16154e+002           1.61539e+001           6.15395e+000           1.53945e-001           5.39454e-002           3.94543e-003           9.45429e-004
                   14.40    416.14297                                0.00000             80.672                                        4.16143e+002           1.61430e+001           6.14297e+000           1.42966e-001           4.29659e-002           2.96585e-003           9.65851e-004
                   14.50    416.14789                                0.00000             80.672                                        4.16148e+002           1.61479e+001           6.14789e+000           1.47888e-001           4.78877e-002           7.88775e-003           8.87748e-004
                   14.60    416.16449                                0.00000             80.672                                        4.16164e+002           1.61645e+001           6.16449e+000           1.64486e-001           6.44857e-002           4.48566e-003           4.85660e-004
                   14.70    416.16252                                0.00000             80.672                                        4.16163e+002           1.61625e+001           6.16252e+000           1.62525e-001           6.25246e-002           2.52463e-003           5.24626e-004
                   14.80    416.16578                                0.00000             80.672                                        4.16166e+002           1.61658e+001           6.16578e+000           1.65777e-001           6.57775e-002           5.77747e-003           7.77468e-004
                   14.90    416.19174                                0.00000             80.672                                        4.16192e+002           1.61917e+001           6.19174e+000           1.91742e-001           9.17416e-002           1.74163e-003           7.41627e-004
                   15.00    416.21878                                0.00000             80.672                                        4.16219e+002           1.62188e+001           6.21878e+000           2.18778e-001           1.87784e-002           8.77844e-003           7.78441e-004
                   15.10    416.20741                                0.00000             80.672                                        4.16207e+002           1.62074e+001           6.20741e+000           2.07411e-001           7.41104e-003           7.41104e-003           4.11038e-004
                   15.20    416.20281                                0.00000             80.672                                        4.16203e+002           1.62028e+001           6.20281e+000           2.02814e-001           2.81359e-003           2.81359e-003           8.13591e-004
                   15.30    416.22603                                0.00000             80.672                                        4.16226e+002           1.62260e+001           6.22603e+000           2.26030e-001           2.60296e-002           6.02957e-003           2.95687e-005
                   15.40    416.24230                                0.00000             80.672                                        4.16242e+002           1.62423e+001           6.24230e+000           2.42300e-001           4.22996e-002           2.29962e-003           2.99624e-004
                   15.50    416.22552                                0.00000             80.672                                        4.16226e+002           1.62255e+001           6.22552e+000           2.25523e-001           2.55233e-002           5.52331e-003           5.23314e-004
                   15.60    416.21352                                0.00000             80.672                                        4.16214e+002           1.62135e+001           6.21352e+000           2.13519e-001           1.35190e-002           3.51898e-003           5.18985e-004
                   15.70    416.23638                                0.00000             80.672                                        4.16236e+002           1.62364e+001           6.23638e+000           2.36377e-001           3.63767e-002           6.37668e-003           3.76679e-004
                   15.80    416.25940                                0.00000             80.672                                        4.16259e+002           1.62594e+001           6.25940e+000           2.59404e-001           5.94039e-002           9.40391e-003           4.03908e-004
                   15.90    416.25888                                0.00000             80.672                                        4.16259e+002           1.62589e+001           6.25888e+000           2.58875e-001           5.88753e-002           8.87528e-003           8.75281e-004
                   16.00    416.25249                                0.00000             80.672                                        4.16252e+002           1.62525e+001           6.25249e+000           2.52486e-001           5.24862e-002           2.48623e-003           4.86226e-004
