~VERSION INFORMATION
VERS                    .            2.0                                    :CWLS LOG ASCII STANDARD
WRAP                    .            NO                                     :ONE LINE PER TIME STEP


~WELL INFORMATION
#MNEM                   .UNIT        DATA                                    DESCRIPTION
#________________________________________________________________________________________
STRTTIME                .HH/MM/SS    23:39:21                               :START TIME
STOPTIME                .HH/MM/SS    23:43:19                               :STOP TIME
STRT                    .s           2.10                                   :START DATA
STOP                    .s           236.60                                 :STOP DATA
STEP                    .s           0.10                                   :MEASUREMENT TIME INTERVAL
NULL                    .            -999.25                                :NULL VALUE
COMP                    .            Statoil                                :COMPANY
FLD                     .            Volve                                  :FIELD
WELL                    .            15/9-F-11 T2                           :WELL
RUN                     .            7                                      :RUN
LOC                     .            Maersk Inspirer                        :LOCATION
PROV                    .            na                                     :PROVINCE
SRVC                    .            Baker Hughes INTEQ                     :SERVICE COMPANY
DATE                    .YY/MM/DD    13/05/04                               :LOG DATE
UWI                     .                                                   :UNIQUE WELL ID
DEPTHMD                 .m           4417.0                                 :MEASURED DEPTH
DEPTHTVD                .m           3257.6                                 :TRUE VERTICAL DEPTH


~CURVE INFORMATION
#MNEM                   .UNIT        API CODES                               DESCRIPTION
#________________________________________________________________________________________
TIME                    .s                                                  :01 TIME
DD_PRESS                .bar                                                :02 DRAW DOWN PRESSURE
DD_VOLUME               .cm3                                                :03 INCREMENTAL DRAW DOWN VOLUME
TEMP                    .degC                                               :04 TRANSDUCER TEMPERATURE
DD_PRESS_MOD_1000       .bar                                                :05 DRAW DOWN PRESSURE MOD 1000
DD_PRESS_MOD_100        .bar                                                :06 DRAW DOWN PRESSURE MOD 100
DD_PRESS_MOD_10         .bar                                                :07 DRAW DOWN PRESSURE MOD 10
DD_PRESS_MOD_1          .bar                                                :08 DRAW DOWN PRESSURE MOD 1
DD_PRESS_MOD_01         .bar                                                :09 DRAW DOWN PRESSURE MOD 01
DD_PRESS_MOD_001        .bar                                                :10 DRAW DOWN PRESSURE MOD 001
DD_PRESS_MOD_0001       .bar                                                :11 DRAW DOWN PRESSURE MOD 0001


~PARAMETER INFORMATION
#MNEM                   .UNIT        VALUE                                   DESCRIPTION
#________________________________________________________________________________________
TOOLFACE                .deg         na                                     :01 TOOLFACE
PUMP_CAPACITY           .bar         400                                    :02 NOMINAL DRAW DOWN PUMP CAPACITY
PUMP_LIMIT              .bar         240                                    :03 DOWNLINK PUMP LIMIT
TIME_LIMIT              .min         10                                     :04 DOWNLINK MAX TIME
TEST_TYPE               .            REPEAT                                 :05 DOWNLINK
TEST_TYPE               .            HIGH MOBILITY                          :06 DOWNLINK
DD_PIST_A               .cm2         3.1416                                 :07 DRAW DOWN PISTON AREA
V_SYS                   .cm3         131.0000                               :08 SYSTEM VOLUME
PROBE_ID                .cm          1.2700                                 :09 TTK PROBE ID
G0                      .            4.6700                                 :10 GEOMETRY FACTOR


~A                  TIME     DD_PRESS                              DD_VOLUME               TEMP                                   DD_PRESS_MOD_1000       DD_PRESS_MOD_100        DD_PRESS_MOD_10         DD_PRESS_MOD_1        DD_PRESS_MOD_01       DD_PRESS_MOD_001      DD_PRESS_MOD_0001
# ...
                  186.90    361.07293                               16.44317             96.000                                        3.61073e+002           6.10729e+001           1.07293e+000           7.29323e-002           7.29323e-002           2.93231e-003           9.32307e-004
                  187.00    361.07185                               16.44317             96.000                                        3.61072e+002           6.10718e+001           1.07185e+000           7.18498e-002           7.18498e-002           1.84979e-003           8.49788e-004
                  187.10    361.08806                               16.44317             96.000                                        3.61088e+002           6.10881e+001           1.08806e+000           8.80612e-002           8.80612e-002           8.06123e-003           6.12322e-005
                  187.20    361.08514                               16.44317             96.000                                        3.61085e+002           6.10851e+001           1.08514e+000           8.51355e-002           8.51355e-002           5.13548e-003           1.35476e-004
                  187.30    361.07829                               16.44317             96.000                                        3.61078e+002           6.10783e+001           1.07829e+000           7.82906e-002           7.82906e-002           8.29060e-003           2.90597e-004
                  187.40    361.08476                               16.44317             96.000                                        3.61085e+002           6.10848e+001           1.08476e+000           8.47610e-002           8.47610e-002           4.76096e-003           7.60961e-004
                  187.50    361.08745                               16.44317             96.000                                        3.61087e+002           6.10875e+001           1.08745e+000           8.74520e-002           8.74520e-002           7.45204e-003           4.52043e-004
                  187.60    361.07798                               16.44317             96.000                                        3.61078e+002           6.10780e+001           1.07798e+000           7.79806e-002           7.79806e-002           7.98060e-003           9.80601e-004
                  187.70    361.07466                               16.44317             96.000                                        3.61075e+002           6.10747e+001           1.07466e+000           7.46570e-002           7.46570e-002           4.65703e-003           6.57032e-004
                  187.80    361.07223                               16.44317             96.000                                        3.61072e+002           6.10722e+001           1.07223e+000           7.22323e-002           7.22323e-002           2.23228e-003           2.32284e-004
                  187.90    361.07032                               16.44317             96.000                                        3.61070e+002           6.10703e+001           1.07032e+000           7.03209e-002           7.03209e-002           3.20946e-004           3.20946e-004
                  188.00    361.07854                               16.44317             96.000                                        3.61079e+002           6.10785e+001           1.07854e+000           7.85380e-002           7.85380e-002           8.53800e-003           5.38003e-004
                  188.10    361.08840                               16.44317             96.000                                        3.61088e+002           6.10884e+001           1.08840e+000           8.83969e-002           8.83969e-002           8.39689e-003           3.96892e-004
                  188.20    361.08991                               16.44317             96.000                                        3.61090e+002           6.10899e+001           1.08991e+000           8.99078e-002           8.99078e-002           9.90778e-003           9.07776e-004
                  188.30    361.08999                               16.44317             96.000                                        3.61090e+002           6.10900e+001           1.08999e+000           8.99948e-002           8.99948e-002           9.99478e-003           9.94777e-004
                  188.40    361.09557                               16.44317             96.000                                        3.61096e+002           6.10956e+001           1.09557e+000           9.55729e-002           9.55729e-002           5.57292e-003           5.72923e-004
                  188.50    361.08188                               16.44317             96.000                                        3.61082e+002           6.10819e+001           1.08188e+000           8.18751e-002           8.18751e-002           1.87507e-003           8.75071e-004
                  188.60    361.06905                               16.44317             96.000                                        3.61069e+002           6.10690e+001           1.06905e+000           6.90451e-002           6.90451e-002           9.04511e-003           4.51059e-005
                  188.70    361.07862                               16.44317             96.000                                        3.61079e+002           6.10786e+001           1.07862e+000           7.86220e-002           7.86220e-002           8.62201e-003           6.22009e-004
                  188.80    361.09105                               16.44317             96.000                                        3.61091e+002           6.10911e+001           1.09105e+000           9.10536e-002           9.10536e-002           1.05359e-003           5.35879e-005
                  188.90    361.08318                               16.44317             96.000                                        3.61083e+002           6.10832e+001           1.08318e+000           8.31845e-002           8.31845e-002           3.18446e-003           1.84460e-004
                  189.00    361.07808                               16.44317             96.000                                        3.61078e+002           6.10781e+001           1.07808e+000           7.80825e-002           7.80825e-002           8.08248e-003           8.24782e-005
                  189.10    361.09116                               16.44317             96.000                                        3.61091e+002           6.10912e+001           1.09116e+000           9.11608e-002           9.11608e-002           1.16076e-003           1.60765e-004
                  189.20    361.09329                               16.44317             96.000                                        3.61093e+002           6.10933e+001           1.09329e+000           9.32894e-002           9.32894e-002           3.28936e-003           2.89358e-004
                  189.30    361.07990                               16.44317             96.000                                        3.61080e+002           6.10799e+001           1.07990e+000           7.99024e-002           7.99024e-002           9.90244e-003           9.02441e-004
                  189.40    361.07953                               16.44317             96.000                                        3.61080e+002           6.10795e+001           1.07953e+000           7.95346e-002           7.95346e-002           9.53464e-003           5.34642e-004
                  189.50    361.08478                               16.44317             96.000                                        3.61085e+002           6.10848e+001           1.08478e+000           8.47789e-002           8.47789e-002           4.77890e-003           7.78898e-004
                  189.60    361.08333                               16.44317             96.000                                        3.61083e+002           6.10833e+001           1.08333e+000           8.33341e-002           8.33341e-002           3.33407e-003           3.34075e-004
