~VERSION INFORMATION
VERS                    .            2.0                                    :CWLS LOG ASCII STANDARD
WRAP                    .            NO                                     :ONE LINE PER TIME STEP


~WELL INFORMATION
#MNEM                   .UNIT        DATA                                    DESCRIPTION
#________________________________________________________________________________________
STRTTIME                .HH/MM/SS    02:42:03                               :START TIME
STOPTIME                .HH/MM/SS    02:44:56                               :STOP TIME
STRT                    .s           2.10                                   :START DATA
STOP                    .s           171.40                                 :STOP DATA
STEP                    .s           0.10                                   :MEASUREMENT TIME INTERVAL
NULL                    .            -999.25                                :NULL VALUE
COMP                    .            Statoil ASA                            :COMPANY
FLD                     .            Volve                                  :FIELD
WELL                    .            15/9-F-1 C                             :WELL
RUN                     .            4                                      :RUN
LOC                     .                                                   :LOCATION
PROV                    .            na                                     :PROVINCE
SRVC                    .            Baker Hughes INTEQ                     :SERVICE COMPANY
DATE                    .YY/MM/DD    14/03/15                               :LOG DATE
UWI                     .                                                   :UNIQUE WELL ID
DEPTHMD                 .m           3551.1                                 :MEASURED DEPTH
DEPTHTVD                .m           2992.9                                 :TRUE VERTICAL DEPTH


~CURVE INFORMATION
#MNEM                   .UNIT        API CODES                               DESCRIPTION
#________________________________________________________________________________________
TIME                    .s                                                  :01 TIME
DD_PRESS                .bar                                                :02 DRAW DOWN PRESSURE
DD_VOLUME               .cm3                                                :03 INCREMENTAL DRAW DOWN VOLUME
TEMP                    .degC                                               :04 TRANSDUCER TEMPERATURE
DD_PRESS_MOD_1000       .bar                                                :05 DRAW DOWN PRESSURE MOD 1000
DD_PRESS_MOD_100        .bar                                                :06 DRAW DOWN PRESSURE MOD 100
DD_PRESS_MOD_10         .bar                                                :07 DRAW DOWN PRESSURE MOD 10
DD_PRESS_MOD_1          .bar                                                :08 DRAW DOWN PRESSURE MOD 1
DD_PRESS_MOD_01         .bar                                                :09 DRAW DOWN PRESSURE MOD 01
DD_PRESS_MOD_001        .bar                                                :10 DRAW DOWN PRESSURE MOD 001
DD_PRESS_MOD_0001       .bar                                                :11 DRAW DOWN PRESSURE MOD 0001


~PARAMETER INFORMATION
#MNEM                   .UNIT        VALUE                                   DESCRIPTION
#________________________________________________________________________________________
TOOLFACE                .deg         84.6                                   :01 TOOLFACE
PUMP_CAPACITY           .bar         400                                    :02 NOMINAL DRAW DOWN PUMP CAPACITY
PUMP_LIMIT              .bar         240                                    :03 DOWNLINK PUMP LIMIT
TIME_LIMIT              .min         10                                     :04 DOWNLINK MAX TIME
TEST_TYPE               .            REPEAT                                 :05 DOWNLINK
TEST_TYPE               .            HIGH MOBILITY                          :06 DOWNLINK
DD_PIST_A               .cm2         3.1416                                 :07 DRAW DOWN PISTON AREA
V_SYS                   .cm3         131.0000                               :08 SYSTEM VOLUME
PROBE_ID                .cm          1.2700                                 :09 TTK PROBE ID
G0                      .            4.6700                                 :10 GEOMETRY FACTOR


~A                  TIME     DD_PRESS                              DD_VOLUME               TEMP                                   DD_PRESS_MOD_1000       DD_PRESS_MOD_100        DD_PRESS_MOD_10         DD_PRESS_MOD_1        DD_PRESS_MOD_01       DD_PRESS_MOD_001      DD_PRESS_MOD_0001
# ...
                   35.70    338.23070                                8.86306             85.178                                        3.38231e+002           3.82307e+001           8.23070e+000           2.30701e-001           3.07012e-002           7.01161e-004           7.01161e-004
                   35.80    338.27754                                8.94437             85.177                                        3.38278e+002           3.82775e+001           8.27754e+000           2.77544e-001           7.75436e-002           7.54356e-003           5.43561e-004
                   35.90    338.32186                                9.02449             85.174                                        3.38322e+002           3.83219e+001           8.32186e+000           3.21858e-001           2.18578e-002           1.85776e-003           8.57760e-004
                   36.00    338.36208                                9.10341             85.172                                        3.38362e+002           3.83621e+001           8.36208e+000           3.62082e-001           6.20818e-002           2.08181e-003           8.18094e-005
                   36.10    338.40437                                9.18106             85.172                                        3.38404e+002           3.84044e+001           8.40437e+000           4.04374e-001           4.37392e-003           4.37392e-003           3.73918e-004
                   36.20    338.45300                                9.25742             85.172                                        3.38453e+002           3.84530e+001           8.45300e+000           4.52998e-001           5.29981e-002           2.99814e-003           9.98135e-004
                   36.30    338.50512                                9.33250             85.172                                        3.38505e+002           3.85051e+001           8.50512e+000           5.05123e-001           5.12285e-003           5.12285e-003           1.22845e-004
                   36.40    338.55694                                9.40624             85.172                                        3.38557e+002           3.85569e+001           8.55694e+000           5.56941e-001           5.69414e-002           6.94137e-003           9.41371e-004
                   36.50    338.60215                                9.47873             85.172                                        3.38602e+002           3.86021e+001           8.60215e+000           6.02150e-001           2.14997e-003           2.14997e-003           1.49968e-004
                   36.60    338.65172                                9.54980             85.172                                        3.38652e+002           3.86517e+001           8.65172e+000           6.51719e-001           5.17193e-002           1.71933e-003           7.19327e-004
                   36.70    338.71176                                9.61938             85.172                                        3.38712e+002           3.87118e+001           8.71176e+000           7.11760e-001           1.17598e-002           1.75978e-003           7.59782e-004
                   36.80    338.77480                                9.68750             85.172                                        3.38775e+002           3.87748e+001           8.77480e+000           7.74804e-001           7.48035e-002           4.80350e-003           8.03501e-004
                   36.90    338.82890                                9.75425             85.172                                        3.38829e+002           3.88289e+001           8.82890e+000           8.28901e-001           2.89010e-002           8.90102e-003           9.01018e-004
                   37.00    338.88040                                9.81951             85.172                                        3.38880e+002           3.88804e+001           8.88040e+000           8.80395e-001           8.03952e-002           3.95235e-004           3.95235e-004
                   37.10    338.94326                                9.88333             85.172                                        3.38943e+002           3.89433e+001           8.94326e+000           9.43260e-001           4.32596e-002           3.25956e-003           2.59557e-004
                   37.20    339.01318                                9.94566             85.172                                        3.39013e+002           3.90132e+001           9.01318e+000           1.31821e-002           1.31821e-002           3.18209e-003           1.82088e-004
                   37.30    339.07234                               10.00625             85.172                                        3.39072e+002           3.90723e+001           9.07234e+000           7.23440e-002           7.23440e-002           2.34401e-003           3.44008e-004
                   37.40    339.12546                               10.06511             85.172                                        3.39125e+002           3.91255e+001           9.12546e+000           1.25459e-001           2.54586e-002           5.45856e-003           4.58562e-004
                   37.50    339.18473                               10.12240             85.172                                        3.39185e+002           3.91847e+001           9.18473e+000           1.84733e-001           8.47330e-002           4.73298e-003           7.32976e-004
                   37.60    339.25298                               10.17816             85.172                                        3.39253e+002           3.92530e+001           9.25298e+000           2.52980e-001           5.29801e-002           2.98009e-003           9.80090e-004
                   37.70    339.32164                               10.23232             85.172                                        3.39322e+002           3.93216e+001           9.32164e+000           3.21637e-001           2.16367e-002           1.63671e-003           6.36708e-004
                   37.80    339.38111                               10.28466             85.172                                        3.39381e+002           3.93811e+001           9.38111e+000           3.81110e-001           8.11097e-002           1.10967e-003           1.09672e-004
                   37.90    339.44318                               10.33529             85.172                                        3.39443e+002           3.94432e+001           9.44318e+000           4.43177e-001           4.31765e-002           3.17652e-003           1.76522e-004
                   38.00    339.51604                               10.38430             85.172                                        3.39516e+002           3.95160e+001           9.51604e+000           5.16043e-001           1.60429e-002           6.04288e-003           4.28778e-005
                   38.10    339.58424                               10.43160             85.172                                        3.39584e+002           3.95842e+001           9.58424e+000           5.84245e-001           8.42447e-002           4.24474e-003           2.44737e-004
                   38.20    339.64752                               10.47711             85.172                                        3.39648e+002           3.96475e+001           9.64752e+000           6.47525e-001           4.75247e-002           7.52469e-003           5.24694e-004
                   38.30    339.71836                               10.52074             85.172                                        3.39718e+002           3.97184e+001           9.71836e+000           7.18359e-001           1.83594e-002           8.35937e-003           3.59369e-004
                   38.40    339.79100                               10.56261             85.172                                        3.39791e+002           3.97910e+001           9.79100e+000           7.91002e-001           9.10021e-002           1.00208e-003           2.08453e-006
