~VERSION INFORMATION
VERS                    .            2.0                                    :CWLS LOG ASCII STANDARD
WRAP                    .            NO                                     :ONE LINE PER TIME STEP


~WELL INFORMATION
#MNEM                   .UNIT        DATA                                    DESCRIPTION
#________________________________________________________________________________________
STRTTIME                .HH/MM/SS    08:31:17                               :START TIME
STOPTIME                .HH/MM/SS    08:34:03                               :STOP TIME
STRT                    .s           2.10                                   :START DATA
STOP                    .s           164.70                                 :STOP DATA
STEP                    .s           0.10                                   :MEASUREMENT TIME INTERVAL
NULL                    .            -999.25                                :NULL VALUE
COMP                    .            Statoil ASA                            :COMPANY
FLD                     .            Volve                                  :FIELD
WELL                    .            15/9-F-11 A                            :WELL
RUN                     .            8                                      :RUN
LOC                     .            Maersk Inspirer                        :LOCATION
PROV                    .            na                                     :PROVINCE
SRVC                    .            Baker Hughes INTEQ                     :SERVICE COMPANY
DATE                    .YY/MM/DD    13/05/21                               :LOG DATE
UWI                     .                                                   :UNIQUE WELL ID
DEPTHMD                 .m           3688.1                                 :MEASURED DEPTH
DEPTHTVD                .m           3069.8                                 :TRUE VERTICAL DEPTH


~CURVE INFORMATION
#MNEM                   .UNIT        API CODES                               DESCRIPTION
#________________________________________________________________________________________
TIME                    .s                                                  :01 TIME
DD_PRESS                .bar                                                :02 DRAW DOWN PRESSURE
DD_VOLUME               .cm3                                                :03 INCREMENTAL DRAW DOWN VOLUME
TEMP                    .degC                                               :04 TRANSDUCER TEMPERATURE
DD_PRESS_MOD_1000       .bar                                                :05 DRAW DOWN PRESSURE MOD 1000
DD_PRESS_MOD_100        .bar                                                :06 DRAW DOWN PRESSURE MOD 100
DD_PRESS_MOD_10         .bar                                                :07 DRAW DOWN PRESSURE MOD 10
DD_PRESS_MOD_1          .bar                                                :08 DRAW DOWN PRESSURE MOD 1
DD_PRESS_MOD_01         .bar                                                :09 DRAW DOWN PRESSURE MOD 01
DD_PRESS_MOD_001        .bar                                                :10 DRAW DOWN PRESSURE MOD 001
DD_PRESS_MOD_0001       .bar                                                :11 DRAW DOWN PRESSURE MOD 0001


~PARAMETER INFORMATION
#MNEM                   .UNIT        VALUE                                   DESCRIPTION
#________________________________________________________________________________________
TOOLFACE                .deg         -78.9                                  :01 TOOLFACE
PUMP_CAPACITY           .bar         400                                    :02 NOMINAL DRAW DOWN PUMP CAPACITY
PUMP_LIMIT              .bar         240                                    :03 DOWNLINK PUMP LIMIT
TIME_LIMIT              .min         10                                     :04 DOWNLINK MAX TIME
TEST_TYPE               .            REPEAT                                 :05 DOWNLINK
TEST_TYPE               .            HIGH MOBILITY                          :06 DOWNLINK
DD_PIST_A               .cm2         3.1416                                 :07 DRAW DOWN PISTON AREA
V_SYS                   .cm3         131.0000                               :08 SYSTEM VOLUME
PROBE_ID                .cm          1.2700                                 :09 TTK PROBE ID
G0                      .            4.6700                                 :10 GEOMETRY FACTOR


~A                  TIME     DD_PRESS                              DD_VOLUME               TEMP                                   DD_PRESS_MOD_1000       DD_PRESS_MOD_100        DD_PRESS_MOD_10         DD_PRESS_MOD_1        DD_PRESS_MOD_01       DD_PRESS_MOD_001      DD_PRESS_MOD_0001
# ...
                   13.30    424.50589                                0.00000             83.367                                        4.24506e+002           2.45059e+001           4.50589e+000           5.05886e-001           5.88635e-003           5.88635e-003           8.86350e-004
                   13.40    424.49307                                0.00000             83.367                                        4.24493e+002           2.44931e+001           4.49307e+000           4.93073e-001           9.30729e-002           3.07293e-003           7.29325e-005
                   13.50    424.49343                                0.00000             83.367                                        4.24493e+002           2.44934e+001           4.49343e+000           4.93425e-001           9.34250e-002           3.42501e-003           4.25010e-004
                   13.60    424.51393                                0.00000             83.367                                        4.24514e+002           2.45139e+001           4.51393e+000           5.13930e-001           1.39302e-002           3.93021e-003           9.30210e-004
                   13.70    424.53178                                0.00000             83.367                                        4.24532e+002           2.45318e+001           4.53178e+000           5.31779e-001           3.17786e-002           1.77862e-003           7.78624e-004
                   13.80    424.53319                                0.00000             83.367                                        4.24533e+002           2.45332e+001           4.53319e+000           5.33186e-001           3.31857e-002           3.18570e-003           1.85698e-004
                   13.90    424.54437                                0.00000             83.367                                        4.24544e+002           2.45444e+001           4.54437e+000           5.44366e-001           4.43660e-002           4.36600e-003           3.66004e-004
                   14.00    424.56240                                0.00000             83.367                                        4.24562e+002           2.45624e+001           4.56240e+000           5.62398e-001           6.23984e-002           2.39838e-003           3.98375e-004
                   14.10    424.56748                                0.00000             83.367                                        4.24567e+002           2.45675e+001           4.56748e+000           5.67484e-001           6.74845e-002           7.48449e-003           4.84495e-004
                   14.20    424.55853                                0.00000             83.367                                        4.24559e+002           2.45585e+001           4.55853e+000           5.58530e-001           5.85304e-002           8.53044e-003           5.30440e-004
                   14.30    424.56923                                0.00000             83.367                                        4.24569e+002           2.45692e+001           4.56923e+000           5.69227e-001           6.92266e-002           9.22657e-003           2.26568e-004
                   14.40    424.59212                                0.00000             83.367                                        4.24592e+002           2.45921e+001           4.59212e+000           5.92116e-001           9.21164e-002           2.11644e-003           1.16439e-004
                   14.50    424.59482                                0.00000             83.367                                        4.24595e+002           2.45948e+001           4.59482e+000           5.94825e-001           9.48249e-002           4.82493e-003           8.24925e-004
                   14.60    424.59403                                0.00000             83.367                                        4.24594e+002           2.45940e+001           4.59403e+000           5.94026e-001           9.40259e-002           4.02586e-003           2.58624e-005
                   14.70    424.59650                                0.00000             83.367                                        4.24596e+002           2.45965e+001           4.59650e+000           5.96498e-001           9.64975e-002           6.49753e-003           4.97527e-004
                   14.80    424.60990                                0.00000             83.367                                        4.24610e+002           2.46099e+001           4.60990e+000           6.09903e-001           9.90327e-003           9.90327e-003           9.03270e-004
                   14.90    424.62979                                0.00000             83.367                                        4.24630e+002           2.46298e+001           4.62979e+000           6.29791e-001           2.97907e-002           9.79070e-003           7.90697e-004
                   15.00    424.65525                                0.00000             83.367                                        4.24655e+002           2.46552e+001           4.65525e+000           6.55245e-001           5.52455e-002           5.24547e-003           2.45467e-004
                   15.10    424.66921                                0.00000             83.367                                        4.24669e+002           2.46692e+001           4.66921e+000           6.69212e-001           6.92122e-002           9.21216e-003           2.12155e-004
                   15.20    424.67248                                0.00000             83.367                                        4.24672e+002           2.46725e+001           4.67248e+000           6.72479e-001           7.24794e-002           2.47944e-003           4.79439e-004
                   15.30    424.68152                                0.00000             83.367                                        4.24682e+002           2.46815e+001           4.68152e+000           6.81520e-001           8.15201e-002           1.52010e-003           5.20100e-004
                   15.40    424.69804                                0.00000             83.367                                        4.24698e+002           2.46980e+001           4.69804e+000           6.98042e-001           9.80425e-002           8.04250e-003           4.24952e-005
                   15.50    424.71365                                0.00000             83.367                                        4.24714e+002           2.47137e+001           4.71365e+000           7.13652e-001           1.36516e-002           3.65159e-003           6.51586e-004
                   15.60    424.71747                                0.00000             83.367                                        4.24717e+002           2.47175e+001           4.71747e+000           7.17469e-001           1.74691e-002           7.46906e-003           4.69056e-004
                   15.70    424.71698                                0.00000             83.367                                        4.24717e+002           2.47170e+001           4.71698e+000           7.16980e-001           1.69803e-002           6.98029e-003           9.80291e-004
                   15.80    424.71041                                0.00000             83.367                                        4.24710e+002           2.47104e+001           4.71041e+000           7.10405e-001           1.04050e-002           4.05020e-004           4.05020e-004
                   15.90    424.70679                                0.00000             83.367                                        4.24707e+002           2.47068e+001           4.70679e+000           7.06789e-001           6.78853e-003           6.78853e-003           7.88534e-004
                   16.00    424.71352                                0.00000             83.367                                        4.24714e+002           2.47135e+001           4.71352e+000           7.13524e-001           1.35245e-002           3.52446e-003           5.24461e-004
