~VERSION INFORMATION
VERS                    .            2.0                                    :CWLS LOG ASCII STANDARD
WRAP                    .            NO                                     :ONE LINE PER TIME STEP


~WELL INFORMATION
#MNEM                   .UNIT        DATA                                    DESCRIPTION
#________________________________________________________________________________________
STRTTIME                .HH/MM/SS    23:39:21                               :START TIME
STOPTIME                .HH/MM/SS    23:43:19                               :STOP TIME
STRT                    .s           2.10                                   :START DATA
STOP                    .s           236.60                                 :STOP DATA
STEP                    .s           0.10                                   :MEASUREMENT TIME INTERVAL
NULL                    .            -999.25                                :NULL VALUE
COMP                    .            Statoil                                :COMPANY
FLD                     .            Volve                                  :FIELD
WELL                    .            15/9-F-11 T2                           :WELL
RUN                     .            7                                      :RUN
LOC                     .            Maersk Inspirer                        :LOCATION
PROV                    .            na                                     :PROVINCE
SRVC                    .            Baker Hughes INTEQ                     :SERVICE COMPANY
DATE                    .YY/MM/DD    13/05/04                               :LOG DATE
UWI                     .                                                   :UNIQUE WELL ID
DEPTHMD                 .m           4417.0                                 :MEASURED DEPTH
DEPTHTVD                .m           3257.6                                 :TRUE VERTICAL DEPTH


~CURVE INFORMATION
#MNEM                   .UNIT        API CODES                               DESCRIPTION
#________________________________________________________________________________________
TIME                    .s                                                  :01 TIME
DD_PRESS                .bar                                                :02 DRAW DOWN PRESSURE
DD_VOLUME               .cm3                                                :03 INCREMENTAL DRAW DOWN VOLUME
TEMP                    .degC                                               :04 TRANSDUCER TEMPERATURE
DD_PRESS_MOD_1000       .bar                                                :05 DRAW DOWN PRESSURE MOD 1000
DD_PRESS_MOD_100        .bar                                                :06 DRAW DOWN PRESSURE MOD 100
DD_PRESS_MOD_10         .bar                                                :07 DRAW DOWN PRESSURE MOD 10
DD_PRESS_MOD_1          .bar                                                :08 DRAW DOWN PRESSURE MOD 1
DD_PRESS_MOD_01         .bar                                                :09 DRAW DOWN PRESSURE MOD 01
DD_PRESS_MOD_001        .bar                                                :10 DRAW DOWN PRESSURE MOD 001
DD_PRESS_MOD_0001       .bar                                                :11 DRAW DOWN PRESSURE MOD 0001


~PARAMETER INFORMATION
#MNEM                   .UNIT        VALUE                                   DESCRIPTION
#________________________________________________________________________________________
TOOLFACE                .deg         na                                     :01 TOOLFACE
PUMP_CAPACITY           .bar         400                                    :02 NOMINAL DRAW DOWN PUMP CAPACITY
PUMP_LIMIT              .bar         240                                    :03 DOWNLINK PUMP LIMIT
TIME_LIMIT              .min         10                                     :04 DOWNLINK MAX TIME
TEST_TYPE               .            REPEAT                                 :05 DOWNLINK
TEST_TYPE               .            HIGH MOBILITY                          :06 DOWNLINK
DD_PIST_A               .cm2         3.1416                                 :07 DRAW DOWN PISTON AREA
V_SYS                   .cm3         131.0000                               :08 SYSTEM VOLUME
PROBE_ID                .cm          1.2700                                 :09 TTK PROBE ID
G0                      .            4.6700                                 :10 GEOMETRY FACTOR


~A                  TIME     DD_PRESS                              DD_VOLUME               TEMP                                   DD_PRESS_MOD_1000       DD_PRESS_MOD_100        DD_PRESS_MOD_10         DD_PRESS_MOD_1        DD_PRESS_MOD_01       DD_PRESS_MOD_001      DD_PRESS_MOD_0001
# ...
                  156.10    361.08535                               14.22735             96.000                                        3.61085e+002           6.10853e+001           1.08535e+000           8.53455e-002           8.53455e-002           5.34547e-003           3.45470e-004
                  156.20    361.07439                               14.22735             96.000                                        3.61074e+002           6.10744e+001           1.07439e+000           7.43892e-002           7.43892e-002           4.38916e-003           3.89156e-004
                  156.30    361.08448                               14.22735             96.000                                        3.61084e+002           6.10845e+001           1.08448e+000           8.44787e-002           8.44787e-002           4.47872e-003           4.78724e-004
                  156.40    361.09469                               14.22735             96.000                                        3.61095e+002           6.10947e+001           1.09469e+000           9.46882e-002           9.46882e-002           4.68821e-003           6.88214e-004
                  156.50    361.08716                               14.22735             96.000                                        3.61087e+002           6.10872e+001           1.08716e+000           8.71604e-002           8.71604e-002           7.16045e-003           1.60450e-004
                  156.60    361.08382                               14.22735             96.000                                        3.61084e+002           6.10838e+001           1.08382e+000           8.38182e-002           8.38182e-002           3.81821e-003           8.18207e-004
                  156.70    361.09046                               14.22735             96.000                                        3.61090e+002           6.10905e+001           1.09046e+000           9.04598e-002           9.04598e-002           4.59799e-004           4.59799e-004
                  156.80    361.09677                               14.22735             96.000                                        3.61097e+002           6.10968e+001           1.09677e+000           9.67681e-002           9.67681e-002           6.76809e-003           7.68088e-004
                  156.90    361.09415                               14.22735             96.000                                        3.61094e+002           6.10942e+001           1.09415e+000           9.41538e-002           9.41538e-002           4.15376e-003           1.53759e-004
                  157.00    361.08292                               14.22735             96.000                                        3.61083e+002           6.10829e+001           1.08292e+000           8.29176e-002           8.29176e-002           2.91761e-003           9.17609e-004
                  157.10    361.07844                               14.22735             96.000                                        3.61078e+002           6.10784e+001           1.07844e+000           7.84362e-002           7.84362e-002           8.43620e-003           4.36199e-004
                  157.20    361.09102                               14.22735             96.000                                        3.61091e+002           6.10910e+001           1.09102e+000           9.10227e-002           9.10227e-002           1.02269e-003           2.26896e-005
                  157.30    361.09351                               14.22735             96.000                                        3.61094e+002           6.10935e+001           1.09351e+000           9.35084e-002           9.35084e-002           3.50837e-003           5.08370e-004
                  157.40    361.08321                               14.22735             96.000                                        3.61083e+002           6.10832e+001           1.08321e+000           8.32078e-002           8.32078e-002           3.20783e-003           2.07831e-004
                  157.50    361.09262                               14.22735             96.000                                        3.61093e+002           6.10926e+001           1.09262e+000           9.26227e-002           9.26227e-002           2.62272e-003           6.22720e-004
                  157.60    361.10921                               14.22735             96.000                                        3.61109e+002           6.11092e+001           1.10921e+000           1.09212e-001           9.21227e-003           9.21227e-003           2.12270e-004
                  157.70    361.08792                               14.22735             96.000                                        3.61088e+002           6.10879e+001           1.08792e+000           8.79155e-002           8.79155e-002           7.91547e-003           9.15470e-004
                  157.80    361.06384                               14.22735             96.000                                        3.61064e+002           6.10638e+001           1.06384e+000           6.38353e-002           6.38353e-002           3.83533e-003           8.35330e-004
                  157.90    361.08802                               14.22735             96.000                                        3.61088e+002           6.10880e+001           1.08802e+000           8.80225e-002           8.80225e-002           8.02247e-003           2.24679e-005
                  158.00    361.10418                               14.22735             96.000                                        3.61104e+002           6.11042e+001           1.10418e+000           1.04178e-001           4.17780e-003           4.17780e-003           1.77804e-004
                  158.10    361.08204                               14.22735             96.000                                        3.61082e+002           6.10820e+001           1.08204e+000           8.20447e-002           8.20447e-002           2.04470e-003           4.46969e-005
                  158.20    361.07616                               14.22735             96.000                                        3.61076e+002           6.10762e+001           1.07616e+000           7.61647e-002           7.61647e-002           6.16468e-003           1.64685e-004
                  158.30    361.09787                               14.22735             96.000                                        3.61098e+002           6.10979e+001           1.09787e+000           9.78660e-002           9.78660e-002           7.86604e-003           8.66044e-004
                  158.40    361.09791                               14.22735             96.000                                        3.61098e+002           6.10979e+001           1.09791e+000           9.79060e-002           9.79060e-002           7.90600e-003           9.06003e-004
                  158.50    361.08204                               14.22735             96.000                                        3.61082e+002           6.10820e+001           1.08204e+000           8.20410e-002           8.20410e-002           2.04097e-003           4.09702e-005
                  158.60    361.09073                               14.22735             96.000                                        3.61091e+002           6.10907e+001           1.09073e+000           9.07286e-002           9.07286e-002           7.28604e-004           7.28604e-004
                  158.70    361.09978                               14.22735             96.000                                        3.61100e+002           6.10998e+001           1.09978e+000           9.97850e-002           9.97850e-002           9.78499e-003           7.84995e-004
                  158.80    361.08421                               14.22735             96.000                                        3.61084e+002           6.10842e+001           1.08421e+000           8.42076e-002           8.42076e-002           4.20762e-003           2.07624e-004
