~VERSION INFORMATION
VERS                    .            2.0                                    :CWLS LOG ASCII STANDARD
WRAP                    .            NO                                     :ONE LINE PER TIME STEP


~WELL INFORMATION
#MNEM                   .UNIT        DATA                                    DESCRIPTION
#________________________________________________________________________________________
STRTTIME                .HH/MM/SS    16:20:20                               :START TIME
STOPTIME                .HH/MM/SS    16:23:23                               :STOP TIME
STRT                    .s           2.10                                   :START DATA
STOP                    .s           182.00                                 :STOP DATA
STEP                    .s           0.10                                   :MEASUREMENT TIME INTERVAL
NULL                    .            -999.25                                :NULL VALUE
COMP                    .            Statoil ASA                            :COMPANY
FLD                     .            Volve                                  :FIELD
WELL                    .            15/9-F-1 B                             :WELL
RUN                     .            7                                      :RUN
LOC                     .            Maersk Inspirer                        :LOCATION
PROV                    .            na                                     :PROVINCE
SRVC                    .            Baker Hughes INTEQ                     :SERVICE COMPANY
DATE                    .YY/MM/DD    13/09/06                               :LOG DATE
UWI                     .                                                   :UNIQUE WELL ID
DEPTHMD                 .m           3255.0                                 :MEASURED DEPTH
DEPTHTVD                .m           3051.1                                 :TRUE VERTICAL DEPTH


~CURVE INFORMATION
#MNEM                   .UNIT        API CODES                               DESCRIPTION
#________________________________________________________________________________________
TIME                    .s                                                  :01 TIME
DD_PRESS                .bar                                                :02 DRAW DOWN PRESSURE
DD_VOLUME               .cm3                                                :03 INCREMENTAL DRAW DOWN VOLUME
TEMP                    .degC                                               :04 TRANSDUCER TEMPERATURE
DD_PRESS_MOD_1000       .bar                                                :05 DRAW DOWN PRESSURE MOD 1000
DD_PRESS_MOD_100        .bar                                                :06 DRAW DOWN PRESSURE MOD 100
DD_PRESS_MOD_10         .bar                                                :07 DRAW DOWN PRESSURE MOD 10
DD_PRESS_MOD_1          .bar                                                :08 DRAW DOWN PRESSURE MOD 1
DD_PRESS_MOD_01         .bar                                                :09 DRAW DOWN PRESSURE MOD 01
DD_PRESS_MOD_001        .bar                                                :10 DRAW DOWN PRESSURE MOD 001
DD_PRESS_MOD_0001       .bar                                                :11 DRAW DOWN PRESSURE MOD 0001


~PARAMETER INFORMATION
#MNEM                   .UNIT        VALUE                                   DESCRIPTION
#________________________________________________________________________________________
TOOLFACE                .deg         na                                     :01 TOOLFACE
PUMP_CAPACITY           .bar         400                                    :02 NOMINAL DRAW DOWN PUMP CAPACITY
PUMP_LIMIT              .bar         400                                    :03 DOWNLINK PUMP LIMIT
TIME_LIMIT              .min         10                                     :04 DOWNLINK MAX TIME
TEST_TYPE               .            LOW MOBILITY                           :05 DOWNLINK
DD_PIST_A               .cm2         3.1416                                 :06 DRAW DOWN PISTON AREA
V_SYS                   .cm3         131.0000                               :07 SYSTEM VOLUME
PROBE_ID                .cm          1.2700                                 :08 TTK PROBE ID
G0                      .            4.6700                                 :09 GEOMETRY FACTOR


~A                  TIME     DD_PRESS                              DD_VOLUME               TEMP                                   DD_PRESS_MOD_1000       DD_PRESS_MOD_100        DD_PRESS_MOD_10         DD_PRESS_MOD_1        DD_PRESS_MOD_01       DD_PRESS_MOD_001      DD_PRESS_MOD_0001
# ...
                   38.50    338.93904                                9.61653             81.789                                        3.38939e+002           3.89390e+001           8.93904e+000           9.39038e-001           3.90382e-002           9.03820e-003           3.81957e-005
                   38.60    339.02394                                9.68976             81.789                                        3.39024e+002           3.90239e+001           9.02394e+000           2.39375e-002           2.39375e-002           3.93747e-003           9.37470e-004
                   38.70    339.11101                                9.76156             81.789                                        3.39111e+002           3.91110e+001           9.11101e+000           1.11010e-001           1.10101e-002           1.01012e-003           1.01217e-005
                   38.80    339.23244                                9.83202             81.789                                        3.39232e+002           3.92324e+001           9.23244e+000           2.32444e-001           3.24445e-002           2.44448e-003           4.44483e-004
                   38.90    339.35805                                9.90111             81.789                                        3.39358e+002           3.93580e+001           9.35805e+000           3.58047e-001           5.80471e-002           8.04706e-003           4.70639e-005
                   39.00    339.46471                                9.96876             81.789                                        3.39465e+002           3.94647e+001           9.46471e+000           4.64713e-001           6.47126e-002           4.71256e-003           7.12564e-004
                   39.10    339.57201                               10.03485             81.789                                        3.39572e+002           3.95720e+001           9.57201e+000           5.72008e-001           7.20077e-002           2.00772e-003           7.72294e-006
                   39.20    339.69233                               10.09948             81.789                                        3.39692e+002           3.96923e+001           9.69233e+000           6.92330e-001           9.23305e-002           2.33049e-003           3.30491e-004
                   39.30    339.82119                               10.16256             81.789                                        3.39821e+002           3.98212e+001           9.82119e+000           8.21191e-001           2.11913e-002           1.19134e-003           1.91336e-004
                   39.40    339.94805                               10.22411             81.789                                        3.39948e+002           3.99481e+001           9.94805e+000           9.48050e-001           4.80502e-002           8.05018e-003           5.01777e-005
                   39.50    340.06226                               10.28408             81.789                                        3.40062e+002           4.00623e+001           6.22562e-002           6.22562e-002           6.22562e-002           2.25622e-003           2.56219e-004
                   39.60    340.19080                               10.34247             81.789                                        3.40191e+002           4.01908e+001           1.90795e-001           1.90795e-001           9.07954e-002           7.95381e-004           7.95381e-004
                   39.70    340.32989                               10.39918             81.789                                        3.40330e+002           4.03299e+001           3.29889e-001           3.29889e-001           2.98894e-002           9.88943e-003           8.89428e-004
                   39.80    340.46068                               10.45423             81.789                                        3.40461e+002           4.04607e+001           4.60681e-001           4.60681e-001           6.06815e-002           6.81483e-004           6.81483e-004
                   39.90    340.59046                               10.50760             81.789                                        3.40590e+002           4.05905e+001           5.90458e-001           5.90458e-001           9.04583e-002           4.58279e-004           4.58279e-004
                   40.00    340.73484                               10.55930             81.789                                        3.40735e+002           4.07348e+001           7.34839e-001           7.34839e-001           3.48390e-002           4.83903e-003           8.39028e-004
                   40.10    340.88162                               10.60935             81.789                                        3.40882e+002           4.08816e+001           8.81616e-001           8.81616e-001           8.16162e-002           1.61618e-003           6.16179e-004
                   40.20    341.01683                               10.65758             81.789                                        3.41017e+002           4.10168e+001           1.01683e+000           1.68326e-002           1.68326e-002           6.83255e-003           8.32551e-004
                   40.30    341.14851                               10.70404             81.789                                        3.41149e+002           4.11485e+001           1.14851e+000           1.48510e-001           4.85104e-002           8.51040e-003           5.10402e-004
                   40.40    341.28999                               10.74883             81.789                                        3.41290e+002           4.12900e+001           1.28999e+000           2.89992e-001           8.99925e-002           9.99246e-003           9.92456e-004
                   40.50    341.43407                               10.79182             81.789                                        3.41434e+002           4.14341e+001           1.43407e+000           4.34073e-001           3.40727e-002           4.07271e-003           7.27119e-005
                   40.60    341.57685                               10.83292             81.789                                        3.41577e+002           4.15769e+001           1.57685e+000           5.76852e-001           7.68525e-002           6.85248e-003           8.52480e-004
                   40.70    341.71378                               10.87223             81.789                                        3.41714e+002           4.17138e+001           1.71378e+000           7.13783e-001           1.37827e-002           3.78266e-003           7.82658e-004
                   40.80    341.86012                               10.90980             81.789                                        3.41860e+002           4.18601e+001           1.86012e+000           8.60123e-001           6.01226e-002           1.22605e-004           1.22605e-004
                   40.90    342.01982                               10.94555             81.789                                        3.42020e+002           4.20198e+001           2.01982e+000           1.98227e-002           1.98227e-002           9.82265e-003           8.22651e-004
                   41.00    342.37954                               10.97601             81.789                                        3.42380e+002           4.23795e+001           2.37954e+000           3.79535e-001           7.95355e-002           9.53547e-003           5.35473e-004
                   41.10    343.24451                               10.99278             81.789                                        3.43245e+002           4.32445e+001           3.24451e+000           2.44507e-001           4.45065e-002           4.50655e-003           5.06548e-004
                   41.20    344.22664                               10.99651             81.789                                        3.44227e+002           4.42266e+001           4.22664e+000           2.26640e-001           2.66397e-002           6.63968e-003           6.39679e-004
