~VERSION INFORMATION
VERS                    .            2.0                                    :CWLS LOG ASCII STANDARD
WRAP                    .            NO                                     :ONE LINE PER TIME STEP


~WELL INFORMATION
#MNEM                   .UNIT        DATA                                    DESCRIPTION
#________________________________________________________________________________________
STRTTIME                .HH/MM/SS    08:31:17                               :START TIME
STOPTIME                .HH/MM/SS    08:34:03                               :STOP TIME
STRT                    .s           2.10                                   :START DATA
STOP                    .s           164.70                                 :STOP DATA
STEP                    .s           0.10                                   :MEASUREMENT TIME INTERVAL
NULL                    .            -999.25                                :NULL VALUE
COMP                    .            Statoil ASA                            :COMPANY
FLD                     .            Volve                                  :FIELD
WELL                    .            15/9-F-11 A                            :WELL
RUN                     .            8                                      :RUN
LOC                     .            Maersk Inspirer                        :LOCATION
PROV                    .            na                                     :PROVINCE
SRVC                    .            Baker Hughes INTEQ                     :SERVICE COMPANY
DATE                    .YY/MM/DD    13/05/21                               :LOG DATE
UWI                     .                                                   :UNIQUE WELL ID
DEPTHMD                 .m           3688.1                                 :MEASURED DEPTH
DEPTHTVD                .m           3069.8                                 :TRUE VERTICAL DEPTH


~CURVE INFORMATION
#MNEM                   .UNIT        API CODES                               DESCRIPTION
#________________________________________________________________________________________
TIME                    .s                                                  :01 TIME
DD_PRESS                .bar                                                :02 DRAW DOWN PRESSURE
DD_VOLUME               .cm3                                                :03 INCREMENTAL DRAW DOWN VOLUME
TEMP                    .degC                                               :04 TRANSDUCER TEMPERATURE
DD_PRESS_MOD_1000       .bar                                                :05 DRAW DOWN PRESSURE MOD 1000
DD_PRESS_MOD_100        .bar                                                :06 DRAW DOWN PRESSURE MOD 100
DD_PRESS_MOD_10         .bar                                                :07 DRAW DOWN PRESSURE MOD 10
DD_PRESS_MOD_1          .bar                                                :08 DRAW DOWN PRESSURE MOD 1
DD_PRESS_MOD_01         .bar                                                :09 DRAW DOWN PRESSURE MOD 01
DD_PRESS_MOD_001        .bar                                                :10 DRAW DOWN PRESSURE MOD 001
DD_PRESS_MOD_0001       .bar                                                :11 DRAW DOWN PRESSURE MOD 0001


~PARAMETER INFORMATION
#MNEM                   .UNIT        VALUE                                   DESCRIPTION
#________________________________________________________________________________________
TOOLFACE                .deg         -78.9                                  :01 TOOLFACE
PUMP_CAPACITY           .bar         400                                    :02 NOMINAL DRAW DOWN PUMP CAPACITY
PUMP_LIMIT              .bar         240                                    :03 DOWNLINK PUMP LIMIT
TIME_LIMIT              .min         10                                     :04 DOWNLINK MAX TIME
TEST_TYPE               .            REPEAT                                 :05 DOWNLINK
TEST_TYPE               .            HIGH MOBILITY                          :06 DOWNLINK
DD_PIST_A               .cm2         3.1416                                 :07 DRAW DOWN PISTON AREA
V_SYS                   .cm3         131.0000                               :08 SYSTEM VOLUME
PROBE_ID                .cm          1.2700                                 :09 TTK PROBE ID
G0                      .            4.6700                                 :10 GEOMETRY FACTOR


~A                  TIME     DD_PRESS                              DD_VOLUME               TEMP                                   DD_PRESS_MOD_1000       DD_PRESS_MOD_100        DD_PRESS_MOD_10         DD_PRESS_MOD_1        DD_PRESS_MOD_01       DD_PRESS_MOD_001      DD_PRESS_MOD_0001
# ...
                   44.10    346.05579                               10.53756             83.297                                        3.46056e+002           4.60558e+001           6.05579e+000           5.57870e-002           5.57870e-002           5.78698e-003           7.86983e-004
                   44.20    346.05196                               10.53756             83.297                                        3.46052e+002           4.60520e+001           6.05196e+000           5.19612e-002           5.19612e-002           1.96115e-003           9.61150e-004
                   44.30    346.06361                               10.53756             83.297                                        3.46064e+002           4.60636e+001           6.06361e+000           6.36133e-002           6.36133e-002           3.61331e-003           6.13314e-004
                   44.40    346.07400                               10.53756             83.297                                        3.46074e+002           4.60740e+001           6.07400e+000           7.39957e-002           7.39957e-002           3.99571e-003           9.95714e-004
                   44.50    346.06869                               10.53756             83.297                                        3.46069e+002           4.60687e+001           6.06869e+000           6.86855e-002           6.86855e-002           8.68549e-003           6.85487e-004
                   44.60    346.06124                               10.53756             83.297                                        3.46061e+002           4.60612e+001           6.06124e+000           6.12444e-002           6.12444e-002           1.24436e-003           2.44357e-004
                   44.70    346.06844                               10.53756             83.297                                        3.46068e+002           4.60684e+001           6.06844e+000           6.84388e-002           6.84388e-002           8.43881e-003           4.38810e-004
                   44.80    346.07080                               10.53756             83.297                                        3.46071e+002           4.60708e+001           6.07080e+000           7.07988e-002           7.07988e-002           7.98810e-004           7.98810e-004
                   44.90    346.06116                               10.53756             83.297                                        3.46061e+002           4.60612e+001           6.06116e+000           6.11595e-002           6.11595e-002           1.15948e-003           1.59475e-004
                   45.00    346.04825                               10.53756             83.297                                        3.46048e+002           4.60482e+001           6.04825e+000           4.82477e-002           4.82477e-002           8.24766e-003           2.47660e-004
                   45.10    346.04948                               10.53756             83.297                                        3.46049e+002           4.60495e+001           6.04948e+000           4.94767e-002           4.94767e-002           9.47670e-003           4.76700e-004
                   45.20    346.06881                               10.53756             83.297                                        3.46069e+002           4.60688e+001           6.06881e+000           6.88129e-002           6.88129e-002           8.81287e-003           8.12875e-004
                   45.30    346.07960                               10.53756             83.297                                        3.46080e+002           4.60796e+001           6.07960e+000           7.96046e-002           7.96046e-002           9.60460e-003           6.04596e-004
                   45.40    346.06901                               10.53756             83.297                                        3.46069e+002           4.60690e+001           6.06901e+000           6.90057e-002           6.90057e-002           9.00566e-003           5.66169e-006
                   45.50    346.05937                               10.53756             83.297                                        3.46059e+002           4.60594e+001           6.05937e+000           5.93674e-002           5.93674e-002           9.36739e-003           3.67391e-004
                   45.60    346.06453                               10.53756             83.297                                        3.46065e+002           4.60645e+001           6.06453e+000           6.45322e-002           6.45322e-002           4.53221e-003           5.32209e-004
                   45.70    346.07313                               10.53756             83.297                                        3.46073e+002           4.60731e+001           6.07313e+000           7.31274e-002           7.31274e-002           3.12742e-003           1.27423e-004
                   45.80    346.07604                               10.53756             83.297                                        3.46076e+002           4.60760e+001           6.07604e+000           7.60358e-002           7.60358e-002           6.03582e-003           3.58229e-005
                   45.90    346.06419                               10.53756             83.297                                        3.46064e+002           4.60642e+001           6.06419e+000           6.41927e-002           6.41927e-002           4.19270e-003           1.92703e-004
                   46.00    346.05127                               10.53756             83.297                                        3.46051e+002           4.60513e+001           6.05127e+000           5.12691e-002           5.12691e-002           1.26905e-003           2.69053e-004
                   46.10    346.05554                               10.53756             83.297                                        3.46056e+002           4.60555e+001           6.05554e+000           5.55410e-002           5.55410e-002           5.54096e-003           5.40962e-004
                   46.20    346.06119                               10.53756             83.297                                        3.46061e+002           4.60612e+001           6.06119e+000           6.11926e-002           6.11926e-002           1.19257e-003           1.92574e-004
                   46.30    346.05663                               10.53756             83.297                                        3.46057e+002           4.60566e+001           6.05663e+000           5.66257e-002           5.66257e-002           6.62569e-003           6.25690e-004
                   46.40    346.05565                               10.53756             83.297                                        3.46056e+002           4.60556e+001           6.05565e+000           5.56480e-002           5.56480e-002           5.64801e-003           6.48012e-004
                   46.50    346.06193                               10.53756             83.297                                        3.46062e+002           4.60619e+001           6.06193e+000           6.19319e-002           6.19319e-002           1.93189e-003           9.31893e-004
                   46.60    346.06630                               10.53756             83.297                                        3.46066e+002           4.60663e+001           6.06630e+000           6.63035e-002           6.63035e-002           6.30354e-003           3.03540e-004
                   46.70    346.05739                               10.53756             83.297                                        3.46057e+002           4.60574e+001           6.05739e+000           5.73939e-002           5.73939e-002           7.39395e-003           3.93948e-004
                   46.80    346.05165                               10.53756             83.297                                        3.46052e+002           4.60516e+001           6.05165e+000           5.16491e-002           5.16491e-002           1.64907e-003           6.49065e-004
