~VERSION INFORMATION
VERS                    .            2.0                                    :CWLS LOG ASCII STANDARD
WRAP                    .            NO                                     :ONE LINE PER TIME STEP


~WELL INFORMATION
#MNEM                   .UNIT        DATA                                    DESCRIPTION
#________________________________________________________________________________________
STRTTIME                .HH/MM/SS    09:43:23                               :START TIME
STOPTIME                .HH/MM/SS    09:46:50                               :STOP TIME
STRT                    .s           2.10                                   :START DATA
STOP                    .s           205.20                                 :STOP DATA
STEP                    .s           0.10                                   :MEASUREMENT TIME INTERVAL
NULL                    .            -999.25                                :NULL VALUE
COMP                    .            Statoil ASA                            :COMPANY
FLD                     .            Volve                                  :FIELD
WELL                    .            15/9-F-11 A                            :WELL
RUN                     .            8                                      :RUN
LOC                     .            Maersk Inspirer                        :LOCATION
PROV                    .            na                                     :PROVINCE
SRVC                    .            Baker Hughes INTEQ                     :SERVICE COMPANY
DATE                    .YY/MM/DD    13/05/21                               :LOG DATE
UWI                     .                                                   :UNIQUE WELL ID
DEPTHMD                 .m           3665.9                                 :MEASURED DEPTH
DEPTHTVD                .m           3052.8                                 :TRUE VERTICAL DEPTH


~CURVE INFORMATION
#MNEM                   .UNIT        API CODES                               DESCRIPTION
#________________________________________________________________________________________
TIME                    .s                                                  :01 TIME
DD_PRESS                .bar                                                :02 DRAW DOWN PRESSURE
DD_VOLUME               .cm3                                                :03 INCREMENTAL DRAW DOWN VOLUME
TEMP                    .degC                                               :04 TRANSDUCER TEMPERATURE
DD_PRESS_MOD_1000       .bar                                                :05 DRAW DOWN PRESSURE MOD 1000
DD_PRESS_MOD_100        .bar                                                :06 DRAW DOWN PRESSURE MOD 100
DD_PRESS_MOD_10         .bar                                                :07 DRAW DOWN PRESSURE MOD 10
DD_PRESS_MOD_1          .bar                                                :08 DRAW DOWN PRESSURE MOD 1
DD_PRESS_MOD_01         .bar                                                :09 DRAW DOWN PRESSURE MOD 01
DD_PRESS_MOD_001        .bar                                                :10 DRAW DOWN PRESSURE MOD 001
DD_PRESS_MOD_0001       .bar                                                :11 DRAW DOWN PRESSURE MOD 0001


~PARAMETER INFORMATION
#MNEM                   .UNIT        VALUE                                   DESCRIPTION
#________________________________________________________________________________________
TOOLFACE                .deg         60.0                                   :01 TOOLFACE
PUMP_CAPACITY           .bar         400                                    :02 NOMINAL DRAW DOWN PUMP CAPACITY
PUMP_LIMIT              .bar         240                                    :03 DOWNLINK PUMP LIMIT
TIME_LIMIT              .min         10                                     :04 DOWNLINK MAX TIME
TEST_TYPE               .            REPEAT                                 :05 DOWNLINK
TEST_TYPE               .            HIGH MOBILITY                          :06 DOWNLINK
DD_PIST_A               .cm2         3.1416                                 :07 DRAW DOWN PISTON AREA
V_SYS                   .cm3         131.0000                               :08 SYSTEM VOLUME
PROBE_ID                .cm          1.2700                                 :09 TTK PROBE ID
G0                      .            4.6700                                 :10 GEOMETRY FACTOR


~A                  TIME     DD_PRESS                              DD_VOLUME               TEMP                                   DD_PRESS_MOD_1000       DD_PRESS_MOD_100        DD_PRESS_MOD_10         DD_PRESS_MOD_1        DD_PRESS_MOD_01       DD_PRESS_MOD_001      DD_PRESS_MOD_0001
# ...
                  108.50    344.70609                               13.01806             83.148                                        3.44706e+002           4.47061e+001           4.70609e+000           7.06091e-001           6.09143e-003           6.09143e-003           9.14288e-005
                  108.60    344.69734                               13.01806             83.148                                        3.44697e+002           4.46973e+001           4.69734e+000           6.97338e-001           9.73378e-002           7.33785e-003           3.37847e-004
                  108.70    344.69234                               13.01806             83.148                                        3.44692e+002           4.46923e+001           4.69234e+000           6.92338e-001           9.23383e-002           2.33829e-003           3.38290e-004
                  108.80    344.70219                               13.01806             83.148                                        3.44702e+002           4.47022e+001           4.70219e+000           7.02193e-001           2.19320e-003           2.19320e-003           1.93202e-004
                  108.90    344.71386                               13.01806             83.148                                        3.44714e+002           4.47139e+001           4.71386e+000           7.13863e-001           1.38633e-002           3.86325e-003           8.63251e-004
                  109.00    344.70568                               13.01806             83.148                                        3.44706e+002           4.47057e+001           4.70568e+000           7.05677e-001           5.67658e-003           5.67658e-003           6.76579e-004
                  109.10    344.69891                               13.01806             83.148                                        3.44699e+002           4.46989e+001           4.69891e+000           6.98910e-001           9.89102e-002           8.91016e-003           9.10161e-004
                  109.20    344.71140                               13.01806             83.148                                        3.44711e+002           4.47114e+001           4.71140e+000           7.11404e-001           1.14045e-002           1.40447e-003           4.04473e-004
                  109.30    344.71762                               13.01806             83.148                                        3.44718e+002           4.47176e+001           4.71762e+000           7.17619e-001           1.76193e-002           7.61926e-003           6.19257e-004
                  109.40    344.70129                               13.01806             83.148                                        3.44701e+002           4.47013e+001           4.70129e+000           7.01291e-001           1.29105e-003           1.29105e-003           2.91050e-004
                  109.50    344.69110                               13.01806             83.148                                        3.44691e+002           4.46911e+001           4.69110e+000           6.91102e-001           9.11021e-002           1.10214e-003           1.02143e-004
                  109.60    344.69764                               13.01806             83.148                                        3.44698e+002           4.46976e+001           4.69764e+000           6.97640e-001           9.76404e-002           7.64043e-003           6.40425e-004
                  109.70    344.70548                               13.01806             83.148                                        3.44705e+002           4.47055e+001           4.70548e+000           7.05482e-001           5.48219e-003           5.48219e-003           4.82188e-004
                  109.80    344.70522                               13.01806             83.148                                        3.44705e+002           4.47052e+001           4.70522e+000           7.05219e-001           5.21898e-003           5.21898e-003           2.18981e-004
                  109.90    344.70443                               13.01806             83.148                                        3.44704e+002           4.47044e+001           4.70443e+000           7.04432e-001           4.43207e-003           4.43207e-003           4.32072e-004
                  110.00    344.70623                               13.01806             83.146                                        3.44706e+002           4.47062e+001           4.70623e+000           7.06228e-001           6.22761e-003           6.22761e-003           2.27612e-004
                  110.10    344.71204                               13.01806             83.143                                        3.44712e+002           4.47120e+001           4.71204e+000           7.12036e-001           1.20357e-002           2.03570e-003           3.56982e-005
                  110.20    344.70897                               13.01806             83.143                                        3.44709e+002           4.47090e+001           4.70897e+000           7.08965e-001           8.96502e-003           8.96502e-003           9.65023e-004
                  110.30    344.70743                               13.01806             83.146                                        3.44707e+002           4.47074e+001           4.70743e+000           7.07429e-001           7.42905e-003           7.42905e-003           4.29049e-004
                  110.40    344.71055                               13.01806             83.148                                        3.44711e+002           4.47105e+001           4.71055e+000           7.10549e-001           1.05487e-002           5.48703e-004           5.48703e-004
                  110.50    344.70698                               13.01806             83.148                                        3.44707e+002           4.47070e+001           4.70698e+000           7.06975e-001           6.97506e-003           6.97506e-003           9.75058e-004
                  110.60    344.70539                               13.01806             83.148                                        3.44705e+002           4.47054e+001           4.70539e+000           7.05387e-001           5.38730e-003           5.38730e-003           3.87301e-004
                  110.70    344.70690                               13.01806             83.148                                        3.44707e+002           4.47069e+001           4.70690e+000           7.06902e-001           6.90157e-003           6.90157e-003           9.01572e-004
                  110.80    344.70141                               13.01806             83.148                                        3.44701e+002           4.47014e+001           4.70141e+000           7.01413e-001           1.41347e-003           1.41347e-003           4.13469e-004
                  110.90    344.69723                               13.01806             83.148                                        3.44697e+002           4.46972e+001           4.69723e+000           6.97233e-001           9.72326e-002           7.23264e-003           2.32643e-004
                  111.00    344.69962                               13.01806             83.146                                        3.44700e+002           4.46996e+001           4.69962e+000           6.99622e-001           9.96223e-002           9.62230e-003           6.22298e-004
                  111.10    344.70668                               13.01806             83.145                                        3.44707e+002           4.47067e+001           4.70668e+000           7.06680e-001           6.67964e-003           6.67964e-003           6.79642e-004
                  111.20    344.71154                               13.01806             83.144                                        3.44712e+002           4.47115e+001           4.71154e+000           7.11545e-001           1.15446e-002           1.54463e-003           5.44633e-004
