~VERSION INFORMATION
VERS                    .            2.0                                    :CWLS LOG ASCII STANDARD
WRAP                    .            NO                                     :ONE LINE PER TIME STEP


~WELL INFORMATION
#MNEM                   .UNIT        DATA                                    DESCRIPTION
#________________________________________________________________________________________
STRTTIME                .HH/MM/SS    18:50:18                               :START TIME
STOPTIME                .HH/MM/SS    18:53:14                               :STOP TIME
STRT                    .s           2.10                                   :START DATA
STOP                    .s           174.80                                 :STOP DATA
STEP                    .s           0.10                                   :MEASUREMENT TIME INTERVAL
NULL                    .            -999.25                                :NULL VALUE
COMP                    .            Statoil ASA                            :COMPANY
FLD                     .            Volve                                  :FIELD
WELL                    .            15/9-F-11 A                            :WELL
RUN                     .            8                                      :RUN
LOC                     .            Maersk Inspirer                        :LOCATION
PROV                    .            na                                     :PROVINCE
SRVC                    .            Baker Hughes INTEQ                     :SERVICE COMPANY
DATE                    .YY/MM/DD    13/05/23                               :LOG DATE
UWI                     .                                                   :UNIQUE WELL ID
DEPTHMD                 .m           3651.0                                 :MEASURED DEPTH
DEPTHTVD                .m           3041.4                                 :TRUE VERTICAL DEPTH


~CURVE INFORMATION
#MNEM                   .UNIT        API CODES                               DESCRIPTION
#________________________________________________________________________________________
TIME                    .s                                                  :01 TIME
DD_PRESS                .bar                                                :02 DRAW DOWN PRESSURE
DD_VOLUME               .cm3                                                :03 INCREMENTAL DRAW DOWN VOLUME
TEMP                    .degC                                               :04 TRANSDUCER TEMPERATURE
DD_PRESS_MOD_1000       .bar                                                :05 DRAW DOWN PRESSURE MOD 1000
DD_PRESS_MOD_100        .bar                                                :06 DRAW DOWN PRESSURE MOD 100
DD_PRESS_MOD_10         .bar                                                :07 DRAW DOWN PRESSURE MOD 10
DD_PRESS_MOD_1          .bar                                                :08 DRAW DOWN PRESSURE MOD 1
DD_PRESS_MOD_01         .bar                                                :09 DRAW DOWN PRESSURE MOD 01
DD_PRESS_MOD_001        .bar                                                :10 DRAW DOWN PRESSURE MOD 001
DD_PRESS_MOD_0001       .bar                                                :11 DRAW DOWN PRESSURE MOD 0001


~PARAMETER INFORMATION
#MNEM                   .UNIT        VALUE                                   DESCRIPTION
#________________________________________________________________________________________
TOOLFACE                .deg         -39.7                                  :01 TOOLFACE
PUMP_CAPACITY           .bar         400                                    :02 NOMINAL DRAW DOWN PUMP CAPACITY
PUMP_LIMIT              .bar         240                                    :03 DOWNLINK PUMP LIMIT
TIME_LIMIT              .min         10                                     :04 DOWNLINK MAX TIME
TEST_TYPE               .            REPEAT                                 :05 DOWNLINK
TEST_TYPE               .            HIGH MOBILITY                          :06 DOWNLINK
DD_PIST_A               .cm2         3.1416                                 :07 DRAW DOWN PISTON AREA
V_SYS                   .cm3         131.0000                               :08 SYSTEM VOLUME
PROBE_ID                .cm          1.2700                                 :09 TTK PROBE ID
G0                      .            4.6700                                 :10 GEOMETRY FACTOR


~A                  TIME     DD_PRESS                              DD_VOLUME               TEMP                                   DD_PRESS_MOD_1000       DD_PRESS_MOD_100        DD_PRESS_MOD_10         DD_PRESS_MOD_1        DD_PRESS_MOD_01       DD_PRESS_MOD_001      DD_PRESS_MOD_0001
# ...
                  150.50    343.52306                                0.00000             73.273                                        3.43523e+002           4.35231e+001           3.52306e+000           5.23061e-001           2.30606e-002           3.06056e-003           6.05593e-005
                  150.60    343.52486                                0.00000             73.273                                        3.43525e+002           4.35249e+001           3.52486e+000           5.24860e-001           2.48599e-002           4.85995e-003           8.59950e-004
                  150.70    343.52485                                0.00000             73.273                                        3.43525e+002           4.35249e+001           3.52485e+000           5.24851e-001           2.48506e-002           4.85060e-003           8.50597e-004
                  150.80    343.52519                                0.00000             73.273                                        3.43525e+002           4.35252e+001           3.52519e+000           5.25186e-001           2.51857e-002           5.18568e-003           1.85678e-004
                  150.90    343.53029                                0.00000             73.273                                        3.43530e+002           4.35303e+001           3.53029e+000           5.30291e-001           3.02909e-002           2.90867e-004           2.90867e-004
                  151.00    343.53603                                0.00000             73.273                                        3.43536e+002           4.35360e+001           3.53603e+000           5.36035e-001           3.60347e-002           6.03466e-003           3.46593e-005
                  151.10    343.53758                                0.00000             73.273                                        3.43538e+002           4.35376e+001           3.53758e+000           5.37576e-001           3.75764e-002           7.57635e-003           5.76350e-004
                  151.20    343.53678                                0.00000             73.273                                        3.43537e+002           4.35368e+001           3.53678e+000           5.36778e-001           3.67783e-002           6.77829e-003           7.78287e-004
                  151.30    343.52894                                0.00000             73.273                                        3.43529e+002           4.35289e+001           3.52894e+000           5.28936e-001           2.89365e-002           8.93649e-003           9.36492e-004
                  151.40    344.30647                                0.00000             73.273                                        3.44306e+002           4.43065e+001           4.30647e+000           3.06470e-001           6.47041e-003           6.47041e-003           4.70405e-004
                  151.50    354.86561                                0.00000             73.273                                        3.54866e+002           5.48656e+001           4.86561e+000           8.65607e-001           6.56070e-002           5.60695e-003           6.06951e-004
                  151.60    385.18540                                0.00000             73.273                                        3.85185e+002           8.51854e+001           5.18540e+000           1.85401e-001           8.54009e-002           5.40086e-003           4.00865e-004
                  151.70    413.86004                                0.00000             73.273                                        4.13860e+002           1.38600e+001           3.86004e+000           8.60041e-001           6.00414e-002           4.13896e-005           4.13896e-005
                  151.80    422.77390                                0.00000             73.273                                        4.22774e+002           2.27739e+001           2.77390e+000           7.73900e-001           7.38998e-002           3.89983e-003           8.99829e-004
                  151.90    422.78374                                0.00000             73.273                                        4.22784e+002           2.27837e+001           2.78374e+000           7.83745e-001           8.37447e-002           3.74473e-003           7.44730e-004
                  152.00    422.79366                                0.00000             73.273                                        4.22794e+002           2.27937e+001           2.79366e+000           7.93662e-001           9.36622e-002           3.66216e-003           6.62161e-004
                  152.10    422.78302                                0.00000             73.273                                        4.22783e+002           2.27830e+001           2.78302e+000           7.83016e-001           8.30155e-002           3.01551e-003           1.55055e-005
                  152.20    422.76869                                0.00000             73.273                                        4.22769e+002           2.27687e+001           2.76869e+000           7.68694e-001           6.86939e-002           8.69390e-003           6.93902e-004
                  152.30    422.78847                                0.00000             73.273                                        4.22788e+002           2.27885e+001           2.78847e+000           7.88468e-001           8.84677e-002           8.46774e-003           4.67736e-004
                  152.40    422.79178                                0.00000             73.273                                        4.22792e+002           2.27918e+001           2.79178e+000           7.91777e-001           9.17772e-002           1.77719e-003           7.77193e-004
                  152.50    422.78689                                0.00000             73.273                                        4.22787e+002           2.27869e+001           2.78689e+000           7.86893e-001           8.68929e-002           6.89295e-003           8.92948e-004
                  152.60    422.78964                                0.00000             73.273                                        4.22790e+002           2.27896e+001           2.78964e+000           7.89644e-001           8.96440e-002           9.64395e-003           6.43952e-004
                  152.70    422.81319                                0.00000             73.273                                        4.22813e+002           2.28132e+001           2.81319e+000           8.13186e-001           1.31858e-002           3.18579e-003           1.85791e-004
                  152.80    422.80847                                0.00000             73.273                                        4.22808e+002           2.28085e+001           2.80847e+000           8.08473e-001           8.47328e-003           8.47328e-003           4.73284e-004
                  152.90    422.79032                                0.00000             73.273                                        4.22790e+002           2.27903e+001           2.79032e+000           7.90315e-001           9.03152e-002           3.15233e-004           3.15233e-004
                  153.00    422.80847                                0.00000             73.273                                        4.22808e+002           2.28085e+001           2.80847e+000           8.08467e-001           8.46706e-003           8.46706e-003           4.67058e-004
                  153.10    422.84247                                0.00000             73.273                                        4.22842e+002           2.28425e+001           2.84247e+000           8.42470e-001           4.24698e-002           2.46977e-003           4.69773e-004
                  153.20    422.85451                                0.00000             73.273                                        4.22855e+002           2.28545e+001           2.85451e+000           8.54509e-001           5.45089e-002           4.50894e-003           5.08936e-004
