~VERSION INFORMATION
VERS                    .            2.0                                    :CWLS LOG ASCII STANDARD
WRAP                    .            NO                                     :ONE LINE PER TIME STEP


~WELL INFORMATION
#MNEM                   .UNIT        DATA                                    DESCRIPTION
#________________________________________________________________________________________
STRTTIME                .HH/MM/SS    01:04:55                               :START TIME
STOPTIME                .HH/MM/SS    01:07:44                               :STOP TIME
STRT                    .s           2.10                                   :START DATA
STOP                    .s           167.40                                 :STOP DATA
STEP                    .s           0.10                                   :MEASUREMENT TIME INTERVAL
NULL                    .            -999.25                                :NULL VALUE
COMP                    .            Statoil ASA                            :COMPANY
FLD                     .            Volve                                  :FIELD
WELL                    .            15/9-F-1 C                             :WELL
RUN                     .            4                                      :RUN
LOC                     .                                                   :LOCATION
PROV                    .            na                                     :PROVINCE
SRVC                    .            Baker Hughes INTEQ                     :SERVICE COMPANY
DATE                    .YY/MM/DD    14/03/15                               :LOG DATE
UWI                     .                                                   :UNIQUE WELL ID
DEPTHMD                 .m           3720.1                                 :MEASURED DEPTH
DEPTHTVD                .m           3050.6                                 :TRUE VERTICAL DEPTH


~CURVE INFORMATION
#MNEM                   .UNIT        API CODES                               DESCRIPTION
#________________________________________________________________________________________
TIME                    .s                                                  :01 TIME
DD_PRESS                .bar                                                :02 DRAW DOWN PRESSURE
DD_VOLUME               .cm3                                                :03 INCREMENTAL DRAW DOWN VOLUME
TEMP                    .degC                                               :04 TRANSDUCER TEMPERATURE
DD_PRESS_MOD_1000       .bar                                                :05 DRAW DOWN PRESSURE MOD 1000
DD_PRESS_MOD_100        .bar                                                :06 DRAW DOWN PRESSURE MOD 100
DD_PRESS_MOD_10         .bar                                                :07 DRAW DOWN PRESSURE MOD 10
DD_PRESS_MOD_1          .bar                                                :08 DRAW DOWN PRESSURE MOD 1
DD_PRESS_MOD_01         .bar                                                :09 DRAW DOWN PRESSURE MOD 01
DD_PRESS_MOD_001        .bar                                                :10 DRAW DOWN PRESSURE MOD 001
DD_PRESS_MOD_0001       .bar                                                :11 DRAW DOWN PRESSURE MOD 0001


~PARAMETER INFORMATION
#MNEM                   .UNIT        VALUE                                   DESCRIPTION
#________________________________________________________________________________________
TOOLFACE                .deg         134.6                                  :01 TOOLFACE
PUMP_CAPACITY           .bar         400                                    :02 NOMINAL DRAW DOWN PUMP CAPACITY
PUMP_LIMIT              .bar         240                                    :03 DOWNLINK PUMP LIMIT
TIME_LIMIT              .min         10                                     :04 DOWNLINK MAX TIME
TEST_TYPE               .            REPEAT                                 :05 DOWNLINK
TEST_TYPE               .            HIGH MOBILITY                          :06 DOWNLINK
DD_PIST_A               .cm2         3.1416                                 :07 DRAW DOWN PISTON AREA
V_SYS                   .cm3         131.0000                               :08 SYSTEM VOLUME
PROBE_ID                .cm          1.2700                                 :09 TTK PROBE ID
G0                      .            4.6700                                 :10 GEOMETRY FACTOR


~A                  TIME     DD_PRESS                              DD_VOLUME               TEMP                                   DD_PRESS_MOD_1000       DD_PRESS_MOD_100        DD_PRESS_MOD_10         DD_PRESS_MOD_1        DD_PRESS_MOD_01       DD_PRESS_MOD_001      DD_PRESS_MOD_0001
# ...
                   24.50    433.50207                                0.00000             87.328                                        4.33502e+002           3.35021e+001           3.50207e+000           5.02070e-001           2.06974e-003           2.06974e-003           6.97385e-005
                   24.60    433.49893                                0.00000             87.328                                        4.33499e+002           3.34989e+001           3.49893e+000           4.98933e-001           9.89328e-002           8.93281e-003           9.32811e-004
                   24.70    433.48808                                0.00000             87.328                                        4.33488e+002           3.34881e+001           3.48808e+000           4.88079e-001           8.80789e-002           8.07890e-003           7.89007e-005
                   24.80    433.48012                                0.00000             87.328                                        4.33480e+002           3.34801e+001           3.48012e+000           4.80119e-001           8.01191e-002           1.19099e-004           1.19099e-004
                   24.90    433.50427                                0.00000             87.328                                        4.33504e+002           3.35043e+001           3.50427e+000           5.04269e-001           4.26938e-003           4.26938e-003           2.69379e-004
                   25.00    433.50798                                0.00000             87.328                                        4.33508e+002           3.35080e+001           3.50798e+000           5.07978e-001           7.97834e-003           7.97834e-003           9.78339e-004
                   25.10    433.49987                                1.22382             87.328                                        4.33500e+002           3.34999e+001           3.49987e+000           4.99869e-001           9.98690e-002           9.86899e-003           8.68990e-004
                   25.20    433.51098                                1.22455             87.328                                        4.33511e+002           3.35110e+001           3.51098e+000           5.10982e-001           1.09822e-002           9.82249e-004           9.82249e-004
                   25.30    433.53680                                1.22533             87.328                                        4.33537e+002           3.35368e+001           3.53680e+000           5.36799e-001           3.67987e-002           6.79865e-003           7.98654e-004
                   25.40    433.51119                                1.22700             87.328                                        4.33511e+002           3.35112e+001           3.51119e+000           5.11186e-001           1.11864e-002           1.18644e-003           1.86441e-004
                   25.50    433.38739                                1.23059             87.328                                        4.33387e+002           3.33874e+001           3.38739e+000           3.87391e-001           8.73915e-002           7.39149e-003           3.91489e-004
                   25.60    433.15228                                1.23620             87.328                                        4.33152e+002           3.31523e+001           3.15228e+000           1.52277e-001           5.22767e-002           2.27672e-003           2.76724e-004
                   25.70    432.74917                                1.24382             87.328                                        4.32749e+002           3.27492e+001           2.74917e+000           7.49167e-001           4.91671e-002           9.16708e-003           1.67076e-004
                   25.80    432.19564                                1.25357             87.328                                        4.32196e+002           3.21956e+001           2.19564e+000           1.95637e-001           9.56370e-002           5.63696e-003           6.36956e-004
                   25.90    431.56698                                1.26520             87.328                                        4.31567e+002           3.15670e+001           1.56698e+000           5.66977e-001           6.69766e-002           6.97657e-003           9.76575e-004
                   26.00    430.87758                                1.27868             87.328                                        4.30878e+002           3.08776e+001           8.77579e-001           8.77579e-001           7.75794e-002           7.57936e-003           5.79361e-004
                   26.10    430.06732                                1.29411             87.328                                        4.30067e+002           3.00673e+001           6.73199e-002           6.73199e-002           6.73199e-002           7.31986e-003           3.19858e-004
                   26.20    429.11265                                1.31163             87.328                                        4.29113e+002           2.91126e+001           9.11265e+000           1.12649e-001           1.26487e-002           2.64869e-003           6.48687e-004
                   26.30    428.01487                                1.33105             87.328                                        4.28015e+002           2.80149e+001           8.01487e+000           1.48721e-002           1.48721e-002           4.87213e-003           8.72128e-004
                   26.40    426.79221                                1.35248             87.328                                        4.26792e+002           2.67922e+001           6.79221e+000           7.92212e-001           9.22121e-002           2.21213e-003           2.12134e-004
                   26.50    425.44378                                1.37586             87.328                                        4.25444e+002           2.54438e+001           5.44378e+000           4.43783e-001           4.37826e-002           3.78264e-003           7.82640e-004
                   26.60    423.97238                                1.40107             87.328                                        4.23972e+002           2.39724e+001           3.97238e+000           9.72380e-001           7.23800e-002           2.38002e-003           3.80016e-004
                   26.70    422.43725                                1.42812             87.328                                        4.22437e+002           2.24372e+001           2.43725e+000           4.37247e-001           3.72466e-002           7.24658e-003           2.46576e-004
                   26.80    420.77899                                1.45716             87.328                                        4.20779e+002           2.07790e+001           7.78985e-001           7.78985e-001           7.89853e-002           8.98532e-003           9.85322e-004
                   26.90    418.94365                                1.48816             87.328                                        4.18944e+002           1.89437e+001           8.94365e+000           9.43653e-001           4.36530e-002           3.65302e-003           6.53018e-004
                   27.00    416.94987                                1.52108             87.328                                        4.16950e+002           1.69499e+001           6.94987e+000           9.49875e-001           4.98745e-002           9.87454e-003           8.74538e-004
                   27.10    414.84638                                1.55580             87.328                                        4.14846e+002           1.48464e+001           4.84638e+000           8.46378e-001           4.63782e-002           6.37822e-003           3.78216e-004
                   27.20    412.62381                                1.59235             87.328                                        4.12624e+002           1.26238e+001           2.62381e+000           6.23813e-001           2.38134e-002           3.81343e-003           8.13429e-004
