~VERSION INFORMATION
VERS                    .            2.0                                    :CWLS LOG ASCII STANDARD
WRAP                    .            NO                                     :ONE LINE PER TIME STEP


~WELL INFORMATION
#MNEM                   .UNIT        DATA                                    DESCRIPTION
#________________________________________________________________________________________
STRTTIME                .HH/MM/SS    08:08:34                               :START TIME
STOPTIME                .HH/MM/SS    08:11:25                               :STOP TIME
STRT                    .s           2.10                                   :START DATA
STOP                    .s           169.10                                 :STOP DATA
STEP                    .s           0.10                                   :MEASUREMENT TIME INTERVAL
NULL                    .            -999.25                                :NULL VALUE
COMP                    .            Statoil ASA                            :COMPANY
FLD                     .            Volve                                  :FIELD
WELL                    .            15/9-F-11 A                            :WELL
RUN                     .            8                                      :RUN
LOC                     .            Maersk Inspirer                        :LOCATION
PROV                    .            na                                     :PROVINCE
SRVC                    .            Baker Hughes INTEQ                     :SERVICE COMPANY
DATE                    .YY/MM/DD    13/05/21                               :LOG DATE
UWI                     .                                                   :UNIQUE WELL ID
DEPTHMD                 .m           3694.5                                 :MEASURED DEPTH
DEPTHTVD                .m           3074.7                                 :TRUE VERTICAL DEPTH


~CURVE INFORMATION
#MNEM                   .UNIT        API CODES                               DESCRIPTION
#________________________________________________________________________________________
TIME                    .s                                                  :01 TIME
DD_PRESS                .bar                                                :02 DRAW DOWN PRESSURE
DD_VOLUME               .cm3                                                :03 INCREMENTAL DRAW DOWN VOLUME
TEMP                    .degC                                               :04 TRANSDUCER TEMPERATURE
DD_PRESS_MOD_1000       .bar                                                :05 DRAW DOWN PRESSURE MOD 1000
DD_PRESS_MOD_100        .bar                                                :06 DRAW DOWN PRESSURE MOD 100
DD_PRESS_MOD_10         .bar                                                :07 DRAW DOWN PRESSURE MOD 10
DD_PRESS_MOD_1          .bar                                                :08 DRAW DOWN PRESSURE MOD 1
DD_PRESS_MOD_01         .bar                                                :09 DRAW DOWN PRESSURE MOD 01
DD_PRESS_MOD_001        .bar                                                :10 DRAW DOWN PRESSURE MOD 001
DD_PRESS_MOD_0001       .bar                                                :11 DRAW DOWN PRESSURE MOD 0001


~PARAMETER INFORMATION
#MNEM                   .UNIT        VALUE                                   DESCRIPTION
#________________________________________________________________________________________
TOOLFACE                .deg         -107.9                                 :01 TOOLFACE
PUMP_CAPACITY           .bar         400                                    :02 NOMINAL DRAW DOWN PUMP CAPACITY
PUMP_LIMIT              .bar         240                                    :03 DOWNLINK PUMP LIMIT
TIME_LIMIT              .min         10                                     :04 DOWNLINK MAX TIME
TEST_TYPE               .            HIGH MOBILITY                          :05 DOWNLINK
DD_PIST_A               .cm2         3.1416                                 :06 DRAW DOWN PISTON AREA
V_SYS                   .cm3         131.0000                               :07 SYSTEM VOLUME
PROBE_ID                .cm          1.2700                                 :08 TTK PROBE ID
G0                      .            4.6700                                 :09 GEOMETRY FACTOR


~A                  TIME     DD_PRESS                              DD_VOLUME               TEMP                                   DD_PRESS_MOD_1000       DD_PRESS_MOD_100        DD_PRESS_MOD_10         DD_PRESS_MOD_1        DD_PRESS_MOD_01       DD_PRESS_MOD_001      DD_PRESS_MOD_0001
# ...
                  100.10    346.41234                               19.72014             84.859                                        3.46412e+002           4.64123e+001           6.41234e+000           4.12337e-001           1.23374e-002           2.33743e-003           3.37434e-004
                  100.20    346.41634                               19.72014             84.859                                        3.46416e+002           4.64163e+001           6.41634e+000           4.16340e-001           1.63398e-002           6.33978e-003           3.39784e-004
                  100.30    346.41107                               19.72014             84.859                                        3.46411e+002           4.64111e+001           6.41107e+000           4.11070e-001           1.10699e-002           1.06988e-003           6.98806e-005
                  100.40    346.40542                               19.72014             84.859                                        3.46405e+002           4.64054e+001           6.40542e+000           4.05419e-001           5.41895e-003           5.41895e-003           4.18949e-004
                  100.50    346.41015                               19.72014             84.859                                        3.46410e+002           4.64102e+001           6.41015e+000           4.10151e-001           1.01513e-002           1.51328e-004           1.51328e-004
                  100.60    346.41306                               19.72014             84.859                                        3.46413e+002           4.64131e+001           6.41306e+000           4.13056e-001           1.30557e-002           3.05572e-003           5.57219e-005
                  100.70    346.41085                               19.72014             84.859                                        3.46411e+002           4.64108e+001           6.41085e+000           4.10847e-001           1.08467e-002           8.46723e-004           8.46723e-004
                  100.80    346.40923                               19.72014             84.859                                        3.46409e+002           4.64092e+001           6.40923e+000           4.09230e-001           9.23022e-003           9.23022e-003           2.30225e-004
                  100.90    346.40941                               19.72014             84.859                                        3.46409e+002           4.64094e+001           6.40941e+000           4.09414e-001           9.41434e-003           9.41434e-003           4.14338e-004
                  101.00    346.40792                               19.72014             84.859                                        3.46408e+002           4.64079e+001           6.40792e+000           4.07920e-001           7.91975e-003           7.91975e-003           9.19753e-004
                  101.10    346.40786                               19.72014             84.859                                        3.46408e+002           4.64079e+001           6.40786e+000           4.07858e-001           7.85806e-003           7.85806e-003           8.58059e-004
                  101.20    346.40832                               19.72014             84.859                                        3.46408e+002           4.64083e+001           6.40832e+000           4.08321e-001           8.32115e-003           8.32115e-003           3.21147e-004
                  101.30    346.40794                               19.72014             84.859                                        3.46408e+002           4.64079e+001           6.40794e+000           4.07942e-001           7.94172e-003           7.94172e-003           9.41718e-004
                  101.40    346.40635                               19.72014             84.859                                        3.46406e+002           4.64064e+001           6.40635e+000           4.06351e-001           6.35052e-003           6.35052e-003           3.50517e-004
                  101.50    346.40808                               19.72014             84.859                                        3.46408e+002           4.64081e+001           6.40808e+000           4.08082e-001           8.08231e-003           8.08231e-003           8.23102e-005
                  101.60    346.41379                               19.72014             84.859                                        3.46414e+002           4.64138e+001           6.41379e+000           4.13789e-001           1.37894e-002           3.78942e-003           7.89419e-004
                  101.70    346.40961                               19.72014             84.859                                        3.46410e+002           4.64096e+001           6.40961e+000           4.09615e-001           9.61455e-003           9.61455e-003           6.14554e-004
                  101.80    346.40116                               19.72014             84.859                                        3.46401e+002           4.64012e+001           6.40116e+000           4.01157e-001           1.15734e-003           1.15734e-003           1.57338e-004
                  101.90    346.40617                               19.72014             84.859                                        3.46406e+002           4.64062e+001           6.40617e+000           4.06173e-001           6.17303e-003           6.17303e-003           1.73029e-004
                  102.00    346.41336                               19.72014             84.859                                        3.46413e+002           4.64134e+001           6.41336e+000           4.13365e-001           1.33645e-002           3.36453e-003           3.64530e-004
                  102.10    346.41230                               19.72014             84.859                                        3.46412e+002           4.64123e+001           6.41230e+000           4.12301e-001           1.23014e-002           2.30143e-003           3.01426e-004
                  102.20    346.41184                               19.72014             84.859                                        3.46412e+002           4.64118e+001           6.41184e+000           4.11839e-001           1.18390e-002           1.83899e-003           8.38988e-004
                  102.30    346.41489                               19.72014             84.859                                        3.46415e+002           4.64149e+001           6.41489e+000           4.14893e-001           1.48925e-002           4.89254e-003           8.92545e-004
                  102.40    346.41047                               19.72014             84.859                                        3.46410e+002           4.64105e+001           6.41047e+000           4.10467e-001           1.04668e-002           4.66762e-004           4.66762e-004
                  102.50    346.40490                               19.72014             84.859                                        3.46405e+002           4.64049e+001           6.40490e+000           4.04899e-001           4.89924e-003           4.89924e-003           8.99238e-004
                  102.60    346.40420                               19.72014             84.859                                        3.46404e+002           4.64042e+001           6.40420e+000           4.04199e-001           4.19896e-003           4.19896e-003           1.98961e-004
                  102.70    346.40793                               19.72014             84.859                                        3.46408e+002           4.64079e+001           6.40793e+000           4.07928e-001           7.92803e-003           7.92803e-003           9.28035e-004
                  102.80    346.40647                               19.72014             84.859                                        3.46406e+002           4.64065e+001           6.40647e+000           4.06470e-001           6.47020e-003           6.47020e-003           4.70199e-004
