~VERSION INFORMATION
VERS                    .            2.0                                    :CWLS LOG ASCII STANDARD
WRAP                    .            NO                                     :ONE LINE PER TIME STEP


~WELL INFORMATION
#MNEM                   .UNIT        DATA                                    DESCRIPTION
#________________________________________________________________________________________
STRTTIME                .HH/MM/SS    01:04:55                               :START TIME
STOPTIME                .HH/MM/SS    01:07:44                               :STOP TIME
STRT                    .s           2.10                                   :START DATA
STOP                    .s           167.40                                 :STOP DATA
STEP                    .s           0.10                                   :MEASUREMENT TIME INTERVAL
NULL                    .            -999.25                                :NULL VALUE
COMP                    .            Statoil ASA                            :COMPANY
FLD                     .            Volve                                  :FIELD
WELL                    .            15/9-F-1 C                             :WELL
RUN                     .            4                                      :RUN
LOC                     .                                                   :LOCATION
PROV                    .            na                                     :PROVINCE
SRVC                    .            Baker Hughes INTEQ                     :SERVICE COMPANY
DATE                    .YY/MM/DD    14/03/15                               :LOG DATE
UWI                     .                                                   :UNIQUE WELL ID
DEPTHMD                 .m           3720.1                                 :MEASURED DEPTH
DEPTHTVD                .m           3050.6                                 :TRUE VERTICAL DEPTH


~CURVE INFORMATION
#MNEM                   .UNIT        API CODES                               DESCRIPTION
#________________________________________________________________________________________
TIME                    .s                                                  :01 TIME
DD_PRESS                .bar                                                :02 DRAW DOWN PRESSURE
DD_VOLUME               .cm3                                                :03 INCREMENTAL DRAW DOWN VOLUME
TEMP                    .degC                                               :04 TRANSDUCER TEMPERATURE
DD_PRESS_MOD_1000       .bar                                                :05 DRAW DOWN PRESSURE MOD 1000
DD_PRESS_MOD_100        .bar                                                :06 DRAW DOWN PRESSURE MOD 100
DD_PRESS_MOD_10         .bar                                                :07 DRAW DOWN PRESSURE MOD 10
DD_PRESS_MOD_1          .bar                                                :08 DRAW DOWN PRESSURE MOD 1
DD_PRESS_MOD_01         .bar                                                :09 DRAW DOWN PRESSURE MOD 01
DD_PRESS_MOD_001        .bar                                                :10 DRAW DOWN PRESSURE MOD 001
DD_PRESS_MOD_0001       .bar                                                :11 DRAW DOWN PRESSURE MOD 0001


~PARAMETER INFORMATION
#MNEM                   .UNIT        VALUE                                   DESCRIPTION
#________________________________________________________________________________________
TOOLFACE                .deg         134.6                                  :01 TOOLFACE
PUMP_CAPACITY           .bar         400                                    :02 NOMINAL DRAW DOWN PUMP CAPACITY
PUMP_LIMIT              .bar         240                                    :03 DOWNLINK PUMP LIMIT
TIME_LIMIT              .min         10                                     :04 DOWNLINK MAX TIME
TEST_TYPE               .            REPEAT                                 :05 DOWNLINK
TEST_TYPE               .            HIGH MOBILITY                          :06 DOWNLINK
DD_PIST_A               .cm2         3.1416                                 :07 DRAW DOWN PISTON AREA
V_SYS                   .cm3         131.0000                               :08 SYSTEM VOLUME
PROBE_ID                .cm          1.2700                                 :09 TTK PROBE ID
G0                      .            4.6700                                 :10 GEOMETRY FACTOR


~A                  TIME     DD_PRESS                              DD_VOLUME               TEMP                                   DD_PRESS_MOD_1000       DD_PRESS_MOD_100        DD_PRESS_MOD_10         DD_PRESS_MOD_1        DD_PRESS_MOD_01       DD_PRESS_MOD_001      DD_PRESS_MOD_0001
# ...
                  153.30    434.11184                                0.00000             87.250                                        4.34112e+002           3.41118e+001           4.11184e+000           1.11840e-001           1.18404e-002           1.84045e-003           8.40449e-004
                  153.40    434.11182                                0.00000             87.250                                        4.34112e+002           3.41118e+001           4.11182e+000           1.11822e-001           1.18220e-002           1.82201e-003           8.22011e-004
                  153.50    434.11439                                0.00000             87.250                                        4.34114e+002           3.41144e+001           4.11439e+000           1.14389e-001           1.43895e-002           4.38947e-003           3.89474e-004
                  153.60    434.11519                                0.00000             87.250                                        4.34115e+002           3.41152e+001           4.11519e+000           1.15192e-001           1.51917e-002           5.19169e-003           1.91689e-004
                  153.70    434.10190                                0.00000             87.250                                        4.34102e+002           3.41019e+001           4.10190e+000           1.01904e-001           1.90428e-003           1.90428e-003           9.04279e-004
                  153.80    434.08488                                0.00000             87.250                                        4.34085e+002           3.40849e+001           4.08488e+000           8.48830e-002           8.48830e-002           4.88296e-003           8.82959e-004
                  153.90    434.09273                                0.00000             87.250                                        4.34093e+002           3.40927e+001           4.09273e+000           9.27301e-002           9.27301e-002           2.73005e-003           7.30053e-004
                  154.00    434.11258                                0.00000             87.250                                        4.34113e+002           3.41126e+001           4.11258e+000           1.12580e-001           1.25801e-002           2.58008e-003           5.80080e-004
                  154.10    434.11412                                0.00000             87.250                                        4.34114e+002           3.41141e+001           4.11412e+000           1.14121e-001           1.41211e-002           4.12112e-003           1.21116e-004
                  154.20    434.10533                                0.00000             87.250                                        4.34105e+002           3.41053e+001           4.10533e+000           1.05332e-001           5.33185e-003           5.33185e-003           3.31846e-004
                  154.30    434.10585                                0.00000             87.250                                        4.34106e+002           3.41058e+001           4.10585e+000           1.05846e-001           5.84557e-003           5.84557e-003           8.45572e-004
                  154.40    434.11684                                0.00000             87.250                                        4.34117e+002           3.41168e+001           4.11684e+000           1.16837e-001           1.68368e-002           6.83684e-003           8.36844e-004
                  154.50    434.11932                                0.00000             87.250                                        4.34119e+002           3.41193e+001           4.11932e+000           1.19318e-001           1.93176e-002           9.31756e-003           3.17556e-004
                  154.60    434.10667                                0.00000             87.250                                        4.34107e+002           3.41067e+001           4.10667e+000           1.06667e-001           6.66683e-003           6.66683e-003           6.66829e-004
                  154.70    434.09318                                0.00000             87.250                                        4.34093e+002           3.40932e+001           4.09318e+000           9.31813e-002           9.31813e-002           3.18134e-003           1.81341e-004
                  154.80    434.09972                                0.00000             87.250                                        4.34100e+002           3.40997e+001           4.09972e+000           9.97215e-002           9.97215e-002           9.72151e-003           7.21512e-004
                  154.90    434.12313                                0.00000             87.250                                        4.34123e+002           3.41231e+001           4.12313e+000           1.23135e-001           2.31347e-002           3.13474e-003           1.34737e-004
                  155.00    434.12658                                0.00000             87.250                                        4.34127e+002           3.41266e+001           4.12658e+000           1.26576e-001           2.65756e-002           6.57562e-003           5.75618e-004
                  155.10    434.11949                                0.00000             87.250                                        4.34119e+002           3.41195e+001           4.11949e+000           1.19488e-001           1.94877e-002           9.48774e-003           4.87744e-004
                  155.20    434.12411                                0.00000             87.250                                        4.34124e+002           3.41241e+001           4.12411e+000           1.24106e-001           2.41062e-002           4.10617e-003           1.06167e-004
                  155.30    434.13282                                0.00000             87.250                                        4.34133e+002           3.41328e+001           4.13282e+000           1.32822e-001           3.28216e-002           2.82155e-003           8.21554e-004
                  155.40    434.12209                                0.00000             87.250                                        4.34122e+002           3.41221e+001           4.12209e+000           1.22092e-001           2.20922e-002           2.09217e-003           9.21668e-005
                  155.50    434.10043                                0.00000             87.250                                        4.34100e+002           3.41004e+001           4.10043e+000           1.00433e-001           4.32894e-004           4.32894e-004           4.32894e-004
                  155.60    434.09263                                0.00000             87.250                                        4.34093e+002           3.40926e+001           4.09263e+000           9.26322e-002           9.26322e-002           2.63221e-003           6.32207e-004
                  155.70    434.10654                                0.00000             87.250                                        4.34107e+002           3.41065e+001           4.10654e+000           1.06544e-001           6.54435e-003           6.54435e-003           5.44349e-004
                  155.80    434.12217                                0.00000             87.250                                        4.34122e+002           3.41222e+001           4.12217e+000           1.22172e-001           2.21718e-002           2.17185e-003           1.71847e-004
                  155.90    434.12099                                0.00000             87.250                                        4.34121e+002           3.41210e+001           4.12099e+000           1.20987e-001           2.09873e-002           9.87281e-004           9.87281e-004
                  156.00    434.10560                                0.00000             87.250                                        4.34106e+002           3.41056e+001           4.10560e+000           1.05597e-001           5.59654e-003           5.59654e-003           5.96540e-004
