~VERSION INFORMATION
VERS                    .            2.0                                    :CWLS LOG ASCII STANDARD
WRAP                    .            NO                                     :ONE LINE PER TIME STEP


~WELL INFORMATION
#MNEM                   .UNIT        DATA                                    DESCRIPTION
#________________________________________________________________________________________
STRTTIME                .HH/MM/SS    08:08:34                               :START TIME
STOPTIME                .HH/MM/SS    08:11:25                               :STOP TIME
STRT                    .s           2.10                                   :START DATA
STOP                    .s           169.10                                 :STOP DATA
STEP                    .s           0.10                                   :MEASUREMENT TIME INTERVAL
NULL                    .            -999.25                                :NULL VALUE
COMP                    .            Statoil ASA                            :COMPANY
FLD                     .            Volve                                  :FIELD
WELL                    .            15/9-F-11 A                            :WELL
RUN                     .            8                                      :RUN
LOC                     .            Maersk Inspirer                        :LOCATION
PROV                    .            na                                     :PROVINCE
SRVC                    .            Baker Hughes INTEQ                     :SERVICE COMPANY
DATE                    .YY/MM/DD    13/05/21                               :LOG DATE
UWI                     .                                                   :UNIQUE WELL ID
DEPTHMD                 .m           3694.5                                 :MEASURED DEPTH
DEPTHTVD                .m           3074.7                                 :TRUE VERTICAL DEPTH


~CURVE INFORMATION
#MNEM                   .UNIT        API CODES                               DESCRIPTION
#________________________________________________________________________________________
TIME                    .s                                                  :01 TIME
DD_PRESS                .bar                                                :02 DRAW DOWN PRESSURE
DD_VOLUME               .cm3                                                :03 INCREMENTAL DRAW DOWN VOLUME
TEMP                    .degC                                               :04 TRANSDUCER TEMPERATURE
DD_PRESS_MOD_1000       .bar                                                :05 DRAW DOWN PRESSURE MOD 1000
DD_PRESS_MOD_100        .bar                                                :06 DRAW DOWN PRESSURE MOD 100
DD_PRESS_MOD_10         .bar                                                :07 DRAW DOWN PRESSURE MOD 10
DD_PRESS_MOD_1          .bar                                                :08 DRAW DOWN PRESSURE MOD 1
DD_PRESS_MOD_01         .bar                                                :09 DRAW DOWN PRESSURE MOD 01
DD_PRESS_MOD_001        .bar                                                :10 DRAW DOWN PRESSURE MOD 001
DD_PRESS_MOD_0001       .bar                                                :11 DRAW DOWN PRESSURE MOD 0001


~PARAMETER INFORMATION
#MNEM                   .UNIT        VALUE                                   DESCRIPTION
#________________________________________________________________________________________
TOOLFACE                .deg         -107.9                                 :01 TOOLFACE
PUMP_CAPACITY           .bar         400                                    :02 NOMINAL DRAW DOWN PUMP CAPACITY
PUMP_LIMIT              .bar         240                                    :03 DOWNLINK PUMP LIMIT
TIME_LIMIT              .min         10                                     :04 DOWNLINK MAX TIME
TEST_TYPE               .            HIGH MOBILITY                          :05 DOWNLINK
DD_PIST_A               .cm2         3.1416                                 :06 DRAW DOWN PISTON AREA
V_SYS                   .cm3         131.0000                               :07 SYSTEM VOLUME
PROBE_ID                .cm          1.2700                                 :08 TTK PROBE ID
G0                      .            4.6700                                 :09 GEOMETRY FACTOR


~A                  TIME     DD_PRESS                              DD_VOLUME               TEMP                                   DD_PRESS_MOD_1000       DD_PRESS_MOD_100        DD_PRESS_MOD_10         DD_PRESS_MOD_1        DD_PRESS_MOD_01       DD_PRESS_MOD_001      DD_PRESS_MOD_0001
# ...
                  122.50    346.40019                               29.43087             84.859                                        3.46400e+002           4.64002e+001           6.40019e+000           4.00195e-001           1.94992e-004           1.94992e-004           1.94992e-004
                  122.60    346.40437                               29.43087             84.857                                        3.46404e+002           4.64044e+001           6.40437e+000           4.04365e-001           4.36549e-003           4.36549e-003           3.65487e-004
                  122.70    346.41015                               29.43087             84.856                                        3.46410e+002           4.64101e+001           6.41015e+000           4.10149e-001           1.01488e-002           1.48766e-004           1.48766e-004
                  122.80    346.40234                               29.43087             84.857                                        3.46402e+002           4.64023e+001           6.40234e+000           4.02338e-001           2.33756e-003           2.33756e-003           3.37562e-004
                  122.90    346.39424                               29.43087             84.859                                        3.46394e+002           4.63942e+001           6.39424e+000           3.94245e-001           9.42447e-002           4.24465e-003           2.44651e-004
                  123.00    346.39800                               29.43087             84.859                                        3.46398e+002           4.63980e+001           6.39800e+000           3.97999e-001           9.79988e-002           7.99883e-003           9.98831e-004
                  123.10    346.40610                               29.43087             84.859                                        3.46406e+002           4.64061e+001           6.40610e+000           4.06100e-001           6.10016e-003           6.10016e-003           1.00161e-004
                  123.20    346.40542                               29.43087             84.859                                        3.46405e+002           4.64054e+001           6.40542e+000           4.05418e-001           5.41754e-003           5.41754e-003           4.17545e-004
                  123.30    346.40488                               29.43087             84.859                                        3.46405e+002           4.64049e+001           6.40488e+000           4.04883e-001           4.88334e-003           4.88334e-003           8.83337e-004
                  123.40    346.40435                               29.43087             84.859                                        3.46404e+002           4.64044e+001           6.40435e+000           4.04353e-001           4.35349e-003           4.35349e-003           3.53489e-004
                  123.50    346.40231                               29.43087             84.859                                        3.46402e+002           4.64023e+001           6.40231e+000           4.02310e-001           2.31036e-003           2.31036e-003           3.10360e-004
                  123.60    346.40377                               29.43087             84.859                                        3.46404e+002           4.64038e+001           6.40377e+000           4.03767e-001           3.76670e-003           3.76670e-003           7.66695e-004
                  123.70    346.40774                               29.43087             84.859                                        3.46408e+002           4.64077e+001           6.40774e+000           4.07744e-001           7.74362e-003           7.74362e-003           7.43623e-004
                  123.80    346.40642                               29.43087             84.859                                        3.46406e+002           4.64064e+001           6.40642e+000           4.06423e-001           6.42285e-003           6.42285e-003           4.22854e-004
                  123.90    346.40389                               29.43087             84.859                                        3.46404e+002           4.64039e+001           6.40389e+000           4.03892e-001           3.89165e-003           3.89165e-003           8.91654e-004
                  124.00    346.40469                               29.43087             84.859                                        3.46405e+002           4.64047e+001           6.40469e+000           4.04689e-001           4.68863e-003           4.68863e-003           6.88633e-004
                  124.10    346.40940                               29.43087             84.859                                        3.46409e+002           4.64094e+001           6.40940e+000           4.09398e-001           9.39842e-003           9.39842e-003           3.98419e-004
                  124.20    346.40780                               29.43087             84.859                                        3.46408e+002           4.64078e+001           6.40780e+000           4.07804e-001           7.80397e-003           7.80397e-003           8.03974e-004
                  124.30    346.40330                               29.43087             84.859                                        3.46403e+002           4.64033e+001           6.40330e+000           4.03301e-001           3.30146e-003           3.30146e-003           3.01463e-004
                  124.40    346.40219                               29.43087             84.859                                        3.46402e+002           4.64022e+001           6.40219e+000           4.02193e-001           2.19345e-003           2.19345e-003           1.93452e-004
                  124.50    346.40640                               29.43087             84.859                                        3.46406e+002           4.64064e+001           6.40640e+000           4.06404e-001           6.40409e-003           6.40409e-003           4.04086e-004
                  124.60    346.40789                               29.43087             84.859                                        3.46408e+002           4.64079e+001           6.40789e+000           4.07885e-001           7.88525e-003           7.88525e-003           8.85246e-004
                  124.70    346.40763                               29.43087             84.859                                        3.46408e+002           4.64076e+001           6.40763e+000           4.07627e-001           7.62718e-003           7.62718e-003           6.27180e-004
                  124.80    346.40603                               29.43087             84.859                                        3.46406e+002           4.64060e+001           6.40603e+000           4.06034e-001           6.03446e-003           6.03446e-003           3.44615e-005
                  124.90    346.40615                               29.43087             84.859                                        3.46406e+002           4.64061e+001           6.40615e+000           4.06148e-001           6.14819e-003           6.14819e-003           1.48189e-004
                  125.00    346.40701                               29.43087             84.859                                        3.46407e+002           4.64070e+001           6.40701e+000           4.07013e-001           7.01330e-003           7.01330e-003           1.32979e-005
                  125.10    346.40558                               29.43087             84.859                                        3.46406e+002           4.64056e+001           6.40558e+000           4.05581e-001           5.58091e-003           5.58091e-003           5.80914e-004
                  125.20    346.40553                               29.43087             84.859                                        3.46406e+002           4.64055e+001           6.40553e+000           4.05530e-001           5.53006e-003           5.53006e-003           5.30060e-004
