~VERSION INFORMATION
VERS                    .            2.0                                    :CWLS LOG ASCII STANDARD
WRAP                    .            NO                                     :ONE LINE PER TIME STEP


~WELL INFORMATION
#MNEM                   .UNIT        DATA                                    DESCRIPTION
#________________________________________________________________________________________
STRTTIME                .HH/MM/SS    03:09:23                               :START TIME
STOPTIME                .HH/MM/SS    03:12:09                               :STOP TIME
STRT                    .s           2.10                                   :START DATA
STOP                    .s           164.80                                 :STOP DATA
STEP                    .s           0.10                                   :MEASUREMENT TIME INTERVAL
NULL                    .            -999.25                                :NULL VALUE
COMP                    .            Statoil ASA                            :COMPANY
FLD                     .            Volve                                  :FIELD
WELL                    .            15/9-F-1 C                             :WELL
RUN                     .            4                                      :RUN
LOC                     .                                                   :LOCATION
PROV                    .            na                                     :PROVINCE
SRVC                    .            Baker Hughes INTEQ                     :SERVICE COMPANY
DATE                    .YY/MM/DD    14/03/15                               :LOG DATE
UWI                     .                                                   :UNIQUE WELL ID
DEPTHMD                 .m           3523.2                                 :MEASURED DEPTH
DEPTHTVD                .m           2986.7                                 :TRUE VERTICAL DEPTH


~CURVE INFORMATION
#MNEM                   .UNIT        API CODES                               DESCRIPTION
#________________________________________________________________________________________
TIME                    .s                                                  :01 TIME
DD_PRESS                .bar                                                :02 DRAW DOWN PRESSURE
DD_VOLUME               .cm3                                                :03 INCREMENTAL DRAW DOWN VOLUME
TEMP                    .degC                                               :04 TRANSDUCER TEMPERATURE
DD_PRESS_MOD_1000       .bar                                                :05 DRAW DOWN PRESSURE MOD 1000
DD_PRESS_MOD_100        .bar                                                :06 DRAW DOWN PRESSURE MOD 100
DD_PRESS_MOD_10         .bar                                                :07 DRAW DOWN PRESSURE MOD 10
DD_PRESS_MOD_1          .bar                                                :08 DRAW DOWN PRESSURE MOD 1
DD_PRESS_MOD_01         .bar                                                :09 DRAW DOWN PRESSURE MOD 01
DD_PRESS_MOD_001        .bar                                                :10 DRAW DOWN PRESSURE MOD 001
DD_PRESS_MOD_0001       .bar                                                :11 DRAW DOWN PRESSURE MOD 0001


~PARAMETER INFORMATION
#MNEM                   .UNIT        VALUE                                   DESCRIPTION
#________________________________________________________________________________________
TOOLFACE                .deg         104.9                                  :01 TOOLFACE
PUMP_CAPACITY           .bar         400                                    :02 NOMINAL DRAW DOWN PUMP CAPACITY
PUMP_LIMIT              .bar         240                                    :03 DOWNLINK PUMP LIMIT
TIME_LIMIT              .min         10                                     :04 DOWNLINK MAX TIME
TEST_TYPE               .            REPEAT                                 :05 DOWNLINK
TEST_TYPE               .            HIGH MOBILITY                          :06 DOWNLINK
DD_PIST_A               .cm2         3.1416                                 :07 DRAW DOWN PISTON AREA
V_SYS                   .cm3         131.0000                               :08 SYSTEM VOLUME
PROBE_ID                .cm          1.2700                                 :09 TTK PROBE ID
G0                      .            4.6700                                 :10 GEOMETRY FACTOR


~A                  TIME     DD_PRESS                              DD_VOLUME               TEMP                                   DD_PRESS_MOD_1000       DD_PRESS_MOD_100        DD_PRESS_MOD_10         DD_PRESS_MOD_1        DD_PRESS_MOD_01       DD_PRESS_MOD_001      DD_PRESS_MOD_0001
# ...
                  130.90    340.98878                               29.43937             84.477                                        3.40989e+002           4.09888e+001           9.88777e-001           9.88777e-001           8.87773e-002           8.77732e-003           7.77318e-004
                  131.00    340.98120                               29.43937             84.477                                        3.40981e+002           4.09812e+001           9.81201e-001           9.81201e-001           8.12013e-002           1.20130e-003           2.01295e-004
                  131.10    340.98774                               29.43937             84.477                                        3.40988e+002           4.09877e+001           9.87739e-001           9.87739e-001           8.77387e-002           7.73874e-003           7.38744e-004
                  131.20    340.99372                               29.43937             84.477                                        3.40994e+002           4.09937e+001           9.93717e-001           9.93717e-001           9.37169e-002           3.71693e-003           7.16930e-004
                  131.30    340.98779                               29.43937             84.477                                        3.40988e+002           4.09878e+001           9.87789e-001           9.87789e-001           8.77894e-002           7.78941e-003           7.89405e-004
                  131.40    340.97967                               29.43937             84.477                                        3.40980e+002           4.09797e+001           9.79673e-001           9.79673e-001           7.96725e-002           9.67254e-003           6.72544e-004
                  131.50    340.98275                               29.43937             84.477                                        3.40983e+002           4.09827e+001           9.82748e-001           9.82748e-001           8.27479e-002           2.74786e-003           7.47855e-004
                  131.60    340.98907                               29.43937             84.477                                        3.40989e+002           4.09891e+001           9.89069e-001           9.89069e-001           8.90689e-002           9.06891e-003           6.89061e-005
                  131.70    340.99021                               29.43937             84.477                                        3.40990e+002           4.09902e+001           9.90210e-001           9.90210e-001           9.02097e-002           2.09697e-004           2.09697e-004
                  131.80    340.98188                               29.43937             84.477                                        3.40982e+002           4.09819e+001           9.81877e-001           9.81877e-001           8.18770e-002           1.87702e-003           8.77016e-004
                  131.90    340.97586                               29.43937             84.477                                        3.40976e+002           4.09759e+001           9.75859e-001           9.75859e-001           7.58587e-002           5.85873e-003           8.58735e-004
                  132.00    340.98314                               29.43937             84.477                                        3.40983e+002           4.09831e+001           9.83145e-001           9.83145e-001           8.31449e-002           3.14489e-003           1.44895e-004
                  132.10    340.98824                               29.43937             84.477                                        3.40988e+002           4.09882e+001           9.88243e-001           9.88243e-001           8.82431e-002           8.24313e-003           2.43127e-004
                  132.20    340.98321                               29.43937             84.477                                        3.40983e+002           4.09832e+001           9.83214e-001           9.83214e-001           8.32144e-002           3.21444e-003           2.14436e-004
                  132.30    340.98340                               29.43937             84.477                                        3.40983e+002           4.09834e+001           9.83398e-001           9.83398e-001           8.33977e-002           3.39766e-003           3.97660e-004
                  132.40    340.99052                               29.43937             84.477                                        3.40991e+002           4.09905e+001           9.90520e-001           9.90520e-001           9.05200e-002           5.19991e-004           5.19991e-004
                  132.50    340.98746                               29.43937             84.477                                        3.40987e+002           4.09875e+001           9.87465e-001           9.87465e-001           8.74649e-002           7.46487e-003           4.64869e-004
                  132.60    340.97909                               29.43937             84.477                                        3.40979e+002           4.09791e+001           9.79093e-001           9.79093e-001           7.90929e-002           9.09286e-003           9.28576e-005
                  132.70    340.98208                               29.43937             84.477                                        3.40982e+002           4.09821e+001           9.82077e-001           9.82077e-001           8.20770e-002           2.07697e-003           7.69666e-005
                  132.80    340.98912                               29.43937             84.477                                        3.40989e+002           4.09891e+001           9.89116e-001           9.89116e-001           8.91163e-002           9.11626e-003           1.16262e-004
                  132.90    340.98809                               29.43937             84.477                                        3.40988e+002           4.09881e+001           9.88094e-001           9.88094e-001           8.80939e-002           8.09393e-003           9.39326e-005
                  133.00    340.98202                               29.43937             84.477                                        3.40982e+002           4.09820e+001           9.82020e-001           9.82020e-001           8.20201e-002           2.02011e-003           2.01097e-005
                  133.10    340.98270                               29.43937             84.477                                        3.40983e+002           4.09827e+001           9.82697e-001           9.82697e-001           8.26972e-002           2.69724e-003           6.97245e-004
                  133.20    340.98904                               29.43937             84.477                                        3.40989e+002           4.09890e+001           9.89036e-001           9.89036e-001           8.90360e-002           9.03600e-003           3.60009e-005
                  133.30    340.98920                               29.43937             84.477                                        3.40989e+002           4.09892e+001           9.89205e-001           9.89205e-001           8.92049e-002           9.20489e-003           2.04888e-004
                  133.40    340.98414                               29.43937             84.477                                        3.40984e+002           4.09841e+001           9.84145e-001           9.84145e-001           8.41450e-002           4.14497e-003           1.44973e-004
                  133.50    340.98401                               29.43937             84.477                                        3.40984e+002           4.09840e+001           9.84009e-001           9.84009e-001           8.40091e-002           4.00911e-003           9.11055e-006
                  133.60    340.98411                               29.43937             84.477                                        3.40984e+002           4.09841e+001           9.84114e-001           9.84114e-001           8.41138e-002           4.11383e-003           1.13829e-004
