~VERSION INFORMATION
VERS                    .            2.0                                    :CWLS LOG ASCII STANDARD
WRAP                    .            NO                                     :ONE LINE PER TIME STEP


~WELL INFORMATION
#MNEM                   .UNIT        DATA                                    DESCRIPTION
#________________________________________________________________________________________
STRTTIME                .HH/MM/SS    14:50:05                               :START TIME
STOPTIME                .HH/MM/SS    14:53:18                               :STOP TIME
STRT                    .s           2.10                                   :START DATA
STOP                    .s           191.60                                 :STOP DATA
STEP                    .s           0.10                                   :MEASUREMENT TIME INTERVAL
NULL                    .            -999.25                                :NULL VALUE
COMP                    .            Statoil ASA                            :COMPANY
FLD                     .            Volve                                  :FIELD
WELL                    .            15/9-F-1 B                             :WELL
RUN                     .            7                                      :RUN
LOC                     .            Maersk Inspirer                        :LOCATION
PROV                    .            na                                     :PROVINCE
SRVC                    .            Baker Hughes INTEQ                     :SERVICE COMPANY
DATE                    .YY/MM/DD    13/09/06                               :LOG DATE
UWI                     .                                                   :UNIQUE WELL ID
DEPTHMD                 .m           3280.5                                 :MEASURED DEPTH
DEPTHTVD                .m           3076.1                                 :TRUE VERTICAL DEPTH


~CURVE INFORMATION
#MNEM                   .UNIT        API CODES                               DESCRIPTION
#________________________________________________________________________________________
TIME                    .s                                                  :01 TIME
DD_PRESS                .bar                                                :02 DRAW DOWN PRESSURE
DD_VOLUME               .cm3                                                :03 INCREMENTAL DRAW DOWN VOLUME
TEMP                    .degC                                               :04 TRANSDUCER TEMPERATURE
DD_PRESS_MOD_1000       .bar                                                :05 DRAW DOWN PRESSURE MOD 1000
DD_PRESS_MOD_100        .bar                                                :06 DRAW DOWN PRESSURE MOD 100
DD_PRESS_MOD_10         .bar                                                :07 DRAW DOWN PRESSURE MOD 10
DD_PRESS_MOD_1          .bar                                                :08 DRAW DOWN PRESSURE MOD 1
DD_PRESS_MOD_01         .bar                                                :09 DRAW DOWN PRESSURE MOD 01
DD_PRESS_MOD_001        .bar                                                :10 DRAW DOWN PRESSURE MOD 001
DD_PRESS_MOD_0001       .bar                                                :11 DRAW DOWN PRESSURE MOD 0001


~PARAMETER INFORMATION
#MNEM                   .UNIT        VALUE                                   DESCRIPTION
#________________________________________________________________________________________
TOOLFACE                .deg         na                                     :01 TOOLFACE
PUMP_CAPACITY           .bar         400                                    :02 NOMINAL DRAW DOWN PUMP CAPACITY
PUMP_LIMIT              .bar         400                                    :03 DOWNLINK PUMP LIMIT
TIME_LIMIT              .min         10                                     :04 DOWNLINK MAX TIME
TEST_TYPE               .            LOW MOBILITY                           :05 DOWNLINK
DD_PIST_A               .cm2         3.1416                                 :06 DRAW DOWN PISTON AREA
V_SYS                   .cm3         131.0000                               :07 SYSTEM VOLUME
PROBE_ID                .cm          1.2700                                 :08 TTK PROBE ID
G0                      .            4.6700                                 :09 GEOMETRY FACTOR


~A                  TIME     DD_PRESS                              DD_VOLUME               TEMP                                   DD_PRESS_MOD_1000       DD_PRESS_MOD_100        DD_PRESS_MOD_10         DD_PRESS_MOD_1        DD_PRESS_MOD_01       DD_PRESS_MOD_001      DD_PRESS_MOD_0001
# ...
                   63.70    347.58189                               10.93095             82.508                                        3.47582e+002           4.75819e+001           7.58189e+000           5.81891e-001           8.18907e-002           1.89068e-003           8.90681e-004
                   63.80    347.58951                               10.93095             82.508                                        3.47590e+002           4.75895e+001           7.58951e+000           5.89512e-001           8.95123e-002           9.51229e-003           5.12291e-004
                   63.90    347.58191                               10.93095             82.508                                        3.47582e+002           4.75819e+001           7.58191e+000           5.81912e-001           8.19118e-002           1.91184e-003           9.11841e-004
                   64.00    347.57866                               10.93095             82.508                                        3.47579e+002           4.75787e+001           7.57866e+000           5.78656e-001           7.86555e-002           8.65551e-003           6.55514e-004
                   64.10    347.58480                               10.93095             82.508                                        3.47585e+002           4.75848e+001           7.58480e+000           5.84800e-001           8.48000e-002           4.79999e-003           7.99989e-004
                   64.20    347.58658                               10.93095             82.508                                        3.47587e+002           4.75866e+001           7.58658e+000           5.86581e-001           8.65808e-002           6.58079e-003           5.80795e-004
                   64.30    347.57894                               10.93095             82.508                                        3.47579e+002           4.75789e+001           7.57894e+000           5.78940e-001           7.89399e-002           8.93994e-003           9.39943e-004
                   64.40    347.57594                               10.93095             82.508                                        3.47576e+002           4.75759e+001           7.57594e+000           5.75940e-001           7.59398e-002           5.93976e-003           9.39764e-004
                   64.50    347.58407                               10.93095             82.508                                        3.47584e+002           4.75841e+001           7.58407e+000           5.84071e-001           8.40713e-002           4.07134e-003           7.13431e-005
                   64.60    347.58477                               10.93095             82.508                                        3.47585e+002           4.75848e+001           7.58477e+000           5.84771e-001           8.47709e-002           4.77094e-003           7.70940e-004
                   64.70    347.58093                               10.93095             82.505                                        3.47581e+002           4.75809e+001           7.58093e+000           5.80926e-001           8.09262e-002           9.26247e-004           9.26247e-004
                   64.80    347.57877                               10.93095             82.502                                        3.47579e+002           4.75788e+001           7.57877e+000           5.78765e-001           7.87651e-002           8.76514e-003           7.65143e-004
                   64.90    347.58349                               10.93095             82.500                                        3.47583e+002           4.75835e+001           7.58349e+000           5.83492e-001           8.34916e-002           3.49157e-003           4.91568e-004
                   65.00    347.58783                               10.93095             82.500                                        3.47588e+002           4.75878e+001           7.58783e+000           5.87831e-001           8.78309e-002           7.83093e-003           8.30935e-004
                   65.10    347.58001                               10.93095             82.500                                        3.47580e+002           4.75800e+001           7.58001e+000           5.80007e-001           8.00068e-002           6.75893e-006           6.75893e-006
                   65.20    347.57771                               10.93095             82.500                                        3.47578e+002           4.75777e+001           7.57771e+000           5.77715e-001           7.77149e-002           7.71495e-003           7.14946e-004
                   65.30    347.58599                               10.93095             82.500                                        3.47586e+002           4.75860e+001           7.58599e+000           5.85987e-001           8.59873e-002           5.98733e-003           9.87330e-004
                   65.40    347.58644                               10.93095             82.500                                        3.47586e+002           4.75864e+001           7.58644e+000           5.86440e-001           8.64404e-002           6.44043e-003           4.40429e-004
                   65.50    347.58180                               10.93095             82.500                                        3.47582e+002           4.75818e+001           7.58180e+000           5.81805e-001           8.18045e-002           1.80454e-003           8.04541e-004
                   65.60    347.58269                               10.93095             82.500                                        3.47583e+002           4.75827e+001           7.58269e+000           5.82691e-001           8.26906e-002           2.69063e-003           6.90628e-004
                   65.70    347.58703                               10.93095             82.500                                        3.47587e+002           4.75870e+001           7.58703e+000           5.87028e-001           8.70285e-002           7.02846e-003           2.84574e-005
                   65.80    347.58195                               10.93095             82.500                                        3.47582e+002           4.75819e+001           7.58195e+000           5.81948e-001           8.19485e-002           1.94847e-003           9.48472e-004
                   65.90    347.57581                               10.93095             82.500                                        3.47576e+002           4.75758e+001           7.57581e+000           5.75813e-001           7.58130e-002           5.81304e-003           8.13036e-004
                   66.00    347.58199                               10.93095             82.500                                        3.47582e+002           4.75820e+001           7.58199e+000           5.81989e-001           8.19890e-002           1.98903e-003           9.89026e-004
                   66.10    347.59122                               10.93095             82.500                                        3.47591e+002           4.75912e+001           7.59122e+000           5.91221e-001           9.12209e-002           1.22091e-003           2.20906e-004
                   66.20    347.58716                               10.93095             82.500                                        3.47587e+002           4.75872e+001           7.58716e+000           5.87156e-001           8.71560e-002           7.15597e-003           1.55973e-004
                   66.30    347.57882                               10.93095             82.500                                        3.47579e+002           4.75788e+001           7.57882e+000           5.78820e-001           7.88195e-002           8.81953e-003           8.19526e-004
                   66.40    347.58009                               10.93095             82.500                                        3.47580e+002           4.75801e+001           7.58009e+000           5.80090e-001           8.00899e-002           8.99267e-005           8.99267e-005
