~VERSION INFORMATION
VERS                    .            2.0                                    :CWLS LOG ASCII STANDARD
WRAP                    .            NO                                     :ONE LINE PER TIME STEP


~WELL INFORMATION
#MNEM                   .UNIT        DATA                                    DESCRIPTION
#________________________________________________________________________________________
STRTTIME                .HH/MM/SS    13:32:32                               :START TIME
STOPTIME                .HH/MM/SS    13:36:23                               :STOP TIME
STRT                    .s           2.10                                   :START DATA
STOP                    .s           229.20                                 :STOP DATA
STEP                    .s           0.10                                   :MEASUREMENT TIME INTERVAL
NULL                    .            -999.25                                :NULL VALUE
COMP                    .            Statoil ASA                            :COMPANY
FLD                     .            Volve                                  :FIELD
WELL                    .            15/9-F-1 B                             :WELL
RUN                     .            7                                      :RUN
LOC                     .            Maersk Inspirer                        :LOCATION
PROV                    .            na                                     :PROVINCE
SRVC                    .            Baker Hughes INTEQ                     :SERVICE COMPANY
DATE                    .YY/MM/DD    13/09/06                               :LOG DATE
UWI                     .                                                   :UNIQUE WELL ID
DEPTHMD                 .m           3301.5                                 :MEASURED DEPTH
DEPTHTVD                .m           3096.9                                 :TRUE VERTICAL DEPTH


~CURVE INFORMATION
#MNEM                   .UNIT        API CODES                               DESCRIPTION
#________________________________________________________________________________________
TIME                    .s                                                  :01 TIME
DD_PRESS                .bar                                                :02 DRAW DOWN PRESSURE
DD_VOLUME               .cm3                                                :03 INCREMENTAL DRAW DOWN VOLUME
TEMP                    .degC                                               :04 TRANSDUCER TEMPERATURE
DD_PRESS_MOD_1000       .bar                                                :05 DRAW DOWN PRESSURE MOD 1000
DD_PRESS_MOD_100        .bar                                                :06 DRAW DOWN PRESSURE MOD 100
DD_PRESS_MOD_10         .bar                                                :07 DRAW DOWN PRESSURE MOD 10
DD_PRESS_MOD_1          .bar                                                :08 DRAW DOWN PRESSURE MOD 1
DD_PRESS_MOD_01         .bar                                                :09 DRAW DOWN PRESSURE MOD 01
DD_PRESS_MOD_001        .bar                                                :10 DRAW DOWN PRESSURE MOD 001
DD_PRESS_MOD_0001       .bar                                                :11 DRAW DOWN PRESSURE MOD 0001


~PARAMETER INFORMATION
#MNEM                   .UNIT        VALUE                                   DESCRIPTION
#________________________________________________________________________________________
TOOLFACE                .deg         na                                     :01 TOOLFACE
PUMP_CAPACITY           .bar         400                                    :02 NOMINAL DRAW DOWN PUMP CAPACITY
PUMP_LIMIT              .bar         400                                    :03 DOWNLINK PUMP LIMIT
TIME_LIMIT              .min         10                                     :04 DOWNLINK MAX TIME
TEST_TYPE               .            LOW MOBILITY                           :05 DOWNLINK
DD_PIST_A               .cm2         3.1416                                 :06 DRAW DOWN PISTON AREA
V_SYS                   .cm3         131.0000                               :07 SYSTEM VOLUME
PROBE_ID                .cm          1.2700                                 :08 TTK PROBE ID
G0                      .            4.6700                                 :09 GEOMETRY FACTOR


~A                  TIME     DD_PRESS                              DD_VOLUME               TEMP                                   DD_PRESS_MOD_1000       DD_PRESS_MOD_100        DD_PRESS_MOD_10         DD_PRESS_MOD_1        DD_PRESS_MOD_01       DD_PRESS_MOD_001      DD_PRESS_MOD_0001
# ...
                  136.50    349.40326                               14.61724             85.352                                        3.49403e+002           4.94033e+001           9.40326e+000           4.03260e-001           3.26007e-003           3.26007e-003           2.60075e-004
                  136.60    349.40567                               14.61724             85.352                                        3.49406e+002           4.94057e+001           9.40567e+000           4.05666e-001           5.66594e-003           5.66594e-003           6.65938e-004
                  136.70    349.38873                               14.61724             85.352                                        3.49389e+002           4.93887e+001           9.38873e+000           3.88728e-001           8.87280e-002           8.72798e-003           7.27979e-004
                  136.80    349.39782                               14.61724             85.352                                        3.49398e+002           4.93978e+001           9.39782e+000           3.97818e-001           9.78184e-002           7.81842e-003           8.18422e-004
                  136.90    349.42785                               14.61724             85.352                                        3.49428e+002           4.94278e+001           9.42785e+000           4.27846e-001           2.78461e-002           7.84612e-003           8.46116e-004
                  137.00    349.41536                               14.61724             85.352                                        3.49415e+002           4.94154e+001           9.41536e+000           4.15359e-001           1.53591e-002           5.35907e-003           3.59074e-004
                  137.10    349.40623                               14.61724             85.352                                        3.49406e+002           4.94062e+001           9.40623e+000           4.06231e-001           6.23105e-003           6.23105e-003           2.31053e-004
                  137.20    349.42339                               14.61724             85.352                                        3.49423e+002           4.94234e+001           9.42339e+000           4.23386e-001           2.33863e-002           3.38626e-003           3.86256e-004
                  137.30    349.42018                               14.61724             85.352                                        3.49420e+002           4.94202e+001           9.42018e+000           4.20182e-001           2.01816e-002           1.81649e-004           1.81649e-004
                  137.40    349.40112                               14.61724             85.352                                        3.49401e+002           4.94011e+001           9.40112e+000           4.01116e-001           1.11624e-003           1.11624e-003           1.16239e-004
                  137.50    349.41899                               14.61724             85.352                                        3.49419e+002           4.94190e+001           9.41899e+000           4.18988e-001           1.89883e-002           8.98832e-003           9.88316e-004
                  137.60    349.44795                               14.61724             85.352                                        3.49448e+002           4.94480e+001           9.44795e+000           4.47952e-001           4.79523e-002           7.95228e-003           9.52281e-004
                  137.70    349.43210                               14.61724             85.352                                        3.49432e+002           4.94321e+001           9.43210e+000           4.32102e-001           3.21020e-002           2.10200e-003           1.01999e-004
                  137.80    349.41209                               14.61724             85.349                                        3.49412e+002           4.94121e+001           9.41209e+000           4.12092e-001           1.20924e-002           2.09242e-003           9.24161e-005
                  137.90    349.41709                               14.61724             85.346                                        3.49417e+002           4.94171e+001           9.41709e+000           4.17090e-001           1.70897e-002           7.08968e-003           8.96787e-005
                  138.00    349.41004                               14.61724             85.344                                        3.49410e+002           4.94100e+001           9.41004e+000           4.10037e-001           1.00373e-002           3.73247e-005           3.73247e-005
                  138.10    349.39947                               14.61724             85.344                                        3.49399e+002           4.93995e+001           9.39947e+000           3.99473e-001           9.94730e-002           9.47298e-003           4.72979e-004
                  138.20    349.42004                               14.61724             85.344                                        3.49420e+002           4.94200e+001           9.42004e+000           4.20040e-001           2.00402e-002           4.02184e-005           4.02184e-005
                  138.30    349.43208                               14.61724             85.344                                        3.49432e+002           4.94321e+001           9.43208e+000           4.32078e-001           3.20776e-002           2.07760e-003           7.75980e-005
                  138.40    349.41072                               14.61724             85.344                                        3.49411e+002           4.94107e+001           9.41072e+000           4.10719e-001           1.07187e-002           7.18729e-004           7.18729e-004
                  138.50    349.38085                               14.61724             85.344                                        3.49381e+002           4.93809e+001           9.38085e+000           3.80850e-001           8.08503e-002           8.50269e-004           8.50269e-004
                  138.60    349.38358                               14.61724             85.344                                        3.49384e+002           4.93836e+001           9.38358e+000           3.83577e-001           8.35766e-002           3.57660e-003           5.76596e-004
                  138.70    349.41338                               14.61724             85.344                                        3.49413e+002           4.94134e+001           9.41338e+000           4.13383e-001           1.33834e-002           3.38340e-003           3.83400e-004
                  138.80    349.41535                               14.61724             85.344                                        3.49415e+002           4.94153e+001           9.41535e+000           4.15348e-001           1.53479e-002           5.34787e-003           3.47868e-004
                  138.90    349.41311                               14.61724             85.344                                        3.49413e+002           4.94131e+001           9.41311e+000           4.13109e-001           1.31088e-002           3.10879e-003           1.08792e-004
                  139.00    349.41790                               14.61724             85.344                                        3.49418e+002           4.94179e+001           9.41790e+000           4.17903e-001           1.79031e-002           7.90307e-003           9.03070e-004
                  139.10    349.40865                               14.61724             85.344                                        3.49409e+002           4.94086e+001           9.40865e+000           4.08647e-001           8.64670e-003           8.64670e-003           6.46705e-004
                  139.20    349.39302                               14.61724             85.344                                        3.49393e+002           4.93930e+001           9.39302e+000           3.93024e-001           9.30243e-002           3.02430e-003           2.43045e-005
