~VERSION INFORMATION
VERS                    .            2.0                                    :CWLS LOG ASCII STANDARD
WRAP                    .            NO                                     :ONE LINE PER TIME STEP


~WELL INFORMATION
#MNEM                   .UNIT        DATA                                    DESCRIPTION
#________________________________________________________________________________________
STRTTIME                .HH/MM/SS    11:07:04                               :START TIME
STOPTIME                .HH/MM/SS    11:10:49                               :STOP TIME
STRT                    .s           2.10                                   :START DATA
STOP                    .s           223.10                                 :STOP DATA
STEP                    .s           0.10                                   :MEASUREMENT TIME INTERVAL
NULL                    .            -999.25                                :NULL VALUE
COMP                    .            Statoil ASA                            :COMPANY
FLD                     .            Volve                                  :FIELD
WELL                    .            15/9-F-11 A                            :WELL
RUN                     .            8                                      :RUN
LOC                     .            Maersk Inspirer                        :LOCATION
PROV                    .            na                                     :PROVINCE
SRVC                    .            Baker Hughes INTEQ                     :SERVICE COMPANY
DATE                    .YY/MM/DD    13/05/21                               :LOG DATE
UWI                     .                                                   :UNIQUE WELL ID
DEPTHMD                 .m           3632.0                                 :MEASURED DEPTH
DEPTHTVD                .m           3026.9                                 :TRUE VERTICAL DEPTH


~CURVE INFORMATION
#MNEM                   .UNIT        API CODES                               DESCRIPTION
#________________________________________________________________________________________
TIME                    .s                                                  :01 TIME
DD_PRESS                .bar                                                :02 DRAW DOWN PRESSURE
DD_VOLUME               .cm3                                                :03 INCREMENTAL DRAW DOWN VOLUME
TEMP                    .degC                                               :04 TRANSDUCER TEMPERATURE
DD_PRESS_MOD_1000       .bar                                                :05 DRAW DOWN PRESSURE MOD 1000
DD_PRESS_MOD_100        .bar                                                :06 DRAW DOWN PRESSURE MOD 100
DD_PRESS_MOD_10         .bar                                                :07 DRAW DOWN PRESSURE MOD 10
DD_PRESS_MOD_1          .bar                                                :08 DRAW DOWN PRESSURE MOD 1
DD_PRESS_MOD_01         .bar                                                :09 DRAW DOWN PRESSURE MOD 01
DD_PRESS_MOD_001        .bar                                                :10 DRAW DOWN PRESSURE MOD 001
DD_PRESS_MOD_0001       .bar                                                :11 DRAW DOWN PRESSURE MOD 0001


~PARAMETER INFORMATION
#MNEM                   .UNIT        VALUE                                   DESCRIPTION
#________________________________________________________________________________________
TOOLFACE                .deg         66.7                                   :01 TOOLFACE
PUMP_CAPACITY           .bar         400                                    :02 NOMINAL DRAW DOWN PUMP CAPACITY
PUMP_LIMIT              .bar         240                                    :03 DOWNLINK PUMP LIMIT
TIME_LIMIT              .min         10                                     :04 DOWNLINK MAX TIME
TEST_TYPE               .            REPEAT                                 :05 DOWNLINK
TEST_TYPE               .            HIGH MOBILITY                          :06 DOWNLINK
DD_PIST_A               .cm2         3.1416                                 :07 DRAW DOWN PISTON AREA
V_SYS                   .cm3         131.0000                               :08 SYSTEM VOLUME
PROBE_ID                .cm          1.2700                                 :09 TTK PROBE ID
G0                      .            4.6700                                 :10 GEOMETRY FACTOR


~A                  TIME     DD_PRESS                              DD_VOLUME               TEMP                                   DD_PRESS_MOD_1000       DD_PRESS_MOD_100        DD_PRESS_MOD_10         DD_PRESS_MOD_1        DD_PRESS_MOD_01       DD_PRESS_MOD_001      DD_PRESS_MOD_0001
# ...
                  161.70    340.69737                               14.97769             80.594                                        3.40697e+002           4.06974e+001           6.97373e-001           6.97373e-001           9.73730e-002           7.37305e-003           3.73047e-004
                  161.80    340.89237                               14.97769             80.594                                        3.40892e+002           4.08924e+001           8.92368e-001           8.92368e-001           9.23680e-002           2.36801e-003           3.68008e-004
                  161.90    341.06992                               14.97769             80.594                                        3.41070e+002           4.10699e+001           1.06992e+000           6.99201e-002           6.99201e-002           9.92010e-003           9.20100e-004
                  162.00    341.22823                               14.97769             80.594                                        3.41228e+002           4.12282e+001           1.22823e+000           2.28229e-001           2.82293e-002           8.22927e-003           2.29274e-004
                  162.10    341.36966                               14.97769             80.594                                        3.41370e+002           4.13697e+001           1.36966e+000           3.69660e-001           6.96598e-002           9.65981e-003           6.59815e-004
                  162.20    341.49687                               14.97769             80.594                                        3.41497e+002           4.14969e+001           1.49687e+000           4.96870e-001           9.68702e-002           6.87020e-003           8.70201e-004
                  162.30    341.61223                               14.97769             80.594                                        3.41612e+002           4.16122e+001           1.61223e+000           6.12234e-001           1.22339e-002           2.23386e-003           2.33855e-004
                  162.40    341.71872                               14.97769             80.594                                        3.41719e+002           4.17187e+001           1.71872e+000           7.18723e-001           1.87229e-002           8.72292e-003           7.22921e-004
                  162.50    341.80770                               14.97769             80.594                                        3.41808e+002           4.18077e+001           1.80770e+000           8.07702e-001           7.70239e-003           7.70239e-003           7.02390e-004
                  162.60    341.88932                               14.97769             80.594                                        3.41889e+002           4.18893e+001           1.88932e+000           8.89317e-001           8.93166e-002           9.31661e-003           3.16614e-004
                  162.70    341.96829                               14.97769             80.594                                        3.41968e+002           4.19683e+001           1.96829e+000           9.68293e-001           6.82926e-002           8.29256e-003           2.92556e-004
                  162.80    342.03478                               14.97769             80.594                                        3.42035e+002           4.20348e+001           2.03478e+000           3.47754e-002           3.47754e-002           4.77535e-003           7.75351e-004
                  162.90    342.08209                               14.97769             80.594                                        3.42082e+002           4.20821e+001           2.08209e+000           8.20882e-002           8.20882e-002           2.08815e-003           8.81542e-005
                  163.00    342.13353                               14.97769             80.594                                        3.42134e+002           4.21335e+001           2.13353e+000           1.33527e-001           3.35272e-002           3.52724e-003           5.27236e-004
                  163.10    342.19931                               14.97769             80.594                                        3.42199e+002           4.21993e+001           2.19931e+000           1.99309e-001           9.93086e-002           9.30857e-003           3.08566e-004
                  163.20    342.24891                               14.97769             80.594                                        3.42249e+002           4.22489e+001           2.24891e+000           2.48913e-001           4.89135e-002           8.91347e-003           9.13466e-004
                  163.30    342.27878                               14.97769             80.594                                        3.42279e+002           4.22788e+001           2.27878e+000           2.78781e-001           7.87812e-002           8.78119e-003           7.81193e-004
                  163.40    342.31685                               14.97769             80.594                                        3.42317e+002           4.23168e+001           2.31685e+000           3.16848e-001           1.68482e-002           6.84824e-003           8.48238e-004
                  163.50    342.35763                               14.97769             80.594                                        3.42358e+002           4.23576e+001           2.35763e+000           3.57628e-001           5.76279e-002           7.62787e-003           6.27870e-004
                  163.60    342.38196                               14.97769             80.594                                        3.42382e+002           4.23820e+001           2.38196e+000           3.81962e-001           8.19620e-002           1.96202e-003           9.62019e-004
                  163.70    342.40156                               14.97769             80.594                                        3.42402e+002           4.24016e+001           2.40156e+000           4.01559e-001           1.55896e-003           1.55896e-003           5.58960e-004
                  163.80    342.42900                               14.97769             80.594                                        3.42429e+002           4.24290e+001           2.42900e+000           4.29002e-001           2.90018e-002           9.00183e-003           1.83019e-006
                  163.90    342.45600                               14.97769             80.594                                        3.42456e+002           4.24560e+001           2.45600e+000           4.55998e-001           5.59977e-002           5.99767e-003           9.97670e-004
                  164.00    342.47395                               14.97769             80.594                                        3.42474e+002           4.24740e+001           2.47395e+000           4.73955e-001           7.39547e-002           3.95473e-003           9.54730e-004
                  164.10    342.49405                               14.97769             80.594                                        3.42494e+002           4.24940e+001           2.49405e+000           4.94048e-001           9.40481e-002           4.04814e-003           4.81371e-005
                  164.20    342.52271                               14.97769             80.594                                        3.42523e+002           4.25227e+001           2.52271e+000           5.22712e-001           2.27121e-002           2.71210e-003           7.12098e-004
                  164.30    342.54657                               14.97769             80.594                                        3.42547e+002           4.25466e+001           2.54657e+000           5.46569e-001           4.65688e-002           6.56875e-003           5.68752e-004
                  164.40    342.55749                               14.97769             80.594                                        3.42557e+002           4.25575e+001           2.55749e+000           5.57489e-001           5.74890e-002           7.48903e-003           4.89033e-004
