~VERSION INFORMATION
VERS                    .            2.0                                    :CWLS LOG ASCII STANDARD
WRAP                    .            NO                                     :ONE LINE PER TIME STEP


~WELL INFORMATION
#MNEM                   .UNIT        DATA                                    DESCRIPTION
#________________________________________________________________________________________
STRTTIME                .HH/MM/SS    18:50:18                               :START TIME
STOPTIME                .HH/MM/SS    18:53:14                               :STOP TIME
STRT                    .s           2.10                                   :START DATA
STOP                    .s           174.80                                 :STOP DATA
STEP                    .s           0.10                                   :MEASUREMENT TIME INTERVAL
NULL                    .            -999.25                                :NULL VALUE
COMP                    .            Statoil ASA                            :COMPANY
FLD                     .            Volve                                  :FIELD
WELL                    .            15/9-F-11 A                            :WELL
RUN                     .            8                                      :RUN
LOC                     .            Maersk Inspirer                        :LOCATION
PROV                    .            na                                     :PROVINCE
SRVC                    .            Baker Hughes INTEQ                     :SERVICE COMPANY
DATE                    .YY/MM/DD    13/05/23                               :LOG DATE
UWI                     .                                                   :UNIQUE WELL ID
DEPTHMD                 .m           3651.0                                 :MEASURED DEPTH
DEPTHTVD                .m           3041.4                                 :TRUE VERTICAL DEPTH


~CURVE INFORMATION
#MNEM                   .UNIT        API CODES                               DESCRIPTION
#________________________________________________________________________________________
TIME                    .s                                                  :01 TIME
DD_PRESS                .bar                                                :02 DRAW DOWN PRESSURE
DD_VOLUME               .cm3                                                :03 INCREMENTAL DRAW DOWN VOLUME
TEMP                    .degC                                               :04 TRANSDUCER TEMPERATURE
DD_PRESS_MOD_1000       .bar                                                :05 DRAW DOWN PRESSURE MOD 1000
DD_PRESS_MOD_100        .bar                                                :06 DRAW DOWN PRESSURE MOD 100
DD_PRESS_MOD_10         .bar                                                :07 DRAW DOWN PRESSURE MOD 10
DD_PRESS_MOD_1          .bar                                                :08 DRAW DOWN PRESSURE MOD 1
DD_PRESS_MOD_01         .bar                                                :09 DRAW DOWN PRESSURE MOD 01
DD_PRESS_MOD_001        .bar                                                :10 DRAW DOWN PRESSURE MOD 001
DD_PRESS_MOD_0001       .bar                                                :11 DRAW DOWN PRESSURE MOD 0001


~PARAMETER INFORMATION
#MNEM                   .UNIT        VALUE                                   DESCRIPTION
#________________________________________________________________________________________
TOOLFACE                .deg         -39.7                                  :01 TOOLFACE
PUMP_CAPACITY           .bar         400                                    :02 NOMINAL DRAW DOWN PUMP CAPACITY
PUMP_LIMIT              .bar         240                                    :03 DOWNLINK PUMP LIMIT
TIME_LIMIT              .min         10                                     :04 DOWNLINK MAX TIME
TEST_TYPE               .            REPEAT                                 :05 DOWNLINK
TEST_TYPE               .            HIGH MOBILITY                          :06 DOWNLINK
DD_PIST_A               .cm2         3.1416                                 :07 DRAW DOWN PISTON AREA
V_SYS                   .cm3         131.0000                               :08 SYSTEM VOLUME
PROBE_ID                .cm          1.2700                                 :09 TTK PROBE ID
G0                      .            4.6700                                 :10 GEOMETRY FACTOR


~A                  TIME     DD_PRESS                              DD_VOLUME               TEMP                                   DD_PRESS_MOD_1000       DD_PRESS_MOD_100        DD_PRESS_MOD_10         DD_PRESS_MOD_1        DD_PRESS_MOD_01       DD_PRESS_MOD_001      DD_PRESS_MOD_0001
                    2.10    422.62886                                0.00000             73.578                                        4.22629e+002           2.26289e+001           2.62886e+000           6.28865e-001           2.88646e-002           8.86463e-003           8.64630e-004
                    2.20    422.68368                                0.00000             73.578                                        4.22684e+002           2.26837e+001           2.68368e+000           6.83678e-001           8.36784e-002           3.67842e-003           6.78418e-004
                    2.30    422.74447                                0.00000             73.578                                        4.22744e+002           2.27445e+001           2.74447e+000           7.44468e-001           4.44684e-002           4.46842e-003           4.68418e-004
                    2.40    422.81503                                0.00000             73.578                                        4.22815e+002           2.28150e+001           2.81503e+000           8.15034e-001           1.50344e-002           5.03436e-003           3.43572e-005
                    2.50    422.86140                                0.00000             73.578                                        4.22861e+002           2.28614e+001           2.86140e+000           8.61404e-001           6.14039e-002           1.40387e-003           4.03868e-004
                    2.60    422.86095                                0.00000             73.578                                        4.22861e+002           2.28610e+001           2.86095e+000           8.60953e-001           6.09529e-002           9.52910e-004           9.52910e-004
                    2.70    422.84933                                0.00000             73.578                                        4.22849e+002           2.28493e+001           2.84933e+000           8.49326e-001           4.93262e-002           9.32623e-003           3.26229e-004
                    2.80    422.82181                                0.00000             73.578                                        4.22822e+002           2.28218e+001           2.82181e+000           8.21807e-001           2.18069e-002           1.80692e-003           8.06916e-004
                    2.90    422.77820                                0.00000             73.578                                        4.22778e+002           2.27782e+001           2.77820e+000           7.78198e-001           7.81984e-002           8.19844e-003           1.98438e-004
                    3.00    422.72640                                0.00000             73.578                                        4.22726e+002           2.27264e+001           2.72640e+000           7.26397e-001           2.63967e-002           6.39667e-003           3.96670e-004
                    3.10    422.69781                                0.00000             73.578                                        4.22698e+002           2.26978e+001           2.69781e+000           6.97814e-001           9.78143e-002           7.81432e-003           8.14319e-004
                    3.20    422.70600                                0.00000             73.578                                        4.22706e+002           2.27060e+001           2.70600e+000           7.06003e-001           6.00302e-003           6.00302e-003           3.02402e-006
                    3.30    422.71683                                0.00000             73.578                                        4.22717e+002           2.27168e+001           2.71683e+000           7.16826e-001           1.68261e-002           6.82614e-003           8.26137e-004
                    3.40    422.72700                                0.00000             73.578                                        4.22727e+002           2.27270e+001           2.72700e+000           7.26996e-001           2.69962e-002           6.99619e-003           9.96194e-004
                    3.50    422.74376                                0.00000             73.578                                        4.22744e+002           2.27438e+001           2.74376e+000           7.43761e-001           4.37610e-002           3.76095e-003           7.60952e-004
                    3.60    422.78761                                0.00000             73.578                                        4.22788e+002           2.27876e+001           2.78761e+000           7.87607e-001           8.76068e-002           7.60682e-003           6.06818e-004
                    3.70    422.82198                                0.00000             73.578                                        4.22822e+002           2.28220e+001           2.82198e+000           8.21978e-001           2.19779e-002           1.97790e-003           9.77903e-004
                    3.80    422.85478                                0.00000             73.578                                        4.22855e+002           2.28548e+001           2.85478e+000           8.54781e-001           5.47813e-002           4.78129e-003           7.81290e-004
                    3.90    422.91856                                0.00000             73.576                                        4.22919e+002           2.29186e+001           2.91856e+000           9.18559e-001           1.85585e-002           8.55854e-003           5.58542e-004
                    4.00    422.98619                                0.00000             73.572                                        4.22986e+002           2.29862e+001           2.98619e+000           9.86188e-001           8.61878e-002           6.18778e-003           1.87775e-004
                    4.10    423.00037                                0.00000             73.570                                        4.23000e+002           2.30004e+001           3.00037e+000           3.67248e-004           3.67248e-004           3.67248e-004           3.67248e-004
                    4.20    422.97988                                0.00000             73.570                                        4.22980e+002           2.29799e+001           2.97988e+000           9.79879e-001           7.98793e-002           9.87929e-003           8.79286e-004
                    4.30    422.98202                                0.00000             73.570                                        4.22982e+002           2.29820e+001           2.98202e+000           9.82020e-001           8.20201e-002           2.02007e-003           2.00671e-005
                    4.40    422.95698                                0.00000             73.570                                        4.22957e+002           2.29570e+001           2.95698e+000           9.56979e-001           5.69789e-002           6.97894e-003           9.78940e-004
                    4.50    422.89403                                0.00000             73.570                                        4.22894e+002           2.28940e+001           2.89403e+000           8.94033e-001           9.40329e-002           4.03292e-003           3.29222e-005
                    4.60    422.81299                                0.00000             73.570                                        4.22813e+002           2.28130e+001           2.81299e+000           8.12990e-001           1.29903e-002           2.99027e-003           9.90269e-004
                    4.70    422.79473                                0.00000             73.570                                        4.22795e+002           2.27947e+001           2.79473e+000           7.94725e-001           9.47254e-002           4.72542e-003           7.25424e-004
                    4.80    422.77544                                0.00000             73.570                                        4.22775e+002           2.27754e+001           2.77544e+000           7.75444e-001           7.54443e-002           5.44432e-003           4.44321e-004
