~VERSION INFORMATION
VERS                    .            2.0                                    :CWLS LOG ASCII STANDARD
WRAP                    .            NO                                     :ONE LINE PER TIME STEP


~WELL INFORMATION
#MNEM                   .UNIT        DATA                                    DESCRIPTION
#________________________________________________________________________________________
STRTTIME                .HH/MM/SS    16:20:20                               :START TIME
STOPTIME                .HH/MM/SS    16:23:23                               :STOP TIME
STRT                    .s           2.10                                   :START DATA
STOP                    .s           182.00                                 :STOP DATA
STEP                    .s           0.10                                   :MEASUREMENT TIME INTERVAL
NULL                    .            -999.25                                :NULL VALUE
COMP                    .            Statoil ASA                            :COMPANY
FLD                     .            Volve                                  :FIELD
WELL                    .            15/9-F-1 B                             :WELL
RUN                     .            7                                      :RUN
LOC                     .            Maersk Inspirer                        :LOCATION
PROV                    .            na                                     :PROVINCE
SRVC                    .            Baker Hughes INTEQ                     :SERVICE COMPANY
DATE                    .YY/MM/DD    13/09/06                               :LOG DATE
UWI                     .                                                   :UNIQUE WELL ID
DEPTHMD                 .m           3255.0                                 :MEASURED DEPTH
DEPTHTVD                .m           3051.1                                 :TRUE VERTICAL DEPTH


~CURVE INFORMATION
#MNEM                   .UNIT        API CODES                               DESCRIPTION
#________________________________________________________________________________________
TIME                    .s                                                  :01 TIME
DD_PRESS                .bar                                                :02 DRAW DOWN PRESSURE
DD_VOLUME               .cm3                                                :03 INCREMENTAL DRAW DOWN VOLUME
TEMP                    .degC                                               :04 TRANSDUCER TEMPERATURE
DD_PRESS_MOD_1000       .bar                                                :05 DRAW DOWN PRESSURE MOD 1000
DD_PRESS_MOD_100        .bar                                                :06 DRAW DOWN PRESSURE MOD 100
DD_PRESS_MOD_10         .bar                                                :07 DRAW DOWN PRESSURE MOD 10
DD_PRESS_MOD_1          .bar                                                :08 DRAW DOWN PRESSURE MOD 1
DD_PRESS_MOD_01         .bar                                                :09 DRAW DOWN PRESSURE MOD 01
DD_PRESS_MOD_001        .bar                                                :10 DRAW DOWN PRESSURE MOD 001
DD_PRESS_MOD_0001       .bar                                                :11 DRAW DOWN PRESSURE MOD 0001


~PARAMETER INFORMATION
#MNEM                   .UNIT        VALUE                                   DESCRIPTION
#________________________________________________________________________________________
TOOLFACE                .deg         na                                     :01 TOOLFACE
PUMP_CAPACITY           .bar         400                                    :02 NOMINAL DRAW DOWN PUMP CAPACITY
PUMP_LIMIT              .bar         400                                    :03 DOWNLINK PUMP LIMIT
TIME_LIMIT              .min         10                                     :04 DOWNLINK MAX TIME
TEST_TYPE               .            LOW MOBILITY                           :05 DOWNLINK
DD_PIST_A               .cm2         3.1416                                 :06 DRAW DOWN PISTON AREA
V_SYS                   .cm3         131.0000                               :07 SYSTEM VOLUME
PROBE_ID                .cm          1.2700                                 :08 TTK PROBE ID
G0                      .            4.6700                                 :09 GEOMETRY FACTOR


~A                  TIME     DD_PRESS                              DD_VOLUME               TEMP                                   DD_PRESS_MOD_1000       DD_PRESS_MOD_100        DD_PRESS_MOD_10         DD_PRESS_MOD_1        DD_PRESS_MOD_01       DD_PRESS_MOD_001      DD_PRESS_MOD_0001
# ...
                  130.90    345.10179                               29.23054             81.742                                        3.45102e+002           4.51018e+001           5.10179e+000           1.01788e-001           1.78794e-003           1.78794e-003           7.87942e-004
                  131.00    345.10068                               29.23054             81.742                                        3.45101e+002           4.51007e+001           5.10068e+000           1.00676e-001           6.76452e-004           6.76452e-004           6.76452e-004
                  131.10    345.10775                               29.23054             81.742                                        3.45108e+002           4.51077e+001           5.10775e+000           1.07749e-001           7.74862e-003           7.74862e-003           7.48623e-004
                  131.20    345.11064                               29.23054             81.742                                        3.45111e+002           4.51106e+001           5.11064e+000           1.10639e-001           1.06385e-002           6.38538e-004           6.38538e-004
                  131.30    345.10672                               29.23054             81.742                                        3.45107e+002           4.51067e+001           5.10672e+000           1.06725e-001           6.72468e-003           6.72468e-003           7.24679e-004
                  131.40    345.10878                               29.23054             81.742                                        3.45109e+002           4.51088e+001           5.10878e+000           1.08776e-001           8.77605e-003           8.77605e-003           7.76054e-004
                  131.50    345.11670                               29.23054             81.742                                        3.45117e+002           4.51167e+001           5.11670e+000           1.16696e-001           1.66962e-002           6.69618e-003           6.96182e-004
                  131.60    345.11234                               29.23054             81.742                                        3.45112e+002           4.51123e+001           5.11234e+000           1.12337e-001           1.23367e-002           2.33675e-003           3.36749e-004
                  131.70    345.10108                               29.23054             81.742                                        3.45101e+002           4.51011e+001           5.10108e+000           1.01084e-001           1.08390e-003           1.08390e-003           8.38983e-005
                  131.80    345.10108                               29.23054             81.742                                        3.45101e+002           4.51011e+001           5.10108e+000           1.01084e-001           1.08425e-003           1.08425e-003           8.42543e-005
                  131.90    345.11099                               29.23054             81.742                                        3.45111e+002           4.51110e+001           5.11099e+000           1.10986e-001           1.09858e-002           9.85799e-004           9.85799e-004
                  132.00    345.11107                               29.23054             81.742                                        3.45111e+002           4.51111e+001           5.11107e+000           1.11074e-001           1.10735e-002           1.07352e-003           7.35174e-005
                  132.10    345.10167                               29.23054             81.742                                        3.45102e+002           4.51017e+001           5.10167e+000           1.01674e-001           1.67391e-003           1.67391e-003           6.73907e-004
                  132.20    345.11165                               29.23054             81.742                                        3.45112e+002           4.51116e+001           5.11165e+000           1.11646e-001           1.16459e-002           1.64590e-003           6.45900e-004
                  132.30    345.13020                               29.23054             81.742                                        3.45130e+002           4.51302e+001           5.13020e+000           1.30200e-001           3.01998e-002           1.99806e-004           1.99806e-004
                  132.40    345.12383                               29.23054             81.742                                        3.45124e+002           4.51238e+001           5.12383e+000           1.23833e-001           2.38327e-002           3.83272e-003           8.32719e-004
                  132.50    345.10797                               29.23054             81.742                                        3.45108e+002           4.51080e+001           5.10797e+000           1.07973e-001           7.97277e-003           7.97277e-003           9.72770e-004
                  132.60    345.11167                               29.23054             81.742                                        3.45112e+002           4.51117e+001           5.11167e+000           1.11673e-001           1.16732e-002           1.67323e-003           6.73233e-004
                  132.70    345.12420                               29.23054             81.742                                        3.45124e+002           4.51242e+001           5.12420e+000           1.24198e-001           2.41976e-002           4.19757e-003           1.97571e-004
                  132.80    345.12294                               29.23054             81.742                                        3.45123e+002           4.51229e+001           5.12294e+000           1.22942e-001           2.29415e-002           2.94153e-003           9.41528e-004
                  132.90    345.11278                               29.23054             81.742                                        3.45113e+002           4.51128e+001           5.11278e+000           1.12785e-001           1.27850e-002           2.78498e-003           7.84981e-004
                  133.00    345.11280                               29.23054             81.742                                        3.45113e+002           4.51128e+001           5.11280e+000           1.12795e-001           1.27953e-002           2.79531e-003           7.95305e-004
                  133.10    345.12162                               29.23054             81.742                                        3.45122e+002           4.51216e+001           5.12162e+000           1.21622e-001           2.16223e-002           1.62234e-003           6.22344e-004
                  133.20    345.11610                               29.23054             81.742                                        3.45116e+002           4.51161e+001           5.11610e+000           1.16103e-001           1.61033e-002           6.10329e-003           1.03286e-004
                  133.30    345.10483                               29.23054             81.742                                        3.45105e+002           4.51048e+001           5.10483e+000           1.04827e-001           4.82689e-003           4.82689e-003           8.26890e-004
                  133.40    345.11167                               29.23054             81.742                                        3.45112e+002           4.51117e+001           5.11167e+000           1.11666e-001           1.16656e-002           1.66562e-003           6.65624e-004
                  133.50    345.12220                               29.23054             81.742                                        3.45122e+002           4.51222e+001           5.12220e+000           1.22196e-001           2.21958e-002           2.19581e-003           1.95807e-004
                  133.60    345.11641                               29.23054             81.742                                        3.45116e+002           4.51164e+001           5.11641e+000           1.16414e-001           1.64145e-002           6.41446e-003           4.14455e-004
