~VERSION INFORMATION
VERS                    .            2.0                                    :CWLS LOG ASCII STANDARD
WRAP                    .            NO                                     :ONE LINE PER TIME STEP


~WELL INFORMATION
#MNEM                   .UNIT        DATA                                    DESCRIPTION
#________________________________________________________________________________________
STRTTIME                .HH/MM/SS    18:24:11                               :START TIME
STOPTIME                .HH/MM/SS    18:26:54                               :STOP TIME
STRT                    .s           2.10                                   :START DATA
STOP                    .s           161.30                                 :STOP DATA
STEP                    .s           0.10                                   :MEASUREMENT TIME INTERVAL
NULL                    .            -999.25                                :NULL VALUE
COMP                    .            Statoil ASA                            :COMPANY
FLD                     .            Volve                                  :FIELD
WELL                    .            15/9-F-11 A                            :WELL
RUN                     .            8                                      :RUN
LOC                     .            Maersk Inspirer                        :LOCATION
PROV                    .            na                                     :PROVINCE
SRVC                    .            Baker Hughes INTEQ                     :SERVICE COMPANY
DATE                    .YY/MM/DD    13/05/23                               :LOG DATE
UWI                     .                                                   :UNIQUE WELL ID
DEPTHMD                 .m           3681.0                                 :MEASURED DEPTH
DEPTHTVD                .m           3064.4                                 :TRUE VERTICAL DEPTH


~CURVE INFORMATION
#MNEM                   .UNIT        API CODES                               DESCRIPTION
#________________________________________________________________________________________
TIME                    .s                                                  :01 TIME
DD_PRESS                .bar                                                :02 DRAW DOWN PRESSURE
DD_VOLUME               .cm3                                                :03 INCREMENTAL DRAW DOWN VOLUME
TEMP                    .degC                                               :04 TRANSDUCER TEMPERATURE
DD_PRESS_MOD_1000       .bar                                                :05 DRAW DOWN PRESSURE MOD 1000
DD_PRESS_MOD_100        .bar                                                :06 DRAW DOWN PRESSURE MOD 100
DD_PRESS_MOD_10         .bar                                                :07 DRAW DOWN PRESSURE MOD 10
DD_PRESS_MOD_1          .bar                                                :08 DRAW DOWN PRESSURE MOD 1
DD_PRESS_MOD_01         .bar                                                :09 DRAW DOWN PRESSURE MOD 01
DD_PRESS_MOD_001        .bar                                                :10 DRAW DOWN PRESSURE MOD 001
DD_PRESS_MOD_0001       .bar                                                :11 DRAW DOWN PRESSURE MOD 0001


~PARAMETER INFORMATION
#MNEM                   .UNIT        VALUE                                   DESCRIPTION
#________________________________________________________________________________________
TOOLFACE                .deg         -38.1                                  :01 TOOLFACE
PUMP_CAPACITY           .bar         400                                    :02 NOMINAL DRAW DOWN PUMP CAPACITY
PUMP_LIMIT              .bar         240                                    :03 DOWNLINK PUMP LIMIT
TIME_LIMIT              .min         10                                     :04 DOWNLINK MAX TIME
TEST_TYPE               .            HIGH MOBILITY                          :05 DOWNLINK
DD_PIST_A               .cm2         3.1416                                 :06 DRAW DOWN PISTON AREA
V_SYS                   .cm3         131.0000                               :07 SYSTEM VOLUME
PROBE_ID                .cm          1.2700                                 :08 TTK PROBE ID
G0                      .            4.6700                                 :09 GEOMETRY FACTOR


~A                  TIME     DD_PRESS                              DD_VOLUME               TEMP                                   DD_PRESS_MOD_1000       DD_PRESS_MOD_100        DD_PRESS_MOD_10         DD_PRESS_MOD_1        DD_PRESS_MOD_01       DD_PRESS_MOD_001      DD_PRESS_MOD_0001
# ...
                   86.10    345.15703                               19.81606             75.148                                        3.45157e+002           4.51570e+001           5.15703e+000           1.57032e-001           5.70324e-002           7.03236e-003           3.23621e-005
                   86.20    345.15452                               19.81606             75.148                                        3.45155e+002           4.51545e+001           5.15452e+000           1.54518e-001           5.45182e-002           4.51822e-003           5.18217e-004
                   86.30    345.15404                               19.81606             75.148                                        3.45154e+002           4.51540e+001           5.15404e+000           1.54036e-001           5.40362e-002           4.03616e-003           3.61619e-005
                   86.40    345.16178                               19.81606             75.148                                        3.45162e+002           4.51618e+001           5.16178e+000           1.61784e-001           6.17844e-002           1.78437e-003           7.84375e-004
                   86.50    345.16240                               19.81606             75.148                                        3.45162e+002           4.51624e+001           5.16240e+000           1.62404e-001           6.24035e-002           2.40351e-003           4.03509e-004
                   86.60    345.15803                               19.81606             75.148                                        3.45158e+002           4.51580e+001           5.15803e+000           1.58035e-001           5.80347e-002           8.03474e-003           3.47362e-005
                   86.70    345.15703                               19.81606             75.148                                        3.45157e+002           4.51570e+001           5.15703e+000           1.57026e-001           5.70263e-002           7.02631e-003           2.63122e-005
                   86.80    345.16123                               19.81606             75.148                                        3.45161e+002           4.51612e+001           5.16123e+000           1.61229e-001           6.12289e-002           1.22891e-003           2.28912e-004
                   86.90    345.16206                               19.81606             75.148                                        3.45162e+002           4.51621e+001           5.16206e+000           1.62064e-001           6.20636e-002           2.06356e-003           6.35574e-005
                   87.00    345.15897                               19.81606             75.148                                        3.45159e+002           4.51590e+001           5.15897e+000           1.58969e-001           5.89690e-002           8.96902e-003           9.69015e-004
                   87.10    345.15299                               19.81606             75.148                                        3.45153e+002           4.51530e+001           5.15299e+000           1.52994e-001           5.29941e-002           2.99411e-003           9.94112e-004
                   87.20    345.15326                               19.81606             75.148                                        3.45153e+002           4.51533e+001           5.15326e+000           1.53265e-001           5.32649e-002           3.26493e-003           2.64930e-004
                   87.30    345.15795                               19.81606             75.148                                        3.45158e+002           4.51580e+001           5.15795e+000           1.57952e-001           5.79521e-002           7.95215e-003           9.52148e-004
                   87.40    345.16019                               19.81606             75.148                                        3.45160e+002           4.51602e+001           5.16019e+000           1.60194e-001           6.01935e-002           1.93545e-004           1.93545e-004
                   87.50    345.15987                               19.81606             75.148                                        3.45160e+002           4.51599e+001           5.15987e+000           1.59869e-001           5.98686e-002           9.86856e-003           8.68556e-004
                   87.60    345.15997                               19.81606             75.148                                        3.45160e+002           4.51600e+001           5.15997e+000           1.59973e-001           5.99735e-002           9.97348e-003           9.73483e-004
                   87.70    345.15786                               19.81606             75.148                                        3.45158e+002           4.51579e+001           5.15786e+000           1.57860e-001           5.78605e-002           7.86046e-003           8.60462e-004
                   87.80    345.15268                               19.81606             75.148                                        3.45153e+002           4.51527e+001           5.15268e+000           1.52682e-001           5.26825e-002           2.68246e-003           6.82459e-004
                   87.90    345.15730                               19.81606             75.148                                        3.45157e+002           4.51573e+001           5.15730e+000           1.57296e-001           5.72957e-002           7.29572e-003           2.95723e-004
                   88.00    345.15923                               19.81606             75.148                                        3.45159e+002           4.51592e+001           5.15923e+000           1.59230e-001           5.92297e-002           9.22967e-003           2.29673e-004
                   88.10    345.15562                               19.81606             75.148                                        3.45156e+002           4.51556e+001           5.15562e+000           1.55620e-001           5.56201e-002           5.62014e-003           6.20137e-004
                   88.20    345.15293                               19.81606             75.148                                        3.45153e+002           4.51529e+001           5.15293e+000           1.52935e-001           5.29347e-002           2.93473e-003           9.34734e-004
                   88.30    345.16236                               19.81606             75.148                                        3.45162e+002           4.51624e+001           5.16236e+000           1.62361e-001           6.23613e-002           2.36131e-003           3.61308e-004
                   88.40    345.16594                               19.81606             75.148                                        3.45166e+002           4.51659e+001           5.16594e+000           1.65935e-001           6.59353e-002           5.93531e-003           9.35310e-004
                   88.50    345.16250                               19.81606             75.148                                        3.45163e+002           4.51625e+001           5.16250e+000           1.62505e-001           6.25048e-002           2.50480e-003           5.04797e-004
                   88.60    345.15641                               19.81606             75.148                                        3.45156e+002           4.51564e+001           5.15641e+000           1.56406e-001           5.64057e-002           6.40566e-003           4.05663e-004
                   88.70    345.15384                               19.81606             75.148                                        3.45154e+002           4.51538e+001           5.15384e+000           1.53839e-001           5.38386e-002           3.83860e-003           8.38596e-004
                   88.80    345.15793                               19.81606             75.148                                        3.45158e+002           4.51579e+001           5.15793e+000           1.57931e-001           5.79310e-002           7.93102e-003           9.31019e-004
