~VERSION INFORMATION
VERS                    .            2.0                                    :CWLS LOG ASCII STANDARD
WRAP                    .            NO                                     :ONE LINE PER TIME STEP


~WELL INFORMATION
#MNEM                   .UNIT        DATA                                    DESCRIPTION
#________________________________________________________________________________________
STRTTIME                .HH/MM/SS    00:10:18                               :START TIME
STOPTIME                .HH/MM/SS    00:13:47                               :STOP TIME
STRT                    .s           2.10                                   :START DATA
STOP                    .s           207.40                                 :STOP DATA
STEP                    .s           0.10                                   :MEASUREMENT TIME INTERVAL
NULL                    .            -999.25                                :NULL VALUE
COMP                    .            Statoil ASA                            :COMPANY
FLD                     .            Volve                                  :FIELD
WELL                    .            15/9-F-1                               :WELL
RUN                     .            4                                      :RUN
LOC                     .            Maersk Inspirer                        :LOCATION
PROV                    .            na                                     :PROVINCE
SRVC                    .            Baker Hughes INTEQ                     :SERVICE COMPANY
DATE                    .YY/MM/DD    13/08/19                               :LOG DATE
UWI                     .                                                   :UNIQUE WELL ID
DEPTHMD                 .m           3332.4                                 :MEASURED DEPTH
DEPTHTVD                .m           3056.0                                 :TRUE VERTICAL DEPTH


~CURVE INFORMATION
#MNEM                   .UNIT        API CODES                               DESCRIPTION
#________________________________________________________________________________________
TIME                    .s                                                  :01 TIME
DD_PRESS                .bar                                                :02 DRAW DOWN PRESSURE
DD_VOLUME               .cm3                                                :03 INCREMENTAL DRAW DOWN VOLUME
TEMP                    .degC                                               :04 TRANSDUCER TEMPERATURE
DD_PRESS_MOD_1000       .bar                                                :05 DRAW DOWN PRESSURE MOD 1000
DD_PRESS_MOD_100        .bar                                                :06 DRAW DOWN PRESSURE MOD 100
DD_PRESS_MOD_10         .bar                                                :07 DRAW DOWN PRESSURE MOD 10
DD_PRESS_MOD_1          .bar                                                :08 DRAW DOWN PRESSURE MOD 1
DD_PRESS_MOD_01         .bar                                                :09 DRAW DOWN PRESSURE MOD 01
DD_PRESS_MOD_001        .bar                                                :10 DRAW DOWN PRESSURE MOD 001
DD_PRESS_MOD_0001       .bar                                                :11 DRAW DOWN PRESSURE MOD 0001


~PARAMETER INFORMATION
#MNEM                   .UNIT        VALUE                                   DESCRIPTION
#________________________________________________________________________________________
TOOLFACE                .deg         78.2                                   :01 TOOLFACE
PUMP_CAPACITY           .bar         400                                    :02 NOMINAL DRAW DOWN PUMP CAPACITY
PUMP_LIMIT              .bar         240                                    :03 DOWNLINK PUMP LIMIT
TIME_LIMIT              .min         10                                     :04 DOWNLINK MAX TIME
TEST_TYPE               .            LOW MOBILITY                           :05 DOWNLINK
DD_PIST_A               .cm2         3.1416                                 :06 DRAW DOWN PISTON AREA
V_SYS                   .cm3         131.0000                               :07 SYSTEM VOLUME
PROBE_ID                .cm          1.2700                                 :08 TTK PROBE ID
G0                      .            4.6700                                 :09 GEOMETRY FACTOR


~A                  TIME     DD_PRESS                              DD_VOLUME               TEMP                                   DD_PRESS_MOD_1000       DD_PRESS_MOD_100        DD_PRESS_MOD_10         DD_PRESS_MOD_1        DD_PRESS_MOD_01       DD_PRESS_MOD_001      DD_PRESS_MOD_0001
# ...
                  122.50    340.63333                               19.85276             74.719                                        3.40633e+002           4.06333e+001           6.33329e-001           6.33329e-001           3.33287e-002           3.32866e-003           3.28658e-004
                  122.60    340.62965                               19.85276             74.719                                        3.40630e+002           4.06296e+001           6.29645e-001           6.29645e-001           2.96452e-002           9.64517e-003           6.45171e-004
                  122.70    340.63100                               19.85276             74.719                                        3.40631e+002           4.06310e+001           6.30995e-001           6.30995e-001           3.09955e-002           9.95477e-004           9.95477e-004
                  122.80    340.63473                               19.85276             74.719                                        3.40635e+002           4.06347e+001           6.34730e-001           6.34730e-001           3.47298e-002           4.72976e-003           7.29756e-004
                  122.90    340.63918                               19.85276             74.719                                        3.40639e+002           4.06392e+001           6.39178e-001           6.39178e-001           3.91784e-002           9.17837e-003           1.78367e-004
                  123.00    340.64023                               19.85276             74.719                                        3.40640e+002           4.06402e+001           6.40234e-001           6.40234e-001           4.02342e-002           2.34204e-004           2.34204e-004
                  123.10    340.63979                               19.85276             74.719                                        3.40640e+002           4.06398e+001           6.39790e-001           6.39790e-001           3.97899e-002           9.78987e-003           7.89868e-004
                  123.20    340.63599                               19.85276             74.719                                        3.40636e+002           4.06360e+001           6.35986e-001           6.35986e-001           3.59859e-002           5.98586e-003           9.85861e-004
                  123.30    340.63364                               19.85276             74.719                                        3.40634e+002           4.06336e+001           6.33641e-001           6.33641e-001           3.36406e-002           3.64063e-003           6.40629e-004
                  123.40    340.63666                               19.85276             74.719                                        3.40637e+002           4.06367e+001           6.36658e-001           6.36658e-001           3.66578e-002           6.65780e-003           6.57803e-004
                  123.50    340.64023                               19.85276             74.719                                        3.40640e+002           4.06402e+001           6.40226e-001           6.40226e-001           4.02261e-002           2.26106e-004           2.26106e-004
                  123.60    340.64171                               19.85276             74.719                                        3.40642e+002           4.06417e+001           6.41705e-001           6.41705e-001           4.17054e-002           1.70535e-003           7.05354e-004
                  123.70    340.64281                               19.85276             74.719                                        3.40643e+002           4.06428e+001           6.42805e-001           6.42805e-001           4.28053e-002           2.80526e-003           8.05261e-004
                  123.80    340.64205                               19.85276             74.719                                        3.40642e+002           4.06421e+001           6.42052e-001           6.42052e-001           4.20517e-002           2.05171e-003           5.17138e-005
                  123.90    340.63633                               19.85276             74.719                                        3.40636e+002           4.06363e+001           6.36335e-001           6.36335e-001           3.63346e-002           6.33457e-003           3.34571e-004
                  124.00    340.63068                               19.85276             74.719                                        3.40631e+002           4.06307e+001           6.30683e-001           6.30683e-001           3.06831e-002           6.83116e-004           6.83116e-004
                  124.10    340.63259                               19.85276             74.719                                        3.40633e+002           4.06326e+001           6.32593e-001           6.32593e-001           3.25928e-002           2.59279e-003           5.92789e-004
                  124.20    340.63563                               19.85276             74.719                                        3.40636e+002           4.06356e+001           6.35632e-001           6.35632e-001           3.56318e-002           5.63182e-003           6.31824e-004
                  124.30    340.63820                               19.85276             74.719                                        3.40638e+002           4.06382e+001           6.38200e-001           6.38200e-001           3.81998e-002           8.19975e-003           1.99753e-004
                  124.40    340.63750                               19.85276             74.719                                        3.40638e+002           4.06375e+001           6.37502e-001           6.37502e-001           3.75019e-002           7.50187e-003           5.01874e-004
                  124.50    340.63676                               19.85276             74.719                                        3.40637e+002           4.06368e+001           6.36756e-001           6.36756e-001           3.67562e-002           6.75623e-003           7.56230e-004
                  124.60    340.63607                               19.85276             74.719                                        3.40636e+002           4.06361e+001           6.36066e-001           6.36066e-001           3.60662e-002           6.06621e-003           6.62110e-005
                  124.70    340.63647                               19.85276             74.719                                        3.40636e+002           4.06365e+001           6.36470e-001           6.36470e-001           3.64702e-002           6.47018e-003           4.70183e-004
                  124.80    340.63796                               19.85276             74.719                                        3.40638e+002           4.06380e+001           6.37958e-001           6.37958e-001           3.79576e-002           7.95760e-003           9.57602e-004
                  124.90    340.63962                               19.85276             74.719                                        3.40640e+002           4.06396e+001           6.39622e-001           6.39622e-001           3.96220e-002           9.62205e-003           6.22049e-004
                  125.00    340.63969                               19.85276             74.719                                        3.40640e+002           4.06397e+001           6.39689e-001           6.39689e-001           3.96889e-002           9.68889e-003           6.88889e-004
                  125.10    340.63652                               19.85276             74.719                                        3.40637e+002           4.06365e+001           6.36518e-001           6.36518e-001           3.65177e-002           6.51772e-003           5.17723e-004
                  125.20    340.63194                               19.85276             74.719                                        3.40632e+002           4.06319e+001           6.31940e-001           6.31940e-001           3.19401e-002           1.94009e-003           9.40086e-004
