~VERSION INFORMATION
VERS                    .            2.0                                    :CWLS LOG ASCII STANDARD
WRAP                    .            NO                                     :ONE LINE PER TIME STEP


~WELL INFORMATION
#MNEM                   .UNIT        DATA                                    DESCRIPTION
#________________________________________________________________________________________
STRTTIME                .HH/MM/SS    02:42:03                               :START TIME
STOPTIME                .HH/MM/SS    02:44:56                               :STOP TIME
STRT                    .s           2.10                                   :START DATA
STOP                    .s           171.40                                 :STOP DATA
STEP                    .s           0.10                                   :MEASUREMENT TIME INTERVAL
NULL                    .            -999.25                                :NULL VALUE
COMP                    .            Statoil ASA                            :COMPANY
FLD                     .            Volve                                  :FIELD
WELL                    .            15/9-F-1 C                             :WELL
RUN                     .            4                                      :RUN
LOC                     .                                                   :LOCATION
PROV                    .            na                                     :PROVINCE
SRVC                    .            Baker Hughes INTEQ                     :SERVICE COMPANY
DATE                    .YY/MM/DD    14/03/15                               :LOG DATE
UWI                     .                                                   :UNIQUE WELL ID
DEPTHMD                 .m           3551.1                                 :MEASURED DEPTH
DEPTHTVD                .m           2992.9                                 :TRUE VERTICAL DEPTH


~CURVE INFORMATION
#MNEM                   .UNIT        API CODES                               DESCRIPTION
#________________________________________________________________________________________
TIME                    .s                                                  :01 TIME
DD_PRESS                .bar                                                :02 DRAW DOWN PRESSURE
DD_VOLUME               .cm3                                                :03 INCREMENTAL DRAW DOWN VOLUME
TEMP                    .degC                                               :04 TRANSDUCER TEMPERATURE
DD_PRESS_MOD_1000       .bar                                                :05 DRAW DOWN PRESSURE MOD 1000
DD_PRESS_MOD_100        .bar                                                :06 DRAW DOWN PRESSURE MOD 100
DD_PRESS_MOD_10         .bar                                                :07 DRAW DOWN PRESSURE MOD 10
DD_PRESS_MOD_1          .bar                                                :08 DRAW DOWN PRESSURE MOD 1
DD_PRESS_MOD_01         .bar                                                :09 DRAW DOWN PRESSURE MOD 01
DD_PRESS_MOD_001        .bar                                                :10 DRAW DOWN PRESSURE MOD 001
DD_PRESS_MOD_0001       .bar                                                :11 DRAW DOWN PRESSURE MOD 0001


~PARAMETER INFORMATION
#MNEM                   .UNIT        VALUE                                   DESCRIPTION
#________________________________________________________________________________________
TOOLFACE                .deg         84.6                                   :01 TOOLFACE
PUMP_CAPACITY           .bar         400                                    :02 NOMINAL DRAW DOWN PUMP CAPACITY
PUMP_LIMIT              .bar         240                                    :03 DOWNLINK PUMP LIMIT
TIME_LIMIT              .min         10                                     :04 DOWNLINK MAX TIME
TEST_TYPE               .            REPEAT                                 :05 DOWNLINK
TEST_TYPE               .            HIGH MOBILITY                          :06 DOWNLINK
DD_PIST_A               .cm2         3.1416                                 :07 DRAW DOWN PISTON AREA
V_SYS                   .cm3         131.0000                               :08 SYSTEM VOLUME
PROBE_ID                .cm          1.2700                                 :09 TTK PROBE ID
G0                      .            4.6700                                 :10 GEOMETRY FACTOR


~A                  TIME     DD_PRESS                              DD_VOLUME               TEMP                                   DD_PRESS_MOD_1000       DD_PRESS_MOD_100        DD_PRESS_MOD_10         DD_PRESS_MOD_1        DD_PRESS_MOD_01       DD_PRESS_MOD_001      DD_PRESS_MOD_0001
                    2.10    422.11985                                0.00000             85.234                                        4.22120e+002           2.21198e+001           2.11985e+000           1.19846e-001           1.98460e-002           9.84601e-003           8.46006e-004
                    2.20    422.11285                                0.00000             85.234                                        4.22113e+002           2.21128e+001           2.11285e+000           1.12847e-001           1.28470e-002           2.84700e-003           8.47001e-004
                    2.30    422.11382                                0.00000             85.234                                        4.22114e+002           2.21138e+001           2.11382e+000           1.13818e-001           1.38182e-002           3.81822e-003           8.18219e-004
                    2.40    422.12449                                0.00000             85.234                                        4.22124e+002           2.21245e+001           2.12449e+000           1.24490e-001           2.44895e-002           4.48951e-003           4.89514e-004
                    2.50    422.14116                                0.00000             85.234                                        4.22141e+002           2.21412e+001           2.14116e+000           1.41165e-001           4.11647e-002           1.16475e-003           1.64745e-004
                    2.60    422.14571                                0.00000             85.234                                        4.22146e+002           2.21457e+001           2.14571e+000           1.45708e-001           4.57084e-002           5.70838e-003           7.08376e-004
                    2.70    422.13274                                0.00000             85.234                                        4.22133e+002           2.21327e+001           2.13274e+000           1.32744e-001           3.27435e-002           2.74352e-003           7.43520e-004
                    2.80    422.12694                                0.00000             85.234                                        4.22127e+002           2.21269e+001           2.12694e+000           1.26937e-001           2.69371e-002           6.93710e-003           9.37102e-004
                    2.90    422.14324                                0.00000             85.234                                        4.22143e+002           2.21432e+001           2.14324e+000           1.43242e-001           4.32424e-002           3.24243e-003           2.42428e-004
                    3.00    422.18948                                0.00000             85.234                                        4.22189e+002           2.21895e+001           2.18948e+000           1.89476e-001           8.94760e-002           9.47599e-003           4.75990e-004
                    3.10    422.24486                                0.00000             85.234                                        4.22245e+002           2.22449e+001           2.24486e+000           2.44859e-001           4.48588e-002           4.85879e-003           8.58785e-004
                    3.20    422.26521                                0.00000             85.234                                        4.22265e+002           2.22652e+001           2.26521e+000           2.65206e-001           6.52057e-002           5.20568e-003           2.05678e-004
                    3.30    422.25363                                0.00000             85.234                                        4.22254e+002           2.22536e+001           2.25363e+000           2.53631e-001           5.36313e-002           3.63126e-003           6.31256e-004
                    3.40    422.25947                                0.00000             85.234                                        4.22259e+002           2.22595e+001           2.25947e+000           2.59475e-001           5.94747e-002           9.47474e-003           4.74736e-004
                    3.50    422.27888                                0.00000             85.234                                        4.22279e+002           2.22789e+001           2.27888e+000           2.78885e-001           7.88847e-002           8.88467e-003           8.84666e-004
                    3.60    422.29081                                0.00000             85.234                                        4.22291e+002           2.22908e+001           2.29081e+000           2.90814e-001           9.08136e-002           8.13568e-004           8.13568e-004
                    3.70    422.30089                                0.00000             85.234                                        4.22301e+002           2.23009e+001           2.30089e+000           3.00888e-001           8.88207e-004           8.88207e-004           8.88207e-004
                    3.80    422.30901                                0.00000             85.234                                        4.22309e+002           2.23090e+001           2.30901e+000           3.09008e-001           9.00834e-003           9.00834e-003           8.34057e-006
                    3.90    422.30836                                0.00000             85.234                                        4.22308e+002           2.23084e+001           2.30836e+000           3.08361e-001           8.36097e-003           8.36097e-003           3.60967e-004
                    4.00    422.30694                                0.00000             85.234                                        4.22307e+002           2.23069e+001           2.30694e+000           3.06939e-001           6.93857e-003           6.93857e-003           9.38573e-004
                    4.10    422.31964                                0.00000             85.234                                        4.22320e+002           2.23196e+001           2.31964e+000           3.19639e-001           1.96389e-002           9.63887e-003           6.38870e-004
                    4.20    422.34378                                0.00000             85.234                                        4.22344e+002           2.23438e+001           2.34378e+000           3.43780e-001           4.37803e-002           3.78028e-003           7.80280e-004
                    4.30    422.36259                                0.00000             85.234                                        4.22363e+002           2.23626e+001           2.36259e+000           3.62591e-001           6.25914e-002           2.59137e-003           5.91375e-004
                    4.40    422.36465                                0.00000             85.234                                        4.22365e+002           2.23647e+001           2.36465e+000           3.64651e-001           6.46507e-002           4.65067e-003           6.50670e-004
                    4.50    422.36957                                0.00000             85.234                                        4.22370e+002           2.23696e+001           2.36957e+000           3.69572e-001           6.95722e-002           9.57223e-003           5.72225e-004
                    4.60    422.39364                                0.00000             85.234                                        4.22394e+002           2.23936e+001           2.39364e+000           3.93639e-001           9.36390e-002           3.63904e-003           6.39045e-004
                    4.70    422.41193                                0.00000             85.234                                        4.22412e+002           2.24119e+001           2.41193e+000           4.11931e-001           1.19310e-002           1.93102e-003           9.31018e-004
                    4.80    422.41927                                0.00000             85.234                                        4.22419e+002           2.24193e+001           2.41927e+000           4.19271e-001           1.92710e-002           9.27098e-003           2.70978e-004
