~VERSION INFORMATION
VERS                    .            2.0                                    :CWLS LOG ASCII STANDARD
WRAP                    .            NO                                     :ONE LINE PER TIME STEP


~WELL INFORMATION
#MNEM                   .UNIT        DATA                                    DESCRIPTION
#________________________________________________________________________________________
STRTTIME                .HH/MM/SS    14:50:05                               :START TIME
STOPTIME                .HH/MM/SS    14:53:18                               :STOP TIME
STRT                    .s           2.10                                   :START DATA
STOP                    .s           191.60                                 :STOP DATA
STEP                    .s           0.10                                   :MEASUREMENT TIME INTERVAL
NULL                    .            -999.25                                :NULL VALUE
COMP                    .            Statoil ASA                            :COMPANY
FLD                     .            Volve                                  :FIELD
WELL                    .            15/9-F-1 B                             :WELL
RUN                     .            7                                      :RUN
LOC                     .            Maersk Inspirer                        :LOCATION
PROV                    .            na                                     :PROVINCE
SRVC                    .            Baker Hughes INTEQ                     :SERVICE COMPANY
DATE                    .YY/MM/DD    13/09/06                               :LOG DATE
UWI                     .                                                   :UNIQUE WELL ID
DEPTHMD                 .m           3280.5                                 :MEASURED DEPTH
DEPTHTVD                .m           3076.1                                 :TRUE VERTICAL DEPTH


~CURVE INFORMATION
#MNEM                   .UNIT        API CODES                               DESCRIPTION
#________________________________________________________________________________________
TIME                    .s                                                  :01 TIME
DD_PRESS                .bar                                                :02 DRAW DOWN PRESSURE
DD_VOLUME               .cm3                                                :03 INCREMENTAL DRAW DOWN VOLUME
TEMP                    .degC                                               :04 TRANSDUCER TEMPERATURE
DD_PRESS_MOD_1000       .bar                                                :05 DRAW DOWN PRESSURE MOD 1000
DD_PRESS_MOD_100        .bar                                                :06 DRAW DOWN PRESSURE MOD 100
DD_PRESS_MOD_10         .bar                                                :07 DRAW DOWN PRESSURE MOD 10
DD_PRESS_MOD_1          .bar                                                :08 DRAW DOWN PRESSURE MOD 1
DD_PRESS_MOD_01         .bar                                                :09 DRAW DOWN PRESSURE MOD 01
DD_PRESS_MOD_001        .bar                                                :10 DRAW DOWN PRESSURE MOD 001
DD_PRESS_MOD_0001       .bar                                                :11 DRAW DOWN PRESSURE MOD 0001


~PARAMETER INFORMATION
#MNEM                   .UNIT        VALUE                                   DESCRIPTION
#________________________________________________________________________________________
TOOLFACE                .deg         na                                     :01 TOOLFACE
PUMP_CAPACITY           .bar         400                                    :02 NOMINAL DRAW DOWN PUMP CAPACITY
PUMP_LIMIT              .bar         400                                    :03 DOWNLINK PUMP LIMIT
TIME_LIMIT              .min         10                                     :04 DOWNLINK MAX TIME
TEST_TYPE               .            LOW MOBILITY                           :05 DOWNLINK
DD_PIST_A               .cm2         3.1416                                 :06 DRAW DOWN PISTON AREA
V_SYS                   .cm3         131.0000                               :07 SYSTEM VOLUME
PROBE_ID                .cm          1.2700                                 :08 TTK PROBE ID
G0                      .            4.6700                                 :09 GEOMETRY FACTOR


~A                  TIME     DD_PRESS                              DD_VOLUME               TEMP                                   DD_PRESS_MOD_1000       DD_PRESS_MOD_100        DD_PRESS_MOD_10         DD_PRESS_MOD_1        DD_PRESS_MOD_01       DD_PRESS_MOD_001      DD_PRESS_MOD_0001
# ...
                   52.50    347.57586                               10.93095             82.508                                        3.47576e+002           4.75759e+001           7.57586e+000           5.75865e-001           7.58649e-002           5.86487e-003           8.64865e-004
                   52.60    347.58618                               10.93095             82.508                                        3.47586e+002           4.75862e+001           7.58618e+000           5.86178e-001           8.61777e-002           6.17767e-003           1.77673e-004
                   52.70    347.57800                               10.93095             82.508                                        3.47578e+002           4.75780e+001           7.57800e+000           5.78000e-001           7.80001e-002           8.00012e-003           1.20597e-007
                   52.80    347.56703                               10.93095             82.508                                        3.47567e+002           4.75670e+001           7.56703e+000           5.67033e-001           6.70332e-002           7.03321e-003           3.32055e-005
                   52.90    347.57548                               10.93095             82.508                                        3.47575e+002           4.75755e+001           7.57548e+000           5.75481e-001           7.54811e-002           5.48107e-003           4.81065e-004
                   53.00    347.58533                               10.93095             82.508                                        3.47585e+002           4.75853e+001           7.58533e+000           5.85330e-001           8.53298e-002           5.32982e-003           3.29817e-004
                   53.10    347.58169                               10.93095             82.508                                        3.47582e+002           4.75817e+001           7.58169e+000           5.81690e-001           8.16903e-002           1.69028e-003           6.90283e-004
                   53.20    347.57398                               10.93095             82.508                                        3.47574e+002           4.75740e+001           7.57398e+000           5.73984e-001           7.39840e-002           3.98399e-003           9.83990e-004
                   53.30    347.57588                               10.93095             82.508                                        3.47576e+002           4.75759e+001           7.57588e+000           5.75884e-001           7.58842e-002           5.88424e-003           8.84238e-004
                   53.40    347.58051                               10.93095             82.508                                        3.47581e+002           4.75805e+001           7.58051e+000           5.80510e-001           8.05097e-002           5.09742e-004           5.09742e-004
                   53.50    347.57342                               10.93095             82.508                                        3.47573e+002           4.75734e+001           7.57342e+000           5.73418e-001           7.34179e-002           3.41788e-003           4.17875e-004
                   53.60    347.56748                               10.93095             82.508                                        3.47567e+002           4.75675e+001           7.56748e+000           5.67481e-001           6.74809e-002           7.48087e-003           4.80870e-004
                   53.70    347.57858                               10.93095             82.508                                        3.47579e+002           4.75786e+001           7.57858e+000           5.78580e-001           7.85796e-002           8.57965e-003           5.79646e-004
                   53.80    347.58965                               10.93095             82.508                                        3.47590e+002           4.75897e+001           7.58965e+000           5.89654e-001           8.96543e-002           9.65430e-003           6.54299e-004
                   53.90    347.58318                               10.93095             82.508                                        3.47583e+002           4.75832e+001           7.58318e+000           5.83178e-001           8.31778e-002           3.17778e-003           1.77784e-004
                   54.00    347.57380                               10.93095             82.508                                        3.47574e+002           4.75738e+001           7.57380e+000           5.73800e-001           7.38000e-002           3.80005e-003           8.00050e-004
                   54.10    347.58007                               10.93095             82.508                                        3.47580e+002           4.75801e+001           7.58007e+000           5.80074e-001           8.00738e-002           7.38044e-005           7.38044e-005
                   54.20    347.58453                               10.93095             82.508                                        3.47585e+002           4.75845e+001           7.58453e+000           5.84526e-001           8.45260e-002           4.52603e-003           5.26032e-004
                   54.30    347.57599                               10.93095             82.508                                        3.47576e+002           4.75760e+001           7.57599e+000           5.75994e-001           7.59943e-002           5.99432e-003           9.94316e-004
                   54.40    347.56898                               10.93095             82.508                                        3.47569e+002           4.75690e+001           7.56898e+000           5.68979e-001           6.89789e-002           8.97886e-003           9.78863e-004
                   54.50    347.58001                               10.93095             82.508                                        3.47580e+002           4.75800e+001           7.58001e+000           5.80009e-001           8.00088e-002           8.76940e-006           8.76940e-006
                   54.60    347.58987                               10.93095             82.508                                        3.47590e+002           4.75899e+001           7.58987e+000           5.89874e-001           8.98741e-002           9.87406e-003           8.74065e-004
                   54.70    347.57987                               10.93095             82.508                                        3.47580e+002           4.75799e+001           7.57987e+000           5.79873e-001           7.98731e-002           9.87314e-003           8.73140e-004
                   54.80    347.57081                               10.93095             82.508                                        3.47571e+002           4.75708e+001           7.57081e+000           5.70806e-001           7.08058e-002           8.05822e-004           8.05822e-004
                   54.90    347.57469                               10.93095             82.508                                        3.47575e+002           4.75747e+001           7.57469e+000           5.74691e-001           7.46906e-002           4.69063e-003           6.90627e-004
                   55.00    347.57907                               10.93095             82.508                                        3.47579e+002           4.75791e+001           7.57907e+000           5.79072e-001           7.90718e-002           9.07176e-003           7.17647e-005
                   55.10    347.57739                               10.93095             82.508                                        3.47577e+002           4.75774e+001           7.57739e+000           5.77391e-001           7.73911e-002           7.39111e-003           3.91105e-004
                   55.20    347.57348                               10.93095             82.508                                        3.47573e+002           4.75735e+001           7.57348e+000           5.73481e-001           7.34811e-002           3.48112e-003           4.81118e-004
