~VERSION INFORMATION
VERS                    .            2.0                                    :CWLS LOG ASCII STANDARD
WRAP                    .            NO                                     :ONE LINE PER TIME STEP


~WELL INFORMATION
#MNEM                   .UNIT        DATA                                    DESCRIPTION
#________________________________________________________________________________________
STRTTIME                .HH/MM/SS    16:20:20                               :START TIME
STOPTIME                .HH/MM/SS    16:23:23                               :STOP TIME
STRT                    .s           2.10                                   :START DATA
STOP                    .s           182.00                                 :STOP DATA
STEP                    .s           0.10                                   :MEASUREMENT TIME INTERVAL
NULL                    .            -999.25                                :NULL VALUE
COMP                    .            Statoil ASA                            :COMPANY
FLD                     .            Volve                                  :FIELD
WELL                    .            15/9-F-1 B                             :WELL
RUN                     .            7                                      :RUN
LOC                     .            Maersk Inspirer                        :LOCATION
PROV                    .            na                                     :PROVINCE
SRVC                    .            Baker Hughes INTEQ                     :SERVICE COMPANY
DATE                    .YY/MM/DD    13/09/06                               :LOG DATE
UWI                     .                                                   :UNIQUE WELL ID
DEPTHMD                 .m           3255.0                                 :MEASURED DEPTH
DEPTHTVD                .m           3051.1                                 :TRUE VERTICAL DEPTH


~CURVE INFORMATION
#MNEM                   .UNIT        API CODES                               DESCRIPTION
#________________________________________________________________________________________
TIME                    .s                                                  :01 TIME
DD_PRESS                .bar                                                :02 DRAW DOWN PRESSURE
DD_VOLUME               .cm3                                                :03 INCREMENTAL DRAW DOWN VOLUME
TEMP                    .degC                                               :04 TRANSDUCER TEMPERATURE
DD_PRESS_MOD_1000       .bar                                                :05 DRAW DOWN PRESSURE MOD 1000
DD_PRESS_MOD_100        .bar                                                :06 DRAW DOWN PRESSURE MOD 100
DD_PRESS_MOD_10         .bar                                                :07 DRAW DOWN PRESSURE MOD 10
DD_PRESS_MOD_1          .bar                                                :08 DRAW DOWN PRESSURE MOD 1
DD_PRESS_MOD_01         .bar                                                :09 DRAW DOWN PRESSURE MOD 01
DD_PRESS_MOD_001        .bar                                                :10 DRAW DOWN PRESSURE MOD 001
DD_PRESS_MOD_0001       .bar                                                :11 DRAW DOWN PRESSURE MOD 0001


~PARAMETER INFORMATION
#MNEM                   .UNIT        VALUE                                   DESCRIPTION
#________________________________________________________________________________________
TOOLFACE                .deg         na                                     :01 TOOLFACE
PUMP_CAPACITY           .bar         400                                    :02 NOMINAL DRAW DOWN PUMP CAPACITY
PUMP_LIMIT              .bar         400                                    :03 DOWNLINK PUMP LIMIT
TIME_LIMIT              .min         10                                     :04 DOWNLINK MAX TIME
TEST_TYPE               .            LOW MOBILITY                           :05 DOWNLINK
DD_PIST_A               .cm2         3.1416                                 :06 DRAW DOWN PISTON AREA
V_SYS                   .cm3         131.0000                               :07 SYSTEM VOLUME
PROBE_ID                .cm          1.2700                                 :08 TTK PROBE ID
G0                      .            4.6700                                 :09 GEOMETRY FACTOR


~A                  TIME     DD_PRESS                              DD_VOLUME               TEMP                                   DD_PRESS_MOD_1000       DD_PRESS_MOD_100        DD_PRESS_MOD_10         DD_PRESS_MOD_1        DD_PRESS_MOD_01       DD_PRESS_MOD_001      DD_PRESS_MOD_0001
# ...
                  142.10    345.12413                               29.23054             81.742                                        3.45124e+002           4.51241e+001           5.12413e+000           1.24128e-001           2.41280e-002           4.12805e-003           1.28047e-004
                  142.20    345.12580                               29.23054             81.742                                        3.45126e+002           4.51258e+001           5.12580e+000           1.25805e-001           2.58050e-002           5.80499e-003           8.04994e-004
                  142.30    345.11992                               29.23054             81.742                                        3.45120e+002           4.51199e+001           5.11992e+000           1.19923e-001           1.99235e-002           9.92346e-003           9.23458e-004
                  142.40    345.11444                               29.23054             81.742                                        3.45114e+002           4.51144e+001           5.11444e+000           1.14438e-001           1.44383e-002           4.43829e-003           4.38289e-004
                  142.50    345.11958                               29.23054             81.742                                        3.45120e+002           4.51196e+001           5.11958e+000           1.19580e-001           1.95805e-002           9.58046e-003           5.80464e-004
                  142.60    345.12588                               29.23054             81.742                                        3.45126e+002           4.51259e+001           5.12588e+000           1.25876e-001           2.58759e-002           5.87587e-003           8.75873e-004
                  142.70    345.13023                               29.23054             81.742                                        3.45130e+002           4.51302e+001           5.13023e+000           1.30225e-001           3.02255e-002           2.25489e-004           2.25489e-004
                  142.80    345.12438                               29.23054             81.742                                        3.45124e+002           4.51244e+001           5.12438e+000           1.24379e-001           2.43793e-002           4.37927e-003           3.79266e-004
                  142.90    345.11539                               29.23054             81.742                                        3.45115e+002           4.51154e+001           5.11539e+000           1.15389e-001           1.53890e-002           5.38900e-003           3.88995e-004
                  143.00    345.12187                               29.23054             81.742                                        3.45122e+002           4.51219e+001           5.12187e+000           1.21868e-001           2.18677e-002           1.86774e-003           8.67742e-004
                  143.10    345.12943                               29.23054             81.742                                        3.45129e+002           4.51294e+001           5.12943e+000           1.29426e-001           2.94257e-002           9.42570e-003           4.25695e-004
                  143.20    345.12144                               29.23054             81.742                                        3.45121e+002           4.51214e+001           5.12144e+000           1.21441e-001           2.14407e-002           1.44072e-003           4.40723e-004
                  143.30    345.11945                               29.23054             81.742                                        3.45119e+002           4.51195e+001           5.11945e+000           1.19454e-001           1.94544e-002           9.45445e-003           4.54449e-004
                  143.40    345.12745                               29.23054             81.742                                        3.45127e+002           4.51275e+001           5.12745e+000           1.27453e-001           2.74528e-002           7.45276e-003           4.52764e-004
                  143.50    345.12775                               29.23054             81.742                                        3.45128e+002           4.51278e+001           5.12775e+000           1.27751e-001           2.77510e-002           7.75096e-003           7.50955e-004
                  143.60    345.11980                               29.23054             81.742                                        3.45120e+002           4.51198e+001           5.11980e+000           1.19799e-001           1.97987e-002           9.79873e-003           7.98726e-004
                  143.70    345.11370                               29.23054             81.742                                        3.45114e+002           4.51137e+001           5.11370e+000           1.13704e-001           1.37035e-002           3.70355e-003           7.03549e-004
                  143.80    345.12146                               29.23054             81.742                                        3.45121e+002           4.51215e+001           5.12146e+000           1.21456e-001           2.14558e-002           1.45580e-003           4.55796e-004
                  143.90    345.12957                               29.23054             81.742                                        3.45130e+002           4.51296e+001           5.12957e+000           1.29565e-001           2.95653e-002           9.56529e-003           5.65288e-004
                  144.00    345.12410                               29.23054             81.742                                        3.45124e+002           4.51241e+001           5.12410e+000           1.24098e-001           2.40982e-002           4.09824e-003           9.82428e-005
                  144.10    345.11839                               29.23054             81.742                                        3.45118e+002           4.51184e+001           5.11839e+000           1.18393e-001           1.83930e-002           8.39302e-003           3.93018e-004
                  144.20    345.12829                               29.23054             81.742                                        3.45128e+002           4.51283e+001           5.12829e+000           1.28286e-001           2.82861e-002           8.28608e-003           2.86076e-004
                  144.30    345.13244                               29.23054             81.742                                        3.45132e+002           4.51324e+001           5.13244e+000           1.32436e-001           3.24365e-002           2.43648e-003           4.36480e-004
                  144.40    345.11986                               29.23054             81.742                                        3.45120e+002           4.51199e+001           5.11986e+000           1.19860e-001           1.98605e-002           9.86049e-003           8.60494e-004
                  144.50    345.11114                               29.23054             81.742                                        3.45111e+002           4.51111e+001           5.11114e+000           1.11139e-001           1.11393e-002           1.13925e-003           1.39253e-004
                  144.60    345.12173                               29.23054             81.742                                        3.45122e+002           4.51217e+001           5.12173e+000           1.21725e-001           2.17253e-002           1.72534e-003           7.25336e-004
                  144.70    345.12662                               29.23054             81.742                                        3.45127e+002           4.51266e+001           5.12662e+000           1.26618e-001           2.66182e-002           6.61822e-003           6.18220e-004
                  144.80    345.11898                               29.23054             81.742                                        3.45119e+002           4.51190e+001           5.11898e+000           1.18977e-001           1.89769e-002           8.97691e-003           9.76910e-004
