~VERSION INFORMATION
VERS                    .            2.0                                    :CWLS LOG ASCII STANDARD
WRAP                    .            NO                                     :ONE LINE PER TIME STEP


~WELL INFORMATION
#MNEM                   .UNIT        DATA                                    DESCRIPTION
#________________________________________________________________________________________
STRTTIME                .HH/MM/SS    03:09:23                               :START TIME
STOPTIME                .HH/MM/SS    03:12:09                               :STOP TIME
STRT                    .s           2.10                                   :START DATA
STOP                    .s           164.80                                 :STOP DATA
STEP                    .s           0.10                                   :MEASUREMENT TIME INTERVAL
NULL                    .            -999.25                                :NULL VALUE
COMP                    .            Statoil ASA                            :COMPANY
FLD                     .            Volve                                  :FIELD
WELL                    .            15/9-F-1 C                             :WELL
RUN                     .            4                                      :RUN
LOC                     .                                                   :LOCATION
PROV                    .            na                                     :PROVINCE
SRVC                    .            Baker Hughes INTEQ                     :SERVICE COMPANY
DATE                    .YY/MM/DD    14/03/15                               :LOG DATE
UWI                     .                                                   :UNIQUE WELL ID
DEPTHMD                 .m           3523.2                                 :MEASURED DEPTH
DEPTHTVD                .m           2986.7                                 :TRUE VERTICAL DEPTH


~CURVE INFORMATION
#MNEM                   .UNIT        API CODES                               DESCRIPTION
#________________________________________________________________________________________
TIME                    .s                                                  :01 TIME
DD_PRESS                .bar                                                :02 DRAW DOWN PRESSURE
DD_VOLUME               .cm3                                                :03 INCREMENTAL DRAW DOWN VOLUME
TEMP                    .degC                                               :04 TRANSDUCER TEMPERATURE
DD_PRESS_MOD_1000       .bar                                                :05 DRAW DOWN PRESSURE MOD 1000
DD_PRESS_MOD_100        .bar                                                :06 DRAW DOWN PRESSURE MOD 100
DD_PRESS_MOD_10         .bar                                                :07 DRAW DOWN PRESSURE MOD 10
DD_PRESS_MOD_1          .bar                                                :08 DRAW DOWN PRESSURE MOD 1
DD_PRESS_MOD_01         .bar                                                :09 DRAW DOWN PRESSURE MOD 01
DD_PRESS_MOD_001        .bar                                                :10 DRAW DOWN PRESSURE MOD 001
DD_PRESS_MOD_0001       .bar                                                :11 DRAW DOWN PRESSURE MOD 0001


~PARAMETER INFORMATION
#MNEM                   .UNIT        VALUE                                   DESCRIPTION
#________________________________________________________________________________________
TOOLFACE                .deg         104.9                                  :01 TOOLFACE
PUMP_CAPACITY           .bar         400                                    :02 NOMINAL DRAW DOWN PUMP CAPACITY
PUMP_LIMIT              .bar         240                                    :03 DOWNLINK PUMP LIMIT
TIME_LIMIT              .min         10                                     :04 DOWNLINK MAX TIME
TEST_TYPE               .            REPEAT                                 :05 DOWNLINK
TEST_TYPE               .            HIGH MOBILITY                          :06 DOWNLINK
DD_PIST_A               .cm2         3.1416                                 :07 DRAW DOWN PISTON AREA
V_SYS                   .cm3         131.0000                               :08 SYSTEM VOLUME
PROBE_ID                .cm          1.2700                                 :09 TTK PROBE ID
G0                      .            4.6700                                 :10 GEOMETRY FACTOR


~A                  TIME     DD_PRESS                              DD_VOLUME               TEMP                                   DD_PRESS_MOD_1000       DD_PRESS_MOD_100        DD_PRESS_MOD_10         DD_PRESS_MOD_1        DD_PRESS_MOD_01       DD_PRESS_MOD_001      DD_PRESS_MOD_0001
# ...
                   44.10    340.98922                               10.76582             84.523                                        3.40989e+002           4.09892e+001           9.89218e-001           9.89218e-001           8.92178e-002           9.21783e-003           2.17828e-004
                   44.20    340.99428                               10.76582             84.523                                        3.40994e+002           4.09943e+001           9.94279e-001           9.94279e-001           9.42786e-002           4.27860e-003           2.78596e-004
                   44.30    340.98687                               10.76582             84.523                                        3.40987e+002           4.09869e+001           9.86867e-001           9.86867e-001           8.68674e-002           6.86738e-003           8.67377e-004
                   44.40    340.98057                               10.76582             84.523                                        3.40981e+002           4.09806e+001           9.80566e-001           9.80566e-001           8.05657e-002           5.65657e-004           5.65657e-004
                   44.50    340.97915                               10.76582             84.523                                        3.40979e+002           4.09791e+001           9.79148e-001           9.79148e-001           7.91480e-002           9.14796e-003           1.47961e-004
                   44.60    340.98316                               10.76582             84.523                                        3.40983e+002           4.09832e+001           9.83159e-001           9.83159e-001           8.31594e-002           3.15937e-003           1.59372e-004
                   44.70    340.99092                               10.76582             84.523                                        3.40991e+002           4.09909e+001           9.90920e-001           9.90920e-001           9.09200e-002           9.20006e-004           9.20006e-004
                   44.80    340.99025                               10.76582             84.523                                        3.40990e+002           4.09902e+001           9.90246e-001           9.90246e-001           9.02456e-002           2.45647e-004           2.45647e-004
                   44.90    340.98215                               10.76582             84.523                                        3.40982e+002           4.09822e+001           9.82155e-001           9.82155e-001           8.21546e-002           2.15462e-003           1.54615e-004
                   45.00    340.98441                               10.76582             84.523                                        3.40984e+002           4.09844e+001           9.84412e-001           9.84412e-001           8.44124e-002           4.41237e-003           4.12365e-004
                   45.10    340.99100                               10.76582             84.523                                        3.40991e+002           4.09910e+001           9.91003e-001           9.91003e-001           9.10028e-002           1.00285e-003           2.84851e-006
                   45.20    340.99350                               10.76582             84.523                                        3.40994e+002           4.09935e+001           9.93504e-001           9.93504e-001           9.35040e-002           3.50397e-003           5.03966e-004
                   45.30    340.98764                               10.76582             84.523                                        3.40988e+002           4.09876e+001           9.87640e-001           9.87640e-001           8.76399e-002           7.63992e-003           6.39922e-004
                   45.40    340.98687                               10.76582             84.523                                        3.40987e+002           4.09869e+001           9.86869e-001           9.86869e-001           8.68689e-002           6.86894e-003           8.68943e-004
                   45.50    340.99656                               10.76582             84.523                                        3.40997e+002           4.09966e+001           9.96564e-001           9.96564e-001           9.65645e-002           6.56446e-003           5.64456e-004
                   45.60    340.99434                               10.76582             84.523                                        3.40994e+002           4.09943e+001           9.94337e-001           9.94337e-001           9.43366e-002           4.33664e-003           3.36640e-004
                   45.70    340.98327                               10.76582             84.523                                        3.40983e+002           4.09833e+001           9.83269e-001           9.83269e-001           8.32694e-002           3.26937e-003           2.69368e-004
                   45.80    340.98485                               10.76582             84.523                                        3.40985e+002           4.09849e+001           9.84853e-001           9.84853e-001           8.48534e-002           4.85341e-003           8.53406e-004
                   45.90    340.98634                               10.76582             84.523                                        3.40986e+002           4.09863e+001           9.86337e-001           9.86337e-001           8.63370e-002           6.33700e-003           3.37002e-004
                   46.00    340.98398                               10.76582             84.523                                        3.40984e+002           4.09840e+001           9.83985e-001           9.83985e-001           8.39850e-002           3.98497e-003           9.84974e-004
                   46.10    340.98632                               10.76582             84.523                                        3.40986e+002           4.09863e+001           9.86324e-001           9.86324e-001           8.63242e-002           6.32415e-003           3.24152e-004
                   46.20    340.99186                               10.76582             84.523                                        3.40992e+002           4.09919e+001           9.91858e-001           9.91858e-001           9.18579e-002           1.85793e-003           8.57929e-004
                   46.30    340.99057                               10.76582             84.523                                        3.40991e+002           4.09906e+001           9.90574e-001           9.90574e-001           9.05743e-002           5.74259e-004           5.74259e-004
                   46.40    340.98726                               10.76582             84.523                                        3.40987e+002           4.09873e+001           9.87256e-001           9.87256e-001           8.72561e-002           7.25611e-003           2.56111e-004
                   46.50    340.99017                               10.76582             84.523                                        3.40990e+002           4.09902e+001           9.90174e-001           9.90174e-001           9.01741e-002           1.74058e-004           1.74058e-004
                   46.60    340.98643                               10.76582             84.523                                        3.40986e+002           4.09864e+001           9.86427e-001           9.86427e-001           8.64272e-002           6.42715e-003           4.27154e-004
                   46.70    340.98125                               10.76582             84.523                                        3.40981e+002           4.09813e+001           9.81252e-001           9.81252e-001           8.12524e-002           1.25245e-003           2.52445e-004
                   46.80    340.98735                               10.76582             84.523                                        3.40987e+002           4.09873e+001           9.87348e-001           9.87348e-001           8.73483e-002           7.34835e-003           3.48347e-004
