~Version Information Block
VERS .                 2.00:  CWLS LOG ASCII STANDARD - VERSION 2.00
WRAP .                   NO:  One line per depth step
~Well Information Block
#MNEM.UNIT        Data Type   Information
#---------- ----------------  -----------
STRT .M          3230.11800:  START DEPTH
STOP .M          3389.98560:  STOP DEPTH
STEP .M             0.15240:  STEP
NULL .              -999.25:  NULL VALUE
COMP .              Statoil:  COMPANY
WELL .          NO_15/9-F-4:  WELL
FLD  .                VOLVE:  FIELD
LOC  .            North Sea:  LOCATION
CTRY .                     :  COUNTRY
STAT .                     :  STATE
CNTY .                     :  COUNTY
SRVC .         Schlumberger:  SERVICE COMPANY
DATE .          13-Sep-2012:  DATE
API  .                     :  API NUMBER
UWI  .             15/9-F-4:  UNIQUE WELL ID
~Curve Information Block
#MNEM.UNIT         API CODE   Curve Description
#---------- ----------------  -----------------
DEPTH.M                    :  DEPTH (BOREHOLE)
CCLC .V                    :  CCL
CCLD .V                    :  CCL Discriminated Amplitude
CRRA .                     :  Near-Far Count Rate Ratio
CS   .F/MN                 :  Cable Speed
CVEL .M/MIN                 :  Cable Velocity
FBEF .UA                   :  RST Far Effective Beam Current
FCOR .                     :  RST Far Carbon/Oxygen Ratio
FERD .                     :  RST Far IC Mode Capture Optimization Resolution Degradation Factor
FIRD .                     :  RST Far Inelastic Optimization Resolution Degradation Factor
GR   .GAPI                 :  Gamma Ray
NCOR .                     :  RST Near Carbon/Oxygen Ratio
NERD .                     :  RST Near IC Mode Capture Optimization Resolution Degradation Factor
NIRD .                     :  RST Near Inelastic Optimization Resolution Degradation Factor
RB_PCMS.DEG                  :  Relative Bearing
TENS .LBF                  :  Cable Tension
WTEP .DEGC                 :  Well Temperature
WTPE .MS                   :  Well Temperature Period
~Parameter Information Block
#MNEM.UNIT            Value   Description
#---------- ----------------  -----------
APD  .M                  54:  Elevation of Depth Reference (LMF) above Permanent Datum
RUN  .                    1:  RUN NUMBER
PROJECT.     SLEIPNER_OST@st-vlinapp01:  
SET  .        RSTD_0912_IC3:  
~Other Information Block
# 
~A       DEPTH           CCLC           CCLD           CRRA             CS           CVEL           FBEF           FCOR           FERD           FIRD             GR           NCOR           NERD           NIRD        RB_PCMS           TENS           WTEP           WTPE 
# ...
    3252.97800         0.0027         0.0000         2.7849         1.3225       -0.40310       106.6676         0.0159         5.5049         5.5049        41.4657       0.004700         2.7404         2.7404       355.9395      2309.2383        95.9632         4.0236
    3253.13040         0.0011         0.0000         2.7864         1.3133       -0.40030       106.9104         0.1579         5.4774         5.4774        41.4931       0.043000         2.7610         2.7610       355.9330      2313.7085        95.9672         4.0237
    3253.28280         0.0084         0.0000         2.7871         1.2566       -0.38300       105.9911         0.1983         5.5713         5.5713        41.2188       0.018600         2.7777         2.7777       356.0390      2305.9473        95.9722         4.0237
    3253.43520         0.0016         0.0000         2.7695         1.4895       -0.45400       105.5185         0.0216         5.5923         5.5923        40.7610       0.013800         2.7671         2.7671       356.1061      2308.2915        95.9817         4.0238
    3253.58760         0.0034         0.0000         2.7539         1.5016       -0.45770       105.0282         0.0424         5.6243         5.6243        40.9657       0.026600         2.7671         2.7671       356.1581      2312.6421        95.9832         4.0238
    3253.74000         0.0038         0.0000         2.7506         1.5049       -0.45870       105.6097        -0.0940         5.5985         5.5985        39.8145       0.012400         2.7631         2.7631       355.9777      2308.3379        95.9886         4.0238
    3253.89240         0.1331         0.0000         2.7694         1.4888       -0.45380       105.5217        -0.0280         5.6885         5.6885        39.2973       0.059700         2.7995         2.7995       355.9835      2308.6855        95.9978         4.0239
    3254.04480         0.0039         0.0000         2.7545         1.4846       -0.45250       106.0850         0.0343         5.8434         5.8434        39.3380       0.030500         2.8031         2.8031       356.0417      2309.7732        96.0116         4.0241
    3254.19720         0.0021         0.0000         2.7674         1.4928       -0.45500       106.1188        -0.1397         5.8623         5.8623        39.7138       0.010800         2.8440         2.8440       356.0924      2304.0198        96.0150         4.0241
    3254.34960         0.0035         0.0000         2.7727         1.4875       -0.45340       105.6304         0.0352         5.8933         5.8933        39.1040       0.041600         2.9344         2.9344       356.1074      2317.2683        96.0198         4.0241
    3254.50200         0.0288         0.0000         2.7651         1.4895       -0.45400       106.0540         0.1420         5.7993         5.7993        39.3010       0.033100         2.9127         2.9127       355.9872      2306.0432        96.0307         4.0242
    3254.65440         0.0088         0.0000         2.7706         1.4491       -0.44170       105.7329        -0.1825         5.7556         5.7556        39.0668      -0.041200         2.8576         2.8576       355.6656      2306.3420        96.0379         4.0243
    3254.80680         0.0002         0.0000         2.7651         1.4915       -0.45460       106.1151         0.0457         5.7859         5.7859        38.3171       0.027700         2.9042         2.9042       355.6335      2302.2026        96.0380         4.0243
    3254.95920         0.0009         0.0000         2.7583         1.5056       -0.45890       106.9303        -0.2791         5.8083         5.8083        38.1116      -0.042400         2.8336         2.8336       355.6855      2297.7932        96.0452         4.0243
    3255.11160        -0.0919         0.0000         2.7867         1.4905       -0.45430       106.6205         0.0158         5.8290         5.8290        39.1484       0.029600         2.7781         2.7781       355.7611      2307.2185        96.0526         4.0244
    3255.26400        -0.0051         0.0000         2.7725         1.5036       -0.45830       107.6156         0.0619         5.8984         5.8984        39.0465       0.085900         2.7717         2.7717       355.7987      2320.3423        96.0598         4.0245
    3255.41640         0.0006         0.0006         2.8654         1.5007       -0.45740       109.8668        -0.2061         5.8957         5.8957        38.6150       0.008000         2.7634         2.7634       355.7747      2292.8162        96.0670         4.0245
    3255.56880        -0.6046        -0.6046         2.9516         1.4990       -0.45690       112.1231         0.0718         5.8990         5.8990        38.8761       0.046800         2.7505         2.7505       355.7664      2320.4768        96.0817         4.0247
    3255.72120         0.2919         0.0000         2.9999         1.5062       -0.45910       109.9388         0.2282         5.6825         5.6825        39.4776       0.036600         2.7303         2.7303       355.7623      2310.3992        96.0837         4.0247
    3255.87360         0.0277         0.0000         2.8902         1.5003       -0.45730       107.2300        -0.1714         5.6523         5.6523        38.5819       0.045500         2.7837         2.7837       355.8062      2307.1533        96.0829         4.0247
    3256.02600        -0.0052         0.0000         2.8089         1.5007       -0.45740       106.1107         0.0050         5.7093         5.7093        40.8131       0.000500         2.7492         2.7492       355.7172      2313.0400        96.0947         4.0248
    3256.17840        -0.0066         0.0000         2.7941         1.5030       -0.45810       107.0627         0.0282         5.6343         5.6343        41.0749       0.045000         2.7048         2.7048       355.6473      2309.5017        96.1026         4.0249
    3256.33080        -0.0060         0.0000         2.8120         1.5030       -0.45810       106.9808         0.0231         5.4742         5.4742        42.0975       0.082500         2.7777         2.7777       355.6837      2301.8962        96.1085         4.0249
    3256.48320         0.0685         0.0000         2.8075         1.4928       -0.45500       108.0601         0.1372         5.4031         5.4031        43.3297       0.096600         2.7968         2.7968       355.6994      2306.3989        96.1099         4.0249
    3256.63560         0.0000         0.0000         2.7963         1.5082       -0.45970       109.2245         0.0648         5.3508         5.3508        44.5685       0.021000         2.8150         2.8150       355.8238      2301.9197        96.1116         4.0249
    3256.78800        -0.0045         0.0000         2.8156         1.5131       -0.46120       108.1042        -0.0628         5.4787         5.4787        43.1515      -0.102100         2.7927         2.7927       355.8983      2308.3489        96.1180         4.0250
    3256.94040        -0.3078         0.0000         2.8076         1.5010       -0.45750       108.6276        -0.2157         5.3097         5.3097        43.7931       0.011700         2.7570         2.7570       356.0048      2302.9700        96.1178         4.0250
    3257.09280        -0.1414         0.0000         2.8154         1.5259       -0.46510       108.2399         0.1000         5.3826         5.3826        42.8078       0.005500         2.7083         2.7083       356.0696      2311.7456        96.1325         4.0251
    3257.24520        -0.0744         0.0000         2.8024         1.5200       -0.46330       108.7014         0.1325         5.2776         5.2776        40.7919      -0.024600         2.7111         2.7111       356.0318      2307.5137        96.1307         4.0251
    3257.39760        -0.0123         0.0000         2.8025         1.5157       -0.46200       108.6125        -0.1018         5.3549         5.3549        40.4806      -0.016800         2.7146         2.7146       356.0307      2307.5203        96.1407         4.0252
