~Version Information Block
VERS .                 2.00:  CWLS LOG ASCII STANDARD - VERSION 2.00
WRAP .                  YES:  Multiple lines per depth step
~Well Information Block
#MNEM.UNIT        Data Type   Information
#---------- ----------------  -----------
STRT .M          3438.44880:  START DEPTH
STOP .M          3636.26400:  STOP DEPTH
STEP .M             0.15240:  STEP
NULL .              -999.25:  NULL VALUE
COMP .              Statoil:  COMPANY
WELL .          NO_15/9-F-5:  WELL
FLD  .                Volve:  FIELD
LOC  .                Volve:  LOCATION
CTRY .               Norway:  COUNTRY
STAT .                     :  STATE
CNTY .                     :  COUNTY
SRVC .         Schlumberger:  SERVICE COMPANY
DATE .           11/03/2015:  DATE
API  .                     :  API NUMBER
UWI  .             15/9-F-5:  UNIQUE WELL ID
LATI .     58° 26' 29.66" N:  LATITUDE
LONG .      1° 53' 14.99" E:  LONGITUDE
~Curve Information Block
#MNEM.UNIT         API CODE   Curve Description
#---------- ----------------  -----------------
DEPTH.M                    :  Depth Index
BSAL .PPM                  :  (RST-D)                 (6in)                   Borehole Salinity
CCLC .V                    :  (PSTP-B)                (1in)                   CCL Computed Amplitude
CIRF .                     :  (RST-D)                 (6in)                   Capture to Inelastic Rat
CIRN .                     :  (RST-D)                 (6in)                   Capture to Inelastic Rat
CVEL .M/SEC                 :  (WLWorkflow)            (1in)                   Cable Velocity
DSIG .CU                   :  (RST-D)                 (6in)                   Sigma Difference
FBEF .UA                   :  (RST-D)                 (6in)                   Far Effective Beam Curre
GR   .GAPI                 :  (PSTP-B)                (6in)                   Gamma Ray
IRAT .                     :  (RST-D)                 (6in)                   Inelastic Ratio
RB_PCMS.DEG                  :  (PCMS-A)                (6in)                   Relative Bearing
RSCF .                     :  (RST-D)                 (6in)                   Far Detector Effective U
RSCN .                     :  (RST-D)                 (6in)                   Near Detector Effective
SFFA .CU                   :  (RST-D)                 (6in)                   Sigma Formation Far Appa
SIBF .CU                   :  (RST-D)                 (6in)                   Sigma Borehole Fluid
SIGM .CU                   :  (RST-D)                 (6in)                   Formation Sigma (Neutron
TENS .LBF                  :  (WLWorkflow)            (1in)                   Cable Tension
TPHI .V/V                  :  (RST-D)                 (6in)                   Thermal Decay Porosity
WPRE .BAR                  :  (PSTP-B)                (6in)                   Well Pressure
WTEP .DEGC                 :  (PSTP-B)                (6in)                   Well Temperature
~Parameter Information Block
#MNEM.UNIT            Value   Description
#---------- ----------------  -----------
APD  .M                  54:  Elevation of Depth Reference (LMF) Above Permanent Datum
CLAB .              Country:  :County Label
ECF  .M             -999.25:  Elevation of Casing Flange above Permanent Datum
EDF  .M                  54:  Elevation of Drill Floor Above Permanent Datum
EGL  .M                 -91:  Elevation of Ground Level Above Permanent Datum
EKB  .M             -999.25:  Elevation of Kelly Bushing Above Permanent Datum
EPD  .M                   0:  Elevation of Permanent Datum (PDAT) above Mean Sea Level
FL1  .            North Sea:  Field Location Line 1
FL2  .     Norwegian Sector:  Field Location Line 2
LMF  .                   DF:  Logging Measured From
LUL  .                 NOBO:  Logging Unit Location
LUN  .          ONCC-A 3837:  Logging Unit Number
PDAT .                  MSL:  Local Permanent Datum
RIGN .      Maersk Inspirer:  Rig Name
RIGTYP.               Jackup:  Rig Type
SON  .           C2TQ-00038:  Service Order Number
TAPE_NAME.     RST_SIGMA__03Nov15_171237.las:  
TOOL_STRING.              UNKNOWN:  
WN   .             15/9-F-5:  WELL NAME
PROJECT.     SLEIPNER_OST@st-vlinapp01:  
SET  .       RSTD_1115_SIG1:  
~Other Information Block
~Ascii Log Data
# ...
    3528.97440 
    30481.0508        -0.0104         2.4723       0.787280     -0.0790018 
       -0.2290       103.7825        13.9249       0.315410       352.6083 
        8.2377         7.8786        14.7102        32.7646        12.8838 
     4018.0012       0.215350       364.2325        81.1151
    3529.12680 
    30754.4805        -0.0300         2.6465       0.830060     -0.0784225 
       -0.1940       104.5640        15.4695       0.322580       352.3683 
        8.8968         8.3482        14.7159        32.8616        12.7978 
     4007.2510       0.210370       364.2369        81.0926
    3529.27920 
    30072.9102        -0.0637         2.6775       0.822810     -0.0774778 
       -0.2733       109.8843        16.4134       0.325020       352.2506 
        8.6117         8.4129        14.4825        32.6198        12.7818 
     3943.4006       0.201450       364.2481        81.0873
    3529.43160 
    30397.2207         0.0468         2.6420       0.821880     -0.0774748 
       -0.4322       106.8094        17.1235       0.324550       352.1441 
        8.8585         8.3293        14.6595        32.7348        12.7256 
     3999.2500       0.192110       364.2594        81.0887
    3529.58400 
    30272.5801        -0.0002         2.7579       0.808940     -0.0779032 
       -0.5902       112.7381        17.9816       0.323740       352.1302 
        8.5742         7.9631        14.5516        32.6906        12.7845 
     3984.5002       0.185990       364.2620        81.0850
    3529.73640 
    30280.0605        -0.0374         2.7736       0.824830     -0.0777163 
       -0.8249       109.1897        18.2331       0.320080       352.2715 
        8.7222         8.0806        14.6668        32.6933        12.6392 
     3987.0000       0.188660       364.2801        81.0842
    3529.88880 
    31013.2910         0.0391         2.7077       0.815690     -0.0779818 
       -0.9777       110.0830        16.7862       0.316940       352.4804 
        8.9302         8.7459        14.2268        32.9534        12.5419 
     4021.8005       0.194470       364.2815        81.0809
    3530.04120 
    30477.7402         0.0195         2.7705       0.822890     -0.0782477 
       -0.9308       107.7993        16.3572       0.317870       352.5070 
        9.2891         8.6934        14.2510        32.7634        12.4758 
     3903.6006       0.203230       364.2927        81.0766
    3530.19360 
    31005.2500        -0.0454         2.7265       0.841710     -0.0774700 
       -0.8379       109.5968        16.3572       0.319160       352.3661 
        8.8574         8.5220        14.4643        32.9506        12.5540 
     3971.4006       0.209180       364.3071        81.0773
    3530.34600 
    31449.6406        -0.0424         2.6822       0.854280     -0.0774662 
       -0.8218       109.1113        16.3572       0.320730       352.3211 
        8.5395         8.2478        14.4574        33.1083        12.6669 
     3951.7996       0.213150       364.3111        81.0780
    3530.49840 
    31727.0293        -0.0632         2.7244       0.836280     -0.0767195 
       -0.8055       108.6262        17.3484       0.320930       352.2455 
        8.5851         8.0612        14.5884        33.2069        12.8167 
     3953.6003       0.211620       364.3244        81.0776
    3530.65080 
    31567.0391         0.0249         2.6517       0.816570     -0.0777240 
       -0.7395       106.6303        18.3663       0.320430       352.1204 
        8.7251         8.2723        14.9132        33.1501        12.8972 
     3996.7996       0.209230       364.3332        81.0609
    3530.80320 
    31444.0801        -0.0070         2.7030       0.834910     -0.0774817 
       -0.7254       107.8597        17.8603       0.321400       352.0141 
        8.7189         8.1845        14.7000        33.1064        12.9815 
     3965.8005       0.208750       364.3384        81.0570
    3530.95560 
    30604.5898        -0.1060         2.6845       0.834950     -0.0774750 
       -0.6903       111.4250        17.9905       0.318930       352.0054 
        8.4983         8.0991        14.8411        32.8084        12.9069 
     4002.7502       0.211400       364.3552        81.0519
    3531.10800 
    30751.8398         0.0675         2.6794       0.834370     -0.0767042 
       -0.6877       108.4779        17.3928       0.318590       352.2430 
        8.5659         8.3098        14.6830        32.8606        12.8078 
     3991.7998       0.215140       364.3587        81.0486
    3531.26040 
    31181.0605         0.1117         2.7416       0.843770     -0.0764540 
       -0.6527       108.7182        17.2596       0.317840       352.5154 
        8.6031         8.1300        14.3930        33.0130        12.7131 
     3949.0007       0.215460       364.3690        81.0410
    3531.41280 
    31046.2695         0.0245         2.6870       0.839970     -0.0762063 
       -0.5924       108.0977        16.9164       0.317840       352.3133 
        8.7022         8.3679        14.5460        32.9651        12.6189 
     4038.3330       0.216230       364.3820        81.0432
    3531.56520 
    31434.1113        -0.0363         2.6937       0.821030     -0.0782358 
       -0.4361       109.8999        17.5378       0.317550       352.0318 
        8.5359         8.0222        14.3926        33.1028        12.7346 
     4006.5989       0.213140       364.3875        81.0404
    3531.71760 
    31334.9395        -0.0191         2.7239       0.839380     -0.0777280 
       -0.4277       111.7249        15.7358       0.316200       352.1141 
        8.4024         8.0618        14.7421        33.0676        12.8570 
     3940.9998       0.208800       364.3999        81.0387
    3531.87000 
    31197.0605         0.0686         2.8265       0.852490     -0.0774738 
       -0.4385       109.7005        16.8898       0.318730       352.3918 
        8.8171         8.1822        14.9114        33.0187        12.9693 
     4005.2007       0.201700       364.4068        81.0383
    3532.02240 
    31054.8496        -0.0171         2.7503       0.822150     -0.0771573 
       -0.4958       107.8211        16.4607       0.317500       352.6302 
        8.6700         7.9673        14.7309        32.9682        12.8486 
     3977.2502       0.195730       364.4173        81.0281
    3532.17480 
    31095.0117         0.0185         2.8411       0.835790     -0.0782360 
       -0.5450       106.1929        17.2330       0.320420       352.6870 
        9.2479         8.2619        14.3820        32.9824        12.4868 
     3936.6001       0.194330       364.4277        81.0182
    3532.32720 
    30690.7402         0.0192         2.7022       0.815480     -0.0777923 
       -0.5794       103.8532        16.9460       0.321840       352.7197 
        9.1362         8.2510        13.8275        32.8390        12.4936 
     3957.7502       0.192180       364.4357        81.0059
    3532.47960 
    31187.3789        -0.0141         2.6634       0.810190     -0.0774738 
       -0.6186       107.2401        19.5203       0.325580       352.5640 
        8.6621         7.9563        14.7504        33.0152        12.6915 
     4000.6011       0.193490       364.4455        81.0047
    3532.63200 
    30740.4707         0.0349         2.6854       0.821260     -0.0772238 
       -0.7005       106.7793        19.6978       0.322460       352.5697 
        8.4324         7.6594        14.9733        32.8566        13.1687 
     3994.6008       0.194220       364.4545        81.0097
    3532.78440 
    30708.4297        -0.0414         2.6078       0.803520     -0.0777202 
       -0.6908       109.3207        20.7276       0.320200       352.6395 
        8.0666         7.8508        15.2571        32.8452        13.3269 
     3957.9998       0.198430       364.4663        81.0097
    3532.93680 
    31385.2285         0.0209         2.6152       0.796090     -0.0787478 
       -0.7342       108.7761        20.9672       0.320640       352.5251 
        8.3917         7.9681        15.2234        33.0855        13.3973 
     3932.4006       0.196750       364.4756        81.0042
