~Version Information Block
VERS .                 2.00:  CWLS LOG ASCII STANDARD - VERSION 2.00
WRAP .                   NO:  One line per depth step
~Well Information Block
#MNEM.UNIT        Data Type   Information
#---------- ----------------  -----------
STRT .M          3461.15640:  START DEPTH
STOP .M          3535.07040:  STOP DEPTH
STEP .M             0.15240:  STEP
NULL .              -999.25:  NULL VALUE
COMP .              Statoil:  COMPANY
WELL .          NO_15/9-F-5:  WELL
FLD  .                Volve:  FIELD
LOC  .                Volve:  LOCATION
CTRY .               Norway:  COUNTRY
STAT .                     :  STATE
CNTY .                     :  COUNTY
SRVC .         Schlumberger:  SERVICE COMPANY
DATE .          03-Nov-2015:  DATE
API  .                     :  API NUMBER
UWI  .             15/9-F-5:  UNIQUE WELL ID
LATI .     58° 26' 29.66" N:  LATITUDE
LONG .      1° 53' 14.99" E:  LONGITUDE
~Curve Information Block
#MNEM.UNIT         API CODE   Curve Description
#---------- ----------------  -----------------
DEPTH.M                    :  DEPTH (BOREHOLE)
CRRA .                     :  Near/Far Count Rate Ratio
CVEL .M/SEC                 :  Cable Velocity
FBEF .UA                   :  Far Effective Beam Current
FCOR .                     :  Far Carbon/Oxygen Ratio
FIRD .                     :  Far Inelastic Optimization Resolution Degradation Factor
NCOR .                     :  Near Carbon/Oxygen Ratio
NIRD .                     :  Near Inelastic Optimization Resolution Degradation Factor
RB_PCMS.DEG                  :  Relative Bearing
WPRE .BAR                  :  Well Pressure
WTEP .DEGC                 :  Well Temperature
~Parameter Information Block
#MNEM.UNIT            Value   Description
#---------- ----------------  -----------
APD  .M                  54:  Elevation of Depth Reference (LMF) above Permanent Datum
EPD  .C3                  0:  Elevation of Permanent Datum above Mean Sea Level
LMF  .                   DF:  Logging Measured From (Name of Logging Elevation Reference)
PDAT .                  MSL:  Permanent Datum
RUN  .                Run 1:  RUN NUMBER
TAPE_NAME.     ConCu_R02_L004Up_RST_PCMS_PSTP.las:  
TOOL_STRING.              UNKNOWN:  
WN   .             15/9-F-5:  WELL
PROJECT.     SLEIPNER_OST@st-vlinapp01:  
SET  .        RSTD_1115_IC1:  
~Other Information Block
# 
~A       DEPTH           CRRA           CVEL           FBEF           FCOR           FIRD           NCOR           NIRD        RB_PCMS           WPRE           WTEP 
# ...
    3476.09160         2.8986     -0.0099233       129.1421    -0.01660000         6.7177     0.05190000         4.3844       354.6835       360.2376        84.1889
    3476.24400         2.8552     -0.0099833       128.8474     0.01260000         6.5979     0.02600000         4.3580       354.6961       360.2490        84.1919
    3476.39640         2.8355     -0.0098783       128.0109     0.09800000         6.6570     0.10930000         4.3794       354.8121       360.2584        84.1999
    3476.54880         2.8342     -0.0099733       128.5224     0.11030000         6.6283     0.01100000         4.3876       354.8281       360.2712        84.2050
    3476.70120         2.8419     -0.0100317       127.6800     0.10350000         6.6181     0.02570000         4.3800       354.7379       360.2837        84.2120
    3476.85360         2.8199     -0.0100217       128.6869    -0.00120000         6.6775    -0.05740000         4.3457       354.8586       360.2943        84.2141
    3477.00600         2.8285     -0.0100550       129.2195    -0.06800000         6.7150    -0.02440000         4.3080       354.8430       360.3044        84.2194
    3477.15840         2.8605     -0.0099667       128.9599     0.02930000         6.6931     0.01140000         4.2944       354.9517       360.3182        84.2153
    3477.31080         2.8524     -0.0099817       129.2095     0.02720000         6.6733     0.05920000         4.2816       354.9887       360.3290        84.2236
    3477.46320         2.8552     -0.0099350       129.4899     0.10990000         6.6873     0.10590000         4.2537       354.9140       360.3412        84.2308
    3477.61560         2.8522     -0.0100433       128.9790     0.10960000         6.7108     0.09330000         4.2176       354.6877       360.3531        84.2344
    3477.76800         2.8476     -0.0099450       127.4795     0.05700000         6.6311     0.04100000         4.1925       354.6009       360.3637        84.2372
    3477.92040         2.8397     -0.0099400       129.7228    -0.18640000         6.6611     0.05990000         4.1995       354.4973       360.3740        84.2351
    3478.07280         2.8636     -0.0099083       129.0205    -0.00650000         6.6514    -0.02240000         4.1788       354.4626       360.3869        84.2387
    3478.22520         2.8397     -0.0098433       129.9971    -0.03730000         6.6270     0.09850000         4.1526       354.4695       360.3958        84.2425
    3478.37760         2.8707     -0.0098033       130.3973     0.00230000         6.6462     0.01050000         4.1847       354.4643       360.4104        84.2444
    3478.53000         2.8988     -0.0097783       131.4938     0.10510000         6.4840     0.01720000         4.1889       354.4977       360.4185        84.2481
    3478.68240         2.8805     -0.0097233       133.2689    -0.11590000         6.5270     0.00360000         4.1685       354.5875       360.4317        84.2487
    3478.83480         2.9407     -0.0097633       133.0525     0.05950000         6.6001    -0.05760000         4.1899       354.7724       360.4428        84.2561
    3478.98720         2.9656     -0.0097650       134.3909     0.14309999         6.4433     0.01640000         4.1791       354.6390       360.4543        84.2566
    3479.13960         2.9744     -0.0097500       132.5792    -0.20190001         6.2846     0.04510000         4.1842       354.6365       360.4659        84.2577
    3479.29200         2.9261     -0.0098283       133.1492     0.15650000         6.2703     0.04040000         4.1863       354.7238       360.4787        84.2584
    3479.44440         2.9261     -0.0096550       132.7939     0.01130000         6.1710    -0.00620000         4.1957       354.4772       360.4898        84.2608
    3479.59680         2.9129     -0.0097167       133.3803    -0.01710000         6.1522     0.04400000         4.2424       354.3889       360.5031        84.2613
    3479.74920         2.9353     -0.0096817       133.0189    -0.11090000         6.2321    -0.00470000         4.2428       354.2963       360.5105        84.2689
    3479.90160         2.9190     -0.0097600       132.6808     0.15180001         6.1154     0.03100000         4.2103       354.2608       360.5226        84.2705
    3480.05400         2.9120     -0.0098233       132.9583    -0.08980000         6.1336     0.13510001         4.2562       354.2716       360.5356        84.2698
    3480.20640         2.9056     -0.0098150       132.9744     0.07980000         6.1529    -0.08770000         4.2754       354.2115       360.5456        84.2727
    3480.35880         2.9008     -0.0097333       133.0036     0.02390000         6.1149    -0.04450000         4.3077       354.1325       360.5577        84.2730
    3480.51120         2.9071     -0.0097250       132.0878    -0.00840000         6.0660     0.00200000         4.2880       354.1479       360.5693        84.2738
    3480.66360         2.8993     -0.0096700       133.6590     0.06310000         6.0197     0.05990000         4.2862       354.0800       360.5803        84.2718
    3480.81600         2.9428     -0.0096950       137.2527    -0.11690000         5.9960     0.00560000         4.3103       353.8413       360.5911        84.2704
    3480.96840         3.1251     -0.0097283       138.0756     0.10670000         6.0607    -0.01050000         4.3331       353.7772       360.6038        84.2734
    3481.12080         3.1290     -0.0096983       136.9860     0.17839999         6.0673     0.05530000         4.3421       353.9508       360.6152        84.2763
    3481.27320         3.0297     -0.0096983       133.9494    -0.02670000         6.0488     0.02670000         4.3065       353.9518       360.6267        84.2717
    3481.42560         2.9367     -0.0097933       131.9200    -0.19679999         6.1459     0.06160000         4.3113       354.0250       360.6362        84.2728
    3481.57800         2.8984     -0.0097400       131.6787    -0.06830000         6.0251     0.00830000         4.2933       354.1863       360.6501        84.2709
    3481.73040         2.8853     -0.0097900       131.5830     0.16290000         5.9978     0.02430000         4.3427       354.0648       360.6590        84.2711
    3481.88280         2.8775     -0.0096517       130.4643    -0.06770000         5.9133    -0.09510000         4.3854       353.9943       360.6726        84.2726
    3482.03520         2.8441     -0.0097617       130.4679     0.00910000         5.7468     0.10890000         4.3787       353.9824       360.6835        84.2781
    3482.18760         2.8672     -0.0097983       129.8305    -0.17399999         5.7219    -0.09960000         4.3487       353.8478       360.6937        84.2762
    3482.34000         2.8374     -0.0098233       130.7509     0.09370000         5.5805     0.01910000         4.3485       353.8044       360.7073        84.2739
    3482.49240         2.8570     -0.0098233       130.5320     0.11780000         5.6179     0.00280000         4.3874       353.7598       360.7177        84.2714
    3482.64480         2.8538     -0.0097683       131.1829     0.11290000         5.6083     0.07290000         4.3907       353.7984       360.7293        84.2725
    3482.79720         2.8705     -0.0098167       130.6814     0.05510000         5.5776     0.05130000         4.3600       353.8477       360.7394        84.2675
    3482.94960         2.8781     -0.0098333       130.5957     0.17129999         5.6031     0.04610000         4.3607       353.8243       360.7532        84.2632
    3483.10200         2.8653     -0.0098300       130.6558     0.00330000         5.6238     0.08710000         4.3738       353.6538       360.7650        84.2630
    3483.25440         2.8801     -0.0098067       129.5702    -0.00730000         5.6920     0.06210000         4.3604       353.6921       360.7754        84.2649
    3483.40680         2.8515     -0.0098083       130.6208     0.18040000         5.6722    -0.05850000         4.4126       353.9834       360.7862        84.2677
