~Version Information Block
VERS .                 2.00:  CWLS LOG ASCII STANDARD - VERSION 2.00
WRAP .                   NO:  One line per depth step
~Well Information Block
#MNEM.UNIT        Data Type   Information
#---------- ----------------  -----------
STRT .M          3470.91000:  START DEPTH
STOP .M          3530.04120:  STOP DEPTH
STEP .M             0.15240:  STEP
NULL .              -999.25:  NULL VALUE
COMP .              Statoil:  COMPANY
WELL .          NO_15/9-F-5:  WELL
FLD  .                Volve:  FIELD
LOC  .                Volve:  LOCATION
CTRY .               Norway:  COUNTRY
STAT .                     :  STATE
CNTY .                     :  COUNTY
SRVC .         Schlumberger:  SERVICE COMPANY
DATE .           11/03/2015:  DATE
API  .                     :  API NUMBER
UWI  .             15/9-F-5:  UNIQUE WELL ID
LATI .     58° 26' 29.66" N:  LATITUDE
LONG .      1° 53' 14.99" E:  LONGITUDE
~Curve Information Block
#MNEM.UNIT         API CODE   Curve Description
#---------- ----------------  -----------------
DEPTH.M                    :  Depth Index
CCLC .V                    :  (PSTP-B)                (1in)                   CCL Computed Amplitude
CVEL .M/SEC                 :  (WLWorkflow)            (1in)                   Cable Velocity
FBEF .UA                   :  (RST-D)                 (6in)                   Far Effective Beam Curre
FCOR .                     :  (RST-D)                 (6in)                   Far Carbon/Oxygen Ratio
FERD .                     :  (RST-D)                 (6in)                   Far IC Mode Capture Opti
FIRD .                     :  (RST-D)                 (6in)                   Far Inelastic Optimizati
GR   .GAPI                 :  (PSTP-B)                (6in)                   Gamma Ray
NCOR .                     :  (RST-D)                 (6in)                   Near Carbon/Oxygen Ratio
NERD .                     :  (RST-D)                 (6in)                   Near IC Mode Capture Opt
NIRD .                     :  (RST-D)                 (6in)                   Near Inelastic Optimizat
RB_PCMS.DEG                  :  (PCMS-A)                (6in)                   Relative Bearing
TENS .LBF                  :  (WLWorkflow)            (1in)                   Cable Tension
WPRE .BAR                  :  (PSTP-B)                (6in)                   Well Pressure
WTEP .DEGC                 :  (PSTP-B)                (6in)                   Well Temperature
~Parameter Information Block
#MNEM.UNIT            Value   Description
#---------- ----------------  -----------
APD  .M                  54:  Elevation of Depth Reference (LMF) Above Permanent Datum
CLAB .              Country:  :County Label
ECF  .M             -999.25:  Elevation of Casing Flange above Permanent Datum
EDF  .M                  54:  Elevation of Drill Floor Above Permanent Datum
EGL  .M                 -91:  Elevation of Ground Level Above Permanent Datum
EKB  .M             -999.25:  Elevation of Kelly Bushing Above Permanent Datum
EPD  .M                   0:  Elevation of Permanent Datum (PDAT) above Mean Sea Level
FL1  .            North Sea:  Field Location Line 1
FL2  .     Norwegian Sector:  Field Location Line 2
LMF  .                   DF:  Logging Measured From
LUL  .                 NOBO:  Logging Unit Location
LUN  .          ONCC-A 3837:  Logging Unit Number
PDAT .                  MSL:  Local Permanent Datum
RIGN .      Maersk Inspirer:  Rig Name
RIGTYP.               Jackup:  Rig Type
SON  .           C2TQ-00038:  Service Order Number
TAPE_NAME.     RST_IC_Pass3___03Nov15_234906.las:  
TOOL_STRING.              UNKNOWN:  
WN   .             15/9-F-5:  WELL NAME
PROJECT.     SLEIPNER_OST@st-vlinapp01:  
SET  .        RSTD_1115_IC3:  
~Other Information Block
# 
~A       DEPTH           CCLC           CVEL           FBEF           FCOR           FERD           FIRD             GR           NCOR           NERD           NIRD        RB_PCMS           TENS           WPRE           WTEP 
# ...
    3498.34200      -0.004760    -0.00915633       127.6222       0.051790         5.8006         5.8006       125.7044       0.043380         4.2353         4.2353       352.3937      3734.0474       360.4999        83.5207
    3498.49440      -0.015100    -0.00870117       128.1714       0.034780         5.9065         5.9065       126.4653       0.049340         4.2186         4.2186       352.3452      3868.1909       360.5116        83.5143
    3498.64680      -0.004990    -0.00857983       128.4768      -0.014290         5.6677         5.6677       130.3330       0.142030         4.1673         4.1673       352.3203      3770.0212       360.5261        83.5119
    3498.79920      -0.004320    -0.00849550       129.6066       0.061610         5.5798         5.5798       134.2221       0.143240         4.1423         4.1423       352.2637      3842.0229       360.5338        83.5070
    3498.95160      -0.004850    -0.00865400       129.3965       0.070030         5.6172         5.6172       134.0533       0.050900         4.1602         4.1602       352.1922      3969.1165       360.5473        83.5028
    3499.10400      -0.004240    -0.00871350       129.8783      -0.113850         5.6075         5.6075       133.9896       0.032240         4.1343         4.1343       352.2105      3974.4424       360.5594        83.5021
    3499.25640       0.010950    -0.00889033       129.0783       0.030290         5.5649         5.5649       135.5853       0.086020         4.1115         4.1115       352.3201      4058.1836       360.5664        83.4957
    3499.40880      -0.003530    -0.00908083       128.5635       0.074970         5.6023         5.6023       133.2624       0.103020         4.1062         4.1062       352.4375      4192.9497       360.5819        83.4926
    3499.56120      -0.004080    -0.00931400       127.0059       0.088460         5.6324         5.6324       134.5103       0.041700         4.1680         4.1680       352.6963      4109.7617       360.5909        83.4879
    3499.71360      -0.005670    -0.00930300       128.0141      -0.152480         5.4810         5.4810       132.9358       0.043420         4.2021         4.2021       352.6604      4176.9502       360.6027        83.4831
    3499.86600       0.003870    -0.00985967       126.6486       0.069410         5.3247         5.3247       130.0652       0.044060         4.1927         4.1927       352.6298      4031.9731       360.6116        83.4760
    3500.01840      -0.025630    -0.00935517       124.9411       0.020170         5.2600         5.2600       128.1629       0.067190         4.1643         4.1643       352.8317      4006.0234       360.6259        83.4721
    3500.17080      -0.006380    -0.00938617       121.7420       0.090760         5.2479         5.2479       127.1373       0.018000         4.2016         4.2016       352.8264      3991.4873       360.6380        83.4709
    3500.32320      -0.007580    -0.00903817       121.0804      -0.020200         5.4117         5.4117       124.2171       0.052400         4.2102         4.2102       352.7818      3880.1394       360.6463        83.4659
    3500.47560       0.142970    -0.00897317       118.8880       0.159060         5.4043         5.4043       120.1397       0.012140         4.2140         4.2140       352.8546      3916.0864       360.6570        83.4561
    3500.62800      -0.005290    -0.00916250       120.2312       0.097640         5.4071         5.4071       117.6316       0.072930         4.2675         4.2675       352.9221      3758.2861       360.6700        83.4514
    3500.78040      -0.004780    -0.00874950       123.2750       0.008410         5.3779         5.3779       115.7029       0.014550         4.2345         4.2345       352.7582      3782.0439       360.6795        83.4479
    3500.93280       0.009290    -0.00875233       124.5538       0.113020         5.3630         5.3630       111.8986      -0.000950         4.2303         4.2303       352.4870      3841.4790       360.6902        83.4407
    3501.08520      -0.004290    -0.00862033       124.2350       0.067050         5.3272         5.3272       107.9970       0.057570         4.2128         4.2128       351.9820      3935.3188       360.7036        83.4294
    3501.23760      -0.004810    -0.00862467       124.0974       0.078020         5.3830         5.3830       106.5355       0.138890         4.1636         4.1636       351.9895      3915.1152       360.7150        83.4234
    3501.39000      -0.000140    -0.00859500       124.6768       0.103210         5.3416         5.3416       104.8292       0.037580         4.1394         4.1394       351.9803      4062.8372       360.7279        83.4130
    3501.54240      -0.000570    -0.00864250       124.6741       0.127960         5.2144         5.2144       101.9639       0.080090         4.1021         4.1021       351.8667      4031.1953       360.7365        83.3906
    3501.69480      -0.000420    -0.00923933       124.7443      -0.147000         5.2818         5.2818       104.9834       0.029200         4.0942         4.0942       352.0753      4000.4504       360.7477        83.3766
    3501.84720      -0.005850    -0.00962067       125.0780       0.143170         5.3141         5.3141       107.0388       0.012520         4.1265         4.1265       352.2426      4138.8745       360.7588        83.3707
    3501.99960      -0.005980    -0.00939817       124.3004       0.004810         5.3716         5.3716       108.4181       0.016320         4.1468         4.1468       352.3677      4097.7993       360.7696        83.3673
    3502.15200      -0.006810    -0.00954083       124.8242       0.071060         5.3899         5.3899       108.5451       0.094760         4.0993         4.0993       352.4004      4138.0244       360.7810        83.3524
    3502.30440       0.036580    -0.00944800       125.1366       0.036030         5.5059         5.5059       111.6131       0.065420         4.1661         4.1661       352.5699      3978.8284       360.7944        83.3346
    3502.45680       0.031650    -0.00930367       125.8038      -0.082040         5.5639         5.5639       110.0308       0.123860         4.1564         4.1564       352.7591      3938.8596       360.8040        83.3105
    3502.60920      -0.031300    -0.00900583       126.5351       0.028980         5.6432         5.6432       108.6136       0.135710         4.1343         4.1343       352.8858      3949.8413       360.8189        83.3070
    3502.76160      -0.006140    -0.00891983       126.8229       0.076320         5.6365         5.6365       109.7624       0.002740         4.1065         4.1065       352.9807      3841.4409       360.8265        83.3012
    3502.91400      -0.005990    -0.00872100       128.2844       0.066110         5.5254         5.5254       111.1947       0.063270         4.0704         4.0704       353.1006      3818.0898       360.8388        83.2892
    3503.06640      -0.005950    -0.00868367       129.1258      -0.009720         5.5205         5.5205       110.1135      -0.061040         4.0650         4.0650       353.2323      3845.6738       360.8494        83.2773
    3503.21880       0.013750    -0.00840400       127.3474       0.208530         5.5348         5.5348       112.5708      -0.002360         4.0272         4.0272       353.2573      3858.6814       360.8605        83.2579
    3503.37120       0.014420    -0.00862450       127.4157       0.170080         5.6636         5.6636       115.0235       0.063570         4.0566         4.0566       353.1605      3915.7671       360.8684        83.2354
    3503.52360      -0.005320    -0.00865400       127.5537      -0.013040         5.6155         5.6155       118.0437       0.035370         4.1063         4.1063       353.1834      3961.9070       360.8875        83.2327
    3503.67600       0.014140    -0.00882850       127.3103       0.075400         5.6374         5.6374       117.1191       0.049660         4.0999         4.0999       353.2148      3953.2427       360.8951        83.2179
