~Version Information Block
VERS .                 2.00:  CWLS LOG ASCII STANDARD - VERSION 2.00
WRAP .                  YES:  Multiple lines per depth step
~Well Information Block
#MNEM.UNIT        Data Type   Information
#---------- ----------------  -----------
STRT .M          3438.44880:  START DEPTH
STOP .M          3636.26400:  STOP DEPTH
STEP .M             0.15240:  STEP
NULL .              -999.25:  NULL VALUE
COMP .              Statoil:  COMPANY
WELL .          NO_15/9-F-5:  WELL
FLD  .                Volve:  FIELD
LOC  .                Volve:  LOCATION
CTRY .               Norway:  COUNTRY
STAT .                     :  STATE
CNTY .                     :  COUNTY
SRVC .         Schlumberger:  SERVICE COMPANY
DATE .           11/03/2015:  DATE
API  .                     :  API NUMBER
UWI  .             15/9-F-5:  UNIQUE WELL ID
LATI .     58° 26' 29.66" N:  LATITUDE
LONG .      1° 53' 14.99" E:  LONGITUDE
~Curve Information Block
#MNEM.UNIT         API CODE   Curve Description
#---------- ----------------  -----------------
DEPTH.M                    :  Depth Index
BSAL .PPM                  :  (RST-D)                 (6in)                   Borehole Salinity
CCLC .V                    :  (PSTP-B)                (1in)                   CCL Computed Amplitude
CIRF .                     :  (RST-D)                 (6in)                   Capture to Inelastic Rat
CIRN .                     :  (RST-D)                 (6in)                   Capture to Inelastic Rat
CVEL .M/SEC                 :  (WLWorkflow)            (1in)                   Cable Velocity
DSIG .CU                   :  (RST-D)                 (6in)                   Sigma Difference
FBEF .UA                   :  (RST-D)                 (6in)                   Far Effective Beam Curre
GR   .GAPI                 :  (PSTP-B)                (6in)                   Gamma Ray
IRAT .                     :  (RST-D)                 (6in)                   Inelastic Ratio
RB_PCMS.DEG                  :  (PCMS-A)                (6in)                   Relative Bearing
RSCF .                     :  (RST-D)                 (6in)                   Far Detector Effective U
RSCN .                     :  (RST-D)                 (6in)                   Near Detector Effective
SFFA .CU                   :  (RST-D)                 (6in)                   Sigma Formation Far Appa
SIBF .CU                   :  (RST-D)                 (6in)                   Sigma Borehole Fluid
SIGM .CU                   :  (RST-D)                 (6in)                   Formation Sigma (Neutron
TENS .LBF                  :  (WLWorkflow)            (1in)                   Cable Tension
TPHI .V/V                  :  (RST-D)                 (6in)                   Thermal Decay Porosity
WPRE .BAR                  :  (PSTP-B)                (6in)                   Well Pressure
WTEP .DEGC                 :  (PSTP-B)                (6in)                   Well Temperature
~Parameter Information Block
#MNEM.UNIT            Value   Description
#---------- ----------------  -----------
APD  .M                  54:  Elevation of Depth Reference (LMF) Above Permanent Datum
CLAB .              Country:  :County Label
ECF  .M             -999.25:  Elevation of Casing Flange above Permanent Datum
EDF  .M                  54:  Elevation of Drill Floor Above Permanent Datum
EGL  .M                 -91:  Elevation of Ground Level Above Permanent Datum
EKB  .M             -999.25:  Elevation of Kelly Bushing Above Permanent Datum
EPD  .M                   0:  Elevation of Permanent Datum (PDAT) above Mean Sea Level
FL1  .            North Sea:  Field Location Line 1
FL2  .     Norwegian Sector:  Field Location Line 2
LMF  .                   DF:  Logging Measured From
LUL  .                 NOBO:  Logging Unit Location
LUN  .          ONCC-A 3837:  Logging Unit Number
PDAT .                  MSL:  Local Permanent Datum
RIGN .      Maersk Inspirer:  Rig Name
RIGTYP.               Jackup:  Rig Type
SON  .           C2TQ-00038:  Service Order Number
TAPE_NAME.     RST_SIGMA__03Nov15_171237.las:  
TOOL_STRING.              UNKNOWN:  
WN   .             15/9-F-5:  WELL NAME
PROJECT.     SLEIPNER_OST@st-vlinapp01:  
SET  .       RSTD_1115_SIG1:  
~Other Information Block
~Ascii Log Data
# ...
    3491.94120 
    39213.9570        -0.0522         2.5724       0.807640     -0.0792520 
       -0.5898       105.5436        18.9522       0.316370       353.5803 
        8.4807         8.0712        15.3306        35.8788        13.5257 
     3912.3994       0.225940       361.8420        83.3622
    3492.09360 
    38777.7227        -0.0102         2.6563       0.784410     -0.0781148 
       -0.7175       110.8117        19.1238       0.313310       353.8076 
        8.1586         7.7871        15.5041        35.7225        13.5947 
     3888.2505       0.228780       361.8504        83.3503
    3492.24600 
    39188.8867        -0.0078         2.5325       0.783450     -0.0787450 
       -0.8123       108.0747        18.8575       0.314210       353.8043 
        7.7448         7.5257        15.2350        35.8699        14.1061 
     3944.0010       0.234550       361.8611        83.3467
    3492.39840 
    39840.8008         0.0757         2.3540       0.772960     -0.0768447 
       -0.6721       104.5006        20.1328       0.320930       353.7685 
        7.5855         7.5165        16.8696        36.1037        14.7880 
     4058.2510       0.248660       361.8718        83.3360
    3492.55080 
    39921.6602        -0.0407         2.2407       0.760590     -0.0774700 
       -0.6392       104.5217        22.7071       0.323470       353.6905 
        7.5029         7.7531        17.5666        36.1327        15.8263 
     4034.2009       0.270050       361.8816        83.3313
    3492.70320 
    40448.7305        -0.0822         2.0466       0.753470     -0.0787440 
       -0.4777       107.4668        23.2397       0.317340       353.5602 
        6.4920         7.3432        18.3888        36.3218        17.1839 
     3969.3999       0.301010       361.8924        83.3288
    3492.85560 
    40674.9688        -0.0222         1.8212       0.673020     -0.0777278 
       -0.0674       110.1609        25.3850       0.302670       353.6561 
        5.6822         6.7077        21.0084        36.4031        19.2953 
     4058.3994       0.333060       361.8966        83.3255
    3493.00800 
    40934.1094        -0.0626         1.4486       0.549530     -0.0777318 
        0.6525       114.0023        27.8705       0.289210       353.6883 
        4.4653         5.9017        23.9969        36.4962        21.8389 
     3949.2007       0.366120       361.9139        83.3079
    3493.16040 
    41501.7695         1.6224         1.1953       0.488740     -0.0767118 
        1.0205       113.0931        30.3560       0.291590       353.6071 
        3.7318         5.3065        26.1370        36.7001        23.5617 
     3895.3994       0.388820       361.9224        83.2861
    3493.31280 
    41425.8789         0.0064         1.1322       0.535640     -0.0779780 
        1.7589       109.4843        33.1966       0.304340       353.4454 
        3.5018         5.1805        26.3261        36.6729        24.6334 
     3900.1992       0.386990       361.9301        83.2667
    3493.46520 
    41438.3086         0.0115         1.2092       0.528330     -0.0774778 
        2.7620       106.3425        35.8597       0.317910       353.3970 
        3.9489         5.3376        27.3621        36.6773        25.0302 
     3893.4009       0.357190       361.9433        83.2629
    3493.61760 
    41441.2188         0.0069         1.2558       0.477110     -0.0774662 
        3.4726       104.3796        40.2360       0.316660       353.4627 
        4.1495         4.7900        27.4439        36.6784        24.9608 
     3913.5999       0.320270       361.9495        83.2467
    3493.77000 
    41967.1797        -0.0034         1.2461       0.463950     -0.0774738 
        4.1314       104.8606        41.3012       0.314070       353.4700 
        3.9667         4.5882        26.1947        36.8675        25.4205 
     3837.0007       0.289070       361.9657        83.2362
    3493.92240 
    42501.9688        -0.0362         1.2342       0.468290     -0.0769698 
        4.7501       108.7605        39.8809       0.312720       353.4149 
        3.8008         4.5792        28.7931        37.0599        25.1574 
     3793.7993       0.265010       361.9688        83.2292
    3494.07480 
    43039.4766        -0.0253         1.2332       0.436570     -0.0777278 
        5.0344       104.5076        37.3717       0.315820       353.4618 
        4.0000         4.2995        26.6724        37.2534        24.7222 
     3969.3999       0.235920       361.9813        83.2204
    3494.22720 
    42837.8789        -0.0693         1.4519       0.463240     -0.0768398 
        5.2630       103.2418        35.2603       0.318490       353.4872 
        4.9034         4.8039        24.8757        37.1808        22.6626 
     3985.5007       0.208140       361.9971        83.2139
    3494.37960 
    42929.0898         0.0061         1.6454       0.524050     -0.0772238 
        5.2009       103.3954        30.7982       0.323340       353.6679 
        5.5517         5.5853        22.5566        37.2137        20.9352 
     3964.4001       0.184330       362.0006        83.1933
    3494.53200 
    42808.5391         0.0305         1.7032       0.518150     -0.0774700 
        4.9875        97.4416        27.1587       0.327110       353.8200 
        5.9766         5.3402        21.3993        37.1703        19.4128 
     3994.0007       0.168560       362.0092        83.1686
    3494.68440 
    43024.7109         0.0298         1.8072       0.530770     -0.0774738 
        4.2352        97.8059        26.1822       0.331430       353.9022 
        6.3616         5.5246        20.1994        37.2481        18.6225 
     4037.6001       0.159920       362.0246        83.1674
    3494.83680 
    43132.8203        -0.0202         1.8212       0.552430     -0.0774700 
        3.8287        96.0981        24.6968       0.334730       353.8443 
        6.7581         6.0011        20.0614        37.2870        17.9252 
     4065.6001       0.159610       362.0313        83.1640
    3494.98920 
    43570.8398        -0.0134         1.8945       0.583660     -0.0765272 
        3.2282        99.4833        23.4350       0.336310       353.6998 
        6.7141         6.1711        19.1526        37.4449        17.9300 
     4001.0012       0.161230       362.0438        83.1462
    3495.14160 
    44295.6562         0.0459         1.9127       0.578550     -0.0779780 
        2.2745        97.2169        23.3462       0.336890       353.5954 
        6.9963         6.2560        20.0497        37.7062        17.8244 
     3872.5994       0.166800       362.0531        83.1262
    3495.29400 
    44776.8594         0.0109         1.9050       0.584820     -0.0778998 
        1.5891        97.9035        24.8553       0.333410       353.5481 
        6.8328         6.3707        19.6159        37.8798        18.1696 
     3987.6677       0.174220       362.0647        83.1159
    3495.44640 
    45515.5898         0.0152         1.8923       0.584070     -0.0767080 
        0.9828        94.4259        24.5210       0.336450       353.7065 
        7.0952         6.4013        20.0934        38.1465        18.1440 
     3923.1992       0.188660       362.0761        83.1046
    3495.59880 
    46357.9609        -0.0657         1.8018       0.608180     -0.0770532 
        0.5508        92.6312        23.9469       0.330050       353.6727 
        6.7882         6.3419        19.8917        38.4509        18.3832 
     3858.8342       0.201980       362.0832        83.0903
    3495.75120 
    46757.7227        -0.0211         1.9117       0.595940     -0.0772238 
        0.2433       104.6118        23.7694       0.327320       353.7613 
        6.3205         6.0492        20.2853        38.5955        18.6348 
     3814.2007       0.208000       362.0941        83.0842
    3495.90360 
    47245.4492        -0.0215         1.8598       0.584150     -0.0784860 
        0.0823       104.3191        24.5683       0.315910       353.6913 
        6.3591         6.3953        20.8236        38.7719        18.6718 
     3832.0010       0.205880       362.1048        83.0740
