~Version Information Block
VERS .                 2.00:  CWLS LOG ASCII STANDARD - VERSION 2.00
WRAP .                   NO:  One line per depth step
~Well Information Block
#MNEM.UNIT        Data Type   Information
#---------- ----------------  -----------
STRT .M          3460.08960:  START DEPTH
STOP .M          3530.04120:  STOP DEPTH
STEP .M             0.15240:  STEP
NULL .              -999.25:  NULL VALUE
COMP .              Statoil:  COMPANY
WELL .          NO_15/9-F-5:  WELL
FLD  .                Volve:  FIELD
LOC  .                Volve:  LOCATION
CTRY .               Norway:  COUNTRY
STAT .                     :  STATE
CNTY .                     :  COUNTY
SRVC .         Schlumberger:  SERVICE COMPANY
DATE .           11/04/2015:  DATE
API  .                     :  API NUMBER
UWI  .             15/9-F-5:  UNIQUE WELL ID
LATI .     58° 26' 29.66" N:  LATITUDE
LONG .      1° 53' 14.99" E:  LONGITUDE
~Curve Information Block
#MNEM.UNIT         API CODE   Curve Description
#---------- ----------------  -----------------
DEPTH.M                    :  Depth Index
CCLC .V                    :  (PSTP-B)                (1in)                   CCL Computed Amplitude
CVEL .M/SEC                 :  (WLWorkflow)            (1in)                   Cable Velocity
FBEF .UA                   :  (RST-D)                 (6in)                   Far Effective Beam Curre
FCOR .                     :  (RST-D)                 (6in)                   Far Carbon/Oxygen Ratio
FERD .                     :  (RST-D)                 (6in)                   Far IC Mode Capture Opti
FIRD .                     :  (RST-D)                 (6in)                   Far Inelastic Optimizati
GR   .GAPI                 :  (PSTP-B)                (6in)                   Gamma Ray
NCOR .                     :  (RST-D)                 (6in)                   Near Carbon/Oxygen Ratio
NERD .                     :  (RST-D)                 (6in)                   Near IC Mode Capture Opt
NIRD .                     :  (RST-D)                 (6in)                   Near Inelastic Optimizat
RB_PCMS.DEG                  :  (PCMS-A)                (6in)                   Relative Bearing
TENS .LBF                  :  (WLWorkflow)            (1in)                   Cable Tension
WPRE .BAR                  :  (PSTP-B)                (6in)                   Well Pressure
WTEP .DEGC                 :  (PSTP-B)                (6in)                   Well Temperature
~Parameter Information Block
#MNEM.UNIT            Value   Description
#---------- ----------------  -----------
APD  .M                  54:  Elevation of Depth Reference (LMF) Above Permanent Datum
CLAB .              Country:  :County Label
ECF  .M             -999.25:  Elevation of Casing Flange above Permanent Datum
EDF  .M                  54:  Elevation of Drill Floor Above Permanent Datum
EGL  .M                 -91:  Elevation of Ground Level Above Permanent Datum
EKB  .M             -999.25:  Elevation of Kelly Bushing Above Permanent Datum
EPD  .M                   0:  Elevation of Permanent Datum (PDAT) above Mean Sea Level
FL1  .            North Sea:  Field Location Line 1
FL2  .     Norwegian Sector:  Field Location Line 2
LMF  .                   DF:  Logging Measured From
LUL  .                 NOBO:  Logging Unit Location
LUN  .          ONCC-A 3837:  Logging Unit Number
PDAT .                  MSL:  Local Permanent Datum
RIGN .      Maersk Inspirer:  Rig Name
RIGTYP.               Jackup:  Rig Type
SON  .           C2TQ-00038:  Service Order Number
TAPE_NAME.     RST_IC_Pass_4___04Nov15_021221.las:  
TOOL_STRING.              UNKNOWN:  
WN   .             15/9-F-5:  WELL NAME
PROJECT.     SLEIPNER_OST@st-vlinapp01:  
SET  .        RSTD_1115_IC4:  
~Other Information Block
# 
~A       DEPTH           CCLC           CVEL           FBEF           FCOR           FERD           FIRD             GR           NCOR           NERD           NIRD        RB_PCMS           TENS           WPRE           WTEP 
# ...
    3509.46720       0.013880    -0.01009383       129.0293       0.124110         5.8459         5.8459       123.2094       0.078510         4.3403         4.3403       352.5317      4096.6846       360.6437        82.8133
    3509.61960      -0.000140    -0.00971567       128.7986       0.036830         5.8871         5.8871       124.0885       0.008450         4.3132         4.3132       352.5870      3988.1758       360.6546        82.8048
    3509.77200      -0.000380    -0.00978300       129.5733      -0.145860         5.9056         5.9056       124.5421       0.044610         4.3177         4.3177       352.5071      4033.3242       360.6652        82.7967
    3509.92440      -0.000710    -0.00968433       128.7809       0.061840         5.9233         5.9233       125.8293       0.028390         4.2606         4.2606       352.4623      3991.9009       360.6749        82.7795
    3510.07680      -0.034980    -0.00897917       129.5537       0.176480         5.9390         5.9390       130.1963      -0.045100         4.3165         4.3165       352.3881      4010.9534       360.6889        82.7761
    3510.22920      -0.001620    -0.01023083       129.8419       0.121130         5.9417         5.9417       132.6765       0.119410         4.3789         4.3789       352.4290      3945.7500       360.6988        82.7698
    3510.38160      -0.002320    -0.01012783       130.0969       0.053110         5.9033         5.9033       138.1265       0.024770         4.3789         4.3789       352.5825      3899.6145       360.7114        82.7618
    3510.53400      -0.002130    -0.01002650       130.5184       0.084230         5.8729         5.8729       143.0900       0.038160         4.4039         4.4039       352.6769      3970.5801       360.7225        82.7555
    3510.68640      -0.002490    -0.00985983       132.2205       0.168770         5.8721         5.8721       146.5145      -0.023600         4.4153         4.4153       352.5658      3899.9473       360.7324        82.7502
    3510.83880       0.022480    -0.00980200       132.9784      -0.170290         5.8716         5.8716       146.7193      -0.009160         4.4191         4.4191       352.5830      3879.4358       360.7421        82.7373
    3510.99120      -0.001650    -0.00981733       131.9983       0.072570         5.9432         5.9432       146.7460       0.008800         4.4110         4.4110       352.6524      4006.5134       360.7552        82.7312
    3511.14360      -0.000540    -0.01012717       131.0234       0.029910         5.9453         5.9453       146.3827       0.031270         4.4329         4.4329       352.6296      3961.7629       360.7676        82.7194
    3511.29600      -0.001840    -0.01000550       130.6596      -0.049680         5.8727         5.8727       145.8610       0.057040         4.4521         4.4521       352.7022      3937.7063       360.7816        82.7157
    3511.44840       0.012260    -0.00939833       130.9869       0.109080         5.8273         5.8273       144.3826      -0.003560         4.4583         4.4583       352.7223      4019.6492       360.7880        82.7116
    3511.60080      -0.001870    -0.00859317       130.1021       0.048330         5.8045         5.8045       143.4875       0.018530         4.4552         4.4552       352.7327      3992.4473       360.8009        82.7088
    3511.75320       0.003150    -0.00990017       130.1085       0.065890         5.8079         5.8079       142.7424       0.057170         4.4060         4.4060       352.6998      3880.0518       360.8086        82.7004
    3511.90560      -0.001540    -0.00960283       129.4378      -0.020010         5.8592         5.8592       141.1275      -0.012790         4.3941         4.3941       352.6011      4012.4395       360.8224        82.6997
    3512.05800      -0.002450    -0.00912667       129.2960      -0.023270         5.8296         5.8296       139.1236      -0.078370         4.3564         4.3564       352.6151      3979.9995       360.8341        82.6971
    3512.21040      -0.003240    -0.00937417       129.7521       0.062690         5.5607         5.5607       140.2241      -0.030660         4.3360         4.3360       352.4661      3969.9055       360.8434        82.6844
    3512.36280      -0.013400    -0.00871700       129.4769      -0.032010         5.5692         5.5692       141.6093      -0.022170         4.2809         4.2809       352.4917      3969.1592       360.8557        82.6811
    3512.51520      -0.004000    -0.00999350       129.5980      -0.108110         5.4882         5.4882       146.9883       0.048430         4.2678         4.2678       352.4896      3884.3682       360.8671        82.6742
    3512.66760       0.007770    -0.00992000       130.8444       0.067500         5.7338         5.7338       151.5882       0.053880         4.2962         4.2962       352.3615      3951.3792       360.8755        82.6726
    3512.82000      -0.001620    -0.00996033       131.3963       0.035250         5.4772         5.4772       155.7829      -0.044030         4.2759         4.2759       352.1956      3948.2903       360.8889        82.6711
    3512.97240      -0.001050    -0.00980200       131.7955       0.016720         5.4508         5.4508       156.8660      -0.045610         4.2792         4.2792       352.2979      3976.1284       360.8995        82.6715
    3513.12480       0.051390    -0.00989983       131.4781      -0.055030         5.5376         5.5376       156.7701       0.050990         4.2880         4.2880       352.2336      4072.7444       360.9098        82.6687
    3513.27720      -0.001350    -0.01006283       131.8162      -0.023830         5.4060         5.4060       154.4234       0.017450         4.2833         4.2833       352.2043      4031.3325       360.9252        82.6677
    3513.42960      -0.001520    -0.00997017       129.5295       0.129180         5.4033         5.4033       152.6081       0.028180         4.2454         4.2454       352.4801      4068.1248       360.9299        82.6654
    3513.58200      -0.001700    -0.00882833       129.4093       0.056430         5.5213         5.5213       155.6197      -0.071170         4.2251         4.2251       352.5157      4037.8542       360.9445        82.6627
    3513.73440      -0.000640    -0.00816083       129.6099      -0.019410         5.5374         5.5374       155.4992      -0.007470         4.2050         4.2050       352.5972      3986.6382       360.9539        82.6617
    3513.88680      -0.001410    -0.00971600       129.7875       0.020860         5.7224         5.7224       151.4170       0.018670         4.2510         4.2510       352.7380      4057.7744       360.9666        82.6580
    3514.03920       0.003580    -0.00806217       131.7668       0.057090         5.5644         5.5644       151.6337       0.025890         4.2802         4.2802       352.8366      3987.1958       360.9778        82.6526
    3514.19160       0.000200    -0.00788500       132.2301       0.039230         5.7339         5.7339       153.1251       0.034650         4.2236         4.2236       352.8785      3981.3125       360.9880        82.6518
    3514.34400       0.000410    -0.00834617       133.0324       0.041930         5.7794         5.7794       153.6219       0.032280         4.2294         4.2294       352.9712      3900.4690       360.9964        82.6441
    3514.49640       0.000460    -0.00844733       132.8789       0.057310         5.7544         5.7544       161.3103       0.015130         4.2417         4.2417       353.0156      3889.5588       361.0130        82.6435
    3514.64880       0.025810    -0.00894817       135.9182       0.089600         5.7407         5.7407       170.5229      -0.038260         4.2419         4.2419       353.1202      3958.5461       361.0224        82.6419
    3514.80120       0.035790    -0.00855917       137.4048       0.035360         5.8637         5.8637       172.4791       0.064290         4.2307         4.2307       353.0338      3981.1956       361.0329        82.6356
