~Version Information Block
VERS .                 2.00:  CWLS LOG ASCII STANDARD - VERSION 2.00
WRAP .                   NO:  One line per depth step
~Well Information Block
#MNEM.UNIT        Data Type   Information
#---------- ----------------  -----------
STRT .M          3460.24200:  START DEPTH
STOP .M          3530.19360:  STOP DEPTH
STEP .M             0.15240:  STEP
NULL .              -999.25:  NULL VALUE
COMP .              Statoil:  COMPANY
WELL .          NO_15/9-F-5:  WELL
FLD  .                Volve:  FIELD
LOC  .                Volve:  LOCATION
CTRY .               Norway:  COUNTRY
STAT .                     :  STATE
CNTY .                     :  COUNTY
SRVC .         Schlumberger:  SERVICE COMPANY
DATE .           11/03/2015:  DATE
API  .                     :  API NUMBER
UWI  .             15/9-F-5:  UNIQUE WELL ID
LATI .     58° 26' 29.66" N:  LATITUDE
LONG .      1° 53' 14.99" E:  LONGITUDE
~Curve Information Block
#MNEM.UNIT         API CODE   Curve Description
#---------- ----------------  -----------------
DEPTH.M                    :  Depth Index
CCLC .V                    :  (PSTP-B)                (1in)                   CCL Computed Amplitude
CVEL .M/SEC                 :  (WLWorkflow)            (1in)                   Cable Velocity
FBEF .UA                   :  (RST-D)                 (6in)                   Far Effective Beam Curre
FCOR .                     :  (RST-D)                 (6in)                   Far Carbon/Oxygen Ratio
FERD .                     :  (RST-D)                 (6in)                   Far IC Mode Capture Opti
FIRD .                     :  (RST-D)                 (6in)                   Far Inelastic Optimizati
GR   .GAPI                 :  (PSTP-B)                (6in)                   Gamma Ray
NCOR .                     :  (RST-D)                 (6in)                   Near Carbon/Oxygen Ratio
NERD .                     :  (RST-D)                 (6in)                   Near IC Mode Capture Opt
NIRD .                     :  (RST-D)                 (6in)                   Near Inelastic Optimizat
RB_PCMS.DEG                  :  (PCMS-A)                (6in)                   Relative Bearing
TENS .LBF                  :  (WLWorkflow)            (1in)                   Cable Tension
WPRE .BAR                  :  (PSTP-B)                (6in)                   Well Pressure
WTEP .DEGC                 :  (PSTP-B)                (6in)                   Well Temperature
~Parameter Information Block
#MNEM.UNIT            Value   Description
#---------- ----------------  -----------
APD  .M                  54:  Elevation of Depth Reference (LMF) Above Permanent Datum
CLAB .              Country:  :County Label
ECF  .M             -999.25:  Elevation of Casing Flange above Permanent Datum
EDF  .M                  54:  Elevation of Drill Floor Above Permanent Datum
EGL  .M                 -91:  Elevation of Ground Level Above Permanent Datum
EKB  .M             -999.25:  Elevation of Kelly Bushing Above Permanent Datum
EPD  .M                   0:  Elevation of Permanent Datum (PDAT) above Mean Sea Level
FL1  .            North Sea:  Field Location Line 1
FL2  .     Norwegian Sector:  Field Location Line 2
LMF  .                   DF:  Logging Measured From
LUL  .                 NOBO:  Logging Unit Location
LUN  .          ONCC-A 3837:  Logging Unit Number
PDAT .                  MSL:  Local Permanent Datum
RIGN .      Maersk Inspirer:  Rig Name
RIGTYP.               Jackup:  Rig Type
SON  .           C2TQ-00038:  Service Order Number
TAPE_NAME.     RST_IC_Pass-2___03Nov15_214110.las:  
TOOL_STRING.              UNKNOWN:  
WN   .             15/9-F-5:  WELL NAME
PROJECT.     SLEIPNER_OST@st-vlinapp01:  
SET  .        RSTD_1115_IC2:  
~Other Information Block
# 
~A       DEPTH           CCLC           CVEL           FBEF           FCOR           FERD           FIRD             GR           NCOR           NERD           NIRD        RB_PCMS           TENS           WPRE           WTEP 
# ...
    3476.70120       -0.00307     -0.0086307       126.1974       0.111980         5.3840         5.3840        69.9713      -0.059560         4.2086         4.2086       354.7224      3993.7039       359.5468        84.5410
    3476.85360        0.00592     -0.0087665       127.3890      -0.015910         5.4370         5.4370        71.0674      -0.007780         4.2204         4.2204       354.6004      4057.9993       359.5575        84.5479
    3477.00600        0.00637     -0.0087752       127.5931      -0.066010         5.4664         5.4664        71.7690      -0.053630         4.1691         4.1691       354.5794      4023.5225       359.5691        84.5507
    3477.15840        0.00119     -0.0088622       128.6458       0.119500         5.4697         5.4697        72.3867       0.102090         4.2070         4.2070       354.5883      3896.1997       359.5793        84.5550
    3477.31080       -0.05594     -0.0086420       126.7216      -0.024820         5.4942         5.4942        72.8412       0.069210         4.2158         4.2158       354.5210      4017.2617       359.5901        84.5584
    3477.46320       -0.00801     -0.0086143       127.0746       0.072950         5.4748         5.4748        72.9079       0.041320         4.1853         4.1853       354.4500      4047.3052       359.6051        84.5623
    3477.61560       -0.00743     -0.0088327       126.6538       0.027760         5.4442         5.4442        73.3830      -0.016690         4.1992         4.1992       354.4725      3970.1597       359.6164        84.5621
    3477.76800        0.01208     -0.0088603       126.6451       0.002920         5.4256         5.4256        73.1137      -0.005230         4.1733         4.1733       354.4977      3984.8330       359.6264        84.5754
    3477.92040       -0.01771     -0.0090717       127.7574      -0.087150         5.3488         5.3488        71.2181       0.046010         4.1872         4.1872       354.5481      4012.2620       359.6361        84.5736
    3478.07280       -0.00892     -0.0087210       128.3026       0.013070         5.3718         5.3718        71.0396       0.063580         4.1979         4.1979       354.5423      3994.7334       359.6508        84.5732
    3478.22520       -0.00885     -0.0087427       128.5893       0.102800         5.4554         5.4554        71.0572      -0.024110         4.1923         4.1923       354.6371      4005.4412       359.6615        84.5841
    3478.37760       -0.02897     -0.0088905       130.4184       0.062190         5.4448         5.4448        70.4590       0.046060         4.1598         4.1598       354.5258      3944.6663       359.6748        84.5848
    3478.53000        0.01496     -0.0088038       130.1780       0.106010         5.6069         5.6069        71.8784       0.028360         4.1415         4.1415       354.6307      3996.6826       359.6844        84.5853
    3478.68240       -0.02358     -0.0088577       131.1133       0.075230         5.6609         5.6609        75.1258      -0.019610         4.1200         4.1200       354.8147      4046.0259       359.6963        84.5854
    3478.83480        0.01449     -0.0092230       131.4598       0.158720         5.6388         5.6388        75.7026      -0.074860         4.1176         4.1176       354.7320      3850.9053       359.7070        84.5860
    3478.98720        0.01019     -0.0088905       131.6721       0.082530         5.6058         5.6058        76.8214       0.024260         4.1570         4.1570       354.4616      3934.6982       359.7186        84.5890
    3479.13960       -0.00066     -0.0087173       131.3913      -0.087800         5.4375         5.4375        77.0192      -0.004900         4.2011         4.2011       354.5759      3966.8191       359.7304        84.5912
    3479.29200        0.00872     -0.0086542       130.8306      -0.115160         5.6066         5.6066        76.6141       0.067750         4.2467         4.2467       354.7531      3976.1396       359.7403        84.5957
    3479.44440       -0.01091     -0.0086788       130.9747       0.139050         5.5222         5.5222        74.9653       0.059920         4.2168         4.2168       354.6448      4042.5234       359.7524        84.5951
    3479.59680       -0.00648     -0.0086363       130.7378       0.073890         5.6165         5.6165        74.2424       0.012170         4.2359         4.2359       354.5391      3987.9556       359.7644        84.5955
    3479.74920       -0.00531     -0.0089198       130.5944       0.024920         5.6497         5.6497        73.9038       0.019470         4.1988         4.1988       354.1986      4014.5347       359.7751        84.5984
    3479.90160        0.01356     -0.0088903       131.7876       0.237030         5.7459         5.7459        74.2722       0.109100         4.2380         4.2380       354.0366      4085.8599       359.7879        84.5998
    3480.05400       -0.01566     -0.0088037       131.2239       0.026330         5.7621         5.7621        70.3196       0.046080         4.2663         4.2663       353.9883      4036.2961       359.7983        84.5990
    3480.20640        0.03713     -0.0089185       131.7755       0.061540         5.7407         5.7407        69.9609      -0.057650         4.3007         4.3007       353.9703      3995.4214       359.8091        84.6018
    3480.35880       -0.01107     -0.0083260       130.6160       0.060580         5.5659         5.5659        70.0752       0.001200         4.3576         4.3576       354.0065      4016.9109       359.8208        84.6062
    3480.51120       -0.01196     -0.0082977       131.9617      -0.121910         5.4848         5.4848        71.6753       0.029360         4.3625         4.3625       354.1575      3950.3337       359.8338        84.6112
    3480.66360       -0.01253     -0.0086885       133.2009      -0.083440         5.5365         5.5365        73.5827      -0.015620         4.3849         4.3849       353.8957      3980.3862       359.8425        84.6117
    3480.81600        0.03507     -0.0083823       136.3350       0.127190         5.5958         5.5958        77.5256       0.097550         4.3747         4.3747       353.7458      4006.3337       359.8558        84.6055
    3480.96840       -0.01182     -0.0086363       137.3981       0.025140         5.6352         5.6352        77.9773       0.083590         4.3504         4.3504       353.7589      4013.2219       359.8691        84.6097
    3481.12080       -0.00081     -0.0088327       134.8092       0.198510         5.6187         5.6187        77.6197       0.078100         4.3445         4.3445       353.9111      3991.7053       359.8800        84.6084
    3481.27320        0.00426     -0.0088018       130.6832       0.003720         5.5098         5.5098        75.0995       0.055780         4.3516         4.3516       353.9962      3990.7432       359.8919        84.6065
    3481.42560        0.00438     -0.0088905       130.2813       0.014540         5.5507         5.5507        72.1466       0.119060         4.2999         4.2999       353.9811      4066.0947       359.8999        84.6064
    3481.57800       -0.00534     -0.0090972       129.6349      -0.032880         5.5822         5.5822        71.4973       0.009020         4.3385         4.3385       353.8976      4062.6282       359.9139        84.6061
    3481.73040       -0.00453     -0.0087212       129.2261       0.049500         5.5846         5.5846        70.6759       0.052320         4.3313         4.3313       353.8247      4025.4897       359.9213        84.6065
    3481.88280       -0.00498     -0.0088905       129.9186      -0.121000         5.7117         5.7117        68.5117      -0.022350         4.3179         4.3179       353.9019      4050.1624       359.9390        84.6083
    3482.03520       -0.00401     -0.0089202       130.5478       0.137360         5.8323         5.8323        67.0897      -0.065540         4.2884         4.2884       353.7780      3989.3718       359.9482        84.6087
