~Version Information Block
VERS .                 2.00:  CWLS LOG ASCII STANDARD - VERSION 2.00
WRAP .                   NO:  One line per depth step
~Well Information Block
#MNEM.UNIT        Data Type   Information
#---------- ----------------  -----------
STRT .M          3451.70760:  START DEPTH
STOP .M          3790.03560:  STOP DEPTH
STEP .M             0.15240:  STEP
NULL .              -999.25:  NULL VALUE
COMP .              Statoil:  COMPANY
WELL .        NO_15/9-F-1_C:  WELL
FLD  .                Volve:  FIELD
LOC  .            North Sea:  LOCATION
CTRY .               Norway:  COUNTRY
STAT .                     :  STATE
CNTY .                     :  COUNTY
SRVC .         Schlumberger:  SERVICE COMPANY
DATE .          27-Nov-2014:  DATE
API  .                     :  API NUMBER
UWI  .           15/9-F-1 C:  UNIQUE WELL ID
LATI .     58° 26' 29.91" N:  LATITUDE
LONG .      1° 53' 14.71" E:  LONGITUDE
~Curve Information Block
#MNEM.UNIT         API CODE   Curve Description
#---------- ----------------  -----------------
DEPTH.M                    :  DEPTH (BOREHOLE)
CVEL .M/SEC                 :  Cable Velocity
DFRB .DEG                  :  Calibrated Relative Bearing
FBEF .UA                   :  RST Far Effective Beam Current
FCOR .                     :  RST Far Carbon/Oxygen Ratio
FERD .                     :  RST Far IC Mode Capture Optimization
FIRD .                     :  RST Far Inelastic Optimization Resolution
GR   .GAPI                 :  Gamma Ray
NCOR .                     :  RST Near Carbon/Oxygen Ratio
NERD .                     :  RST Near IC Mode Capture Optimization
NIRD .                     :  RST Near Inelastic Optimization Resolution
PFC1 .IN                   :  PFCS CaliperX
PFC2 .IN                   :  PFCS CaliperY
TENS .LBF                  :  Cable Tension
~Parameter Information Block
#MNEM.UNIT            Value   Description
#---------- ----------------  -----------
APD  .M           54.900002:  Elevation of Depth Reference (LMF) above Permanent Datum
EPD  .C3                  0:  Elevation of Permanent Datum above Mean Sea Level
LMF  .                   KB:  Logging Measured From (Name of Logging Elevation Reference)
PDAT .                  MSL:  Permanent Datum
RUN  .                Run 1:  RUN NUMBER
TAPE_NAME.     Statoil_Volve_15-9-F-1 C_PLT-RST_28Nov14_ConCu_R1L18Up_IC2.las:  
TOOL_STRING.              UNKNOWN:  
WN   .           15/9-F-1 C:  WELL
PROJECT.     SLEIPNER_OST@st-vlinapp01:  
SET  .        RSTD_1114_IC2:  
~Other Information Block
# 
~A       DEPTH           CVEL           DFRB           FBEF           FCOR           FERD           FIRD             GR           NCOR           NERD           NIRD           PFC1           PFC2           TENS 
# ...
    3517.08720     -0.0089617       356.9830       111.1181         0.1836         4.9482         4.9482        37.9585         0.6459         6.8555         6.8555         6.2225         5.9927      4171.8086
    3517.23960     -0.0090633       356.9830       110.7084         0.2023         5.0653         5.0653        37.2168         0.7979         6.7830         6.7830         6.2220         5.9953      4080.0078
    3517.39200     -0.0093100       356.9830       111.1532         0.2705         5.0908         5.0908        35.7468         0.8202         6.7800         6.7800         6.2219         5.9912      3984.8462
    3517.54440     -0.0089317       356.9830       110.9522         0.1400         5.0943         5.0943        35.0956         0.9063         6.7957         6.7957         6.2221         5.9891      4211.6470
    3517.69680     -0.0087017       358.3940       110.8206         0.3164         5.1283         5.1283        34.5766         0.6434         6.7906         6.7906         6.2220         5.9868      4299.4941
    3517.84920     -0.0088283       358.3940       110.9846         0.1694         5.1131         5.1131        34.2332         0.6527         6.7694         6.7694         6.2222         5.9899      4280.2979
    3518.00160     -0.0089717       358.3940       111.2160         0.0825         5.1341         5.1341        34.2429         0.6780         6.7697         6.7697         6.2219         5.9895      4241.0942
    3518.15400     -0.0089267       358.3940       111.4663         0.1348         5.1686         5.1686        34.9393         0.6779         6.7742         6.7742         6.2220         5.9942      4161.6665
    3518.30640     -0.0090683       358.3940       111.3678         0.1509         5.1454         5.1454        35.2843         0.7323         6.7419         6.7419         6.2219         5.9988      4118.1543
    3518.45880     -0.0093333       358.3940       110.8914         0.1758         5.1026         5.1026        35.4509         0.5469         6.7933         6.7933         6.2219         5.9957      4013.0613
    3518.61120     -0.0090167       358.3940       110.8467         0.2999         5.0989         5.0989        37.5704         0.7300         6.8423         6.8423         6.2219         5.9959      4161.2964
    3518.76360     -0.0088050       358.3940       111.3011         0.2153         5.1010         5.1010        39.7360         0.8967         6.8814         6.8814         6.2227         5.9914      4344.0928
    3518.91600     -0.0088483       358.3940       111.7315         0.2250         5.0952         5.0952        40.9802         0.7711         6.8255         6.8255         6.2226         5.9897      4237.3643
    3519.06840     -0.0092083       358.3940       110.7930         0.2130         5.1088         5.1088        42.0454         0.9063         6.7836         6.7836         6.2221         5.9881      4170.3813
    3519.22080     -0.0093300       358.3940       111.3479         0.1622         5.0516         5.0516        43.0760         0.7747         6.7676         6.7676         6.2221         5.9907      4131.3047
    3519.37320     -0.0086950       358.3940       111.0762         0.1518         5.0135         5.0135        42.6651         0.7372         6.7362         6.7362         6.2220         6.0100      4292.9883
    3519.52560     -0.0088867       358.3940       111.4417         0.1850         4.9747         4.9747        40.6972         0.6403         6.6850         6.6850         6.2225         6.0180      4271.2969
    3519.67800     -0.0087133       358.3940       111.1230         0.1796         5.0836         5.0836        39.6072         0.6991         6.7245         6.7245         6.2227         6.0178      4233.5020
    3519.83040     -0.0089967       358.3940       110.8316         0.1153         5.0090         5.0090        40.4641         0.7239         6.7135         6.7135         6.2227         6.0186      4115.8008
    3519.98280     -0.0086783       358.3940       111.4874         0.1235         5.0403         5.0403        41.3362         0.7473         6.7297         6.7297         6.2229         6.0201      4299.7676
    3520.13520     -0.0088583       356.9830       110.6920         0.2127         4.9407         4.9407        42.6407         0.6365         6.6636         6.6636         6.2230         6.0212      4202.2827
    3520.28760     -0.0086517       356.9830       111.4487        -0.0313         4.8790         4.8790        46.3068         0.6123         6.6533         6.6533         6.2229         6.0230      4271.5151
    3520.44000     -0.0087717       356.9830       112.3214         0.1220         4.8427         4.8427        50.2893         0.8245         6.6165         6.6165         6.2229         6.0213      4302.7368
    3520.59240     -0.0087850       356.9830       112.3171         0.0720         4.7130         4.7130        52.2942         0.7289         6.6112         6.6112         6.2228         6.0222      4257.5601
    3520.74480     -0.0089817       356.9830       111.6049         0.1476         4.6504         4.6504        54.0813         0.7893         6.6288         6.6288         6.2229         6.0224      4227.6929
    3520.89720     -0.0089917       356.9830       112.9229         0.1338         4.6536         4.6536        55.6282         0.7545         6.6095         6.6095         6.2281         6.0220      4157.2095
    3521.04960     -0.0090750       356.9830       112.7569         0.1548         4.6155         4.6155        55.9665         0.8265         6.6022         6.6022         6.2384         6.0186      4070.9524
    3521.20200     -0.0091133       356.9830       112.4973         0.1838         4.6919         4.6919        52.1537         0.7032         6.6263         6.6263         6.2316         6.0186      4017.3640
    3521.35440     -0.0091567       356.9830       111.6255         0.2226         4.6634         4.6634        48.1388         0.6864         6.6650         6.6650         6.2312         6.0186      3901.8713
    3521.50680     -0.0087783       356.9830       111.4148         0.2253         4.7583         4.7583        44.2170         0.5767         6.6604         6.6604         6.2322         6.0186      4162.3916
    3521.65920     -0.0086017       356.9830       111.4558         0.2378         4.8960         4.8960        39.6247         0.7298         6.6508         6.6508         6.2294         6.0186      4345.8916
    3521.81160     -0.0085983       358.3940       111.9173         0.2741         4.8123         4.8123        34.9379         0.6011         6.7103         6.7103         6.2262         6.0080      4260.1348
    3521.96400     -0.0088283       356.9830       111.2952         0.2103         4.8480         4.8480        34.0553         0.6981         6.6997         6.6997         6.2260         6.0114      4195.6162
    3522.11640     -0.0085600       358.3940       111.3954         0.1064         4.8508         4.8508        33.7588         0.8145         6.7053         6.7053         6.2263         6.0068      4318.7461
    3522.26880     -0.0088133       358.3940       112.1513         0.2358         4.8940         4.8940        34.2460         0.8262         6.7282         6.7282         6.2259         6.0105      4215.6846
    3522.42120     -0.0087167       358.3940       111.1534         0.2514         4.9012         4.9012        36.2791         0.7219         6.7266         6.7266         6.2263         6.0049      4280.9390
    3522.57360     -0.0088733       358.3940       111.8550         0.1146         4.7183         4.7183        37.8773         0.5582         6.7326         6.7326         6.2253         6.0035      4194.8145
    3522.72600     -0.0091667       358.3940       112.2088         0.1514         4.8107         4.8107        39.9891         0.7859         6.7485         6.7485         6.2251         6.0017      4089.4441
    3522.87840     -0.0088483       358.3940       112.1247         0.1857         4.9491         4.9491        44.6151         0.6973         6.7757         6.7757         6.2250         6.0097      4211.1982
