~Version Information Block
VERS .                 2.00:  CWLS LOG ASCII STANDARD - VERSION 2.00
WRAP .                   NO:  One line per depth step
~Well Information Block
#MNEM.UNIT        Data Type   Information
#---------- ----------------  -----------
STRT .M          3201.31440:  START DEPTH
STOP .M          3410.40720:  STOP DEPTH
STEP .M             0.15240:  STEP
NULL .              -999.25:  NULL VALUE
COMP .              Statoil:  COMPANY
WELL .          NO_15/9-F-4:  WELL
FLD  .                VOLVE:  FIELD
LOC  .            North Sea:  LOCATION
CTRY .                     :  COUNTRY
STAT .                     :  STATE
CNTY .                     :  COUNTY
SRVC .         Schlumberger:  SERVICE COMPANY
DATE .          13-Sep-2012:  DATE
API  .                     :  API NUMBER
UWI  .             15/9-F-4:  UNIQUE WELL ID
~Curve Information Block
#MNEM.UNIT         API CODE   Curve Description
#---------- ----------------  -----------------
DEPTH.M                    :  DEPTH (BOREHOLE)
CCLC .V                    :  CCL
CCLD .V                    :  CCL Discriminated Amplitude
CRRA .                     :  Near-Far Count Rate Ratio
CVEL .M/MIN                 :  Cable Velocity
DEVI .DEG                  :  Hole Deviation
FBEF .UA                   :  RST Far Effective Beam Current
FCOR .                     :  RST Far Carbon/Oxygen Ratio
FERD .                     :  RST Far IC Mode Capture Optimization Resolution Degradation Factor
FIRD .                     :  RST Far Inelastic Optimization Resolution Degradation Factor
GR   .GAPI                 :  Gamma Ray
NCOR .                     :  RST Near Carbon/Oxygen Ratio
NERD .                     :  RST Near IC Mode Capture Optimization Resolution Degradation Factor
NIRD .                     :  RST Near Inelastic Optimization Resolution Degradation Factor
RB_PCMS.DEG                  :  Relative Bearing
TENS .LBF                  :  Cable Tension
WPRE .PSI                  :  Well Pressure
WTEP .DEGC                 :  Well Temperature
WTPE .MS                   :  Well Temperature Period
~Parameter Information Block
#MNEM.UNIT            Value   Description
#---------- ----------------  -----------
APD  .M                  54:  Elevation of Depth Reference (LMF) above Permanent Datum
RUN  .                    1:  RUN NUMBER
PROJECT.     SLEIPNER_OST@st-vlinapp01:  
SET  .        RSTD_0912_IC2:  
~Other Information Block
# 
~A       DEPTH           CCLC           CCLD           CRRA           CVEL           DEVI           FBEF           FCOR           FERD           FIRD             GR           NCOR           NERD           NIRD        RB_PCMS           TENS           WPRE           WTEP           WTPE 
# ...
    3311.80440        0.02210        0.00000         2.8463       -0.41220        54.9641       110.3832         0.1031         5.3991         5.3991        47.1574    -0.02670000         2.5505         2.5505       356.5119      2309.8145      4956.8184        94.4880         4.0106
    3311.95680       -0.00540        0.00000         2.8635       -0.41120        54.9901       111.3983        -0.0195         5.4375         5.4375        47.1231    -0.05070000         2.5717         2.5717       356.4421      2313.8145      4957.0078        94.4410         4.0102
    3312.10920       -0.00720        0.00000         2.8627       -0.41040        55.0398       112.1244         0.0213         5.3654         5.3654        47.0011     0.04200000         2.5663         2.5663       356.3549      2306.0842      4957.1040        94.4095         4.0099
    3312.26160       -0.00840        0.00000         2.8789       -0.40940        55.0432       111.8657        -0.1831         5.2398         5.2398        45.4399     0.00350000         2.5544         2.5544       356.3784      2310.7634      4957.2397        94.3616         4.0095
    3312.41400       -0.00870        0.00000         2.8866       -0.40180        55.0695       112.2476        -0.0472         5.4756         5.4756        44.1348    -0.02010000         2.6019         2.6019       356.3679      2314.1174      4957.3457        94.3073         4.0090
    3312.56640       -0.01090        0.00000         2.9224       -0.40180        55.0748       111.5308        -0.0305         5.4183         5.4183        42.6603     0.02520000         2.5634         2.5634       356.4459      2316.7559      4957.4673        94.2762         4.0088
    3312.71880       -0.01030        0.00000         2.8939       -0.40180        55.1052       110.3735        -0.0951         5.3069         5.3069        42.7069    -0.04450000         2.5584         2.5584       356.4760      2307.6519      4957.5898        94.2353         4.0084
    3312.87120       -0.01390        0.00000         2.8470       -0.40440        55.0922       109.2718         0.0081         5.3162         5.3162        44.0560    -0.01210000         2.5604         2.5604       356.5718      2307.1799      4957.6987        94.1892         4.0080
    3313.02360        0.00590        0.00000         2.8165       -0.43290        55.1086       109.5139         0.0451         5.3821         5.3821        45.2267    -0.01680000         2.5180         2.5180       356.8036      2312.1667      4957.8135        94.1322         4.0075
    3313.17600       -0.07870        0.00000         2.8076       -0.43700        55.1104       110.2919         0.0241         5.4049         5.4049        45.5741    -0.01110000         2.5187         2.5187       356.5536      2312.4602      4957.9404        94.0734         4.0070
    3313.32840        0.01820        0.00000         2.8186       -0.43880        55.1122       110.8961        -0.0298         5.3385         5.3385        45.8789     0.04800000         2.5208         2.5208       356.4792      2310.9775      4958.0630        94.0481         4.0067
    3313.48080       -0.01830        0.00000         2.8219       -0.44490        55.1067       110.8800        -0.0409         5.4512         5.4512        45.6730     0.02130000         2.5451         2.5451       356.2862      2303.7695      4958.2324        94.0103         4.0064
    3313.63320       -0.01320        0.00000         2.8256       -0.44790        55.0435       111.1601         0.0409         5.2721         5.2721        45.3872     0.09320000         2.5232         2.5232       356.1001      2311.0164      4958.3081        93.9599         4.0060
    3313.78560       -0.01480        0.00000         2.8311       -0.44390        55.0248       109.6091         0.0503         5.2103         5.2103        44.8789     0.02790000         2.5393         2.5393       356.0388      2311.9739      4958.4917        93.9038         4.0055
    3313.93800       -0.02050        0.00000         2.8137       -0.44550        55.0233       109.3036         0.0258         5.2395         5.2395        43.9608     0.06670000         2.5839         2.5839       356.0613      2312.3020      4958.5981        93.8561         4.0050
    3314.09040       -0.02450        0.00000         2.8195       -0.44290        55.0007       108.5018        -0.0348         5.3530         5.3530        43.4175     0.01050000         2.5724         2.5724       355.9455      2324.2842      4958.7275        93.8083         4.0046
    3314.24280       -0.02350        0.00000         2.8120       -0.44410        55.0113       110.7025         0.1148         5.1716         5.1716        42.1884    -0.08530000         2.5793         2.5793       356.0549      2316.2751      4958.8394        93.7326         4.0040
    3314.39520        0.12060        0.00000         2.8958       -0.44380        55.0104       114.7110         0.0006         5.2852         5.2852        40.5066     0.05230000         2.5284         2.5284       355.8444      2308.7559      4958.9561        93.6550         4.0033
    3314.54760       -0.01840        0.00000         3.0544       -0.44340        55.0000       115.9783         0.0465         5.5006         5.5006        39.2027    -0.03120000         2.5060         2.5060       355.7716      2307.9741      4959.1079        93.6415         4.0032
    3314.70000       -0.02160        0.00000         3.0423       -0.44360        54.9509       113.4026        -0.1572         5.4930         5.4930        38.2517    -0.04640000         2.4781         2.4781       355.6902      2308.8542      4959.1938        93.5327         4.0022
    3314.85240        0.08170        0.00000         2.8858       -0.44310        54.9157       112.3800        -0.1108         5.4756         5.4756        38.4015    -0.04670000         2.4758         2.4758       355.6089      2304.4402      4959.3667        93.4934         4.0019
    3315.00480        0.04260        0.00000         2.8579       -0.45510        54.8893       112.2863        -0.0564         5.4945         5.4945        39.2411     0.04470000         2.4654         2.4654       355.4749      2309.0464      4959.4819        93.4354         4.0013
    3315.15720       -0.01230        0.00000         2.8650       -0.45080        54.8969       112.9088        -0.0271         5.3163         5.3163        39.5189    -0.02040000         2.4378         2.4378       355.5397      2303.6218      4959.5908        93.3718         4.0008
    3315.30960       -0.00770        0.00000         2.8712       -0.45790        54.9265       111.6293         0.0124         5.3431         5.3431        40.4016    -0.03430000         2.4385         2.4385       355.6398      2320.6174      4959.7188        93.3197         4.0003
    3315.46200       -0.01410        0.00000         2.8560       -0.45640        54.8978       111.5348        -0.1022         5.3644         5.3644        41.4750     0.01260000         2.4214         2.4214       355.8062      2316.4253      4959.8594        93.3088         4.0002
    3315.61440        0.00850        0.00000         2.8486       -0.45410        54.9285       111.5853         0.0041         5.3349         5.3349        42.2755     0.03540000         2.4529         2.4529       356.0571      2321.0627      4959.9307        93.2023         3.9993
    3315.76680       -0.01850        0.00000         2.8410       -0.45300        54.9371       111.8412         0.0693         5.3014         5.3014        43.4448    -0.03540000         2.4409         2.4409       356.1156      2319.8147      4960.1128        93.1723         3.9990
    3315.91920       -0.00770        0.00000         2.8488       -0.44970        54.9699       111.4205         0.0510         5.0433         5.0433        45.0162     0.02960000         2.4178         2.4178       356.1591      2306.7419      4960.1938        93.1119         3.9985
    3316.07160       -0.00840        0.00000         2.8471       -0.44690        54.9884       112.0401        -0.0104         5.0756         5.0756        45.8958     0.06170000         2.4391         2.4391       356.1002      2321.4758      4960.3379        93.0646         3.9981
