~Version Information Block
VERS .                 2.00:  CWLS LOG ASCII STANDARD - VERSION 2.00
WRAP .                   NO:  One line per depth step
~Well Information Block
#MNEM.UNIT        Data Type   Information
#---------- ----------------  -----------
STRT .M          3460.08960:  START DEPTH
STOP .M          3530.04120:  STOP DEPTH
STEP .M             0.15240:  STEP
NULL .              -999.25:  NULL VALUE
COMP .              Statoil:  COMPANY
WELL .          NO_15/9-F-5:  WELL
FLD  .                Volve:  FIELD
LOC  .                Volve:  LOCATION
CTRY .               Norway:  COUNTRY
STAT .                     :  STATE
CNTY .                     :  COUNTY
SRVC .         Schlumberger:  SERVICE COMPANY
DATE .           11/04/2015:  DATE
API  .                     :  API NUMBER
UWI  .             15/9-F-5:  UNIQUE WELL ID
LATI .     58° 26' 29.66" N:  LATITUDE
LONG .      1° 53' 14.99" E:  LONGITUDE
~Curve Information Block
#MNEM.UNIT         API CODE   Curve Description
#---------- ----------------  -----------------
DEPTH.M                    :  Depth Index
CCLC .V                    :  (PSTP-B)                (1in)                   CCL Computed Amplitude
CVEL .M/SEC                 :  (WLWorkflow)            (1in)                   Cable Velocity
FBEF .UA                   :  (RST-D)                 (6in)                   Far Effective Beam Curre
FCOR .                     :  (RST-D)                 (6in)                   Far Carbon/Oxygen Ratio
FERD .                     :  (RST-D)                 (6in)                   Far IC Mode Capture Opti
FIRD .                     :  (RST-D)                 (6in)                   Far Inelastic Optimizati
GR   .GAPI                 :  (PSTP-B)                (6in)                   Gamma Ray
NCOR .                     :  (RST-D)                 (6in)                   Near Carbon/Oxygen Ratio
NERD .                     :  (RST-D)                 (6in)                   Near IC Mode Capture Opt
NIRD .                     :  (RST-D)                 (6in)                   Near Inelastic Optimizat
RB_PCMS.DEG                  :  (PCMS-A)                (6in)                   Relative Bearing
TENS .LBF                  :  (WLWorkflow)            (1in)                   Cable Tension
WPRE .BAR                  :  (PSTP-B)                (6in)                   Well Pressure
WTEP .DEGC                 :  (PSTP-B)                (6in)                   Well Temperature
~Parameter Information Block
#MNEM.UNIT            Value   Description
#---------- ----------------  -----------
APD  .M                  54:  Elevation of Depth Reference (LMF) Above Permanent Datum
CLAB .              Country:  :County Label
ECF  .M             -999.25:  Elevation of Casing Flange above Permanent Datum
EDF  .M                  54:  Elevation of Drill Floor Above Permanent Datum
EGL  .M                 -91:  Elevation of Ground Level Above Permanent Datum
EKB  .M             -999.25:  Elevation of Kelly Bushing Above Permanent Datum
EPD  .M                   0:  Elevation of Permanent Datum (PDAT) above Mean Sea Level
FL1  .            North Sea:  Field Location Line 1
FL2  .     Norwegian Sector:  Field Location Line 2
LMF  .                   DF:  Logging Measured From
LUL  .                 NOBO:  Logging Unit Location
LUN  .          ONCC-A 3837:  Logging Unit Number
PDAT .                  MSL:  Local Permanent Datum
RIGN .      Maersk Inspirer:  Rig Name
RIGTYP.               Jackup:  Rig Type
SON  .           C2TQ-00038:  Service Order Number
TAPE_NAME.     RST_IC_Pass_4___04Nov15_021221.las:  
TOOL_STRING.              UNKNOWN:  
WN   .             15/9-F-5:  WELL NAME
PROJECT.     SLEIPNER_OST@st-vlinapp01:  
SET  .        RSTD_1115_IC4:  
~Other Information Block
# 
~A       DEPTH           CCLC           CVEL           FBEF           FCOR           FERD           FIRD             GR           NCOR           NERD           NIRD        RB_PCMS           TENS           WPRE           WTEP 
# ...
    3471.06240       0.012250    -0.00885700       136.5214       0.110230         6.6098         6.6098       147.9052       0.063590         4.1545         4.1545       352.3797      3991.8154       357.8199        84.8749
    3471.21480       0.017580    -0.00904167       134.5079      -0.021510         6.6485         6.6485       141.9993       0.015110         4.1349         4.1349       352.8377      4036.2625       357.8296        84.8818
    3471.36720      -0.021110    -0.00891983       134.1263       0.084090         6.6371         6.6371       138.7970      -0.038700         4.1511         4.1511       352.9830      3918.4648       357.8443        84.8899
    3471.51960      -0.002190    -0.00913083       133.8784       0.092070         6.3595         6.3595       136.7500       0.032890         4.1337         4.1337       353.0733      3965.4590       357.8532        84.8968
    3471.67200       0.003510    -0.00879767       132.1732       0.121000         6.4101         6.4101       135.5502       0.073020         4.1395         4.1395       353.1072      3967.2686       357.8646        84.9041
    3471.82440      -0.006520    -0.00879967       130.0181      -0.189230         6.4745         6.4745       133.6636       0.023760         4.1377         4.1377       353.3333      4036.0242       357.8738        84.9136
    3471.97680       0.016540    -0.00927133       126.0190      -0.032900         6.2753         6.2753       132.6922       0.082370         4.1745         4.1745       353.3772      3939.6509       357.8859        84.9116
    3472.12920      -0.036720    -0.00909717       123.0830      -0.005530         6.3295         6.3295       129.8294      -0.004420         4.2141         4.2141       353.3204      4026.4878       357.8944        84.9195
    3472.28160      -0.007930    -0.00928117       121.7136       0.082010         6.3676         6.3676       125.0350       0.032300         4.2147         4.2147       353.3528      4001.4351       357.9102        84.9231
    3472.43400      -0.003140    -0.00920800       119.1788       0.032690         6.3231         6.3231       120.6244       0.136320         4.2262         4.2262       353.5175      3989.7000       357.9192        84.9305
    3472.58640       0.039930    -0.00907150       116.8589       0.109090         6.4000         6.4000       118.3452       0.009640         4.2438         4.2438       353.5250      3949.5244       357.9329        84.9402
    3472.73880       0.031120    -0.00906750       115.5054      -0.135380         6.2324         6.2324       118.6416       0.070490         4.2691         4.2691       353.5601      4004.8140       357.9416        84.9486
    3472.89120      -0.007270    -0.00910217       116.7194       0.092770         6.2043         6.2043       117.3162       0.012940         4.2640         4.2640       353.6281      4040.6440       357.9557        84.9522
    3473.04360      -0.006790    -0.00944800       116.9545       0.106270         6.1895         6.1895       118.0636       0.111750         4.2498         4.2498       353.5719      3933.0010       357.9663        84.9553
    3473.19600       0.012910    -0.00913233       116.7377       0.152680         6.2081         6.2081       115.5268       0.085370         4.2221         4.2221       353.5389      4114.3340       357.9753        84.9596
    3473.34840       0.018310    -0.00912433       117.2217       0.108610         5.9443         5.9443       113.2914       0.117940         4.2274         4.2274       353.5654      3988.2634       357.9895        84.9638
    3473.50080      -0.004510    -0.00920033       117.2195       0.004620         6.0952         6.0952       112.6125       0.106730         4.2508         4.2508       353.5309      3981.3169       357.9988        84.9682
    3473.65320      -0.029590    -0.00930400       117.4568       0.198900         6.2938         6.2938       114.9723       0.045520         4.2075         4.2075       353.4652      3924.7686       358.0096        84.9713
    3473.80560      -0.005200    -0.00922300       119.5738       0.123440         6.2469         6.2469       114.3165      -0.015220         4.1748         4.1748       353.9196      3865.1423       358.0229        84.9777
    3473.95800       0.009610    -0.00908100       119.2224       0.131130         6.2729         6.2729       115.3687       0.036580         4.1977         4.1977       353.6000      3962.7004       358.0326        84.9842
    3474.11040      -0.008790    -0.00895083       119.4415       0.080520         6.2913         6.2913       113.7207       0.038190         4.2109         4.2109       353.3924      4007.5947       358.0442        84.9865
    3474.26280       0.015050    -0.00910183       119.7572      -0.042650         6.1562         6.1562       113.2687      -0.081420         4.2112         4.2112       353.3231      3940.5725       358.0560        84.9955
    3474.41520      -0.004020    -0.00919283       121.1523       0.151430         6.1167         6.1167       113.4288       0.029060         4.1812         4.1812       353.3477      4002.3096       358.0654        84.9996
    3474.56760      -0.004330    -0.00922300       121.7919       0.162580         6.1521         6.1521       113.6231      -0.009820         4.1661         4.1661       353.2805      3902.9756       358.0793        85.0012
    3474.72000       0.039170    -0.00901133       122.0811       0.031510         6.1458         6.1458       114.3495       0.092310         4.1543         4.1543       353.5727      3932.7380       358.0884        85.0122
    3474.87240      -0.071890    -0.00898117       121.8453       0.017060         6.1536         6.1536       115.7282       0.072570         4.1664         4.1664       353.5095      4003.9753       358.1020        85.0225
    3475.02480      -0.013860    -0.00910217       123.0548      -0.034510         6.0241         6.0241       115.2526      -0.013750         4.1686         4.1686       353.4756      3968.3567       358.1104        85.0249
    3475.17720      -0.004100    -0.00902083       122.3187       0.107010         5.9582         5.9582       114.1152       0.068410         4.1905         4.1905       353.4654      4023.9993       358.1246        85.0274
    3475.32960      -0.003140    -0.00933350       122.5937      -0.022730         5.9875         5.9875       116.0454       0.043330         4.2227         4.2227       353.6402      3990.8848       358.1339        85.0276
    3475.48200       0.021670    -0.00920033       122.8901       0.015520         5.8471         5.8471       118.5573       0.066080         4.2438         4.2438       353.7256      3961.6597       358.1426        85.0331
    3475.63440      -0.001850    -0.00946483       122.5325      -0.035250         5.9807         5.9807       120.9731       0.016780         4.2390         4.2390       353.5551      3972.2368       358.1590        85.0407
    3475.78680       0.009470    -0.00898117       122.0336       0.154140         5.9572         5.9572       120.2855       0.096890         4.2790         4.2790       353.3564      3936.6428       358.1672        85.0476
    3475.93920      -0.004900    -0.00928100       121.5829       0.052470         5.9651         5.9651       119.9940      -0.031070         4.2697         4.2697       353.0262      3960.7178       358.1796        85.0530
    3476.09160       0.009440    -0.00926217       121.7973       0.056240         5.9334         5.9334       118.5741       0.037500         4.2981         4.2981       352.9785      4054.3665       358.1892        85.0530
    3476.24400       0.003970    -0.00922317       121.0455       0.052680         5.9605         5.9605       116.4222      -0.012630         4.2775         4.2775       353.0645      3978.0234       358.2016        85.0610
    3476.39640      -0.020660    -0.00903150       121.1419       0.093270         5.8832         5.8832       112.1618      -0.136660         4.3120         4.3120       353.0571      3995.1562       358.2127        85.0593
