~Version Information Block
VERS .                 2.00:  CWLS LOG ASCII STANDARD - VERSION 2.00
WRAP .                   NO:  One line per depth step
~Well Information Block
#MNEM.UNIT        Data Type   Information
#---------- ----------------  -----------
STRT .M          3445.30680:  START DEPTH
STOP .M          3639.15960:  STOP DEPTH
STEP .M             0.15240:  STEP
NULL .              -999.25:  NULL VALUE
COMP .              Statoil:  COMPANY
WELL .          NO_15/9-F-5:  WELL
FLD  .                VOLVE:  FIELD
LOC  .            North Sea:  LOCATION
CTRY .                     :  COUNTRY
STAT .                     :  STATE
CNTY .                     :  COUNTY
SRVC .         Schlumberger:  SERVICE COMPANY
DATE .          16-Sep-2012:  DATE
API  .                     :  API NUMBER
UWI  .             15/9-F-5:  UNIQUE WELL ID
~Curve Information Block
#MNEM.UNIT         API CODE   Curve Description
#---------- ----------------  -----------------
DEPTH.M                    :  DEPTH (BOREHOLE)
CCLC .V                    :  CCL
CRRA .                     :  Near-Far Count Rate Ratio
CVEL .M/MIN                 :  Cable Velocity
FBEF .UA                   :  RST Far Effective Beam Current
FCOR .                     :  RST Far Carbon/Oxygen Ratio
FERD .                     :  RST Far IC Mode Capture Optimization Resolution Degradation Factor
FIRD .                     :  RST Far Inelastic Optimization Resolution Degradation Factor
GR   .GAPI                 :  Gamma Ray
NCOR .                     :  RST Near Carbon/Oxygen Ratio
NERD .                     :  RST Near IC Mode Capture Optimization Resolution Degradation Factor
NIRD .                     :  RST Near Inelastic Optimization Resolution Degradation Factor
RB_PCMS.DEG                  :  Relative Bearing
TENS .LBF                  :  Cable Tension
~Parameter Information Block
#MNEM.UNIT            Value   Description
#---------- ----------------  -----------
APD  .M           54.900002:  Elevation of Depth Reference (LMF) above Permanent Datum
RUN  .                Run 1:  RUN NUMBER
PROJECT.     SLEIPNER_OST@st-vlinapp01:  
SET  .        RSTD_0912_IC3:  
~Other Information Block
# 
~A       DEPTH           CCLC           CRRA           CVEL           FBEF           FCOR           FERD           FIRD             GR           NCOR           NERD           NIRD        RB_PCMS           TENS 
# ...
    3570.12240         0.0023         2.8941       -0.55140       112.2339  -999.25000000         5.0678         5.0678        58.1672    -999.250000         2.3735         2.3735         9.3106      2769.1089
    3570.27480         0.1838         2.8923       -0.55210       113.3005  -999.25000000         4.9899         4.9899        59.2873    -999.250000         2.3267         2.3267         9.1557      2776.1936
    3570.42720        -0.0140         2.9009       -0.55190       113.2294    -0.08750000         4.9899         4.9899        61.3024       0.024900         2.5914         2.5914         8.3743      2770.7754
    3570.57960        -0.0151         2.8968       -0.55170       113.7918    -0.08260000         4.9899         4.9899        62.9195      -0.014400         2.5914         2.5914         7.5851      2769.1206
    3570.73200        -0.0386         2.8952       -0.91290       113.8063    -0.04100000         4.9899         4.9899        62.8835      -0.036500         2.5914         2.5914         7.6498      2779.4507
    3570.88440        -0.0557         2.9137       -1.29340       113.8157    -0.00460000         4.9899         4.9899        61.9258      -0.009600         2.5914         2.5914         7.9454      2799.9055
    3571.03680        -0.0098         2.9144       -0.53350       113.4870     0.03710000         4.9853         4.9853        61.8370      -0.010500         2.5914         2.5914         7.9119      2808.0000
    3571.18920        -0.0092         2.9038       -0.53340       113.2947     0.05940000         4.9568         4.9568        61.1337       0.006400         2.6053         2.6053         7.9469      2809.5000
    3571.34160        -0.0088         2.9115       -0.53340       113.4238     0.05020000         4.8564         4.8564        60.6040      -0.049700         2.5979         2.5979         7.9667      2811.0000
    3571.49400         0.0236         2.9000       -0.53340       113.5824     0.09700000         4.9478         4.9478        60.4734      -0.050900         2.5538         2.5538         7.9197      2811.0000
    3571.64640         0.0708         2.9043       -0.53340       112.8938    -0.00410000         4.9635         4.9635        59.9172      -0.044700         2.5363         2.5363         7.9299      2811.0000
    3571.79880        -0.0281         2.9022       -0.53340       112.6087    -0.14690000         5.1961         5.1961        59.0825       0.014500         2.5776         2.5776         7.8758      2811.0000
    3571.95120        -0.0051         2.8802       -0.53340       113.2569     0.06170000         5.1633         5.1633        58.1876       0.018400         2.4879         2.4879         7.8494      2811.0000
    3572.10360        -0.0061         2.8936       -0.53340       113.5105     0.07470000         5.1691         5.1691        57.0501      -0.019000         2.4338         2.4338         7.9352      2811.0000
    3572.25600        -0.0069         2.9145       -0.53340       113.7158    -0.10840000         5.2698         5.2698        56.2250       0.037300         2.4334         2.4334         8.0301      2811.0000
    3572.40840        -0.0193         2.9130       -0.53340       114.0590     0.03440000         5.1031         5.1031        55.6648      -0.034600         2.3595         2.3595         8.0959      2811.0000
    3572.56080         0.0329         2.9105       -0.53340       113.3779     0.05070000         5.1403         5.1403        55.0196       0.053600         2.3181         2.3181         8.1994      2811.0000
    3572.71320        -0.0094         2.9131       -0.51980       113.9074     0.00260000         5.2968         5.2968        55.4813      -0.018700         2.3379         2.3379         8.1854      2796.8091
    3572.86560        -0.0846         2.9132       -0.51690       114.6890    -0.05340000         5.3693         5.3693        56.9094      -0.046400         2.2995         2.2995         8.1355      2805.8303
    3573.01800         0.0751         2.9243       -0.52450       113.6904    -0.02640000         5.2422         5.2422        57.5282      -0.041300         2.3334         2.3334         7.9861      2798.2932
    3573.17040         0.0239         2.9175       -0.50850       114.4211    -0.04610000         5.2912         5.2912        58.7507       0.045700         2.3579         2.3579         7.9850      2801.5112
    3573.32280        -0.0049         2.9340       -0.51170       113.5786    -0.18470000         5.1392         5.1392        57.5051      -0.057100         2.3113         2.3113         7.9812      2809.5261
    3573.47520        -0.0055         2.9037       -0.50770       114.3410    -0.04780000         5.1700         5.1700        56.3703      -0.043800         2.2959         2.2959         7.9389      2805.6125
    3573.62760        -0.0065         2.9138       -0.51270       114.1405     0.03890000         5.1933         5.1933        54.2078      -0.083100         2.2897         2.2897         7.9469      2796.9399
    3573.78000         0.1250         2.9301       -0.51510       114.8354    -0.07740000         5.1794         5.1794        52.9679       0.125700         2.3047         2.3047         7.9886      2806.9324
    3573.93240        -0.0060         2.9611       -0.51400       115.9839     0.03480000         5.1128         5.1128        51.3164      -0.054900         2.3240         2.3240         8.0427      2802.5715
    3574.08480        -0.0031         3.0029       -0.51180       115.6667     0.03160000         5.1289         5.1289        52.5458      -0.015600         2.2949         2.2949         8.1537      2805.2603
    3574.23720        -0.0007         2.9677       -0.50540       115.8069    -0.11930000         5.0968         5.0968        53.5102      -0.071100         2.2924         2.2924         8.2023      2803.3394
    3574.38960         0.1070         2.9612       -0.50980       116.2142     0.03620000         5.0513         5.0513        54.5444      -0.061600         2.2560         2.2560         8.3001      2796.5540
    3574.54200        -0.0022         2.9495       -0.50580       115.4986     0.08670000         5.0961         5.0961        55.6558       0.004400         2.3151         2.3151         8.2373      2807.5881
    3574.69440         0.0414         2.9454       -0.51190       115.1251    -0.21200000         5.0497         5.0497        56.3063      -0.014500         2.2529         2.2529         8.1611      2798.9399
    3574.84680        -0.0897         2.9243       -0.51480       115.7196    -0.01650000         5.0150         5.0150        56.8981       0.001300         2.2802         2.2802         8.0850      2796.7078
    3574.99920        -0.0925         2.9268       -0.51580       114.9787     0.12190000         4.9202         4.9202        57.6317       0.014000         2.3110         2.3110         8.0845      2802.9207
    3575.15160        -0.0015         2.9314       -0.51250       115.2452    -0.11190000         4.9862         4.9862        57.3781      -0.065900         2.3089         2.3089         8.1251      2800.7239
    3575.30400        -0.0008         2.9293       -0.51130       115.5435    -0.00860000         4.9902         4.9902        56.5883      -0.005400         2.2758         2.2758         8.0613      2802.7603
    3575.45640         0.0004         2.9482       -0.51180       114.8231    -0.12510000         5.0178         5.0178        56.1647       0.013100         2.2796         2.2796         8.0365      2808.2900
    3575.60880        -0.0005         2.9609       -0.51190       118.1998    -0.10260000         5.0184         5.0184        55.2531      -0.084700         2.2822         2.2822         7.9534      2810.5896
    3575.76120        -0.0042         3.1347       -0.51390       120.2280     0.06780000         5.0577         5.0577        53.8500       0.014000         2.2634         2.2634         8.0063      2812.4700
    3575.91360        -0.0096         3.2128       -0.50750       119.8643     0.14740001         4.8334         4.8334        54.4614       0.003800         2.2966         2.2966         8.0254      2810.4319
