~Version Information Block
VERS .                 2.00:  CWLS LOG ASCII STANDARD - VERSION 2.00
WRAP .                   NO:  One line per depth step
~Well Information Block
#MNEM.UNIT        Data Type   Information
#---------- ----------------  -----------
STRT .M          3439.51560:  START DEPTH
STOP .M          3642.36000:  STOP DEPTH
STEP .M             0.15240:  STEP
NULL .              -999.25:  NULL VALUE
COMP .              Statoil:  COMPANY
WELL .          NO_15/9-F-5:  WELL
FLD  .                VOLVE:  FIELD
LOC  .            North Sea:  LOCATION
CTRY .                     :  COUNTRY
STAT .                     :  STATE
CNTY .                     :  COUNTY
SRVC .         Schlumberger:  SERVICE COMPANY
DATE .          16-Sep-2012:  DATE
API  .                     :  API NUMBER
UWI  .             15/9-F-5:  UNIQUE WELL ID
~Curve Information Block
#MNEM.UNIT         API CODE   Curve Description
#---------- ----------------  -----------------
DEPTH.M                    :  DEPTH (BOREHOLE)
BSAL .PPM                  :  Borehole Salinity
CCLC .V                    :  CCL
CIRF .                     :  RST Capture to Inelastic Ratio Far
CIRN .                     :  RST Capture to Inelastic Ratio Near
CVEL .M/MIN                 :  Cable Velocity
DSIG .CU                   :  Sigma Difference
FBEF .UA                   :  RST Far Effective Beam Current
GR   .GAPI                 :  Gamma Ray
IRAT .                     :  RST Inelastic Ratio
RSCF .                     :  RST Far Detector Effective Unregulated Capture Count Rate
RSCN .                     :  RST Near Detector Effective Unregulated Capture Count Rate
SFFA .CU                   :  RST Sigma Formation Far Apparent
SIBF .CU                   :  RST Sigma Borehole Fluid
SIGM .CU                   :  Formation Sigma (Neutron Capture Cross Section)
TENS .LBF                  :  Cable Tension
TPHI .V/V                  :  Thermal Decay Porosity
~Parameter Information Block
#MNEM.UNIT            Value   Description
#---------- ----------------  -----------
APD  .M           54.900002:  Elevation of Depth Reference (LMF) above Permanent Datum
BHS  .                 CASE:  Borehole Status (Open or Cased Hole)
BS   .IN                8.5:  Bit Size
BSAL .PPM       34972.17188:  Borehole Salinity
BSALOPT.              UNKNOWN:  Borehole Salinity Option
CSID .IN              6.184:  Casing Inner Diameter
CSIZ .IN                  7:  Current Casing Size
CWEI .LB/F               29:  Casing Weight
MATR .                 SAND:  Rock Matrix for Neutron Porosity Corrections
RUN  .                Run 1:  RUN NUMBER
PROJECT.     SLEIPNER_OST@st-vlinapp01:  
SET  .       RSTD_0912_SIG1:  
~Other Information Block
# 
~A       DEPTH           BSAL           CCLC           CIRF           CIRN           CVEL           DSIG           FBEF             GR           IRAT           RSCF           RSCN           SFFA           SIBF           SIGM           TENS           TPHI 
# ...
    3478.53000     30834.4004         0.3377         2.4044     0.73580003       -4.50140        -0.2888        73.6070        17.5468     0.33070001        11.6324        10.5241        15.8244        32.8899        13.6217      2669.8708     0.18910000
    3478.68240     30282.9004        -0.0375         2.4688     0.76650000       -4.49590        -0.1522        76.2283        19.6228     0.32560000        11.3954        10.5154        15.0259        32.6943        13.4981      2664.5002     0.18740000
    3478.83480     30066.0000        -0.2777         2.5100     0.75019997       -4.49290        -0.2436        80.2591        20.3702     0.32350001        11.2475        10.5742        15.2227        32.6174        13.2908      2641.3550     0.18520001
    3478.98720     30045.2988        -0.2020         2.5166     0.76539999       -4.51040        -0.2901        79.8350        20.7633     0.32499999        10.8631        10.2349        15.2022        32.6100        13.4480      2661.7334     0.18099999
    3479.13960     30169.3008         0.0156         2.5196     0.76660001       -4.49830        -0.3147        76.3281        20.8463     0.32969999        11.4725        10.5206        15.4902        32.6540        13.4393      2658.6775     0.17430000
    3479.29200     30012.8984        -0.0402         2.4943     0.76130003       -4.52020        -0.1912        74.9203        20.0740     0.33350000        11.5813        10.2921        15.2018        32.5985        13.1560      2647.5000     0.17309999
    3479.44440     29570.4004        -0.2608         2.5606     0.77329999       -4.51530        -0.1145        77.0767        18.8561     0.33430001        11.5256        10.0468        14.3680        32.4417        12.9239      2636.9668     0.17250000
    3479.59680     29561.3008         0.1830         2.5314     0.79100001       -4.50020        -0.2111        79.0479        17.0291     0.33090001        11.1577        10.3841        14.8034        32.4385        12.7795      2648.3872     0.17569999
    3479.74920     29328.3008        -0.0832         2.6570     0.77980000       -4.50380        -0.2896        79.1507        15.4735     0.32370001        11.7829        10.7153        14.7848        32.3560        12.9038      2657.5334     0.17649999
    3479.90160     29307.8008         0.0347         2.5808     0.74440002       -4.48850        -0.2912        77.5170        14.1337     0.31439999        11.8478        10.6910        14.7567        32.3487        12.8199      2642.6453     0.18629999
    3480.05400     29414.5996         1.9485         2.2867     0.65820003       -4.51950        -0.3666        79.8019        14.6320     0.31510001        10.6000         9.9809        14.5625        32.3865        13.0357      2647.6667     0.19750001
    3480.20640     29198.7988         0.0710         2.1708     0.72160000       -4.50940        -0.2993        77.7462        15.1468     0.32449999        10.1926        10.2775        15.4400        32.3101        12.9945      2654.7002     0.20850000
    3480.35880     29070.1016        -0.1886         2.3346     0.78680003       -4.52800        -0.4176        76.3245        16.2264     0.33419999        10.8615        10.6381        14.6361        32.2645        12.9751      2654.6775     0.20630001
    3480.51120     28453.1992        -0.2072         2.5589     0.79670000       -4.50310        -0.5071        77.9818        16.3769     0.33809999        11.3330        10.5562        14.5002        32.0461        12.8247      2656.9336     0.19560000
    3480.66360     27749.7012        -0.1436         2.5595     0.81070000       -4.50290        -0.4801        73.9573        16.7201     0.33739999        11.8289        10.8323        14.9927        31.7973        12.7098      2655.3870     0.18600000
    3480.81600     27677.0996         0.0139         2.5685     0.80900002       -4.51450        -0.5096        74.2608        17.3845     0.33590001        12.0865        10.8244        14.3040        31.7716        12.6223      2647.5334     0.18210000
    3480.96840     27218.2012        -0.0895         2.6823     0.82489997       -4.51090        -0.5409        74.6265        16.7838     0.33340001        12.6789        11.3006        14.2319        31.6094        12.4069      2650.1335     0.18230000
    3481.12080     27075.5996        -0.0956         2.6276     0.81669998       -4.55130        -0.6639        79.7067        16.2330     0.33070001        11.7035        11.1292        14.3318        31.5591        12.4639      2658.0645     0.17960000
    3481.27320     26552.5000        -0.2007         2.6738     0.80629998       -4.50290        -0.7069        79.0776        16.5807     0.33410001        11.6019        10.6301        14.4841        31.3744        12.4385      2651.8333     0.17720000
    3481.42560     26312.5996         0.6942         2.5923     0.81790000       -4.50670        -0.7232        74.6968        18.4907     0.33320001        11.8934        10.8752        14.1519        31.2897        12.6544      2651.3335     0.17490000
    3481.57800     26230.5000         0.0788         2.5935     0.79589999       -4.49760        -0.7530        77.1649        19.6450     0.33590001        11.6547        10.6394        14.9839        31.2607        12.7477      2651.7097     0.17460001
    3481.73040     25616.9004        -0.0582         2.5186     0.78399998       -4.51150        -0.6713        75.3100        20.9487     0.33100000        11.7274        10.6916        14.7830        31.0443        12.9182      2647.9001     0.17420000
    3481.88280     25745.4004        -0.1210         2.6315     0.80379999       -4.50130        -0.8034        77.8066        21.5494     0.33460000        11.4965        10.3621        14.6862        31.0896        13.0205      2658.9678     0.17280000
    3482.03520     25785.1016         0.2061         2.5687     0.81360000       -4.52340        -0.8920        77.2859        22.3798     0.33660001        11.1801        10.5908        15.3187        31.1036        12.9123      2648.3999     0.17140000
    3482.18760     26081.8008         0.4679         2.5964     0.81059998       -4.49430        -0.8220        74.0840        21.0705     0.34099999        11.7756        10.4893        14.5028        31.2083        12.8095      2655.7744     0.16740000
    3482.34000     25455.4004         0.0656         2.6295     0.81900001       -4.49440        -0.8951        75.4089        20.4145     0.33919999        12.0496        10.8967        14.4159        30.9873        12.4340      2645.1333     0.16500001
    3482.49240     25196.5000        -0.5191         2.6935     0.81400001       -4.51430        -0.8990        77.4920        19.2519     0.33610001        12.4018        11.5208        14.2346        30.8961        12.1555      2654.8333     0.16159999
    3482.64480     25055.5996         0.0050         2.8301     0.84570003       -4.55700        -1.1209        75.9465        18.5654     0.33070001        12.9866        11.4664        13.7242        30.8464        11.8092      2650.3550     0.15950000
    3482.79720     24993.0000        -0.1810         2.9033     0.84840000       -4.49740        -1.2189        79.0077        17.1537     0.33120000        12.6889        11.5070        13.4295        30.8244        11.4398      2646.9333     0.15629999
    3482.94960     25011.9004        -0.1862         2.8242     0.83550000       -4.52920        -1.1894        73.9681        17.4969     0.33170000        13.4368        11.6104        13.1837        30.8310        11.0915      2644.7334     0.15170000
    3483.10200     24923.7988         0.0299         3.0463     0.87809998       -4.50160        -1.2239        79.4331        15.5039     0.33870000        13.4993        11.8991        12.7508        30.8000        10.8362      2657.8386     0.14960000
    3483.25440     25242.3984         0.3716         2.8939     0.86729997       -4.50780        -1.3280        74.3847        14.1753     0.34040001        13.8969        11.9651        12.7406        30.9123        10.7663      2662.8667     0.14990000
