~Version Information Block
VERS .                 2.00:  CWLS LOG ASCII STANDARD - VERSION 2.00
WRAP .                   NO:  One line per depth step
~Well Information Block
#MNEM.UNIT        Data Type   Information
#---------- ----------------  -----------
STRT .M          3445.30680:  START DEPTH
STOP .M          3639.15960:  STOP DEPTH
STEP .M             0.15240:  STEP
NULL .              -999.25:  NULL VALUE
COMP .              Statoil:  COMPANY
WELL .          NO_15/9-F-5:  WELL
FLD  .                VOLVE:  FIELD
LOC  .            North Sea:  LOCATION
CTRY .                     :  COUNTRY
STAT .                     :  STATE
CNTY .                     :  COUNTY
SRVC .         Schlumberger:  SERVICE COMPANY
DATE .          16-Sep-2012:  DATE
API  .                     :  API NUMBER
UWI  .             15/9-F-5:  UNIQUE WELL ID
~Curve Information Block
#MNEM.UNIT         API CODE   Curve Description
#---------- ----------------  -----------------
DEPTH.M                    :  DEPTH (BOREHOLE)
CCLC .V                    :  CCL
CRRA .                     :  Near-Far Count Rate Ratio
CVEL .M/MIN                 :  Cable Velocity
FBEF .UA                   :  RST Far Effective Beam Current
FCOR .                     :  RST Far Carbon/Oxygen Ratio
FERD .                     :  RST Far IC Mode Capture Optimization Resolution Degradation Factor
FIRD .                     :  RST Far Inelastic Optimization Resolution Degradation Factor
GR   .GAPI                 :  Gamma Ray
NCOR .                     :  RST Near Carbon/Oxygen Ratio
NERD .                     :  RST Near IC Mode Capture Optimization Resolution Degradation Factor
NIRD .                     :  RST Near Inelastic Optimization Resolution Degradation Factor
RB_PCMS.DEG                  :  Relative Bearing
TENS .LBF                  :  Cable Tension
~Parameter Information Block
#MNEM.UNIT            Value   Description
#---------- ----------------  -----------
APD  .M           54.900002:  Elevation of Depth Reference (LMF) above Permanent Datum
RUN  .                Run 1:  RUN NUMBER
PROJECT.     SLEIPNER_OST@st-vlinapp01:  
SET  .        RSTD_0912_IC3:  
~Other Information Block
# 
~A       DEPTH           CCLC           CRRA           CVEL           FBEF           FCOR           FERD           FIRD             GR           NCOR           NERD           NIRD        RB_PCMS           TENS 
# ...
    3546.34800        -0.0476         2.8637       -0.44300       111.1199    -0.11740000         5.2397         5.2397        36.2089      -0.033800         2.4646         2.4646         7.6450      2780.9163
    3546.50040        -0.0040         2.8342       -0.43930       112.1449    -0.04450000         5.3188         5.3188        37.2104       0.037500         2.4087         2.4087         7.5062      2793.5386
    3546.65280        -0.0051         2.8719       -0.42890       111.2203     0.03480000         5.4174         5.4174        38.5033       0.078600         2.4195         2.4195         7.2904      2782.5483
    3546.80520        -0.0029         2.8463       -0.43100       111.5146    -0.00110000         5.3301         5.3301        39.3423      -0.107100         2.3760         2.3760         7.2881      2790.7705
    3546.95760        -0.0048         2.8641       -0.48840       112.4877     0.10700000         5.4032         5.4032        40.2754      -0.061700         2.3618         2.3618         7.1481      2785.2893
    3547.11000        -0.0346         2.9003       -0.41140       111.0625    -0.09470000         5.2808         5.2808        40.8825      -0.041800         2.4011         2.4011         7.0591      2762.6687
    3547.26240         0.0080         2.8645       -0.56310       111.4736     0.02210000         5.2701         5.2701        41.0422       0.049800         2.4263         2.4263         6.9666      2781.5862
    3547.41480        -0.0069         2.8722       -0.57940       110.6539     0.03880000         5.3163         5.3163        40.8398      -0.024600         2.4228         2.4228         7.0039      2775.1646
    3547.56720        -0.0045         2.8538       -0.57900       110.4299    -0.14049999         5.3497         5.3497        41.0967      -0.109500         2.4074         2.4074         7.2080      2770.6624
    3547.71960        -0.0142         2.8381       -0.58570       111.0866     0.03090000         5.4630         5.4630        41.1262      -0.058400         2.3992         2.3992         7.7650      2783.7563
    3547.87200        -0.0589         2.8479       -0.59630       112.1626    -0.02230000         5.5009         5.5009        40.7076       0.057300         2.4374         2.4374         7.8839      2778.5151
    3548.02440         0.0070         2.8723       -0.60310       110.4744    -0.08830000         5.4991         5.4991        39.8385      -0.041000         2.4776         2.4776         7.9102      2786.7312
    3548.17680        -0.0067         2.8236       -0.60160       110.9445    -0.00180000         5.4144         5.4144        38.4939      -0.029100         2.4943         2.4943         7.9235      2789.6096
    3548.32920        -0.0092         2.8447       -0.61980       109.3980     0.02240000         5.3759         5.3759        37.5319       0.035100         2.5130         2.5130         7.9380      2780.5857
    3548.48160        -0.0136         2.8211       -0.63310       109.3386    -0.06460000         5.4622         5.4622        36.9765       0.047800         2.5138         2.5138         7.8538      2774.7512
    3548.63400        -0.0282         2.8436       -0.66000       109.1453     0.06270000         5.3993         5.3993        37.2716      -0.065700         2.5084         2.5084         7.8534      2785.8174
    3548.78640        -0.0084         2.8264       -0.63970       108.4235    -0.11090000         5.2972         5.2972        38.2899       0.069800         2.4957         2.4957         7.8158      2770.6543
    3548.93880        -0.0190         2.8148       -0.63790       108.3155    -0.03980000         5.3317         5.3317        39.6945       0.027400         2.4711         2.4711         7.7706      2774.5444
    3549.09120        -0.0485         2.7942       -0.64000       109.0744    -0.16930000         5.3372         5.3372        42.9183      -0.113900         2.4944         2.4944         7.5845      2784.8413
    3549.24360        -0.0151         2.8241       -0.64200       109.5797     0.05090000         5.4480         5.4480        44.6262       0.009600         2.5201         2.5201         7.7051      2775.6809
    3549.39600        -0.0142         2.8447       -0.64230       109.5401    -0.05440000         5.4338         5.4338        45.0585       0.020300         2.4748         2.4748         7.7069      2796.9346
    3549.54840        -0.0003         2.8492       -0.64420       109.7415    -0.00050000         5.4610         5.4610        45.0613       0.016600         2.4620         2.4620         7.6562      2785.7561
    3549.70080        -0.0153         2.8359       -0.63900       111.3273     0.13410001         5.4217         5.4217        45.7590      -0.065500         2.4665         2.4665         7.4985      2779.5256
    3549.85320        -0.0141         2.8722       -0.63600       110.3949     0.01010000         5.3682         5.3682        44.0256       0.017500         2.4292         2.4292         7.3673      2783.0327
    3550.00560         0.0686         2.8635       -0.63620       111.4733     0.13320000         5.3573         5.3573        42.8693       0.018600         2.4767         2.4767         7.3347      2769.7593
    3550.15800        -0.0140         2.9100       -0.63580       112.0054     0.01680000         5.3207         5.3207        43.3299      -0.040100         2.4767         2.4767         7.0861      2773.5325
    3550.31040        -0.0280         2.9186       -0.63970       111.1424    -0.01000000         5.2759         5.2759        42.5807      -0.066200         2.4977         2.4977         7.0938      2779.3459
    3550.46280         0.0725         2.8885       -0.64230       110.2426    -0.00360000         5.2605         5.2605        41.7839      -0.051900         2.4862         2.4862         7.1515      2764.5420
    3550.61520         0.0848         2.8510       -0.63800       109.6366     0.03180000         5.2918         5.2918        40.7846      -0.103700         2.5107         2.5107         7.0170      2774.1262
    3550.76760         0.0601         2.8515       -0.63950       108.0912     0.03350000         5.3071         5.3071        39.7775      -0.067600         2.4906         2.4906         7.1093      2770.7163
    3550.92000        -0.0171         2.8188       -0.63290       106.6446    -0.11110000         5.3299         5.3299        39.5995      -0.095700         2.4958         2.4958         7.2091      2777.1704
    3551.07240        -0.0159         2.7800       -0.63530       106.9746    -0.08100000         5.4954         5.4954        40.7880       0.030700         2.5032         2.5032         7.3105      2790.3535
    3551.22480        -0.0149         2.7747       -0.62980       108.7711    -0.01790000         5.4869         5.4869        42.3277      -0.007900         2.5255         2.5255         7.4181      2788.8257
    3551.37720        -0.0176         2.8152       -0.66060       109.1586    -0.14700000         5.6955         5.6955        44.0931      -0.001800         2.5244         2.5244         7.5801      2787.0000
    3551.52960         0.0169         2.7812       -0.62820       110.0798    -0.10890000         5.6081         5.6081        45.5092      -0.001500         2.5448         2.5448         7.5760      2794.0730
    3551.68200        -0.0175         2.8348       -0.62950       111.5110     0.01290000         5.6788         5.6788        44.4582      -0.004600         2.5110         2.5110         7.6381      2775.2937
    3551.83440         0.0576         2.9122       -0.63050       114.8922    -0.01330000         5.5514         5.5514        43.1542      -0.031900         2.5632         2.5632         7.6728      2788.5759
    3551.98680        -0.7428         3.0697       -0.63160       115.6018    -0.03650000         5.4296         5.4296        42.3458       0.034900         2.6304         2.6304         7.7117      2779.0371
    3552.13920        -0.0143         3.0632       -0.63470       113.7363     0.03760000         5.2201         5.2201        41.1513      -0.062500         2.6309         2.6309         7.6207      2769.8704
