~Version Information Block
VERS .                 2.00:  CWLS LOG ASCII STANDARD - VERSION 2.00
WRAP .                   NO:  One line per depth step
~Well Information Block
#MNEM.UNIT        Data Type   Information
#---------- ----------------  -----------
STRT .M          3451.70760:  START DEPTH
STOP .M          3790.03560:  STOP DEPTH
STEP .M             0.15240:  STEP
NULL .              -999.25:  NULL VALUE
COMP .              Statoil:  COMPANY
WELL .        NO_15/9-F-1_C:  WELL
FLD  .                Volve:  FIELD
LOC  .            North Sea:  LOCATION
CTRY .               Norway:  COUNTRY
STAT .                     :  STATE
CNTY .                     :  COUNTY
SRVC .         Schlumberger:  SERVICE COMPANY
DATE .          27-Nov-2014:  DATE
API  .                     :  API NUMBER
UWI  .           15/9-F-1 C:  UNIQUE WELL ID
LATI .     58° 26' 29.91" N:  LATITUDE
LONG .      1° 53' 14.71" E:  LONGITUDE
~Curve Information Block
#MNEM.UNIT         API CODE   Curve Description
#---------- ----------------  -----------------
DEPTH.M                    :  DEPTH (BOREHOLE)
CVEL .M/SEC                 :  Cable Velocity
DFRB .DEG                  :  Calibrated Relative Bearing
FBEF .UA                   :  RST Far Effective Beam Current
FCOR .                     :  RST Far Carbon/Oxygen Ratio
FERD .                     :  RST Far IC Mode Capture Optimization
FIRD .                     :  RST Far Inelastic Optimization Resolution
GR   .GAPI                 :  Gamma Ray
NCOR .                     :  RST Near Carbon/Oxygen Ratio
NERD .                     :  RST Near IC Mode Capture Optimization
NIRD .                     :  RST Near Inelastic Optimization Resolution
PFC1 .IN                   :  PFCS CaliperX
PFC2 .IN                   :  PFCS CaliperY
TENS .LBF                  :  Cable Tension
~Parameter Information Block
#MNEM.UNIT            Value   Description
#---------- ----------------  -----------
APD  .M           54.900002:  Elevation of Depth Reference (LMF) above Permanent Datum
EPD  .C3                  0:  Elevation of Permanent Datum above Mean Sea Level
LMF  .                   KB:  Logging Measured From (Name of Logging Elevation Reference)
PDAT .                  MSL:  Permanent Datum
RUN  .                Run 1:  RUN NUMBER
TAPE_NAME.     Statoil_Volve_15-9-F-1 C_PLT-RST_28Nov14_ConCu_R1L18Up_IC2.las:  
TOOL_STRING.              UNKNOWN:  
WN   .           15/9-F-1 C:  WELL
PROJECT.     SLEIPNER_OST@st-vlinapp01:  
SET  .        RSTD_1114_IC2:  
~Other Information Block
# 
~A       DEPTH           CVEL           DFRB           FBEF           FCOR           FERD           FIRD             GR           NCOR           NERD           NIRD           PFC1           PFC2           TENS 
# ...
    3784.54920     -0.0079367       334.4070       121.5125      -999.2500         5.0912         5.0912        27.5748      -999.2500         6.9617         6.9617         6.2220         6.0833      4631.1475
    3784.70160     -0.0073417       334.4070       121.5125      -999.2500         5.0912         5.0912        27.5748      -999.2500         6.9617         6.9617         6.2219         6.0834      4621.4141
    3784.85400     -0.0080300       334.4070       121.5125      -999.2500         5.0912         5.0912        27.5748      -999.2500         6.9617         6.9617         6.2219         6.0817      4628.5576
    3785.00640     -0.0076650       334.4070       121.5125      -999.2500         5.0912         5.0912        27.5748      -999.2500         6.9617         6.9617         6.2219         6.0793      4639.1406
    3785.15880     -0.0078183       334.4070       121.5125      -999.2500         5.0912         5.0912        27.5748      -999.2500         6.9617         6.9617         6.2219         6.0681      4595.4570
    3785.31120     -0.0076817       334.4070       121.5125      -999.2500         5.0912         5.0912        27.5748      -999.2500         6.9617         6.9617         6.2217         6.0744      4614.2852
    3785.46360     -0.0076433       334.4070       121.5125      -999.2500         5.0912         5.0912        27.5748      -999.2500         6.9617         6.9617         6.2219         6.0833      4574.7593
    3785.61600     -0.0079067       334.4070       121.5125      -999.2500         5.0912         5.0912        27.5748      -999.2500         6.9617         6.9617         6.2219         6.0827      4554.9482
    3785.76840     -0.0078017       334.4070       121.5125      -999.2500         5.0912         5.0912        27.5748      -999.2500         6.9617         6.9617         6.2219         6.0825      4595.1543
    3785.92080     -0.0080950       334.4070       121.5125      -999.2500         5.0912         5.0912        27.5748      -999.2500         6.9617         6.9617         6.2219         6.0834      4572.2324
    3786.07320     -0.0073517       334.4070       121.5125      -999.2500         5.0912         5.0912        27.5748      -999.2500         6.9617         6.9617         6.2208         6.0819      4540.8618
    3786.22560     -0.0081633       334.4070       121.5125      -999.2500         5.0912         5.0912        27.5748      -999.2500         6.9617         6.9617         6.2196         6.0827      4539.6406
    3786.37800     -0.0080917       334.4070       121.5125      -999.2500         5.0912         5.0912        27.5748      -999.2500         6.9617         6.9617         6.2218         6.0834      4531.6406
    3786.53040     -0.0080650       334.4070       121.5125      -999.2500         5.0912         5.0912        27.5748      -999.2500         6.9617         6.9617         6.2219         6.0841      4494.2744
    3786.68280     -0.0078650       334.4070       121.5125      -999.2500         5.0912         5.0912        27.5748      -999.2500         6.9617         6.9617         6.2220         6.0835      4645.5688
    3786.83520     -0.0079167       334.4070       121.5125      -999.2500         5.0912         5.0912        27.5748      -999.2500         6.9617         6.9617         6.2220         6.1023      4702.7959
    3786.98760     -0.0079700       332.9960       121.5125      -999.2500         5.0912         5.0912        27.5748      -999.2500         6.9617         6.9617         6.2219         6.1165      4702.1519
    3787.14000     -0.0076517       332.9960       121.5125      -999.2500         5.0912         5.0912        27.5748      -999.2500         6.9617         6.9617         6.2231         6.1209      4742.3311
    3787.29240     -0.0081600       332.9960       121.5125      -999.2500         5.0912         5.0912        27.5748      -999.2500         6.9617         6.9617         6.2220         6.1318      4670.2881
    3787.44480     -0.0078767       332.9960       121.5125      -999.2500         5.0912         5.0912        27.5748      -999.2500         6.9617         6.9617         6.2224         6.1300      4786.0591
    3787.59720     -0.0079433       332.9960       121.5125      -999.2500         5.0912         5.0912        27.5748      -999.2500         6.9617         6.9617         6.2221         6.1045      4718.5225
    3787.74960     -0.0078583       332.9960       121.5125      -999.2500         5.0912         5.0912        27.5748      -999.2500         6.9617         6.9617         6.2220         6.0835      4720.6689
    3787.90200     -0.0081200       332.9960       121.5125      -999.2500         5.0912         5.0912        27.5748      -999.2500         6.9617         6.9617         6.2219         6.0834      4782.8975
    3788.05440     -0.0084583       332.9960       121.5125      -999.2500         5.0912         5.0912        27.5748      -999.2500         6.9617         6.9617         6.2219         6.0834      4658.5698
    3788.20680     -0.0085567       332.9960       121.5125      -999.2500         5.0912         5.0912        27.5748      -999.2500         6.9617         6.9617         6.2219         6.0821      4801.0605
    3788.35920     -0.0088533       331.5850       121.5125      -999.2500         5.0912         5.0912        27.5748      -999.2500         6.9617         6.9617         6.2220         6.0818      4787.8506
    3788.51160     -0.0098800       331.5850       121.5125      -999.2500         5.0912         5.0912        27.5748      -999.2500         6.9617         6.9617         6.2220         6.0834      4715.1934
    3788.66400     -0.0103700       331.5850       121.5125      -999.2500         5.0912         5.0912        27.5748      -999.2500         6.9617         6.9617         6.2230         6.0834      4710.4141
    3788.81640     -0.0101350       331.5850       121.5125      -999.2500         5.0912         5.0912        27.5748      -999.2500         6.9617         6.9617         6.2226         6.0834      4700.4956
    3788.96880     -0.0101000       331.5850       121.5125      -999.2500         5.0912         5.0912        27.5748      -999.2500         6.9617         6.9617         6.2219         6.0834      4720.9116
    3789.12120     -0.0099150       331.5850       121.5125      -999.2500         5.0912         5.0912        27.5748      -999.2500         6.9617         6.9617         6.1985         6.1102      4737.9351
    3789.27360     -0.0098650       331.5850       121.5125      -999.2500         5.0912         5.0912        27.5748      -999.2500         6.9617         6.9617         6.2028         6.1164      4723.6621
    3789.42600     -0.0095600       331.5850       121.5125      -999.2500         5.0912         5.0912        27.5748      -999.2500         6.9617         6.9617         6.2029         6.1161      4822.6416
    3789.57840     -0.0096317       331.5850       121.5125      -999.2500         5.0912         5.0912        27.5748      -999.2500         6.9617         6.9617         6.2033         6.1161      4757.2998
    3789.73080     -0.0094467       332.9960       121.5125      -999.2500         5.0912         5.0912        27.5748      -999.2500         6.9617         6.9617         6.2033         6.1161      4796.4570
    3789.88320     -0.0046133       332.9960       121.5125      -999.2500         5.0912         5.0912        27.5748      -999.2500         6.9617         6.9617         6.2033         6.1161      4684.2051
    3790.03560     -0.0041417       332.9960       121.5125      -999.2500         5.0912         5.0912        27.5748      -999.2500         6.9617         6.9617         6.2033         6.1161      4578.2754
