~Version Information Block
VERS .                 2.00:  CWLS LOG ASCII STANDARD - VERSION 2.00
WRAP .                  YES:  Multiple lines per depth step
~Well Information Block
#MNEM.UNIT        Data Type   Information
#---------- ----------------  -----------
STRT .M          3438.44880:  START DEPTH
STOP .M          3636.26400:  STOP DEPTH
STEP .M             0.15240:  STEP
NULL .              -999.25:  NULL VALUE
COMP .              Statoil:  COMPANY
WELL .          NO_15/9-F-5:  WELL
FLD  .                Volve:  FIELD
LOC  .                Volve:  LOCATION
CTRY .               Norway:  COUNTRY
STAT .                     :  STATE
CNTY .                     :  COUNTY
SRVC .         Schlumberger:  SERVICE COMPANY
DATE .           11/03/2015:  DATE
API  .                     :  API NUMBER
UWI  .             15/9-F-5:  UNIQUE WELL ID
LATI .     58° 26' 29.66" N:  LATITUDE
LONG .      1° 53' 14.99" E:  LONGITUDE
~Curve Information Block
#MNEM.UNIT         API CODE   Curve Description
#---------- ----------------  -----------------
DEPTH.M                    :  Depth Index
BSAL .PPM                  :  (RST-D)                 (6in)                   Borehole Salinity
CCLC .V                    :  (PSTP-B)                (1in)                   CCL Computed Amplitude
CIRF .                     :  (RST-D)                 (6in)                   Capture to Inelastic Rat
CIRN .                     :  (RST-D)                 (6in)                   Capture to Inelastic Rat
CVEL .M/SEC                 :  (WLWorkflow)            (1in)                   Cable Velocity
DSIG .CU                   :  (RST-D)                 (6in)                   Sigma Difference
FBEF .UA                   :  (RST-D)                 (6in)                   Far Effective Beam Curre
GR   .GAPI                 :  (PSTP-B)                (6in)                   Gamma Ray
IRAT .                     :  (RST-D)                 (6in)                   Inelastic Ratio
RB_PCMS.DEG                  :  (PCMS-A)                (6in)                   Relative Bearing
RSCF .                     :  (RST-D)                 (6in)                   Far Detector Effective U
RSCN .                     :  (RST-D)                 (6in)                   Near Detector Effective
SFFA .CU                   :  (RST-D)                 (6in)                   Sigma Formation Far Appa
SIBF .CU                   :  (RST-D)                 (6in)                   Sigma Borehole Fluid
SIGM .CU                   :  (RST-D)                 (6in)                   Formation Sigma (Neutron
TENS .LBF                  :  (WLWorkflow)            (1in)                   Cable Tension
TPHI .V/V                  :  (RST-D)                 (6in)                   Thermal Decay Porosity
WPRE .BAR                  :  (PSTP-B)                (6in)                   Well Pressure
WTEP .DEGC                 :  (PSTP-B)                (6in)                   Well Temperature
~Parameter Information Block
#MNEM.UNIT            Value   Description
#---------- ----------------  -----------
APD  .M                  54:  Elevation of Depth Reference (LMF) Above Permanent Datum
CLAB .              Country:  :County Label
ECF  .M             -999.25:  Elevation of Casing Flange above Permanent Datum
EDF  .M                  54:  Elevation of Drill Floor Above Permanent Datum
EGL  .M                 -91:  Elevation of Ground Level Above Permanent Datum
EKB  .M             -999.25:  Elevation of Kelly Bushing Above Permanent Datum
EPD  .M                   0:  Elevation of Permanent Datum (PDAT) above Mean Sea Level
FL1  .            North Sea:  Field Location Line 1
FL2  .     Norwegian Sector:  Field Location Line 2
LMF  .                   DF:  Logging Measured From
LUL  .                 NOBO:  Logging Unit Location
LUN  .          ONCC-A 3837:  Logging Unit Number
PDAT .                  MSL:  Local Permanent Datum
RIGN .      Maersk Inspirer:  Rig Name
RIGTYP.               Jackup:  Rig Type
SON  .           C2TQ-00038:  Service Order Number
TAPE_NAME.     RST_SIGMA__03Nov15_171237.las:  
TOOL_STRING.              UNKNOWN:  
WN   .             15/9-F-5:  WELL NAME
PROJECT.     SLEIPNER_OST@st-vlinapp01:  
SET  .       RSTD_1115_SIG1:  
~Other Information Block
~Ascii Log Data
# ...
    3504.28560 
    31096.4785        -0.0092         2.6053       0.816370     -0.0787440 
       -0.4622       111.8250        21.6507       0.331030       353.8734 
        8.2689         8.2477        15.1595        32.9829        13.6092 
     3900.5994       0.205500       362.6562        82.5350
    3504.43800 
    31327.3301        -0.0393         2.4923       0.821610     -0.0795060 
       -0.2034       104.5065        20.9643       0.327900       353.9650 
        8.1518         7.8938        15.5571        33.0649        13.3656 
     3915.4006       0.208150       362.6654        82.5283
    3504.59040 
    30903.6016        -0.0121         2.6820       0.821830     -0.0777318 
       -0.1650       105.3597        20.2985       0.325550       353.8705 
        8.5661         7.8270        14.8375        32.9145        13.5257 
     3999.6006       0.206290       362.6763        82.5184
    3504.74280 
    30758.6191         0.0106         2.6536       0.825650     -0.0784225 
       -0.1657       108.1713        18.8545       0.313940       353.7854 
        8.8576         8.7866        15.6437        32.8630        13.3483 
     4102.9990       0.206990       362.6848        82.5087
    3504.89520 
    30718.2500        -0.0285         2.6226       0.777480     -0.0790675 
       -0.1913       108.9840        17.1679       0.305890       353.7145 
        8.5742         8.0717        15.0296        32.8487        13.5718 
     4050.2500       0.206810       362.6986        82.4943
    3505.04760 
    30721.9297        -0.4982         2.3683       0.668390     -0.0797560 
       -0.1777       112.3451        16.2904       0.299940       353.7422 
        7.7444         7.2728        15.5134        32.8500        13.2164 
     4008.7998       0.210700       362.7052        82.4796
    3505.20000 
    30323.8301         0.5139         2.2721       0.681500     -0.0787478 
       -0.2542       111.7908        16.9355       0.307110       353.7418 
        7.3159         7.3000        14.5805        32.7088        13.0736 
     4047.5996       0.218030       362.7163        82.4712
    3505.35240 
    30498.4707         0.0281         2.4754       0.784880     -0.0782320 
       -0.2200       103.9668        16.5065       0.316540       353.6234 
        8.1937         7.8161        14.6004        32.7707        12.8073 
     3981.0000       0.218980       362.7263        82.4575
    3505.50480 
    30225.0996        -0.0689         2.6018       0.832260     -0.0778965 
       -0.2988       103.2747        16.7639       0.324700       353.5547 
        8.7530         8.2923        14.7162        32.6738        12.8663 
     3870.3333       0.216680       362.7345        82.4472
    3505.65720 
    30405.0703        -0.0606         2.6163       0.815770     -0.0787440 
       -0.1860       108.0411        17.2728       0.323380       353.5836 
        8.4714         8.2376        14.7564        32.7376        13.0428 
     3901.9998       0.208170       362.7463        82.4296
    3505.80960 
    30452.9395         0.0319         2.6393       0.813360     -0.0787400 
       -0.2581       106.7278        18.2006       0.321610       353.4637 
        8.8277         8.4192        15.1314        32.7546        13.4085 
     3888.3989       0.202390       362.7550        82.4233
    3505.96200 
    29786.4609         0.0352         2.6812       0.822810     -0.0779818 
       -0.3906       108.6548        19.1001       0.318460       353.5347 
        8.4939         8.0549        15.8118        32.5183        13.5911 
     3909.2004       0.200170       362.7655        82.4218
    3506.11440 
    30375.8691        -0.0329         2.7571       0.834930     -0.0792520 
       -0.6473       108.3291        19.2717       0.317990       353.5647 
        8.8085         8.3562        15.3081        32.7273        13.5445 
     3890.1997       0.201220       362.7765        82.4191
    3506.26680 
    30171.5195        -0.0284         2.5681       0.804620     -0.0789940 
       -0.7718       105.4629        19.9582       0.318030       353.8224 
        8.5876         8.2947        14.9883        32.6548        13.4120 
     3959.6003       0.204090       362.7853        82.4209
    3506.41920 
    30106.7402        -0.0229         2.6679       0.818960     -0.0782398 
       -0.7998       108.0916        20.3873       0.320540       353.8280 
        8.8909         8.6081        15.4121        32.6318        13.4764 
     4061.8008       0.203200       362.7984        82.3953
    3506.57160 
    30394.7305         0.0026         2.5879       0.810170     -0.0779818 
       -0.8772       109.2718        19.9937       0.320810       353.7374 
        8.4238         8.2136        15.4959        32.7339        13.5103 
     4005.2007       0.202640       362.8052        82.3830
    3506.72400 
    31286.6895         0.0298         2.6232       0.805490     -0.0774748 
       -0.7823       107.8122        18.2775       0.324660       353.8529 
        8.5479         8.1370        15.0870        33.0505        13.4131 
     4013.5005       0.199910       362.8163        82.3781
    3506.87640 
    30807.2793         0.0121         2.5359       0.798120     -0.0797560 
       -0.7601       105.5045        17.3336       0.325340       353.7718 
        8.2024         7.8537        15.1205        32.8803        13.2838 
     4051.4011       0.197680       362.8257        82.3658
    3507.02880 
    31225.9688        -0.0394         2.5798       0.789320     -0.0787478 
       -0.7962       102.1039        16.4755       0.325010       353.7636 
        8.9982         8.1753        15.1064        33.0289        13.4311 
     4027.8008       0.194420       362.8369        82.3448
    3507.18120 
    31244.4707        -0.0436         2.5842       0.779480     -0.0792520 
       -0.7252       109.6097        16.7330       0.322030       353.7704 
        8.2461         7.6441        15.5289        33.0355        13.5420 
     4013.3994       0.195190       362.8463        82.3236
    3507.33360 
    31090.9492         0.0645         2.6079       0.809380     -0.0789980 
       -0.7738       107.8854        16.5613       0.319240       353.6264 
        8.6050         8.2369        15.4498        32.9810        13.4595 
     3997.5999       0.201730       362.8567        82.3142
    3507.48600 
    31753.0586         0.0309         2.6572       0.807760     -0.0787448 
       -0.7708       110.5071        15.9607       0.320400       353.6237 
        8.4976         8.1931        14.8539        33.2161        13.4399 
     3884.2512       0.207260       362.8663        82.3141
    3507.63840 
    32823.4414         0.0064         2.5657       0.817310     -0.0787400 
       -0.7294       106.0870        17.8679       0.319480       353.8331 
        8.4682         8.3390        15.4599        33.5967        13.3489 
     3937.0002       0.212970       362.8772        82.2955
    3507.79080 
    33090.9805         0.0016         2.6309       0.806760     -0.0779818 
       -0.5995       106.7736        17.2672       0.320360       354.0771 
        8.7932         8.4419        15.1653        33.6918        13.4759 
     3879.5999       0.214150       362.8868        82.2858
    3507.94320 
    33808.8789         0.0580         2.4995       0.781640     -0.0787400 
       -0.5765       106.2446        17.0098       0.319130       353.9674 
        8.3328         7.9327        15.2248        33.9474        13.4364 
     3882.0007       0.218340       362.8962        82.2762
    3508.09560 
    34239.2695        -0.0133         2.5003       0.785040     -0.0795060 
       -0.4450       105.3724        16.5641       0.321520       354.0415 
        8.2308         7.6574        15.3305        34.1008        13.7341 
     3959.8005       0.219610       362.9073        82.2625
    3508.24800 
    34593.1406         0.0055         2.5146       0.810740     -0.0787450 
       -0.2715       109.0520        18.7094       0.319980       354.1248 
        7.9326         7.7710        16.0495        34.2269        13.8878 
     4022.0005       0.221470       362.9157        82.2333
