~Version Information Block
VERS .                 2.00:  CWLS LOG ASCII STANDARD - VERSION 2.00
WRAP .                  YES:  Multiple lines per depth step
~Well Information Block
#MNEM.UNIT        Data Type   Information
#---------- ----------------  -----------
STRT .M          3513.58200:  START DEPTH
STOP .M          3649.06560:  STOP DEPTH
STEP .M             0.15240:  STEP
NULL .              -999.25:  NULL VALUE
COMP .              Statoil:  COMPANY
WELL .        NO_15/9-F-1_C:  WELL
FLD  .                Volve:  FIELD
LOC  .            North Sea:  LOCATION
CTRY .               Norway:  COUNTRY
STAT .                     :  STATE
CNTY .                     :  COUNTY
SRVC .         Schlumberger:  SERVICE COMPANY
DATE .          27-Nov-2014:  DATE
API  .                     :  API NUMBER
UWI  .           15/9-F-1 C:  UNIQUE WELL ID
LATI .     58° 26' 29.91" N:  LATITUDE
LONG .      1° 53' 14.71" E:  LONGITUDE
~Curve Information Block
#MNEM.UNIT         API CODE   Curve Description
#---------- ----------------  -----------------
DEPTH.M                    :  DEPTH (BOREHOLE)
BSAL .PPM                  :  Borehole Salinity
CCLC .V                    :  CCL
CIRF .                     :  RST Capture to Inelastic Ratio Far
CIRN .                     :  RST Capture to Inelastic Ratio Near
CVEL .M/SEC                 :  Cable Velocity
DFRB .DEG                  :  Calibrated Relative Bearing
DSIG .CU                   :  Sigma Difference
FBEF .UA                   :  RST Far Effective Beam Current
GR   .GAPI                 :  Gamma Ray
IRAT .                     :  RST Inelastic Ratio
PFC1 .IN                   :  PFCS CaliperX
PFC2 .IN                   :  PFCS CaliperY
RSCF .                     :  RST Far Detector Effective Unregulated
RSCN .                     :  RST Near Detector Effective
SFFA .CU                   :  RST Sigma Formation Far Apparent
SIBF .CU                   :  RST Sigma Borehole Fluid
SIGM .CU                   :  Formation Sigma (Neutron Capture Cross
TENS .LBF                  :  Cable Tension
TPHI .V/V                  :  Thermal Decay Porosity
~Parameter Information Block
#MNEM.UNIT            Value   Description
#---------- ----------------  -----------
APD  .M           54.900002:  Elevation of Depth Reference (LMF) above Permanent Datum
BHS  .                 CASE:  Borehole Status (Open or Cased Hole)
BS   .IN                8.5:  Bit Size
BSAL .PPM                 0:  Borehole Salinity
BSALOPT.              UNKNOWN:  Borehole Salinity Option
CSIZ .IN                  7:  Current Casing Size
CWEI .LB/F               29:  Casing Weight
EPD  .C3                  0:  Elevation of Permanent Datum above Mean Sea Level
LMF  .                   KB:  Logging Measured From (Name of Logging Elevation Reference)
MATR .                 SAND:  Rock Matrix for Neutron Porosity Corrections
PDAT .                  MSL:  Permanent Datum
RUN  .                Run 1:  RUN NUMBER
TAPE_NAME.     Statoil_Volve_15-9-F-1 C_PLT-RST_28Nov14_ConCu_R1L15Up_SigmaRepeat.las:  
TOOL_STRING.              UNKNOWN:  
WN   .           15/9-F-1 C:  WELL
PROJECT.     SLEIPNER_OST@st-vlinapp01:  
SET  .       RSTD_1114_SIG2:  
~Other Information Block
~Ascii Log Data
# ...
    3558.84480 
    28507.4004         0.0995         1.9393       0.754000      -0.162662 
      352.7500        -2.1028        76.8575        23.8184         0.3583 
        6.2219         6.0186         9.3564        10.1151        20.3252 
       32.0653        18.7105      4431.0000       0.228100
    3558.99720 
    28312.2988        -0.0385         1.8376       0.746800      -0.161392 
      352.7500        -1.8985        81.4483        25.9269         0.3509 
        6.2219         6.0186         8.1600         9.6485        21.9859 
       31.9963        19.7737      4313.5000       0.262000
    3559.14960 
    29663.0000        -1.0310         1.6805       0.688400      -0.162007 
      354.1610        -1.8028        83.2970        25.3752         0.3445 
        6.2219         5.9954         7.1502         8.6638        22.4826 
       32.4745        20.0479      4298.5000       0.288900
    3559.30200 
    30372.9004         0.1189         1.6392       0.733600      -0.161392 
      352.7500        -1.7674        82.7909        27.2140         0.3550 
        6.1614         5.9468         6.9322         9.0211        21.1752 
       32.7262        20.2149      4104.0000       0.317100
    3559.45440 
    30760.0000        -0.0551         1.5907       0.724300      -0.163932 
      352.7500        -1.7322        77.5067        27.0302         0.3594 
        6.2219         6.0163         6.7532         8.1339        22.5295 
       32.8635        20.2725      4185.0005       0.331100
    3559.60680 
    30931.8008         0.0010         1.6768       0.772300      -0.163092 
      352.7500        -1.5717        80.9232        28.5012         0.3630 
        6.2219         6.0186         7.1424         9.3696        22.7438 
       32.9245        20.7915      4314.3335       0.329800
    3559.75920 
    32005.0020        -0.0083         1.6213       0.750100      -0.163078 
      354.1610        -1.4018        76.9013        27.7657         0.3587 
        6.2219         6.0186         7.1116         8.7641        22.7868 
       33.3057        20.8188      4513.3335       0.315800
    3559.91160 
    31215.0996        -0.0130         1.8058       0.778600      -0.163105 
      354.1610        -1.1363        77.0507        29.5309         0.3627 
        6.2219         6.0186         8.2589         9.6262        22.6481 
       33.0251        20.9399      4502.0000       0.297900
    3560.06400 
    31151.8984         0.0110         1.8500       0.784700      -0.163120 
      354.1610        -1.0074        80.1589        29.8987         0.3567 
        6.2219         6.0186         7.9691         9.3124        23.1510 
       33.0026        20.7978      4535.0000       0.284800
    3560.21640 
    31220.9004         0.0213         1.9613       0.802800      -0.162695 
      354.1610        -0.9782        82.7283        30.0825         0.3512 
        6.2219         6.0186         7.6814         8.4457        22.4240 
       33.0271        20.3074      4349.6665       0.280500
    3560.36880 
    31061.4004        -0.0724         1.9090       0.768600      -0.162285 
      354.1610        -1.1129        82.1997        32.1052         0.3480 
        6.2219         6.0186         7.9669         9.0148        21.2265 
       32.9705        20.0621      4378.3335       0.278200
    3560.52120 
    32308.3984         0.0335         2.0022       0.798900      -0.161848 
      354.1610        -0.9897        83.0749        34.8634         0.3491 
        6.2219         6.0186         7.7729         8.9206        22.4840 
       33.4135        19.4950      4242.6670       0.278800
    3560.67360 
    32347.5996        -0.0160         1.9656       0.804900      -0.161412 
      354.1610        -1.0097        83.0320        35.1208         0.3529 
        6.2219         5.9954         7.7221         8.8515        20.7530 
       33.4274        19.5279      4112.0000       0.275200
    3560.82600 
    32439.3008        -0.0160         1.9666       0.794400      -0.163318 
      354.1610        -0.9921        78.6939        37.5112         0.3574 
        6.2219         5.9978         7.8705         8.2578        21.3491 
       33.4600        19.3499      4118.0000       0.267100
    3560.97840 
    31456.0996        -0.0170         2.0783       0.825800      -0.164547 
      355.5720        -0.9100        79.1847        36.4080         0.3558 
        6.2219         6.0047         8.4567         8.9379        21.9318 
       33.1106        19.9543      4195.0000       0.256100
    3561.13080 
    30907.3008        -0.0130         2.1088       0.782900      -0.163953 
      355.5720        -0.6857        82.8204        32.7304         0.3511 
        6.2219         5.9862         8.3006         8.7986        22.5058 
       32.9158        20.4124      4576.0000       0.246100
    3561.28320 
    30333.9004        -0.0185         1.9946       0.792600      -0.163912 
      355.5720        -0.4244        81.8462        29.6045         0.3575 
        6.2219         5.9862         7.8903         8.7825        22.6432 
       32.7124        20.6322      4596.0000       0.238100
    3561.43560 
    30246.2988         0.0299         2.0413       0.850100      -0.162682 
      355.5720        -0.2892        79.5954        29.4206         0.3683 
        6.2219         5.9908         8.1619         8.9999        22.5143 
       32.6813        20.1163      4531.5000       0.226800
    3561.58800 
    31408.0000        -0.0200         2.1060       0.806500      -0.162682 
      355.5720        -0.1525        77.2815        27.7657         0.3837 
        6.2219         6.0001         8.9035         8.9177        20.8846 
       33.0936        18.9983      4480.0000       0.214400
    3561.74040 
    31721.0000         0.0283         2.0009       0.785100      -0.162723 
      355.5720        -0.1395        74.6100        26.8463         0.3773 
        6.2219         6.0163         8.9645         8.9491        19.2324 
       33.2047        17.8102      4412.0000       0.204200
    3561.89280 
    31821.0996         0.0762         1.9758       0.728800      -0.163338 
      355.5720         0.2102        75.6117        27.2140         0.3806 
        6.2219         6.0070         9.1224         8.9905        18.8953 
       33.2403        17.0857      4295.0000       0.204800
    3562.04520 
    31817.4004         0.0637         1.8489       0.697200      -0.162087 
      355.5720         0.5385        75.1858        25.3752         0.3718 
        6.1995         5.9862         8.8377         9.1010        18.6557 
       33.2390        17.1405      4203.5000       0.209800
    3562.19760 
    31807.1992        -0.0195         1.9037       0.744300      -0.162682 
      355.5720         0.6044        74.2628        25.0075         0.3710 
        6.1905         5.9862         9.2778        10.0104        19.3442 
       33.2354        17.0496      4198.0000       0.225200
    3562.35000 
    31670.6992         0.0064         1.8539       0.718900      -0.162682 
      355.5720         0.8896        68.8780        23.1932         0.3643 
        6.1905         5.9862         9.5577         9.4772        18.5775 
       33.1869        17.2122      4099.0005       0.229400
    3562.50240 
    32300.0977         0.0014         1.8907       0.736500      -0.162682 
      355.5720         1.1526        73.4057        23.9287         0.3706 
        6.1905         5.9862         9.2551         9.8830        19.1050 
       33.4106        17.1323      4452.0000       0.229900
    3562.65480 
    32550.4004         0.0016         1.8318       0.710900      -0.163338 
      356.9830         1.0552        69.0552        23.1932         0.3748 
        6.1905         5.9931         9.3153         9.2153        19.0660 
       33.4996        17.2562      4311.0000       0.216400
    3562.80720 
    33203.3008         0.0061         1.8171       0.698000      -0.162682 
      356.9830         0.8552        70.8454        25.7675         0.3829 
        6.1905         5.9862         9.4225         9.9809        18.9306 
       33.7318        17.2095      4500.0000       0.206000
