~Version Information Block
VERS .                 2.00:  CWLS LOG ASCII STANDARD - VERSION 2.00
WRAP .                   NO:  One line per depth step
~Well Information Block
#MNEM.UNIT        Data Type   Information
#---------- ----------------  -----------
STRT .M          3454.45080:  START DEPTH
STOP .M          3788.05440:  STOP DEPTH
STEP .M             0.15240:  STEP
NULL .              -999.25:  NULL VALUE
COMP .              Statoil:  COMPANY
WELL .        NO_15/9-F-1_C:  WELL
FLD  .                Volve:  FIELD
LOC  .            North Sea:  LOCATION
CTRY .               Norway:  COUNTRY
STAT .                     :  STATE
CNTY .                     :  COUNTY
SRVC .         Schlumberger:  SERVICE COMPANY
DATE .          27-Nov-2014:  DATE
API  .                     :  API NUMBER
UWI  .           15/9-F-1 C:  UNIQUE WELL ID
LATI .     58° 26' 29.91" N:  LATITUDE
LONG .      1° 53' 14.71" E:  LONGITUDE
~Curve Information Block
#MNEM.UNIT         API CODE   Curve Description
#---------- ----------------  -----------------
DEPTH.M                    :  DEPTH (BOREHOLE)
CRRA .                     :  Near/Far Count Rate Ratio
CVEL .M/SEC                 :  Cable Velocity
DFRB .DEG                  :  Calibrated Relative Bearing
FBEF .UA                   :  RST Far Effective Beam Current
FCOR .                     :  RST Far Carbon/Oxygen Ratio
FERD .                     :  RST Far IC Mode Capture Optimization
FIRD .                     :  RST Far Inelastic Optimization Resolution
GR   .GAPI                 :  Gamma Ray
NCOR .                     :  RST Near Carbon/Oxygen Ratio
NERD .                     :  RST Near IC Mode Capture Optimization
NIRD .                     :  RST Near Inelastic Optimization Resolution
PFC1 .IN                   :  PFCS CaliperX
PFC2 .IN                   :  PFCS CaliperY
TENS .LBF                  :  Cable Tension
~Parameter Information Block
#MNEM.UNIT            Value   Description
#---------- ----------------  -----------
APD  .M           54.900002:  Elevation of Depth Reference (LMF) above Permanent Datum
EPD  .C3                  0:  Elevation of Permanent Datum above Mean Sea Level
LMF  .                   KB:  Logging Measured From (Name of Logging Elevation Reference)
PDAT .                  MSL:  Permanent Datum
RUN  .                Run 1:  RUN NUMBER
TAPE_NAME.     Statoil_Volve_15-9-F-1 C_PLT-RST_28Nov14_ConCu_R1L17Up_IC1.las:  
TOOL_STRING.              UNKNOWN:  
WN   .           15/9-F-1 C:  WELL
PROJECT.     SLEIPNER_OST@st-vlinapp01:  
SET  .        RSTD_1114_IC1:  
~Other Information Block
# 
~A       DEPTH           CRRA           CVEL           DFRB           FBEF           FCOR           FERD           FIRD             GR           NCOR           NERD           NIRD           PFC1           PFC2           TENS 
# ...
    3498.34200         2.6061      -0.008498       356.9830       110.9158         0.1533         5.0895         5.0895        26.8845         0.9151         6.7911         6.7911         6.2131         6.0211      4202.6567
    3498.49440         2.6092      -0.008298       356.9830       110.1341         0.1200         5.0697         5.0697        25.1103         0.7139         6.8252         6.8252         6.2029         6.0192      4226.4272
    3498.64680         2.5868      -0.008343       356.9830       110.0723         0.1306         5.0822         5.0822        24.3348         0.6953         6.8227         6.8227         6.1968         6.0186      4205.3994
    3498.79920         2.5739      -0.008437       356.9830       110.2067         0.1371         5.0821         5.0821        24.0511         0.8421         6.8092         6.8092         6.1976         6.0186      4104.0366
    3498.95160         2.5841      -0.008433       356.9830       111.0674         0.0859         5.0668         5.0668        23.5682         0.7134         6.8215         6.8215         6.1985         6.0186      4014.7344
    3499.10400         2.6033      -0.008872       356.9830       110.2605         0.1647         5.0463         5.0463        22.9439         0.6791         6.7847         6.7847         6.1950         6.0186      4243.6963
    3499.25640         2.5760      -0.009135       356.9830       110.6108         0.1737         4.9890         4.9890        22.8797         0.8800         6.7803         6.7803         6.1933         6.0186      4182.7778
    3499.40880         2.5809      -0.008538       356.9830       110.5718         0.2416         5.1678         5.1678        22.2467         0.7842         6.7689         6.7689         6.1906         6.0185      4127.3047
    3499.56120         2.5737      -0.008505       356.9830       111.7659         0.1737         5.0906         5.0906        21.8578         0.7064         6.7082         6.7082         6.1905         6.0185      3994.4570
    3499.71360         2.6014      -0.007813       356.9830       111.3770         0.0539         5.1078         5.1078        21.8144         0.7436         6.7469         6.7469         6.1911         6.0033      4232.9287
    3499.86600         2.6114      -0.008117       356.9830       117.1690         0.2492         5.1820         5.1820        21.5081         0.6975         6.7364         6.7364         6.1917         5.9915      4193.2285
    3500.01840         2.7837      -0.008297       356.9830       116.4182         0.1227         5.1166         5.1166        21.1576         0.7514         6.7079         6.7079         6.1136         5.9227      4163.7329
    3500.17080         2.7780      -0.008947       356.9830       113.5282         0.2040         5.0095         5.0095        21.3475         0.9398         6.6899         6.6899         6.1664         5.9854      4092.7083
    3500.32320         2.6395      -0.008803       356.9830       113.2757         0.1079         5.1179         5.1179        21.5447         0.8637         6.7401         6.7401         6.2235         6.0417      4235.2046
    3500.47560         2.6494      -0.007820       356.9830       113.0452         0.2718         5.1271         5.1271        21.3255         0.7784         6.7380         6.7380         6.2232         6.0429      4193.3013
    3500.62800         2.6324      -0.007923       356.9830       112.7441         0.2011         5.0839         5.0839        21.4361         0.7839         6.6750         6.6750         6.2229         6.0421      4174.5498
    3500.78040         2.6389      -0.008035       356.9830       111.0766        -0.0004         4.9941         4.9941        21.5986         0.6073         6.6627         6.6627         6.2231         6.0411      4198.3882
    3500.93280         2.5935      -0.007982       356.9830       110.6093         0.0778         4.9640         4.9640        21.8491         0.6722         6.7003         6.7003         6.2219         6.0408      4151.7905
    3501.08520         2.5860      -0.008380       356.9830       110.7175         0.1879         4.9466         4.9466        22.1316         0.7365         6.6734         6.6734         6.2219         6.0424      4109.7183
    3501.23760         2.5993      -0.008452       356.9830       110.4704         0.1616         4.9109         4.9109        22.3914         0.8032         6.6284         6.6284         6.2225         6.0434      4021.5427
    3501.39000         2.5972      -0.008972       356.9830       110.5024         0.2480         4.7609         4.7609        22.4016         0.8092         6.6357         6.6357         6.2220         6.0431      4003.8911
    3501.54240         2.6015      -0.009043       356.9830       110.4996         0.1446         4.9319         4.9319        22.0707         0.7137         6.6317         6.6317         6.2221         6.0426      4299.6484
    3501.69480         2.5887      -0.008613       356.9830       110.4779         0.1251         4.8608         4.8608        21.6015         0.6927         6.6142         6.6142         6.2223         6.0452      4236.9697
    3501.84720         2.5903      -0.008267       356.9830       110.5540         0.0252         4.8254         4.8254        21.2286         0.7172         6.6107         6.6107         6.2224         6.0442      4209.4351
    3501.99960         2.5790      -0.008357       356.9830       110.4278         0.1451         4.8739         4.8739        20.9079         0.6677         6.6432         6.6432         6.2222         6.0435      4155.3345
    3502.15200         2.5947      -0.009197       356.9830       110.1561         0.2059         4.9211         4.9211        21.4117         0.6479         6.6202         6.6202         6.2219         6.0463      4074.2559
    3502.30440         2.5848      -0.009142       356.9830       109.8011         0.1970         4.9561         4.9561        21.9453         0.5967         6.6232         6.6232         6.2219         6.0461      4013.6348
    3502.45680         2.5911      -0.008543       356.9830       109.3019         0.1247         4.9065         4.9065        22.3110         0.7342         6.6095         6.6095         6.2173         6.0403      3918.9480
    3502.60920         2.5866      -0.008143       356.9830       109.7798         0.2387         4.9438         4.9438        23.0294         0.5921         6.6208         6.6208         6.1925         6.0186      4176.3955
    3502.76160         2.5908      -0.007743       355.5720       110.3224         0.0788         4.9712         4.9712        23.2555         0.6206         6.6548         6.6548         6.1905         6.0186      4326.0986
    3502.91400         2.5983      -0.008248       355.5720       110.4821         0.1469         4.8013         4.8013        22.8178         0.8212         6.6664         6.6664         6.2170         6.0186      4240.5181
    3503.06640         2.6338      -0.008367       355.5720       111.2279         0.2491         4.8595         4.8595        22.6698         0.6420         6.6551         6.6551         6.2163         6.0186      4193.2915
    3503.21880         2.6646      -0.009057       355.5720       111.6956         0.2539         4.8745         4.8745        22.7277         0.6702         6.6255         6.6255         6.1915         6.0186      4206.4648
    3503.37120         2.6727      -0.008770       355.5720       111.2883         0.0932         4.9655         4.9655        23.2447         0.6751         6.5931         6.5931         6.1905         6.0186      4171.1733
    3503.52360         2.6704      -0.008405       355.5720       111.4245        -0.0270         4.9556         4.9556        24.6668         0.9073         6.5989         6.5989         6.1924         6.0186      4231.0811
    3503.67600         2.6700      -0.008140       355.5720       111.0265         0.2205         4.9829         4.9829        26.1093         0.6863         6.6153         6.6153         6.1905         6.0186      4159.0566
