~Version Information Block
VERS .                 2.00:  CWLS LOG ASCII STANDARD - VERSION 2.00
WRAP .                   NO:  One line per depth step
~Well Information Block
#MNEM.UNIT        Data Type   Information
#---------- ----------------  -----------
STRT .M          3457.23500:  START DEPTH
STOP .M          3635.08580:  STOP DEPTH
STEP .M             0.15240:  STEP
NULL .              -999.25:  NULL VALUE
COMP .                     :  COMPANY
WELL .          NO_15/9-F-5:  WELL
FLD  .                     :  FIELD
LOC  .                     :  LOCATION
CTRY .                     :  COUNTRY
STAT .                     :  STATE
CNTY .                     :  COUNTY
SRVC .                     :  SERVICE COMPANY
DATE .                     :  DATE
API  .                     :  API NUMBER
UWI  .                     :  UNIQUE WELL ID
~Curve Information Block
#MNEM.UNIT         API CODE   Curve Description
#---------- ----------------  -----------------
DEPTH.M                    :  
SAT201IC_BHOF.                     :  
SAT201IC_BVW.                     :  
SAT201IC_CRRA.                     :  Near-Far Count Rate Ratio
SAT201IC_FBEF.UA                   :  RST Far Effective Beam Current
SAT201IC_FCOR.                     :  
SAT201IC_GR.GAPI                 :  Gamma Ray
SAT201IC_NCOR.                     :  
SAT201IC_SO.                     :  
SAT201IC_SW.                     :  
SAT201IC_WPRE.PSI                  :  Well Pressure
SAT201IC_WTEP.DEGC                 :  Well Temperature
SAT201SI_BSAL.PPM                  :  Borehole Salinity
SAT201SI_GR.GAPI                 :  Gamma Ray
SAT201SI_IRAT.                     :  RST Inelastic Ratio
SAT201SI_RSCF.                     :  RST Far Detector Effective Unregulated Capture Count Rate
SAT201SI_RSCN.                     :  RST Near Detector Effective Unregulated Capture Count Rate
SAT201SI_SIGR.CU                   :  Formation Sigma (Neutron Capture Cross Section)
SAT201SI_TPHI.V/V                  :  Thermal Decay Porosity
~Parameter Information Block
#MNEM.UNIT            Value   Description
#---------- ----------------  -----------
CUR_INT_BOT.M           3635.2382:  
PROJECT.     SLEIPNER_OST@st-vlinapp01:  
SET  .            RSTD_0912:  
~Other Information Block
# 
~A       DEPTH  SAT201IC_BHOF   SAT201IC_BVW  SAT201IC_CRRA  SAT201IC_FBEF  SAT201IC_FCOR    SAT201IC_GR  SAT201IC_NCOR    SAT201IC_SO    SAT201IC_SW  SAT201IC_WPRE  SAT201IC_WTEP  SAT201SI_BSAL    SAT201SI_GR  SAT201SI_IRAT  SAT201SI_RSCF  SAT201SI_RSCN  SAT201SI_SIGR  SAT201SI_TPHI 
# ...
    3536.78780      0.0023700       0.092050         2.7928       108.3142      0.0323700        33.0414      0.0171000       0.134400         0.4655      5067.6431        90.6850     27451.2988        14.0315       0.332800        11.4193        10.6612        13.1961       0.181300
    3536.94020      0.0023700       0.068370         2.8206       108.3889      0.0298500        33.5449      0.0118100       0.128400         0.3487      5067.7593        90.6712     27312.2988        13.1180       0.328000        11.0358        10.6959        13.7641       0.189800
    3537.09260      0.0030900       0.054730         2.8239       110.4046      0.0285200        33.6011      0.0060500       0.123400         0.2673      5067.9014        90.6456     26725.5996        13.0350       0.324000        10.9160        10.4296        14.5932       0.191700
    3537.24500      0.0030600       0.037180         2.8559       111.2378      0.0315400        34.4287      0.0103800       0.130000         0.1762      5068.0269        90.6175     26034.0000        14.1145       0.325900        10.0924        10.0317        15.1661       0.194500
    3537.39740      0.0022400       0.025290         2.8904       111.3444      0.0294500        35.9485      0.0112200       0.124500         0.1171      5068.1685        90.5954     25753.2012        13.9510       0.324900        10.1849         9.9122        15.0786       0.199700
    3537.54980      0.0013800       0.033280         2.8955       111.7629      0.0420300        36.3766      0.0114800       0.153600         0.1463      5068.3149        90.5823     25882.0000        14.0289       0.321500        10.2998        10.1872        14.9440       0.203800
    3537.70220     -0.0002100       0.039480         2.9171       111.8828      0.0472400        36.9083      0.0094700       0.166900         0.1761      5068.4243        90.5722     26260.0996        14.7763       0.322000        10.2144        10.1399        14.7706       0.206500
    3537.85460     -0.0020400       0.054770         2.9399       111.2143      0.0499500        37.0938      0.0105600       0.174800         0.2501      5068.5347        90.5562     26069.2012        15.1915       0.320000         9.9331         9.6381        14.9296       0.201500
    3538.00700     -0.0041500       0.060310         2.9015       110.8268      0.0484500        37.3255      0.0130500       0.174200         0.2918      5068.6758        90.5342     25467.1992        14.6102       0.323400        10.6516        10.4828        14.7654       0.193300
    3538.15940     -0.0065700       0.071370         2.8854       108.8750      0.0454000        36.2068      0.0209900       0.167900         0.3459      5068.8057        90.5116     25711.0996        15.0150       0.323100        11.0165        10.0093        14.5442       0.179400
    3538.31180     -0.0087500       0.082740         2.8364       108.1359      0.0337100        36.0186      0.0219300       0.139000         0.3863      5068.9336        90.4950     25779.1992        14.9372       0.330900        11.5861        10.6488        13.8600       0.170000
    3538.46420     -0.0102400       0.083450         2.8289       106.8462      0.0256600        35.2790      0.0260400       0.119400         0.3878      5069.0767        90.4728     26587.6992        14.5220       0.331700        12.0953        10.9267        13.2668       0.160200
    3538.61660     -0.0112800       0.079050         2.8047       106.0545      0.0304900        35.2038      0.0271100       0.132900         0.3804      5069.2153        90.4544     27223.0000        14.3559       0.334500        12.4565        10.9754        12.6733       0.156300
    3538.76900     -0.0119500       0.086080         2.8021       104.7766      0.0312100        33.6725      0.0164000       0.136000         0.4285      5069.3501        90.4453     27600.7988        14.6050       0.333900        12.8415        11.0058        12.4826       0.154200
    3538.92140     -0.0121300       0.107600         2.7356       104.7718      0.0169900        33.3021      0.0009100       0.100800         0.5568      5069.4712        90.4298     27769.1992        14.1171       0.334300        13.0767        11.4390        12.4242       0.160200
    3539.07380     -0.0123900       0.133780         2.7209       106.7619      0.0043300        33.0402     -0.0049900       0.068200         0.7282      5069.5986        90.3964     27538.6992        13.9536       0.336000        11.9886        10.7340        12.8590       0.164900
    3539.22620     -0.0126000       0.162010         2.7584       108.7438     -0.0047100        32.6585     -0.0018000       0.043500         0.8961      5069.7295        90.3711     27251.8008        13.9536       0.336300        11.3471        10.0703        12.9958       0.172100
    3539.37860     -0.0129300       0.181200         2.8025       109.2439     -0.0175400        32.1983      0.0004700       0.006700         0.9539      5069.8423        90.3597     27316.2988        13.0402       0.328300        11.6158        10.7152        13.1651       0.175000
    3539.53100     -0.0129900       0.190360         2.8155       110.6265     -0.0171300        31.9847      0.0050400       0.007400         0.9143      5069.9692        90.3345     27375.0000        11.7115       0.317100        12.1437        10.8702        13.0859       0.179900
    3539.68340     -0.0132700       0.179160         2.9001       115.3795     -0.0144000        32.1428      0.0083200       0.014600         0.8040      5070.1221        90.3045     27144.8984        11.6285       0.306700        11.4462        10.7379        13.3321       0.187400
    3539.83580     -0.0138400       0.157960         3.0901       116.2226     -0.0076000        31.7771      0.0119300       0.033100         0.6891      5070.2490        90.2790     26806.4004        11.5480       0.310200        10.1889         9.8176        13.5026       0.199000
    3539.98820     -0.0147200       0.134080         3.0581       114.2003      0.0002500        31.4946      0.0031800       0.054100         0.5769      5070.3765        90.2597     27081.9004        11.2159       0.316200        10.0996        10.1885        13.7011       0.206600
    3540.14060     -0.0159800       0.128080         2.9383       110.2448      0.0085700        31.6795     -0.0095300       0.075400         0.5279      5070.5244        90.2435     27209.1016        11.8802       0.324600        11.2908        10.9964        13.7963       0.204100
    3540.29300     -0.0176100       0.128010         2.8381       110.7510      0.0140800        32.1863     -0.0081300       0.089600         0.5210      5070.6577        90.2080     27016.1992        13.4580       0.324800        11.1110        11.0589        14.0049       0.198100
    3540.44540     -0.0193700       0.132900         2.8698       110.4414      0.0219000        32.8709     -0.0015100       0.110000         0.5493      5070.7974        90.1789     27605.1992        13.7071       0.327200        11.4354        10.9957        14.2260       0.191800
    3540.59780     -0.0209000       0.140790         2.8499       110.0550      0.0252400        32.9146     -0.0006100       0.118900         0.5863      5070.9199        90.1573     27819.2012        14.1171       0.327300        10.8644        10.4456        14.0803       0.194200
    3540.75020     -0.0223300       0.144330         2.8306       111.1326      0.0227400        33.8311      0.0031400       0.113800         0.6134      5071.0435        90.1226     27324.9004        14.6076       0.326800        10.7878        10.8558        13.8192       0.195200
    3540.90260     -0.0234300       0.142990         2.8473       111.5150      0.0232900        34.1199      0.0100700       0.116000         0.6180      5071.1616        90.1075     27520.3008        14.3640       0.327000        11.3365        11.0535        13.4172       0.199500
    3541.05500     -0.0248200       0.148080         2.8560       110.5844      0.0257800        33.8886      0.0068200       0.121400         0.6145      5071.3032        90.0696     26965.4004        13.3727       0.327400        10.9930        10.5228        13.5199       0.196500
