~Version Information Block
VERS .                 2.00:  CWLS LOG ASCII STANDARD - VERSION 2.00
WRAP .                   NO:  One line per depth step
~Well Information Block
#MNEM.UNIT        Data Type   Information
#---------- ----------------  -----------
STRT .M          3445.30680:  START DEPTH
STOP .M          3639.15960:  STOP DEPTH
STEP .M             0.15240:  STEP
NULL .              -999.25:  NULL VALUE
COMP .              Statoil:  COMPANY
WELL .          NO_15/9-F-5:  WELL
FLD  .                VOLVE:  FIELD
LOC  .            North Sea:  LOCATION
CTRY .                     :  COUNTRY
STAT .                     :  STATE
CNTY .                     :  COUNTY
SRVC .         Schlumberger:  SERVICE COMPANY
DATE .          16-Sep-2012:  DATE
API  .                     :  API NUMBER
UWI  .             15/9-F-5:  UNIQUE WELL ID
~Curve Information Block
#MNEM.UNIT         API CODE   Curve Description
#---------- ----------------  -----------------
DEPTH.M                    :  DEPTH (BOREHOLE)
CCLC .V                    :  CCL
CRRA .                     :  Near-Far Count Rate Ratio
CVEL .M/MIN                 :  Cable Velocity
FBEF .UA                   :  RST Far Effective Beam Current
FCOR .                     :  RST Far Carbon/Oxygen Ratio
FERD .                     :  RST Far IC Mode Capture Optimization Resolution Degradation Factor
FIRD .                     :  RST Far Inelastic Optimization Resolution Degradation Factor
GR   .GAPI                 :  Gamma Ray
NCOR .                     :  RST Near Carbon/Oxygen Ratio
NERD .                     :  RST Near IC Mode Capture Optimization Resolution Degradation Factor
NIRD .                     :  RST Near Inelastic Optimization Resolution Degradation Factor
RB_PCMS.DEG                  :  Relative Bearing
TENS .LBF                  :  Cable Tension
~Parameter Information Block
#MNEM.UNIT            Value   Description
#---------- ----------------  -----------
APD  .M           54.900002:  Elevation of Depth Reference (LMF) above Permanent Datum
RUN  .                Run 1:  RUN NUMBER
PROJECT.     SLEIPNER_OST@st-vlinapp01:  
SET  .        RSTD_0912_IC3:  
~Other Information Block
# 
~A       DEPTH           CCLC           CRRA           CVEL           FBEF           FCOR           FERD           FIRD             GR           NCOR           NERD           NIRD        RB_PCMS           TENS 
# ...
    3558.23520        -0.0073         2.8714       -0.29210       113.2139    -0.09650000         5.0683         5.0683        43.6965       0.021000         2.3778         2.3778         8.1336      2789.5161
    3558.38760        -0.0158         2.8601       -0.29590       113.4749    -0.18799999         5.2619         5.2619        44.0972      -0.047300         2.3962         2.3962         8.1799      2791.9460
    3558.54000        -0.0074         2.8660       -0.30140       114.1998    -0.02550000         5.4109         5.4109        42.7574      -0.041700         2.4233         2.4233         8.0253      2788.1252
    3558.69240        -0.1005         2.8908       -0.29800       113.9332     0.10210000         5.5293         5.5293        41.9384      -0.008600         2.4014         2.4014         7.8593      2782.1194
    3558.84480        -0.0137         2.8802       -0.30380       113.1398     0.02210000         5.5052         5.5052        40.4947       0.004900         2.4097         2.4097         7.8990      2790.0134
    3558.99720        -0.0820         2.8804       -0.38300       113.7406    -0.06590000         5.5940         5.5940        39.9479      -0.040700         2.4195         2.4195         7.9313      2791.5693
    3559.14960        -0.0263         2.8824       -0.37000       113.3446     0.01440000         5.5722         5.5722        39.5112      -0.000900         2.4140         2.4140         8.0137      2789.9026
    3559.30200        -0.0084         2.8858       -0.37220       112.7057    -0.04470000         5.5654         5.5654        38.4077      -0.011000         2.4687         2.4687         8.1472      2799.7610
    3559.45440         0.0105         2.8588       -0.37370       111.5609    -0.01900000         5.6186         5.6186        36.2184      -0.009500         2.4664         2.4664         7.9866      2797.3779
    3559.60680         0.0182         2.8397       -0.36280       112.3646     0.11160000         5.5208         5.5208        34.7330      -0.008000         2.4700         2.4700         7.8441      2799.1592
    3559.75920        -0.0227         2.8721       -0.36430       113.6381     0.00520000         5.5034         5.5034        34.4549      -0.043300         2.5214         2.5214         7.7404      2808.7932
    3559.91160        -0.1438         2.8894       -0.36960       114.6196     0.05510000         5.4724         5.4724        33.8366      -0.130700         2.5507         2.5507         7.6828      2790.6899
    3560.06400        -0.0282         2.9120       -0.36640       112.4057    -0.15690000         5.3339         5.3339        33.7022       0.047500         2.5561         2.5561         7.7874      2798.2461
    3560.21640         0.0178         2.8691       -0.36510       112.0286    -0.11400000         5.2437         5.2437        33.1496       0.005800         2.5177         2.5177         7.9848      2794.3921
    3560.36880         0.1831         2.8664       -0.36040       111.4779    -0.15510000         5.1306         5.1306        32.6112       0.012300         2.5202         2.5202         7.9953      2791.2441
    3560.52120        -0.0158         2.8488       -0.37020       110.4141     0.04200000         5.1850         5.1850        30.7887       0.001200         2.5442         2.5442         7.9260      2799.2886
    3560.67360        -0.0551         2.8409       -0.36900       111.9935     0.00180000         5.1350         5.1350        31.4270      -0.051800         2.5159         2.5159         7.8121      2791.8354
    3560.82600        -0.0622         2.8745       -0.35910       110.8012    -0.06670000         5.0616         5.0616        30.7094      -0.013900         2.4809         2.4809         7.8892      2795.6465
    3560.97840         0.0631         2.8647       -0.36480       109.9138     0.04630000         4.9881         4.9881        30.8924      -0.004700         2.4826         2.4826         7.8034      2803.2891
    3561.13080        -0.0132         2.8372       -0.36270       110.6834     0.09470000         5.0038         5.0038        72.9385      -0.025900         2.4381         2.4381         7.7539      2790.9763
    3561.28320        -0.0499         2.8576       -0.36100       111.3244    -0.16310000         4.9958         4.9958        67.5754      -0.082800         2.4448         2.4448         7.6498      2802.2585
    3561.43560         0.0538         2.8495       -0.35930       110.1475    -0.16680001         4.9559         4.9559        61.7832       0.011100         2.4666         2.4666         7.5841      2796.1575
    3561.58800        -0.0383         2.8491       -0.36760       111.0691     0.09770000         5.0080         5.0080        46.3374      -0.087300         2.4929         2.4929         7.5757      2796.5015
    3561.74040        -0.0741         2.8836       -0.37160       111.7294     0.00190000         4.9096         4.9096        43.7631      -0.038600         2.4687         2.4687         7.6165      2785.8975
    3561.89280        -0.0454         2.9178       -0.36970       113.3316     0.12240000         4.8099         4.8099        41.1888      -0.017200         2.4817         2.4817         7.6447      2784.5391
    3562.04520         0.0896         2.9740       -0.37490       112.6391    -0.13959999         4.7857         4.7857        38.6145      -0.007200         2.4861         2.4861         7.8398      2778.7891
    3562.19760        -0.0054         2.9441       -0.37420       111.4958    -0.11670000         4.7553         4.7553        38.6145      -0.068500         2.4993         2.4993         7.8962      2789.3271
    3562.35000        -0.0008         2.9225       -0.36960       110.8583     0.07660000         4.7418         4.7418        38.6145      -0.012200         2.4807         2.4807         7.7981      2789.8113
    3562.50240        -0.0008         2.8930       -0.37650       109.6610     0.01880000         4.6025         4.6025        42.5226      -0.109800         2.4923         2.4923         7.7267      2793.3955
    3562.65480        -0.0009         2.8530       -0.36730       109.5351     0.00410000         4.6329         4.6329        45.4331      -0.000900         2.5487         2.5487         7.2445      2797.3164
    3562.80720        -0.0009         2.8475       -0.36830       109.2332    -0.05870000         4.6524         4.6524        47.9681       0.001400         2.5484         2.5484         7.1801      2794.6409
    3562.95960        -0.0010         2.8408       -0.37240       109.8620    -0.07590000         4.6499         4.6499        50.0200       0.041200         2.5204         2.5204         7.1310      2791.2039
    3563.11200        -0.0011         2.8578       -0.36960       108.2693     0.01410000         4.7565         4.7565        51.3215      -0.041600         2.4652         2.4652         7.3553      2788.0918
    3563.26440        -0.0103         2.8287       -0.37140       107.4772     0.06400000         4.8344         4.8344        49.3441      -0.068000         2.5311         2.5311         7.4945      2782.8538
    3563.41680        -0.0116         2.8073       -0.37300       107.5372    -0.13750000         4.9813         4.9813        47.2470       0.025300         2.5116         2.5116         7.6338      2778.6985
    3563.56920        -0.0130         2.8524       -0.37110       110.1546    -0.11060000         5.1044         5.1044        46.9199      -0.015600         2.5529         2.5529         7.6338      2768.4946
    3563.72160        -0.0035         3.0442       -0.37100       110.2851     0.19069999         5.0961         5.0961        47.0405      -0.078500         2.5183         2.5183         7.6338      2783.3552
    3563.87400        -0.0039         3.0231       -0.36720       108.6805    -0.20290001         5.0610         5.0610        46.8884       0.060800         2.5068         2.5068         7.6338      2785.0403
    3564.02640         0.0722         2.9040       -0.37530       106.1775    -0.03680000         5.0785         5.0785        46.6423      -0.004000         2.4846         2.4846         7.6338      2790.2051
