~Version Information Block
VERS .                 2.00:  CWLS LOG ASCII STANDARD - VERSION 2.00
WRAP .                   NO:  One line per depth step
~Well Information Block
#MNEM.UNIT        Data Type   Information
#---------- ----------------  -----------
STRT .M          3199.94280:  START DEPTH
STOP .M          3410.40720:  STOP DEPTH
STEP .M             0.15240:  STEP
NULL .              -999.25:  NULL VALUE
COMP .              Statoil:  COMPANY
WELL .          NO_15/9-F-4:  WELL
FLD  .                VOLVE:  FIELD
LOC  .            North Sea:  LOCATION
CTRY .                     :  COUNTRY
STAT .                     :  STATE
CNTY .                     :  COUNTY
SRVC .         Schlumberger:  SERVICE COMPANY
DATE .          13-Sep-2012:  DATE
API  .                     :  API NUMBER
UWI  .             15/9-F-4:  UNIQUE WELL ID
~Curve Information Block
#MNEM.UNIT         API CODE   Curve Description
#---------- ----------------  -----------------
DEPTH.M                    :  DEPTH (BOREHOLE)
CCLC .V                    :  CCL
CRRA .                     :  Near-Far Count Rate Ratio
CVEL .M/MIN                 :  Cable Velocity
FBEF .UA                   :  RST Far Effective Beam Current
FCOR .                     :  RST Far Carbon/Oxygen Ratio
FERD .                     :  RST Far IC Mode Capture Optimization Resolution Degradation Factor
FIRD .                     :  RST Far Inelastic Optimization Resolution Degradation Factor
GR   .GAPI                 :  Gamma Ray
NCOR .                     :  RST Near Carbon/Oxygen Ratio
NERD .                     :  RST Near IC Mode Capture Optimization Resolution Degradation Factor
NIRD .                     :  RST Near Inelastic Optimization Resolution Degradation Factor
RB_PCMS.DEG                  :  Relative Bearing
TENS .LBF                  :  Cable Tension
~Parameter Information Block
#MNEM.UNIT            Value   Description
#---------- ----------------  -----------
APD  .M                  54:  Elevation of Depth Reference (LMF) above Permanent Datum
RUN  .                    4:  RUN NUMBER
PROJECT.     SLEIPNER_OST@st-vlinapp01:  
SET  .        RSTD_0912_IC1:  
~Other Information Block
# 
~A       DEPTH           CCLC           CRRA           CVEL           FBEF           FCOR           FERD           FIRD             GR           NCOR           NERD           NIRD        RB_PCMS           TENS 
# ...
    3336.64560        -0.0061         2.8089      -0.486700       109.2778         0.0205         4.9841         4.9841        12.9515       0.041800         2.3317         2.3317       355.8124      2278.9148
    3336.79800        -0.0021         2.7960      -0.485000       108.4252         0.0503         4.8381         4.8381        12.5705       0.058900         2.3418         2.3418       355.8131      2251.1414
    3336.95040        -0.0012         2.7878      -0.483400       108.7292         0.0119         4.9034         4.9034        12.5709      -0.033300         2.3647         2.3647       355.7083      2268.2722
    3337.10280        -0.0117         2.7898      -0.490500       108.4115        -0.0482         4.7223         4.7223        12.7148       0.067100         2.3652         2.3652       355.7823      2265.7930
    3337.25520         0.1179         2.7821      -0.503000       108.8498         0.0475         4.6622         4.6622        12.9455      -0.010600         2.3935         2.3935       355.8852      2267.9082
    3337.40760         0.2660         2.7961      -0.496900       109.6249        -0.0160         4.6310         4.6310        13.1434       0.069800         2.3917         2.3917       355.9553      2263.0181
    3337.56000        -0.0044         2.7979      -0.494200       109.8263         0.0301         4.5413         4.5413        13.5304      -0.014200         2.4049         2.4049       356.0759      2261.3755
    3337.71240        -0.0102         2.8073      -0.494700       108.8093        -0.1376         4.5668         4.5668        13.3751       0.015600         2.3998         2.3998       356.3172      2262.1985
    3337.86480        -0.0047         2.7923      -0.501000       109.1992        -0.0995         4.7140         4.7140        13.0850       0.022100         2.4206         2.4206       356.5543      2271.1899
    3338.01720         0.1007         2.7974      -0.497600       109.4494         0.1451         4.7101         4.7101        13.0011      -0.018200         2.4048         2.4048       356.6101      2271.2971
    3338.16960        -0.0052         2.8061      -0.497200       108.6712         0.0813         4.5514         4.5514        13.4257       0.019900         2.4083         2.4083       356.5392      2270.9675
    3338.32200        -0.0071         2.7661      -0.491900       109.5543        -0.1768         4.5990         4.5990        12.7225       0.019100         2.3882         2.3882       356.5113      2275.5627
    3338.47440        -0.0092         2.8251      -0.494700       111.1669        -0.0278         4.5583         4.5583        12.5295      -0.012000         2.4102         2.4102       356.4877      2278.7654
    3338.62680        -0.0139         2.9157      -0.495700       114.1269        -0.0033         4.5315         4.5315        12.3940      -0.009700         2.4109         2.4109       356.5214      2295.2290
    3338.77920         2.0419         3.0139      -0.495800       114.3860        -0.0164         4.5685         4.5685        12.3699      -0.007000         2.4057         2.4057       356.5791      2287.6379
    3338.93160        -0.0092         2.9592      -0.502400       111.1491         0.1106         4.5554         4.5554        11.7647       0.013700         2.3794         2.3794       356.6044      2285.8782
    3339.08400        -0.0056         2.8378      -0.491000       109.8895         0.0002         4.5576         4.5576        11.8716      -0.064900         2.3792         2.3792       356.5684      2281.4109
    3339.23640        -0.0078         2.7882      -0.493600       109.6489        -0.2681         4.4788         4.4788        12.3465       0.018000         2.3542         2.3542       356.5450      2276.5288
    3339.38880        -0.0100         2.7876      -0.495800       109.4795         0.0112         4.4876         4.4876        12.8162       0.064500         2.3844         2.3844       356.4895      2281.6919
    3339.54120        -0.0127         2.7841      -0.495900       109.6840         0.0016         4.5953         4.5953        13.1798      -0.000200         2.4027         2.4027       356.4200      2286.9675
    3339.69360         0.0945         2.7920      -0.498400       110.0350         0.0134         4.6491         4.6491        13.5231      -0.046100         2.4194         2.4194       356.4921      2277.0183
    3339.84600        -0.0123         2.7924      -0.490000       110.3110        -0.0357         4.6301         4.6301        14.5202       0.026400         2.3990         2.3990       356.5532      2286.9785
    3339.99840        -0.0046         2.7973      -0.493600       111.2130        -0.0338         4.5809         4.5809        14.8790      -0.035800         2.4034         2.4034       356.6161      2274.9966
    3340.15080        -0.0046         2.8195      -0.487500       110.2772        -0.1252         4.5659         4.5659        15.4300       0.045700         2.3658         2.3658       356.7314      2293.9539
    3340.30320        -0.1516         2.8005      -0.491800       111.8567        -0.1622         4.5029         4.5029        16.3023      -0.055700         2.3860         2.3860       356.8468      2285.8599
    3340.45560        -0.0706         2.8471      -0.493900       110.2527        -0.1206         4.6296         4.6296        17.0915      -0.009100         2.3759         2.3759       356.8056      2274.7949
    3340.60800         0.3277         2.8021      -0.499200       110.4963         0.0253         4.6821         4.6821        17.1069      -0.023200         2.4014         2.4014       356.7090      2277.2253
    3340.76040        -0.4121         2.8056      -0.491000       111.0101         0.0545         4.6828         4.6828        17.5591      -0.070900         2.3985         2.3985       356.5804      2281.0034
    3340.91280         0.2043         2.8378      -0.487700       110.7219        -0.0458         4.8270         4.8270        17.4591       0.029100         2.3774         2.3774       356.5387      2276.2776
    3341.06520        -0.0038         2.8089      -0.493400       111.8367         0.1092         4.8779         4.8779        16.7925       0.076000         2.3622         2.3622       356.5510      2284.0181
    3341.21760         0.1358         2.8425      -0.492700       111.8249         0.0681         4.9922         4.9922        16.5253       0.031100         2.3654         2.3654       356.6161      2279.2124
    3341.37000        -0.0065         2.8429      -0.491000       111.9867        -0.2024         4.9919         4.9919        16.6792       0.013100         2.3891         2.3891       356.5638      2276.9858
    3341.52240        -0.0020         2.8399      -0.495800       112.1765         0.0372         4.9813         4.9813        16.3127      -0.063300         2.3629         2.3629       356.6207      2263.8623
    3341.67480        -0.0002         2.8382      -0.487200       111.9281         0.0122         5.0028         5.0028        16.0794      -0.031100         2.3844         2.3844       356.5584      2276.7322
    3341.82720         0.0673         2.8439      -0.488300       112.3946        -0.2477         4.9812         4.9812        16.4094      -0.001700         2.3801         2.3801       356.6401      2281.4521
    3341.97960        -0.0071         2.8487      -0.487600       112.0897        -0.0588         4.8690         4.8690        16.4681      -0.069700         2.3540         2.3540       356.6627      2283.9250
    3342.13200        -0.0035         2.8386      -0.488100       112.0177        -0.0618         4.8156         4.8156        15.8009      -0.010500         2.3531         2.3531       356.7987      2276.2510
    3342.28440        -0.0015         2.8273      -0.490600       111.5920        -0.0559         4.7361         4.7361        16.1395       0.013500         2.3614         2.3614       356.8968      2279.6028
    3342.43680        -0.0035         2.8261      -0.489800       111.5725         0.0497         4.8407         4.8407        16.4550       0.036200         2.3294         2.3294       356.8733      2287.9324
