#------------------------------------------------------------------------------
#
#   Created by   : las_export
#   Created on   : 2009-06-18 13:07:55
#   Project      : VOLVE
#   User         : TONYG
#   Interpreters : *
#
#------------------------------------------------------------------------------
~VERSION INFORMATION
VERS. 2.0 : CWLS Log ASCII Standard - version 2.0
WRAP.  NO : One line per depth step

~WELL INFORMATION
#MNEMONIC   .UNIT                                           VALUE :DESCRIPTION
#------------------------------------------------------------------------------
STRT        .M                                       2560.0412 :START DEPTH
STOP        .M                                       3222.0668 :STOP DEPTH
STEP        .M                                          0.1524 :STEP
NULL        .                                        -999.2500 :NULL VALUE
COMP        .                                                  :COMPANY
WELL        .                                      15/9-F-15 C :WELL
FLD         .                                            VOLVE :FIELD
LOC         .                                          UNKNOWN :LOCATION
CNTY        .                                          UNKNOWN :COUNTY
STAT        .                                          UNKNOWN :STATE
CTRY        .                                           Norway :COUNTRY
SRVC        .                                          UNKNOWN :SERVICE COMPANY
DATE        .                                          UNKNOWN :LOG DATE
UWI         .                                   NO 15/9-F-15 C :UNIQUE WELL ID
XCOORD      .M                                   435053.550000 :SURFACE X
YCOORD      .M                                  6478560.360000 :SURFACE Y
LAT         .                                        58.441585 :LATITUDE
LON         .                                         1.887541 :LONGITUDE
ELEV        .M                                         54.9000 :SURFACE ELEV
ELEV_TYPE   .                                               KB :ELEV TYPE

~CURVE INFORMATION
#MNEMONIC   .UNIT          API CODE       : CURVE DESCRIPTION
#------------------------------------------------------------------------------
DEPTH       .M                            : Measured Depth
DT          .us/ft         UNKNOWN        : DT:UNKNOWN:rC:NONE:v1
GR          .API           UNKNOWN        : GR:UNKNOWN:rC:NONE:v1
~A     DEPTH           DT           GR 
# ...
  2651.48120  -999.250000    46.358366 
  2651.63360  -999.250000    46.160182 
  2651.78600  -999.250000    44.555676 
  2651.93840  -999.250000    42.726075 
  2652.09080  -999.250000    40.699354 
  2652.24320  -999.250000    39.567339 
  2652.39560  -999.250000    40.502537 
  2652.54800  -999.250000    42.462157 
  2652.70040  -999.250000    44.150392 
  2652.85280  -999.250000    43.910932 
  2653.00520  -999.250000    43.299395 
  2653.15760  -999.250000    42.250869 
  2653.31000  -999.250000    42.440779 
  2653.46240  -999.250000    40.663548 
  2653.61480  -999.250000    40.891244 
  2653.76720  -999.250000    41.946260 
  2653.91960  -999.250000    43.806547 
  2654.07200  -999.250000    45.747627 
  2654.22440  -999.250000    44.484797 
  2654.37680  -999.250000    45.346754 
  2654.52920  -999.250000    42.879225 
  2654.68160  -999.250000    41.841135 
  2654.83400  -999.250000    42.426982 
  2654.98640  -999.250000    45.916126 
  2655.13880  -999.250000    47.314987 
  2655.29120  -999.250000    46.491464 
  2655.44360  -999.250000    44.023846 
  2655.59600  -999.250000    43.518387 
  2655.74840  -999.250000    42.383552 
  2655.90080  -999.250000    43.510512 
  2656.05320  -999.250000    44.531414 
  2656.20560  -999.250000    44.938561 
  2656.35800  -999.250000    45.204884 
  2656.51040  -999.250000    44.720279 
  2656.66280  -999.250000    45.255562 
  2656.81520  -999.250000    44.636711 
  2656.96760  -999.250000    45.125020 
  2657.12000  -999.250000    43.938600 
  2657.27240  -999.250000    46.030949 
  2657.42480  -999.250000    44.607025 
  2657.57720  -999.250000    46.532585 
  2657.72960  -999.250000    44.606936 
  2657.88200  -999.250000    47.998486 
  2658.03440  -999.250000    47.968972 
  2658.18680  -999.250000    47.867561 
  2658.33920  -999.250000    44.433191 
  2658.49160  -999.250000    42.781200 
  2658.64400  -999.250000    42.651985 
  2658.79640  -999.250000    42.186522 
  2658.94880  -999.250000    42.628221 
  2659.10120  -999.250000    41.551890 
  2659.25360  -999.250000    44.016726 
  2659.40600  -999.250000    41.581560 
  2659.55840  -999.250000    42.977600 
  2659.71080  -999.250000    43.585427 
  2659.86320  -999.250000    46.746200 
  2660.01560  -999.250000    47.493030 
  2660.16800  -999.250000    46.436886 
  2660.32040  -999.250000    47.091999 
  2660.47280  -999.250000    45.900065 
  2660.62520  -999.250000    45.175198 
  2660.77760  -999.250000    47.262122 
  2660.93000  -999.250000    53.515354 
  2661.08240  -999.250000    59.449461 
  2661.23480  -999.250000    65.651971 
  2661.38720  -999.250000    67.857645 
  2661.53960  -999.250000    71.545838 
  2661.69200  -999.250000    74.008422 
  2661.84440  -999.250000    76.852918 
  2661.99680  -999.250000    82.531657 
  2662.14920  -999.250000    85.842584 
  2662.30160  -999.250000    87.249556 
  2662.45400  -999.250000    78.549065 
  2662.60640  -999.250000    69.202398 
  2662.75880  -999.250000    61.236280 
  2662.91120  -999.250000    55.964605 
  2663.06360  -999.250000    53.274157 
  2663.21600  -999.250000    51.922191 
  2663.36840  -999.250000    53.994354 
  2663.52080  -999.250000    54.686454 
  2663.67320  -999.250000    56.819599 
  2663.82560  -999.250000    56.297495 
  2663.97800  -999.250000    55.115193 
  2664.13040  -999.250000    49.809922 
  2664.28280  -999.250000    47.269062 
  2664.43520  -999.250000    43.016055 
  2664.58760  -999.250000    41.769605 
  2664.74000  -999.250000    39.538627 
  2664.89240  -999.250000    40.243290 
  2665.04480  -999.250000    41.454472 
  2665.19720  -999.250000    41.749418 
  2665.34960  -999.250000    41.793451 
  2665.50200  -999.250000    41.001246 
  2665.65440  -999.250000    42.717371 
  2665.80680  -999.250000    39.767451 
  2665.95920  -999.250000    38.065019 
  2666.11160  -999.250000    37.539293 
  2666.26400  -999.250000    38.855494 
  2666.41640  -999.250000    40.751461 
  2666.56880  -999.250000    39.107280 
  2666.72120  -999.250000    41.184326 
  2666.87360  -999.250000    40.902854 
  2667.02600  -999.250000    41.733974 
  2667.17840  -999.250000    39.698138 
  2667.33080  -999.250000    39.082454 
  2667.48320  -999.250000    37.983487 
  2667.63560  -999.250000    38.389490 
  2667.78800  -999.250000    41.104120 
  2667.94040  -999.250000    41.545404 
  2668.09280  -999.250000    41.535806 
  2668.24520  -999.250000    38.400034 
  2668.39760  -999.250000    39.637002 
  2668.55000  -999.250000    41.365405 
  2668.70240  -999.250000    42.638874 
  2668.85480  -999.250000    42.661899 
  2669.00720  -999.250000    40.186647 
  2669.15960  -999.250000    39.983605 
  2669.31200  -999.250000    38.815343 
  2669.46440  -999.250000    39.966068 
  2669.61680  -999.250000    41.942268 
  2669.76920  -999.250000    42.759149 
  2669.92160  -999.250000    43.905525 
  2670.07400  -999.250000    43.432619 
  2670.22640  -999.250000    44.003101 
  2670.37880  -999.250000    45.143278 
  2670.53120  -999.250000    44.385706 
  2670.68360  -999.250000    44.247075 
  2670.83600  -999.250000    42.766853 
  2670.98840  -999.250000    42.424289 
  2671.14080  -999.250000    41.002291 
  2671.29320  -999.250000    40.168478 
  2671.44560  -999.250000    38.439119 
  2671.59800  -999.250000    38.899528 
  2671.75040  -999.250000    40.050186 
  2671.90280  -999.250000    41.787160 
  2672.05520  -999.250000    41.330575 
  2672.20760  -999.250000    42.085389 
  2672.36000  -999.250000    42.358290 
  2672.51240  -999.250000    42.907849 
  2672.66480  -999.250000    42.388932 
  2672.81720  -999.250000    39.402661 
  2672.96960  -999.250000    38.716338 
  2673.12200  -999.250000    38.526600 
  2673.27440  -999.250000    39.862114 
  2673.42680  -999.250000    41.107913 
  2673.57920  -999.250000    39.232151 
  2673.73160  -999.250000    38.875239 
  2673.88400  -999.250000    37.641920 
  2674.03640  -999.250000    38.543073 
  2674.18880  -999.250000    38.838895 
  2674.34120  -999.250000    37.527142 
  2674.49360  -999.250000    36.868120 
  2674.64600  -999.250000    37.472109 
  2674.79840  -999.250000    39.196348 
  2674.95080  -999.250000    40.658600 
  2675.10320  -999.250000    43.013540 
  2675.25560  -999.250000    51.574816 
  2675.40800  -999.250000    63.739929 
  2675.56040  -999.250000    76.834732 
  2675.71280  -999.250000    78.862100 
  2675.86520  -999.250000    70.934499 
  2676.01760  -999.250000    60.205985 
  2676.17000  -999.250000    53.799540 
  2676.32240  -999.250000    52.259920 
  2676.47480  -999.250000    51.480540 
  2676.62720  -999.250000    50.994067 
  2676.77960  -999.250000    50.489780 
  2676.93200  -999.250000    50.397878 
  2677.08440  -999.250000    51.737490 
  2677.23680  -999.250000    53.301914 
  2677.38920  -999.250000    53.087328 
  2677.54160  -999.250000    51.269793 
  2677.69400  -999.250000    50.905003 
  2677.84640  -999.250000    51.331381 
  2677.99880  -999.250000    50.727392 
  2678.15120  -999.250000    49.448241 
  2678.30360  -999.250000    50.451324 
  2678.45600  -999.250000    51.347439 
  2678.60840  -999.250000    52.996396 
  2678.76080  -999.250000    51.291970 
  2678.91320  -999.250000    53.157162 
  2679.06560  -999.250000    51.145354 
  2679.21800  -999.250000    49.649154 
  2679.37040  -999.250000    48.042629 
  2679.52280  -999.250000    50.758952 
  2679.67520  -999.250000    53.629139 
  2679.82760  -999.250000    56.068020 
  2679.98000  -999.250000    52.995269 
  2680.13240  -999.250000    53.395755 
  2680.28480  -999.250000    53.235726 
  2680.43720  -999.250000    56.621441 
  2680.58960  -999.250000    58.394833 
  2680.74200  -999.250000    56.754539 
  2680.89440  -999.250000    55.846900 
  2681.04680  -999.250000    53.788040 
  2681.19920  -999.250000    55.417870 
  2681.35160  -999.250000    53.352434 
  2681.50400  -999.250000    54.120378 
  2681.65640  -999.250000    55.119257 
  2681.80880  -999.250000    65.496307 
