~Version Information Block
VERS .                 2.00:  CWLS LOG ASCII STANDARD - VERSION 2.00
WRAP .                   NO:  One line per depth step
~Well Information Block
#MNEM.UNIT        Data Type   Information
#---------- ----------------  -----------
STRT .M          3201.31440:  START DEPTH
STOP .M          3410.40720:  STOP DEPTH
STEP .M             0.15240:  STEP
NULL .              -999.25:  NULL VALUE
COMP .              Statoil:  COMPANY
WELL .          NO_15/9-F-4:  WELL
FLD  .                VOLVE:  FIELD
LOC  .            North Sea:  LOCATION
CTRY .                     :  COUNTRY
STAT .                     :  STATE
CNTY .                     :  COUNTY
SRVC .         Schlumberger:  SERVICE COMPANY
DATE .          13-Sep-2012:  DATE
API  .                     :  API NUMBER
UWI  .             15/9-F-4:  UNIQUE WELL ID
~Curve Information Block
#MNEM.UNIT         API CODE   Curve Description
#---------- ----------------  -----------------
DEPTH.M                    :  DEPTH (BOREHOLE)
CCLC .V                    :  CCL
CCLD .V                    :  CCL Discriminated Amplitude
CRRA .                     :  Near-Far Count Rate Ratio
CVEL .M/MIN                 :  Cable Velocity
DEVI .DEG                  :  Hole Deviation
FBEF .UA                   :  RST Far Effective Beam Current
FCOR .                     :  RST Far Carbon/Oxygen Ratio
FERD .                     :  RST Far IC Mode Capture Optimization Resolution Degradation Factor
FIRD .                     :  RST Far Inelastic Optimization Resolution Degradation Factor
GR   .GAPI                 :  Gamma Ray
NCOR .                     :  RST Near Carbon/Oxygen Ratio
NERD .                     :  RST Near IC Mode Capture Optimization Resolution Degradation Factor
NIRD .                     :  RST Near Inelastic Optimization Resolution Degradation Factor
RB_PCMS.DEG                  :  Relative Bearing
TENS .LBF                  :  Cable Tension
WPRE .PSI                  :  Well Pressure
WTEP .DEGC                 :  Well Temperature
WTPE .MS                   :  Well Temperature Period
~Parameter Information Block
#MNEM.UNIT            Value   Description
#---------- ----------------  -----------
APD  .M                  54:  Elevation of Depth Reference (LMF) above Permanent Datum
RUN  .                    1:  RUN NUMBER
PROJECT.     SLEIPNER_OST@st-vlinapp01:  
SET  .        RSTD_0912_IC2:  
~Other Information Block
# 
~A       DEPTH           CCLC           CCLD           CRRA           CVEL           DEVI           FBEF           FCOR           FERD           FIRD             GR           NCOR           NERD           NIRD        RB_PCMS           TENS           WPRE           WTEP           WTPE 
# ...
    3378.09840       -0.01290        0.00000         2.8440       -0.47980        55.8745       111.5861        -0.0813         5.1555         5.1555        38.9217    -0.02220000         2.2547         2.2547       356.6120      2326.5649      5010.6084        80.2391         3.8849
    3378.25080       -0.01010        0.00000         2.8461       -0.47400        55.8864       112.6991        -0.1126         5.1238         5.1238        39.7256    -0.01030000         2.1962         2.1962       356.7283      2336.4722      5010.7222        80.1929         3.8845
    3378.40320       -0.01120        0.00000         2.8720       -0.47890        55.9108       113.4873         0.0176         4.9860         4.9860        42.2437    -0.05800000         2.1424         2.1424       356.7956      2329.0972      5010.8833        80.1397         3.8840
    3378.55560       -0.00050        0.00000         2.8914       -0.47820        55.9305       115.9230         0.1131         4.9791         4.9791        44.6266    -0.02290000         2.1716         2.1716       356.8703      2322.9133      5010.9814        80.1063         3.8837
    3378.70800       -0.00670        0.00000         2.9415       -0.47860        55.9480       118.2437         0.0446         5.0941         5.0941        45.6925    -0.06600000         2.1194         2.1194       356.5742      2340.1262      5011.1069        80.0529         3.8832
    3378.86040       -0.00960        0.00000         3.0028       -0.47590        55.9414       124.6749         0.2626         4.9713         4.9713        45.5789     0.04710000         2.0902         2.0902       356.4932      2335.1284      5011.2300        80.0100         3.8828
    3379.01280       -0.01370        0.00000         2.9989       -0.49960        55.9200       130.9223         0.7119         4.9665         4.9665        44.9726     0.14139999         2.1222         2.1222       356.4783      2335.1899      5011.3398        79.9516         3.8823
    3379.16520       -0.01410        0.00000         3.0418       -0.48110        55.9026       138.6252         1.4470         4.9114         4.9114        43.2026     0.13510001         2.0947         2.0947       356.5115      2333.6084      5011.4536        79.8992         3.8819
    3379.31760       -0.01430        0.00000         3.1526       -0.48580        55.8831       144.0389         1.7681         4.9802         4.9802        41.0937     0.20800000         2.0886         2.0886       356.7153      2331.6619      5011.5767        79.8448         3.8814
    3379.47000       -0.01540        0.00000         3.2351       -0.48170        55.8667       144.7408         2.3654         5.0033         5.0033        38.9882     0.23580000         2.1948         2.1948       356.6711      2326.6223      5011.7070        79.7546         3.8806
    3379.62240       -0.01890        0.00000         3.2694       -0.47970        55.8581       142.0368         1.2251         5.0235         5.0235        37.9845     0.26699999         2.2072         2.2072       356.5325      2329.9014      5011.8496        79.7014         3.8801
    3379.77480       -0.01990        0.00000         3.2441       -0.47790        55.8273       139.8247         0.8634         4.9492         4.9492        36.1108     0.25240001         2.1971         2.1971       356.4417      2321.0623      5011.9478        79.6271         3.8795
    3379.92720       -0.02060        0.00000         3.2515       -0.48220        55.7825       133.5101         0.3071         4.9701         4.9701        35.0867     0.34150001         2.1362         2.1362       356.3817      2317.5159      5012.0742        79.5251         3.8786
    3380.07960       -0.01810        0.00000         3.2871       -0.47550        55.7527       128.3546         0.2801         4.9582         4.9582        34.6380     0.07930000         2.1096         2.1096       356.3435      2313.6450      5012.2114        79.4767         3.8781
    3380.23200       -0.01090        0.00000         3.1644       -0.47980        55.7203       123.4326        -0.1242         4.9073         4.9073        34.2915     0.05700000         2.1120         2.1120       356.3122      2318.7063      5012.3071        79.4225         3.8776
    3380.38440        0.22430        0.00000         3.0850       -0.47760        55.6923       121.1002         0.0436         4.8853         4.8853        33.0784     0.02790000         2.1504         2.1504       356.2720      2314.0696      5012.4121        79.3730         3.8772
    3380.53680       -0.07500        0.00000         3.0416       -0.47820        55.6794       116.0268         0.0350         4.9222         4.9222        32.5143     0.02880000         2.1502         2.1502       356.2097      2320.5193      5012.5166        79.3291         3.8768
    3380.68920       -0.02830        0.00000         2.9245       -0.47560        55.6688       116.1491         0.0638         4.9633         4.9633        31.8576    -0.02660000         2.1135         2.1135       356.2645      2326.8167      5012.6250        79.2918         3.8765
    3380.84160        0.09090        0.00000         2.9408       -0.48060        55.6602       117.3475         0.0362         4.9417         4.9417        30.8339     0.04670000         2.1052         2.1052       356.3072      2332.9753      5012.7236        79.2570         3.8762
    3380.99400       -0.01480        0.00000         2.9701       -0.48130        55.6494       115.4225        -0.0286         4.8644         4.8644        30.7593     0.04230000         2.0884         2.0884       356.3186      2334.9436      5012.8335        79.2098         3.8758
    3381.14640       -0.00670        0.00000         2.9123       -0.48250        55.6326       115.3269         0.0152         4.7334         4.7334        31.1070    -0.07290000         2.0958         2.0958       356.3221      2332.9824      5012.9448        79.1756         3.8755
    3381.29880       -0.01480        0.00000         2.9118       -0.47540        55.6355       115.4975         0.0764         4.7673         4.7673        31.2680     0.04490000         2.0845         2.0845       356.3784      2338.2883      5013.0508        79.1528         3.8753
    3381.45120       -0.00500        0.00000         2.9214       -0.47810        55.6452       114.4769         0.0421         4.7661         4.7661        31.3054     0.00020000         2.0725         2.0725       356.6143      2327.7632      5013.1514        79.1322         3.8751
    3381.60360       -0.00580        0.00000         2.8849       -0.47390        55.6363       113.9093        -0.0565         4.6916         4.6916        31.8593    -0.03810000         2.0160         2.0160       356.7072      2328.0000      5013.2510        79.1363         3.8751
    3381.75600       -0.04380        0.00000         2.8878       -0.48060        55.6172       113.6147         0.0437         4.7120         4.7120        31.7988     0.04400000         2.0127         2.0127       356.6711      2336.5156      5013.3403        79.1211         3.8750
    3381.90840       -0.00680        0.00000         2.8903       -0.47540        55.6222       114.3371        -0.1083         4.7194         4.7194        31.5864     0.10140000         2.0182         2.0182       356.5891      2334.4878      5013.4380        79.1165         3.8749
    3382.06080       -0.01070        0.00000         2.8930       -0.48000        55.6141       113.8550        -0.0359         4.5950         4.5950        31.9049    -0.08840000         2.0297         2.0297       356.4557      2331.2798      5013.5591        79.1050         3.8748
    3382.21320       -0.08850        0.00000         2.9014       -0.47500        55.6157       113.6540        -0.0571         4.5526         4.5526        31.8415    -0.03620000         2.0150         2.0150       356.3899      2339.5869      5013.6719        79.0920         3.8747
    3382.36560        0.05290        0.00000         2.8738       -0.47370        55.6123       114.0398         0.0960         4.6920         4.6920        31.7233    -0.01720000         2.0569         2.0569       356.2710      2338.5601      5013.7632        79.0921         3.8747
