~Version Information Block
VERS .                 2.00:  CWLS LOG ASCII STANDARD - VERSION 2.00
WRAP .                   NO:  One line per depth step
~Well Information Block
#MNEM.UNIT        Data Type   Information
#---------- ----------------  -----------
STRT .M          3461.15640:  START DEPTH
STOP .M          3535.07040:  STOP DEPTH
STEP .M             0.15240:  STEP
NULL .              -999.25:  NULL VALUE
COMP .              Statoil:  COMPANY
WELL .          NO_15/9-F-5:  WELL
FLD  .                Volve:  FIELD
LOC  .                Volve:  LOCATION
CTRY .               Norway:  COUNTRY
STAT .                     :  STATE
CNTY .                     :  COUNTY
SRVC .         Schlumberger:  SERVICE COMPANY
DATE .          03-Nov-2015:  DATE
API  .                     :  API NUMBER
UWI  .             15/9-F-5:  UNIQUE WELL ID
LATI .     58° 26' 29.66" N:  LATITUDE
LONG .      1° 53' 14.99" E:  LONGITUDE
~Curve Information Block
#MNEM.UNIT         API CODE   Curve Description
#---------- ----------------  -----------------
DEPTH.M                    :  DEPTH (BOREHOLE)
CRRA .                     :  Near/Far Count Rate Ratio
CVEL .M/SEC                 :  Cable Velocity
FBEF .UA                   :  Far Effective Beam Current
FCOR .                     :  Far Carbon/Oxygen Ratio
FIRD .                     :  Far Inelastic Optimization Resolution Degradation Factor
NCOR .                     :  Near Carbon/Oxygen Ratio
NIRD .                     :  Near Inelastic Optimization Resolution Degradation Factor
RB_PCMS.DEG                  :  Relative Bearing
WPRE .BAR                  :  Well Pressure
WTEP .DEGC                 :  Well Temperature
~Parameter Information Block
#MNEM.UNIT            Value   Description
#---------- ----------------  -----------
APD  .M                  54:  Elevation of Depth Reference (LMF) above Permanent Datum
EPD  .C3                  0:  Elevation of Permanent Datum above Mean Sea Level
LMF  .                   DF:  Logging Measured From (Name of Logging Elevation Reference)
PDAT .                  MSL:  Permanent Datum
RUN  .                Run 1:  RUN NUMBER
TAPE_NAME.     ConCu_R02_L004Up_RST_PCMS_PSTP.las:  
TOOL_STRING.              UNKNOWN:  
WN   .             15/9-F-5:  WELL
PROJECT.     SLEIPNER_OST@st-vlinapp01:  
SET  .        RSTD_1115_IC1:  
~Other Information Block
# 
~A       DEPTH           CRRA           CVEL           FBEF           FCOR           FIRD           NCOR           NIRD        RB_PCMS           WPRE           WTEP 
# ...
    3505.96200         2.8970     -0.0087983       132.0089     0.07580000         5.9997     0.04540000         4.1406       353.6696       362.4841        82.6592
    3506.11440         2.9016     -0.0088600       132.6310     0.01670000         5.9141     0.07560000         4.1215       353.7939       362.4991        82.6465
    3506.26680         2.9146     -0.0088067       132.6045     0.04990000         5.8284    -0.03860000         4.0756       353.8112       362.5103        82.6359
    3506.41920         2.9132     -0.0088033       131.6150     0.07970000         5.8081     0.06980000         4.0770       353.9375       362.5220        82.6151
    3506.57160         2.8957     -0.0088517       131.6088     0.16410001         5.9180     0.01340000         4.1365       354.2954       362.5342        82.6116
    3506.72400         2.8830     -0.0088750       131.6109     0.14219999         6.0197     0.07350000         4.1610       354.6638       362.5420        82.6006
    3506.87640         2.8914     -0.0088800       131.1818     0.15600000         5.9991     0.02320000         4.1961       354.7806       362.5556        82.5908
    3507.02880         2.8627     -0.0087550       132.4027     0.13470000         5.9973     0.00610000         4.2557       354.9346       362.5667        82.5819
    3507.18120         2.9262     -0.0088217       132.4322    -0.13920000         5.9523     0.04670000         4.2366       355.0560       362.5784        82.5671
    3507.33360         2.8876     -0.0088467       133.7112     0.17070000         5.9874    -0.00770000         4.2257       354.9408       362.5899        82.5406
    3507.48600         2.9505     -0.0088017       132.7567    -0.11680000         6.0562    -0.03020000         4.2147       354.8186       362.6017        82.5262
    3507.63840         2.9206     -0.0088467       134.0947     0.12000000         6.1596     0.06180000         4.1600       354.7706       362.6126        82.5196
    3507.79080         2.9366     -0.0088850       133.3246     0.18370000         6.0869     0.10880000         4.1453       354.6973       362.6219        82.5074
    3507.94320         2.9097     -0.0088033       133.8353    -0.05590000         6.0608     0.01610000         4.1486       354.6312       362.6344        82.4943
    3508.09560         2.9169     -0.0088217       135.6306     0.01240000         6.0341     0.01990000         4.1505       354.6036       362.6479        82.4738
    3508.24800         2.9621     -0.0088367       134.4873     0.08530000         5.9789    -0.03550000         4.1885       354.5956       362.6595        82.4607
    3508.40040         2.9398     -0.0088217       134.8266    -0.12360000         5.9754    -0.10580000         4.1720       354.5463       362.6691        82.4468
    3508.55280         2.9398     -0.0088167       134.9061    -0.17540000         5.9494     0.00580000         4.1944       354.5325       362.6792        82.4279
    3508.70520         2.9396     -0.0087567       135.4039     0.18950000         5.9377    -0.02480000         4.1512       354.6251       362.6938        82.3935
    3508.85760         2.9443     -0.0087783       136.1754     0.07150000         5.9769     0.05100000         4.1365       354.7739       362.7051        82.3860
    3509.01000         2.9627     -0.0087867       135.3846     0.07980000         5.9241     0.11020000         4.0876       354.3867       362.7150        82.3696
    3509.16240         2.9572     -0.0088167       136.1008     0.09740000         5.9622     0.09670000         4.0467       354.1679       362.7270        82.3483
    3509.31480         2.9664     -0.0087550       135.6892    -0.04800000         5.9724    -0.09410000         3.9805       354.0912       362.7393        82.3414
    3509.46720         2.9494     -0.0087783       137.1067    -0.00350000         5.9225     0.04350000         3.9797       354.1361       362.7494        82.3255
    3509.61960         2.9799     -0.0088267       136.6455    -0.03950000         5.8831     0.03560000         4.0186       353.8148       362.7633        82.3076
    3509.77200         2.9906     -0.0085267       136.6034     0.11840000         5.9368     0.05090000         4.0471       353.6420       362.7738        82.2810
    3509.92440         2.9750     -0.0079817       136.9211     0.08620000         5.9870     0.05570000         4.0711       353.4705       362.7862        82.2667
    3510.07680         2.9853     -0.0076833       136.3167    -0.09870000         5.9571     0.12460000         4.0453       353.4075       362.7993        82.2630
    3510.22920         2.9829     -0.0072450       137.0760     0.06780000         5.9468    -0.06140000         4.0510       353.3555       362.8081        82.2475
    3510.38160         2.9912     -0.0073133       137.3370     0.03760000         5.9611    -0.07150000         4.1026       353.4077       362.8197        82.2301
    3510.53400         2.9996     -0.0072583       137.1425     0.10360000         5.9496    -0.00650000         4.1537       353.2849       362.8326        82.2172
    3510.68640         2.9986     -0.0072333       136.5789     0.13450000         5.8967     0.05470000         4.1129       353.2542       362.8425        82.2070
    3510.83880         2.9906     -0.0072650       138.2820    -0.11500000         5.7750     0.03090000         4.1147       353.3354       362.8540        82.1960
    3510.99120         3.0408     -0.0113150       139.8187    -0.12480000         5.7708    -0.07210000         4.1685       353.4580       362.8661        82.1912
    3511.14360         3.0801     -0.0120783       140.4715     0.12010000         5.6814     0.04690000         4.1795       353.6130       362.8752        82.1758
    3511.29600         3.1065     -0.0122550       138.1631     0.03190000         5.7182     0.00240000         4.1840       353.7520       362.8867        82.1694
    3511.44840         3.0554     -0.0132817       138.4644     0.11650000         5.6655     0.03990000         4.1918       353.8221       362.8997        82.1598
    3511.60080         3.0661     -0.0132250       136.4513     0.06840000         5.6568     0.05490000         4.2376       353.8014       362.9125        82.1507
    3511.75320         3.0253     -0.0134750       137.8451     0.03580000         5.6737    -0.01370000         4.2169       353.6097       362.9223        82.1491
    3511.90560         3.0402     -0.0138083       137.0110     0.00300000         5.7614     0.05630000         4.2323       353.3880       362.9344        82.1378
    3512.05800         3.0272     -0.0131283       136.2833     0.03070000         5.6967    -0.02590000         4.2179       353.3438       362.9467        82.1224
    3512.21040         3.0151     -0.0099150       136.6073     0.01390000         5.5542     0.02940000         4.2040       353.4523       362.9583        82.0990
    3512.36280         3.0127     -0.0099633       136.9583    -0.08710000         5.6717     0.04100000         4.1747       353.2231       362.9701        82.0910
    3512.51520         3.0172     -0.0099333       137.1939    -0.04230000         5.5644     0.02480000         4.1295       353.2366       362.9783        82.0820
    3512.66760         3.0180     -0.0099400       136.6343    -0.09730000         5.5509     0.00200000         4.1168       353.2366       362.9919        82.0780
    3512.82000         3.0061     -0.0099817       136.4452    -0.04200000         5.3853     0.07390000         4.1139       353.1727       363.0021        82.0658
    3512.97240         3.0100     -0.0099767       136.8381    -0.07660000         5.3791     0.01900000         4.1860       353.2757       363.0155        82.0526
    3513.12480         3.0144     -0.0099883       138.3913     0.04630000         5.4430    -0.04130000         4.1200       353.4019       363.0258        82.0449
    3513.27720         3.0641     -0.0099450       140.0721    -0.16590001         5.3598     0.05870000         4.1105       353.0869       363.0368        82.0379
