~Version Information Block
VERS .                 2.00:  CWLS LOG ASCII STANDARD - VERSION 2.00
WRAP .                   NO:  One line per depth step
~Well Information Block
#MNEM.UNIT        Data Type   Information
#---------- ----------------  -----------
STRT .M          3199.94280:  START DEPTH
STOP .M          3410.40720:  STOP DEPTH
STEP .M             0.15240:  STEP
NULL .              -999.25:  NULL VALUE
COMP .              Statoil:  COMPANY
WELL .          NO_15/9-F-4:  WELL
FLD  .                VOLVE:  FIELD
LOC  .            North Sea:  LOCATION
CTRY .                     :  COUNTRY
STAT .                     :  STATE
CNTY .                     :  COUNTY
SRVC .         Schlumberger:  SERVICE COMPANY
DATE .          13-Sep-2012:  DATE
API  .                     :  API NUMBER
UWI  .             15/9-F-4:  UNIQUE WELL ID
~Curve Information Block
#MNEM.UNIT         API CODE   Curve Description
#---------- ----------------  -----------------
DEPTH.M                    :  DEPTH (BOREHOLE)
CCLC .V                    :  CCL
CRRA .                     :  Near-Far Count Rate Ratio
CVEL .M/MIN                 :  Cable Velocity
FBEF .UA                   :  RST Far Effective Beam Current
FCOR .                     :  RST Far Carbon/Oxygen Ratio
FERD .                     :  RST Far IC Mode Capture Optimization Resolution Degradation Factor
FIRD .                     :  RST Far Inelastic Optimization Resolution Degradation Factor
GR   .GAPI                 :  Gamma Ray
NCOR .                     :  RST Near Carbon/Oxygen Ratio
NERD .                     :  RST Near IC Mode Capture Optimization Resolution Degradation Factor
NIRD .                     :  RST Near Inelastic Optimization Resolution Degradation Factor
RB_PCMS.DEG                  :  Relative Bearing
TENS .LBF                  :  Cable Tension
~Parameter Information Block
#MNEM.UNIT            Value   Description
#---------- ----------------  -----------
APD  .M                  54:  Elevation of Depth Reference (LMF) above Permanent Datum
RUN  .                    4:  RUN NUMBER
PROJECT.     SLEIPNER_OST@st-vlinapp01:  
SET  .        RSTD_0912_IC1:  
~Other Information Block
# 
~A       DEPTH           CCLC           CRRA           CVEL           FBEF           FCOR           FERD           FIRD             GR           NCOR           NERD           NIRD        RB_PCMS           TENS 
# ...
    3318.81480        -0.0079         2.8823      -0.497400       115.9325        -0.0617         5.4810         5.4810        32.9267       0.053200         2.3833         2.3833       355.9275      2290.4819
    3318.96720        -0.0066         2.9103      -0.504700       116.1429        -0.1612         5.4475         5.4475        32.1872      -0.021100         2.3768         2.3768       355.9057      2288.1653
    3319.11960        -0.0077         2.9109      -0.494800       115.9420        -0.0774         5.4145         5.4145        30.9550      -0.114800         2.3826         2.3826       355.9554      2278.7041
    3319.27200        -0.0116         2.9153      -0.496800       115.6684         0.1075         5.3287         5.3287        30.3187       0.021300         2.3835         2.3835       356.1019      2293.4675
    3319.42440        -0.0108         2.8975      -0.494200       116.0366         0.0004         5.3112         5.3112        29.7157       0.080900         2.3869         2.3869       356.1073      2278.4622
    3319.57680        -0.0129         2.9099      -0.498000       116.1527        -0.0026         5.3342         5.3342        29.9167      -0.022200         2.3761         2.3761       356.0511      2273.4277
    3319.72920        -0.0252         2.9208      -0.493800       116.1963        -0.0121         5.3071         5.3071        30.0621       0.002700         2.3577         2.3577       355.8089      2288.5144
    3319.88160        -0.0164         2.9285      -0.499900       115.9062        -0.0622         5.3277         5.3277        30.2070       0.067600         2.4083         2.4083       355.8966      2300.3904
    3320.03400        -0.0102         2.9195      -0.491200       116.2992        -0.0592         5.3602         5.3602        29.6941       0.073000         2.4088         2.4088       355.9396      2314.4050
    3320.18640        -0.0062         2.9185      -0.492700       115.0857        -0.0398         5.3203         5.3203        28.7432       0.008300         2.3795         2.3795       355.8284      2316.3022
    3320.33880        -0.0096         2.8792      -0.490300       115.8750         0.0017         5.4782         5.4782        27.5527       0.037200         2.3510         2.3510       355.8602      2322.8108
    3320.49120        -0.0054         2.9157      -0.496500       116.6120        -0.0227         5.3736         5.3736        26.9518       0.002500         2.3589         2.3589       355.9635      2328.1340
    3320.64360        -0.0032         2.9330      -0.492600       117.3240        -0.1399         5.4113         5.4113        26.0304       0.071600         2.3987         2.3987       356.0846      2306.8450
    3320.79600        -0.0035         2.9827      -0.490200       117.2038         0.0114         5.2112         5.2112        25.9126      -0.149000         2.3829         2.3829       356.1221      2300.3027
    3320.94840         0.0001         2.9883      -0.490000       116.8829         0.1313         5.1080         5.1080        26.5232      -0.023600         2.3952         2.3952       356.0821      2328.3823
    3321.10080         0.0040         2.9540      -0.490000       116.0676         0.0009         5.0850         5.0850        26.6900       0.093600         2.3944         2.3944       356.0355      2295.3428
    3321.25320         0.0035         2.9168      -0.488400       114.2819        -0.1068         5.0786         5.0786        26.9462      -0.000400         2.3973         2.3973       356.0405      2331.4109
    3321.40560         0.0025         2.8929      -0.494400       113.5969         0.0928         5.0779         5.0779        27.7028       0.007400         2.4646         2.4646       356.1790      2285.3130
    3321.55800         0.0007         2.8605      -0.498300       113.9540         0.0378         5.1248         5.1248        27.9788       0.051000         2.4990         2.4990       356.2647      2268.9746
    3321.71040         0.0062         2.8881      -0.490300       114.7669         0.0962         5.2421         5.2421        27.8780       0.058500         2.5342         2.5342       356.3054      2273.2107
    3321.86280        -0.1756         2.8952      -0.498800       113.1852        -0.2936         5.1722         5.1722        27.8780       0.006900         2.5006         2.5006       356.2468      2254.8804
    3322.01520         0.0649         2.8658      -0.496400       114.3699        -0.0020         5.2524         5.2524        27.7197      -0.027800         2.4893         2.4893       356.1173      2282.4910
    3322.16760        -0.0024         2.8900      -0.498900       114.0809         0.0644         5.2891         5.2891        27.4070      -0.029800         2.4777         2.4777       356.0800      2275.2546
    3322.32000        -0.0062         2.8859      -0.497700       113.7317         0.0116         5.1976         5.1976        27.3526      -0.061400         2.5358         2.5358       356.0550      2269.4348
    3322.47240        -0.0122         2.8909      -0.492200       114.5329        -0.2069         5.0730         5.0730        27.5934       0.045300         2.5700         2.5700       356.0905      2269.0037
    3322.62480        -0.0110         2.8938      -0.493900       113.9139         0.1126         5.2425         5.2425        28.3064      -0.005300         2.5907         2.5907       356.0397      2270.8135
    3322.77720        -0.0124         2.8844      -0.487600       114.0432        -0.0036         5.3220         5.3220        28.5982       0.086100         2.6110         2.6110       355.8859      2267.8823
    3322.92960        -0.0195         2.9026      -0.496400       114.1008        -0.0068         5.3383         5.3383        29.1847       0.025400         2.6503         2.6503       355.8308      2265.7908
    3323.08200         0.2470         2.8794      -0.492900       113.3405        -0.0218         5.3861         5.3861        30.3066      -0.022600         2.6158         2.6158       355.8471      2271.7041
    3323.23440        -0.0196         2.8692      -0.497500       113.7482         0.0718         5.3407         5.3407        30.6616      -0.160700         2.6125         2.6125       355.7944      2271.3755
    3323.38680        -0.0886         2.8859      -0.494300       113.5319         0.0032         5.4539         5.4539        30.9733      -0.051600         2.6130         2.6130       355.7612      2278.9927
    3323.53920         0.0610         2.8743      -0.501600       115.0832         0.0300         5.4096         5.4096        31.6196       0.007400         2.6415         2.6415       355.7411      2271.0439
    3323.69160         0.0963         2.9099      -0.496000       114.3365        -0.0093         5.3348         5.3348        33.3205       0.003400         2.6318         2.6318       355.7777      2269.5942
    3323.84400        -0.1079         2.8822      -0.496200       114.5374        -0.0422         5.4139         5.4139        34.1327       0.053600         2.6388         2.6388       355.9264      2272.5906
    3323.99640        -0.0161         2.8832      -0.497900       114.6218         0.0715         5.3994         5.3994        35.5035      -0.004700         2.6601         2.6601       356.0231      2266.7319
    3324.14880        -0.0157         2.8851      -0.494600       113.6391         0.0994         5.2978         5.2978        36.7574      -0.044400         2.6385         2.6385       356.1656      2273.6980
    3324.30120        -0.0170         2.8551      -0.494100       113.6945         0.0999         5.2290         5.2290        37.7435       0.023500         2.6124         2.6124       356.3832      2273.0869
    3324.45360        -0.0102         2.8645      -0.493500       114.2344         0.0278         5.2085         5.2085        38.2349       0.045400         2.6582         2.6582       356.3640      2275.3237
    3324.60600        -0.0115         2.8676      -0.493700       115.0314         0.0072         5.0835         5.0835        38.4580       0.001800         2.6366         2.6366       356.4615      2267.8232
