~Version Information Block
VERS .                 2.00:  CWLS LOG ASCII STANDARD - VERSION 2.00
WRAP .                   NO:  One line per depth step
~Well Information Block
#MNEM.UNIT        Data Type   Information
#---------- ----------------  -----------
STRT .M          3454.45080:  START DEPTH
STOP .M          3788.05440:  STOP DEPTH
STEP .M             0.15240:  STEP
NULL .              -999.25:  NULL VALUE
COMP .              Statoil:  COMPANY
WELL .        NO_15/9-F-1_C:  WELL
FLD  .                Volve:  FIELD
LOC  .            North Sea:  LOCATION
CTRY .               Norway:  COUNTRY
STAT .                     :  STATE
CNTY .                     :  COUNTY
SRVC .         Schlumberger:  SERVICE COMPANY
DATE .          27-Nov-2014:  DATE
API  .                     :  API NUMBER
UWI  .           15/9-F-1 C:  UNIQUE WELL ID
LATI .     58° 26' 29.91" N:  LATITUDE
LONG .      1° 53' 14.71" E:  LONGITUDE
~Curve Information Block
#MNEM.UNIT         API CODE   Curve Description
#---------- ----------------  -----------------
DEPTH.M                    :  DEPTH (BOREHOLE)
CRRA .                     :  Near/Far Count Rate Ratio
CVEL .M/SEC                 :  Cable Velocity
DFRB .DEG                  :  Calibrated Relative Bearing
FBEF .UA                   :  RST Far Effective Beam Current
FCOR .                     :  RST Far Carbon/Oxygen Ratio
FERD .                     :  RST Far IC Mode Capture Optimization
FIRD .                     :  RST Far Inelastic Optimization Resolution
GR   .GAPI                 :  Gamma Ray
NCOR .                     :  RST Near Carbon/Oxygen Ratio
NERD .                     :  RST Near IC Mode Capture Optimization
NIRD .                     :  RST Near Inelastic Optimization Resolution
PFC1 .IN                   :  PFCS CaliperX
PFC2 .IN                   :  PFCS CaliperY
TENS .LBF                  :  Cable Tension
~Parameter Information Block
#MNEM.UNIT            Value   Description
#---------- ----------------  -----------
APD  .M           54.900002:  Elevation of Depth Reference (LMF) above Permanent Datum
EPD  .C3                  0:  Elevation of Permanent Datum above Mean Sea Level
LMF  .                   KB:  Logging Measured From (Name of Logging Elevation Reference)
PDAT .                  MSL:  Permanent Datum
RUN  .                Run 1:  RUN NUMBER
TAPE_NAME.     Statoil_Volve_15-9-F-1 C_PLT-RST_28Nov14_ConCu_R1L17Up_IC1.las:  
TOOL_STRING.              UNKNOWN:  
WN   .           15/9-F-1 C:  WELL
PROJECT.     SLEIPNER_OST@st-vlinapp01:  
SET  .        RSTD_1114_IC1:  
~Other Information Block
# 
~A       DEPTH           CRRA           CVEL           DFRB           FBEF           FCOR           FERD           FIRD             GR           NCOR           NERD           NIRD           PFC1           PFC2           TENS 
# ...
    3564.17880         2.5180      -0.154488       358.3940       109.8405         0.3680         5.2704         5.2704        26.7237         0.4253         6.9922         6.9922         6.1905         5.9862      4195.7334
    3564.33120         2.6775      -0.155257       358.3940       107.4781         0.3920         5.2704         5.2704        26.7237         0.4568         6.9922         6.9922         6.1905         5.9862      4059.6428
    3564.48360         2.5707      -0.155243       356.9830       107.4781         0.3920         5.2704         5.2704        26.9321         1.0061         6.9922         6.9922         6.1905         5.9862      4095.7336
    3564.63600         2.5707      -0.154312       358.3940       109.8377         0.5753         5.2605         5.2605        25.9637         1.0061         6.9922         6.9922         6.1905         5.9883      4360.8667
    3564.78840         2.6644      -0.153290       358.3940       107.8353         0.5659         5.2605         5.2605        24.6397         0.2446         6.9917         6.9917         6.1905         5.9862      4511.9336
    3564.94080         2.6183      -0.154040       358.3940       107.8353         0.5659         5.2605         5.2605        26.6624         0.7853         6.9917         6.9917         6.1905         5.9862      4560.6001
    3565.09320         2.6183      -0.154725       358.3940       108.9041        -0.2118         5.2605         5.2605        25.6723         0.7853         6.9917         6.9917         6.1905         5.9862      4475.0005
    3565.24560         2.6199      -0.153908       358.3940       108.9041        -0.2118         5.2605         5.2605        28.2098         0.7617         6.9917         6.9917         6.1905         5.9883      4427.0718
    3565.39800         2.6199      -0.153057       358.3940       108.2362         0.3189         5.2605         5.2605        30.2325         0.7617         6.9917         6.9917         6.1905         5.9862      4341.6001
    3565.55040         2.6380      -0.154145       358.3940       110.3836         0.2382         5.2605         5.2605        30.1990         0.4367         6.9917         6.9917         6.1905         5.9862      4251.2666
    3565.70280         2.6416      -0.154982       358.3940       110.3836         0.2382         5.2605         5.2605        30.1990         1.2766         6.9917         6.9917         6.1905         5.9862      4124.7334
    3565.85520         2.6416      -0.154630       358.3940       108.0771         0.5077         5.2605         5.2605        31.5324         1.2766         6.9917         6.9917         6.1905         5.9862      4143.7334
    3566.00760         2.6199      -0.154468       358.3940       109.4101         0.3931         5.2605         5.2605        30.4659         0.5995         6.9917         6.9917         6.1905         5.9862      4283.0664
    3566.16000         2.5981      -0.155153       358.3940       108.2225         0.1144         5.2574         5.2574        33.4080        -0.2574         6.9917         6.9917         6.1905         5.9862      4530.1431
    3566.31240         2.6039      -0.154877       358.3940       112.8681         0.9108         5.2574         5.2574        35.0963         0.8027         7.0158         7.0158         6.1905         5.9862      4489.3999
    3566.46480         2.6520      -0.154377       358.3940       112.8681         0.9108         5.2574         5.2574        33.4131         0.8295         7.0158         7.0158         6.1905         5.9862      4461.4004
    3566.61720         2.6520      -0.153788       358.3940       109.8458         0.2071         5.2574         5.2574        32.5182         0.8295         7.0158         7.0158         6.1905         5.9862      4363.8003
    3566.76960         2.6160      -0.154800       358.3940       110.5632         0.2786         5.2574         5.2574        28.5153         0.1819         7.0158         7.0158         6.1905         5.9862      4304.2861
    3566.92200         2.6394      -0.155262       358.3940       107.7410        -0.0377         5.2574         5.2574        24.4700         0.3636         7.0158         7.0158         6.1905         5.9885      4227.9336
    3567.07440         2.5566      -0.154327       358.3940       111.5425        -0.2402         5.2574         5.2574        20.9763         0.4049         7.0158         7.0158         6.1863         5.9862      4154.1333
    3567.22680         2.6846      -0.154142       358.3940       112.3137         0.1785         5.2574         5.2574        20.4530        -0.0606         7.0158         7.0158         6.1717         6.0099      4047.7334
    3567.37920         2.6849      -0.155413       358.3940       112.3137         0.1785         5.2574         5.2574        20.6085         0.5910         7.0158         7.0158         6.1636         5.9862      3957.2000
    3567.53160         2.6849      -0.156163       358.3940       113.2619        -0.2003         5.2851         5.2851        23.1404         0.5910         7.0158         7.0158         6.1615         5.9862      3958.9333
    3567.68400         2.6745      -0.157422       246.9250       115.6543         0.1483         5.2851         5.2851        28.8406         0.7336         6.9722         6.9722         6.1614         5.9862      4345.8574
    3567.83640         2.7313      -0.168275        71.9610       113.3541        -0.1163         5.2851         5.2851        33.4376        -0.2026         6.9722         6.9722         6.1614         5.9862      4608.3335
    3567.98880         2.6875      -0.169572         1.4110       114.8417         0.7112         5.2851         5.2851        36.1392         1.0663         6.9722         6.9722         6.1659         5.9862      4557.5713
    3568.14120         2.7310      -0.163202         1.4110       116.9306         0.3362         5.2851         5.2851        39.6612         0.6645         6.9722         6.9722         6.1615         5.9862      4519.3335
    3568.29360         2.7965      -0.163882         1.4110       116.9306         0.3362         5.2851         5.2851        40.0289         0.5781         6.9722         6.9722         6.1659         5.9931      4413.2666
    3568.44600         2.7965      -0.169160         1.4110       114.7057         0.4208         5.2851         5.2851        37.2425         0.5781         6.9722         6.9722         6.1815         5.9862      4350.9233
    3568.59840         2.6661      -0.170752         1.4110       115.9699         0.1385         5.2851         5.2851        36.3231         0.4991         6.9722         6.9722         6.1905         5.9862      4261.0000
    3568.75080         2.7397      -0.170950         1.4110       113.3213        -0.3392         5.3693         5.3693        37.3132         0.7646         6.9722         6.9722         6.2074         6.0036      4083.5000
    3568.90320         2.7165      -0.173482         1.4110       109.3511        -1.9214         5.3693         5.3693        35.7715         0.6501         6.9772         6.9772         6.2141         6.0186      4103.8574
    3569.05560         2.5814      -0.179752         1.4110       109.3511        -1.9214         5.3693         5.3693        34.6682         0.5532         6.9772         6.9772         6.2050         6.0161      4273.2144
    3569.20800         2.5814      -0.184825       359.8050       112.4204         0.2703         5.3693         5.3693        33.2254         0.5532         6.9772         6.9772         6.2002         6.0186      4512.1665
    3569.36040         2.6921      -0.183715       358.3940       109.2039        -2.9882         5.3693         5.3693        33.2254         0.4529         6.9772         6.9772         6.2017         6.0186      4588.6152
    3569.51280         2.6110      -0.177078       358.3940       112.7807         0.4640         5.3693         5.3693        32.1080         1.0217         6.9772         6.9772         6.2050         6.0161      4556.5000
