~Version Information Block
VERS .                 2.00:  CWLS LOG ASCII STANDARD - VERSION 2.00
WRAP .                   NO:  One line per depth step
~Well Information Block
#MNEM.UNIT        Data Type   Information
#---------- ----------------  -----------
STRT .M          3199.94280:  START DEPTH
STOP .M          3410.40720:  STOP DEPTH
STEP .M             0.15240:  STEP
NULL .              -999.25:  NULL VALUE
COMP .              Statoil:  COMPANY
WELL .          NO_15/9-F-4:  WELL
FLD  .                VOLVE:  FIELD
LOC  .            North Sea:  LOCATION
CTRY .                     :  COUNTRY
STAT .                     :  STATE
CNTY .                     :  COUNTY
SRVC .         Schlumberger:  SERVICE COMPANY
DATE .          13-Sep-2012:  DATE
API  .                     :  API NUMBER
UWI  .             15/9-F-4:  UNIQUE WELL ID
~Curve Information Block
#MNEM.UNIT         API CODE   Curve Description
#---------- ----------------  -----------------
DEPTH.M                    :  DEPTH (BOREHOLE)
CCLC .V                    :  CCL
CRRA .                     :  Near-Far Count Rate Ratio
CVEL .M/MIN                 :  Cable Velocity
FBEF .UA                   :  RST Far Effective Beam Current
FCOR .                     :  RST Far Carbon/Oxygen Ratio
FERD .                     :  RST Far IC Mode Capture Optimization Resolution Degradation Factor
FIRD .                     :  RST Far Inelastic Optimization Resolution Degradation Factor
GR   .GAPI                 :  Gamma Ray
NCOR .                     :  RST Near Carbon/Oxygen Ratio
NERD .                     :  RST Near IC Mode Capture Optimization Resolution Degradation Factor
NIRD .                     :  RST Near Inelastic Optimization Resolution Degradation Factor
RB_PCMS.DEG                  :  Relative Bearing
TENS .LBF                  :  Cable Tension
~Parameter Information Block
#MNEM.UNIT            Value   Description
#---------- ----------------  -----------
APD  .M                  54:  Elevation of Depth Reference (LMF) above Permanent Datum
RUN  .                    4:  RUN NUMBER
PROJECT.     SLEIPNER_OST@st-vlinapp01:  
SET  .        RSTD_0912_IC1:  
~Other Information Block
# 
~A       DEPTH           CCLC           CRRA           CVEL           FBEF           FCOR           FERD           FIRD             GR           NCOR           NERD           NIRD        RB_PCMS           TENS 
# ...
    3229.66080         0.0918         3.1930      -0.510100       122.3476         0.1774         5.3400         5.3400        66.2944       0.082800         2.7456         2.7456       356.7328      2277.4761
    3229.81320         0.0329         3.2519      -0.513000       121.4496        -0.0023         4.9725         4.9725        76.4465       0.003000         2.7373         2.7373       356.6378      2282.2134
    3229.96560         0.0004         3.1236      -0.515500       118.0911        -0.0770         5.2261         5.2261        78.7219       0.030000         2.7247         2.7247       356.7131      2273.2368
    3230.11800         0.0014         3.0124      -0.510000       116.3784         0.1211         5.1451         5.1451        76.6177       0.085700         2.7036         2.7036       356.8076      2280.3049
    3230.27040         0.0799         2.9863      -0.508200       118.3718        -0.0973         5.1622         5.1622        64.4912       0.043700         2.6952         2.6952       356.9669      2268.2000
    3230.42280        -0.0579         3.0772      -0.505600       119.9223         0.0272         5.1358         5.1358        43.1758      -0.046400         2.6554         2.6554       357.1235      2269.9082
    3230.57520        -0.0334         3.1718      -0.510600       119.2931         0.1254         5.0579         5.0579        31.4179       0.025300         2.6530         2.6530       357.3202      2273.9180
    3230.72760         0.0064         3.1518      -0.499400       117.8197         0.0033         5.0888         5.0888        28.4126       0.009800         2.5938         2.5938       357.7019      2274.2627
    3230.88000        -0.0185         3.0768      -0.512000       114.2732         0.0663         4.8682         4.8682        27.1159       0.040800         2.6348         2.6348       357.6847      2281.9702
    3231.03240        -0.0100         2.9380      -0.506000       113.2125         0.0345         4.9273         4.9273        26.9335       0.067800         2.6205         2.6205       357.5155      2273.4319
    3231.18480         0.0100         2.9105      -0.508200       113.4930         0.1231         4.9363         4.9363        26.6076      -0.027400         2.6275         2.6275       357.3864      2267.3765
    3231.33720         0.0107         2.8913      -0.506200       114.8732        -0.0421         4.9033         4.9033        25.7658      -0.037300         2.5898         2.5898       357.2877      2271.4817
    3231.48960         0.0390         2.9700      -0.512000       116.8026         0.0613         4.9636         4.9636        23.5428      -0.048000         2.5616         2.5616       357.3365      2269.6008
    3231.64200         0.0120         3.0971      -0.507900       118.6097        -0.0195         4.9760         4.9760        22.9432       0.032600         2.5291         2.5291       357.0581      2266.0444
    3231.79440         0.0194         3.1547      -0.508200       118.2758         0.0294         4.9262         4.9262        21.8793       0.033500         2.5320         2.5320       356.9228      2254.0593
    3231.94680        -0.0091         3.0701      -0.505100       115.0823         0.1449         5.0930         5.0930        21.8601      -0.029500         2.5579         2.5579       356.7860      2273.8596
    3232.09920        -0.0083         2.9531      -0.507600       113.2363         0.0972         4.8996         4.8996        22.4026       0.012500         2.5524         2.5524       356.6521      2256.2815
    3232.25160        -0.0207         2.9048      -0.501600       114.3270         0.0454         4.9174         4.9174        23.1287       0.036200         2.5896         2.5896       356.5615      2276.7847
    3232.40400         0.1045         2.9517      -0.504900       114.4945         0.1473         5.0737         5.0737        23.8343       0.053900         2.5735         2.5735       356.7924      2271.0369
    3232.55640        -0.0138         2.9758      -0.504400       112.5315        -0.0828         4.9722         4.9722        23.9076       0.097900         2.5587         2.5587       356.8973      2275.4741
    3232.70880        -0.0123         2.9237      -0.506800       111.3853         0.0175         4.9896         4.9896        24.0239       0.050400         2.5265         2.5265       356.9246      2267.9744
    3232.86120        -0.0107         2.8862      -0.502600       112.4923        -0.2413         5.0736         5.0736        24.2095       0.047800         2.5646         2.5646       357.0523      2278.0146
    3233.01360        -0.0065         2.9034      -0.500400       112.9806         0.0985         5.1397         5.1397        24.3883      -0.060900         2.5644         2.5644       357.1630      2273.8535
    3233.16600         0.0624         2.8877      -0.506400       113.6296         0.0216         5.1465         5.1465        23.7182       0.083100         2.5083         2.5083       356.9509      2268.6802
    3233.31840         0.0235         2.9164      -0.508600       113.5251         0.0496         5.1009         5.1009        23.9375       0.037200         2.5014         2.5014       356.8880      2270.8477
    3233.47080         0.0560         2.9451      -0.509800       114.7879         0.0698         5.2034         5.2034        23.6003       0.050200         2.5083         2.5083       356.9840      2275.5500
    3233.62320        -0.0624         3.0008      -0.506900       114.0469         0.0921         5.3192         5.3192        22.4466       0.043100         2.4546         2.4546       356.9984      2262.2290
    3233.77560        -0.0065         3.0512      -0.501700       115.8449         0.1033         5.3002         5.3002        22.1042      -0.019800         2.4568         2.4568       356.9463      2262.1685
    3233.92800        -0.0074         3.0439      -0.503300       114.5149         0.1240         5.2288         5.2288        22.2614       0.018600         2.4867         2.4867       356.9388      2267.5366
    3234.08040        -0.0105         3.0052      -0.503500       112.6771         0.2434         5.2767         5.2767        22.5688      -0.004700         2.4404         2.4404       356.8581      2265.6628
    3234.23280        -0.0078         2.9285      -0.505700       112.5914        -0.1014         5.1700         5.1700        22.8353       0.010500         2.4626         2.4626       356.6655      2268.5940
    3234.38520        -0.0085         2.9065      -0.504300       113.3873         0.0002         5.2012         5.2012        24.6167       0.048900         2.5321         2.5321       356.4325      2269.2288
    3234.53760        -0.0082         2.9372      -0.505200       114.7462         0.0335         5.3405         5.3405        25.0285       0.125500         2.5397         2.5397       356.4687      2271.7317
    3234.69000         0.0196         2.9738      -0.505500       117.3342         0.2121         5.0860         5.0860        25.3050       0.010200         2.5690         2.5690       356.6976      2272.5000
    3234.84240        -0.0090         3.0567      -0.509500       116.2154         0.1126         5.2501         5.2501        24.8069      -0.061600         2.5911         2.5911       356.6508      2259.4646
    3234.99480        -0.0150         3.0335      -0.509500       114.9745        -0.0275         5.3302         5.3302        24.4171       0.094800         2.6570         2.6570       356.5299      2267.4053
    3235.14720        -0.0076         2.9933      -0.514100       113.7832         0.1181         5.3387         5.3387        23.3300       0.056700         2.6777         2.6777       356.4832      2267.2698
    3235.29960        -0.0313         2.9676      -0.506700       112.2774         0.0747         5.3630         5.3630        23.7364       0.000800         2.7144         2.7144       356.5664      2265.7480
    3235.45200        -0.0111         2.9003      -0.510900       113.4512         0.1577         5.4246         5.4246        24.3076       0.001700         2.7312         2.7312       356.7749      2270.4648
