~Version Information Block
VERS .                 2.00:  CWLS LOG ASCII STANDARD - VERSION 2.00
WRAP .                   NO:  One line per depth step
~Well Information Block
#MNEM.UNIT        Data Type   Information
#---------- ----------------  -----------
STRT .M          3439.51560:  START DEPTH
STOP .M          3642.36000:  STOP DEPTH
STEP .M             0.15240:  STEP
NULL .              -999.25:  NULL VALUE
COMP .              Statoil:  COMPANY
WELL .          NO_15/9-F-5:  WELL
FLD  .                VOLVE:  FIELD
LOC  .            North Sea:  LOCATION
CTRY .                     :  COUNTRY
STAT .                     :  STATE
CNTY .                     :  COUNTY
SRVC .         Schlumberger:  SERVICE COMPANY
DATE .          16-Sep-2012:  DATE
API  .                     :  API NUMBER
UWI  .             15/9-F-5:  UNIQUE WELL ID
~Curve Information Block
#MNEM.UNIT         API CODE   Curve Description
#---------- ----------------  -----------------
DEPTH.M                    :  DEPTH (BOREHOLE)
BSAL .PPM                  :  Borehole Salinity
CCLC .V                    :  CCL
CIRF .                     :  RST Capture to Inelastic Ratio Far
CIRN .                     :  RST Capture to Inelastic Ratio Near
CVEL .M/MIN                 :  Cable Velocity
DSIG .CU                   :  Sigma Difference
FBEF .UA                   :  RST Far Effective Beam Current
GR   .GAPI                 :  Gamma Ray
IRAT .                     :  RST Inelastic Ratio
RSCF .                     :  RST Far Detector Effective Unregulated Capture Count Rate
RSCN .                     :  RST Near Detector Effective Unregulated Capture Count Rate
SFFA .CU                   :  RST Sigma Formation Far Apparent
SIBF .CU                   :  RST Sigma Borehole Fluid
SIGM .CU                   :  Formation Sigma (Neutron Capture Cross Section)
TENS .LBF                  :  Cable Tension
TPHI .V/V                  :  Thermal Decay Porosity
~Parameter Information Block
#MNEM.UNIT            Value   Description
#---------- ----------------  -----------
APD  .M           54.900002:  Elevation of Depth Reference (LMF) above Permanent Datum
BHS  .                 CASE:  Borehole Status (Open or Cased Hole)
BS   .IN                8.5:  Bit Size
BSAL .PPM       34972.17188:  Borehole Salinity
BSALOPT.              UNKNOWN:  Borehole Salinity Option
CSID .IN              6.184:  Casing Inner Diameter
CSIZ .IN                  7:  Current Casing Size
CWEI .LB/F               29:  Casing Weight
MATR .                 SAND:  Rock Matrix for Neutron Porosity Corrections
RUN  .                Run 1:  RUN NUMBER
PROJECT.     SLEIPNER_OST@st-vlinapp01:  
SET  .       RSTD_0912_SIG1:  
~Other Information Block
# 
~A       DEPTH           BSAL           CCLC           CIRF           CIRN           CVEL           DSIG           FBEF             GR           IRAT           RSCF           RSCN           SFFA           SIBF           SIGM           TENS           TPHI 
# ...
    3463.89960     46836.1016         0.2443         0.8624     0.42870000       -4.49360         2.5448        78.3168        25.9368     0.31330001         3.8973         6.1817        36.4415        38.6238        33.9985      2644.7000     0.38810000
    3464.05200     47495.5000         0.1550         0.9386     0.43410000       -4.51490         3.0237        79.4388        25.5825     0.31340000         4.1153         6.0241        35.6648        38.8625        33.6672      2644.2258     0.37450001
    3464.20440     47911.8008        -0.0814         0.9071     0.42510000       -4.51670         3.1058        78.8477        26.0641     0.31330001         4.2504         6.5388        35.3034        39.0132        32.5158      2669.4668     0.36520001
    3464.35680     48479.0000        -0.0481         0.9447     0.42500001       -4.50160         3.2685        77.4819        27.8495     0.31630000         4.3485         6.1242        33.0772        39.2188        30.5511      2654.1614     0.35659999
    3464.50920     49355.0000        -0.0168         1.0422     0.43450001       -4.49720         3.5898        74.8643        31.1656     0.31880000         4.8277         6.1455        29.8605        39.5364        28.7705      2642.4666     0.33660001
    3464.66160     50163.5000         0.3704         1.1622     0.48150000       -4.50610         3.6522        75.4753        32.2659     0.32120001         5.4431         6.9087        30.0364        39.8299        27.2210      2662.2668     0.32179999
    3464.81400     50622.5000         0.0337         1.2889     0.47819999       -4.50200         3.8921        78.3001        32.5774     0.32150000         5.7803         6.6462        28.4365        39.9967        26.5491      2647.3228     0.30790001
    3464.96640     51324.3008        -0.0592         1.2485     0.50160003       -4.48780         3.9862        78.5115        34.7531     0.32049999         5.6129         7.0155        27.8562        40.2518        26.2217      2642.8711     0.31439999
    3465.11880     51553.3008        -0.2892         1.2729     0.50040001       -4.49180         3.9785        77.0475        34.4098     0.31880000         5.6322         6.7700        29.0510        40.3351        26.1173      2641.9668     0.31619999
    3465.27120     51560.9023         0.3076         1.2440     0.50419998       -4.49310         3.6793        76.3843        31.0051     0.32100001         5.6088         7.0720        28.1226        40.3378        25.4345      2659.9355     0.31450000
    3465.42360     51588.1016         0.0432         1.2734     0.49230000       -4.49270         3.0221        76.6349        30.8182     0.32269999         5.7675         6.6205        25.7626        40.3477        24.1306      2653.5667     0.30260000
    3465.57600     51372.8008         0.0634         1.3915     0.48910001       -4.48810         2.7758        76.3954        31.8051     0.32400000         6.4115         6.7878        25.0554        40.2694        23.5498      2647.0967     0.29179999
    3465.72840     51486.8984        -0.1428         1.3276     0.49460000       -4.51050         2.2289        76.4805        30.2273     0.32089999         6.2013         7.1341        26.2958        40.3109        24.2285      2655.9333     0.29640001
    3465.88080     51769.6992         0.0415         1.2659     0.48469999       -4.51740         1.8159        76.0444        31.0854     0.31740001         5.8053         6.8320        27.7200        40.4138        25.8727      2651.5483     0.31529999
    3466.03320     51478.6992         0.0450         1.1467     0.47710001       -4.50600         1.7600        76.9543        34.3240     0.31420001         5.2423         6.8992        29.9528        40.3079        27.6429      2648.9333     0.34840000
    3466.18560     51017.5000         0.0626         1.0331     0.46030000       -4.50210         1.5966        80.1370        33.2666     0.31169999         4.6248         6.6110        31.5948        40.1402        28.7112      2658.2334     0.37689999
    3466.33800     50088.6016         0.0909         0.9751     0.47070000       -4.49470         1.8034        78.9854        34.8748     0.31130001         4.4219         6.7097        30.9295        39.8027        29.1805      2652.8711     0.39789999
    3466.49040     49632.7031         0.4983         1.0006     0.46140000       -4.49450         1.9934        79.8108        39.0269     0.31279999         4.4083         6.4852        31.4256        39.6372        29.0136      2639.8667     0.40410000
    3466.64280     50020.1992         0.2087         1.0144     0.48690000       -4.52330         1.9868        79.8566        42.2019     0.31479999         4.2889         6.5343        31.1835        39.7779        29.0243      2639.8064     0.40480000
    3466.79520     49256.9023        -0.0365         1.0267     0.48280001       -4.51770         1.9779        81.3179        44.6932     0.31670001         4.4162         6.7634        31.0253        39.5008        29.8797      2642.9668     0.39669999
    3466.94760     49428.3984        -0.1670         0.9694     0.46280000       -4.49780         2.1721        78.3165        47.9097     0.31279999         4.2154         6.1540        34.0339        39.5631        31.0512      2663.7334     0.38909999
    3467.10000     49815.1016        -0.0143         0.9218     0.42039999       -4.48450         2.4198        79.6171        48.2750     0.31250000         4.1120         5.9584        34.7367        39.7034        31.7279      2651.7419     0.38010001
    3467.25240     50092.6016         0.3544         0.9291     0.43329999       -4.50970         2.6497        78.4421        46.5312     0.31230000         4.1424         6.1389        33.0852        39.8042        31.8078      2650.5999     0.37570000
    3467.40480     49882.1992         0.0236         0.9542     0.42280000       -4.51450         2.2576        77.6094        45.5014     0.31819999         4.2354         5.8758        34.2957        39.7278        31.7947      2661.5808     0.37419999
    3467.55720     49649.8008        -0.0383         0.8954     0.43130001       -4.55850         2.1304        76.8391        43.8406     0.31650001         4.0383         5.9359        34.6617        39.6434        31.7878      2655.0667     0.38460001
    3467.70960     49374.2969         0.1515         0.9228     0.44069999       -4.50190         1.8879        81.1465        43.0102     0.30759999         4.0677         6.2667        33.0167        39.5434        31.8852      2651.2666     0.40169999
    3467.86200     49395.5000         0.0611         0.8410     0.40490001       -4.49250         1.8516        83.7528        44.3831     0.29350001         3.7184         6.1485        34.5465        39.5511        32.4472      2663.0000     0.42129999
    3468.01440     49602.6992        -2.0323         0.7527     0.36809999       -4.49780         1.4483        83.4280        47.0405     0.28950000         3.2656         5.5671        36.3122        39.6263        36.0707      2632.7000     0.41370001
    3468.16680     49526.1992         0.4081         0.6423     0.37439999       -4.51540         0.7022        80.4584        48.7401     0.29840001         2.8237         5.5036        43.8379        39.5986        38.0492      2647.7419     0.40990001
    3468.31920     50032.1992        -0.1728         0.7621     0.41339999       -4.53700         0.4660        79.9370        52.0535     0.30779999         3.1780         5.1595        40.3534        39.7822        39.5449      2657.0667     0.39890000
    3468.47160     49207.6016        -0.1807         0.7598     0.41540000       -4.50320         0.6595        81.5742        54.8769     0.30820000         3.2191         5.5797        40.7152        39.4829        38.1108      2648.8711     0.40810001
    3468.62400     48690.5000         0.0471         0.7509     0.39960000       -4.52170         0.5495        83.0152        52.8894     0.30030000         3.1737         5.5426        39.4534        39.2954        38.1892      2655.1665     0.40860000
