~Version Information Block
VERS .                 2.00:  CWLS LOG ASCII STANDARD - VERSION 2.00
WRAP .                   NO:  One line per depth step
~Well Information Block
#MNEM.UNIT        Data Type   Information
#---------- ----------------  -----------
STRT .M          3451.70760:  START DEPTH
STOP .M          3790.03560:  STOP DEPTH
STEP .M             0.15240:  STEP
NULL .              -999.25:  NULL VALUE
COMP .              Statoil:  COMPANY
WELL .        NO_15/9-F-1_C:  WELL
FLD  .                Volve:  FIELD
LOC  .            North Sea:  LOCATION
CTRY .               Norway:  COUNTRY
STAT .                     :  STATE
CNTY .                     :  COUNTY
SRVC .         Schlumberger:  SERVICE COMPANY
DATE .          27-Nov-2014:  DATE
API  .                     :  API NUMBER
UWI  .           15/9-F-1 C:  UNIQUE WELL ID
LATI .     58° 26' 29.91" N:  LATITUDE
LONG .      1° 53' 14.71" E:  LONGITUDE
~Curve Information Block
#MNEM.UNIT         API CODE   Curve Description
#---------- ----------------  -----------------
DEPTH.M                    :  DEPTH (BOREHOLE)
CVEL .M/SEC                 :  Cable Velocity
DFRB .DEG                  :  Calibrated Relative Bearing
FBEF .UA                   :  RST Far Effective Beam Current
FCOR .                     :  RST Far Carbon/Oxygen Ratio
FERD .                     :  RST Far IC Mode Capture Optimization
FIRD .                     :  RST Far Inelastic Optimization Resolution
GR   .GAPI                 :  Gamma Ray
NCOR .                     :  RST Near Carbon/Oxygen Ratio
NERD .                     :  RST Near IC Mode Capture Optimization
NIRD .                     :  RST Near Inelastic Optimization Resolution
PFC1 .IN                   :  PFCS CaliperX
PFC2 .IN                   :  PFCS CaliperY
TENS .LBF                  :  Cable Tension
~Parameter Information Block
#MNEM.UNIT            Value   Description
#---------- ----------------  -----------
APD  .M           54.900002:  Elevation of Depth Reference (LMF) above Permanent Datum
EPD  .C3                  0:  Elevation of Permanent Datum above Mean Sea Level
LMF  .                   KB:  Logging Measured From (Name of Logging Elevation Reference)
PDAT .                  MSL:  Permanent Datum
RUN  .                Run 1:  RUN NUMBER
TAPE_NAME.     Statoil_Volve_15-9-F-1 C_PLT-RST_28Nov14_ConCu_R1L18Up_IC2.las:  
TOOL_STRING.              UNKNOWN:  
WN   .           15/9-F-1 C:  WELL
PROJECT.     SLEIPNER_OST@st-vlinapp01:  
SET  .        RSTD_1114_IC2:  
~Other Information Block
# 
~A       DEPTH           CVEL           DFRB           FBEF           FCOR           FERD           FIRD             GR           NCOR           NERD           NIRD           PFC1           PFC2           TENS 
# ...
    3606.24120     -0.1670883       358.3940       122.3584        -0.1024         4.9498         4.9498        34.0314         0.0489         7.0828         7.0828         6.2757         6.0510      4275.2310
    3606.39360     -0.1661400       356.9830       120.5311         0.0253         4.9628         4.9628        33.1614         0.0050         7.0794         7.0794         6.2847         6.0510      4467.6431
    3606.54600     -0.1658750       356.9830       122.1874         0.0844         5.0586         5.0586        32.9594        -0.0076         6.9283         6.9283         6.2847         6.0510      4441.7144
    3606.69840     -0.1648933       356.9830       121.9546        -0.0332         5.0779         5.0779        33.6788         0.0670         7.0701         7.0701         6.2824         6.0510      4416.8574
    3606.85080     -0.1643850       356.9830       121.6727         0.1122         5.0985         5.0985        33.7839        -0.0263         7.0719         7.0719         6.2735         6.0510      4251.1538
    3607.00320     -0.1635683       356.9830       121.0950        -0.0125         5.2674         5.2674        34.5666        -0.0156         7.0369         7.0369         6.2667         6.0510      4229.3999
    3607.15560     -0.1622050       356.9830       121.5804        -0.0137         5.0292         5.0292        35.8601         0.0349         7.0026         7.0026         6.2721         6.0510      4214.6924
    3607.30800     -0.1615867       356.9830       122.0950         0.0227         5.0540         5.0540        35.8939        -0.0434         6.9573         6.9573         6.2780         6.0510      4301.0000
    3607.46040     -0.1618567       356.9830       121.1088         0.0333         5.0790         5.0790        35.4502        -0.0161         6.9407         6.9407         6.2667         6.0510      4251.0713
    3607.61280     -0.1613883       356.9830       120.6482        -0.0988         5.1498         5.1498        35.5931        -0.0048         7.0242         7.0242         6.2742         6.0510      4362.2144
    3607.76520     -0.1613150       356.9830       121.2960         0.0880         5.0171         5.0171        35.7876         0.0351         7.0733         7.0733         6.2638         6.0510      4304.1431
    3607.91760     -0.1579783       356.9830       121.1164        -0.0869         5.1302         5.1302        37.1894         0.0514         7.0879         7.0879         6.2690         6.0510      4407.0000
    3608.07000     -0.1528067       356.9830       122.3094         0.0001         5.0476         5.0476        37.9345         0.0202         7.0751         7.0751         6.2690         6.0510      4348.5000
    3608.22240     -0.1481500       356.9830       122.8146        -0.0021         5.0664         5.0664        38.1513        -0.0245         7.0368         7.0368         6.2670         6.0510      4306.3130
    3608.37480     -0.1464033       356.9830       123.7481        -0.0483         5.0026         5.0026        38.3071        -0.0082         7.0744         7.0744         6.2679         6.0510      4335.1997
    3608.52720     -0.1453683       358.3940       123.5079         0.0345         5.0400         5.0400        38.4985        -0.0052         7.0811         7.0811         6.2709         6.0510      4324.8125
    3608.67960     -0.1455900       358.3940       124.5292         0.1011         5.1412         5.1412        37.7783         0.0688         7.1004         7.1004         6.2631         6.0551      4420.8667
    3608.83200     -0.1454467       358.3940       124.8952         0.0649         5.0463         5.0463        38.4937        -0.0343         7.0987         7.0987         6.2638         6.0510      4346.8750
    3608.98440     -0.1461500       358.3940       124.4211         0.0869         4.9460         4.9460        40.1849         0.0219         7.0752         7.0752         6.2847         6.0510      4283.2500
    3609.13680     -0.1493317       358.3940       123.7157        -0.0077         4.9897         4.9897        41.1766         0.0646         7.0901         7.0901         6.2847         6.0510      4229.1250
    3609.28920     -0.1581167       358.3940       124.6242        -0.0025         5.0358         5.0358        41.8376         0.0362         7.1093         7.1093         6.2847         6.0510      4113.6670
    3609.44160     -0.1602533       358.3940       125.3432         0.0829         5.0258         5.0258        42.3979         0.0438         7.0306         7.0306         6.2847         6.0510      4257.2144
    3609.59400     -0.1420917       356.9830       123.9590         0.1417         5.0962         5.0962        41.5693         0.0232         7.0913         7.0913         6.2604         6.0598      4348.0000
    3609.74640     -0.1232100       356.9830       121.7296         0.1059         4.8916         4.8916        41.0398        -0.0746         7.0392         7.0392         6.2585         6.0659      4372.4380
    3609.89880     -0.1154133       356.9830       123.1423         0.0267         5.0545         5.0545        40.6242         0.0207         7.0541         7.0541         6.2544         6.0659      4327.6499
    3610.05120     -0.1065183       356.9830       128.7258        -0.1095         5.0157         5.0157        40.9466         0.0011         7.0975         7.0975         6.2535         6.0547      4271.3501
    3610.20360     -0.0965850       356.9830       127.9569         0.0604         5.1070         5.1070        43.3594         0.0986         7.0864         7.0864         6.2538         6.0540      4271.2383
    3610.35600     -0.0688800       356.9830       128.4404        -0.0341         5.1150         5.1150        46.7451         0.0894         7.1383         7.1383         6.2264         6.0499      4299.4233
    3610.50840     -0.0087467       355.5720       127.1274        -0.0926         5.0799         5.0799        49.9370        -0.0272         7.1050         7.1050         6.2219         6.0488      4157.0000
    3610.66080     -0.0078767       355.5720       126.1246        -0.1441         4.9351         4.9351        53.1003         0.0101         7.1865         7.1865         6.2219         6.0501      4123.5859
    3610.81320     -0.0080733       355.5720       124.6574        -0.0560         4.9142         4.9142        54.7138         0.0486         7.1272         7.1272         6.2219         6.0470      4065.9507
    3610.96560     -0.0077383       355.5720       124.8789         0.0211         4.9723         4.9723        54.7373        -0.0283         7.1309         7.1309         6.2219         6.0450      4263.3628
    3611.11800     -0.0076600       355.5720       124.2729        -0.0064         4.9331         4.9331        54.2442         0.0458         7.1236         7.1236         6.2220         6.0441      4230.3052
    3611.27040     -0.0079500       355.5720       124.0701         0.0051         4.8819         4.8819        53.5073        -0.0211         7.1801         7.1801         6.2219         6.0437      4133.5762
    3611.42280     -0.0073200       356.9830       125.5317         0.0653         4.6892         4.6892        52.5910         0.0464         7.2181         7.2181         6.2220         6.0488      4355.4116
    3611.57520     -0.0075583       356.9830       125.5204        -0.3079         4.6485         4.6485        52.0356         0.1144         7.2285         7.2285         6.2221         6.0504      4317.6226
    3611.72760     -0.0076217       356.9830       124.7015        -0.0024         4.6849         4.6849        52.1753         0.0335         7.2158         7.2158         6.2221         6.0499      4209.2017
    3611.88000     -0.0078567       356.9830       124.1008        -0.0365         4.9302         4.9302        52.2763         0.0403         7.2437         7.2437         6.2221         6.0492      4116.5493
    3612.03240     -0.0075700       356.9830       122.6216         0.0099         4.9475         4.9475        52.0906         0.0661         7.1135         7.1135         6.2219         6.0461      4313.4512
