~Version Information Block
VERS .                 2.00:  CWLS LOG ASCII STANDARD - VERSION 2.00
WRAP .                  YES:  Multiple lines per depth step
~Well Information Block
#MNEM.UNIT        Data Type   Information
#---------- ----------------  -----------
STRT .M          3513.58200:  START DEPTH
STOP .M          3649.06560:  STOP DEPTH
STEP .M             0.15240:  STEP
NULL .              -999.25:  NULL VALUE
COMP .              Statoil:  COMPANY
WELL .        NO_15/9-F-1_C:  WELL
FLD  .                Volve:  FIELD
LOC  .            North Sea:  LOCATION
CTRY .               Norway:  COUNTRY
STAT .                     :  STATE
CNTY .                     :  COUNTY
SRVC .         Schlumberger:  SERVICE COMPANY
DATE .          27-Nov-2014:  DATE
API  .                     :  API NUMBER
UWI  .           15/9-F-1 C:  UNIQUE WELL ID
LATI .     58° 26' 29.91" N:  LATITUDE
LONG .      1° 53' 14.71" E:  LONGITUDE
~Curve Information Block
#MNEM.UNIT         API CODE   Curve Description
#---------- ----------------  -----------------
DEPTH.M                    :  DEPTH (BOREHOLE)
BSAL .PPM                  :  Borehole Salinity
CCLC .V                    :  CCL
CIRF .                     :  RST Capture to Inelastic Ratio Far
CIRN .                     :  RST Capture to Inelastic Ratio Near
CVEL .M/SEC                 :  Cable Velocity
DFRB .DEG                  :  Calibrated Relative Bearing
DSIG .CU                   :  Sigma Difference
FBEF .UA                   :  RST Far Effective Beam Current
GR   .GAPI                 :  Gamma Ray
IRAT .                     :  RST Inelastic Ratio
PFC1 .IN                   :  PFCS CaliperX
PFC2 .IN                   :  PFCS CaliperY
RSCF .                     :  RST Far Detector Effective Unregulated
RSCN .                     :  RST Near Detector Effective
SFFA .CU                   :  RST Sigma Formation Far Apparent
SIBF .CU                   :  RST Sigma Borehole Fluid
SIGM .CU                   :  Formation Sigma (Neutron Capture Cross
TENS .LBF                  :  Cable Tension
TPHI .V/V                  :  Thermal Decay Porosity
~Parameter Information Block
#MNEM.UNIT            Value   Description
#---------- ----------------  -----------
APD  .M           54.900002:  Elevation of Depth Reference (LMF) above Permanent Datum
BHS  .                 CASE:  Borehole Status (Open or Cased Hole)
BS   .IN                8.5:  Bit Size
BSAL .PPM                 0:  Borehole Salinity
BSALOPT.              UNKNOWN:  Borehole Salinity Option
CSIZ .IN                  7:  Current Casing Size
CWEI .LB/F               29:  Casing Weight
EPD  .C3                  0:  Elevation of Permanent Datum above Mean Sea Level
LMF  .                   KB:  Logging Measured From (Name of Logging Elevation Reference)
MATR .                 SAND:  Rock Matrix for Neutron Porosity Corrections
PDAT .                  MSL:  Permanent Datum
RUN  .                Run 1:  RUN NUMBER
TAPE_NAME.     Statoil_Volve_15-9-F-1 C_PLT-RST_28Nov14_ConCu_R1L15Up_SigmaRepeat.las:  
TOOL_STRING.              UNKNOWN:  
WN   .           15/9-F-1 C:  WELL
PROJECT.     SLEIPNER_OST@st-vlinapp01:  
SET  .       RSTD_1114_SIG2:  
~Other Information Block
~Ascii Log Data
# ...
    3530.04120 
     6393.7002        -0.0249         2.2204       0.885200      -0.159565 
      352.7500        -0.9089        76.8349        26.2946         0.3558 
        6.1905         6.0186         9.8388        10.7675        19.4060 
       24.3480        17.5274      3870.5000       0.213600
    3530.19360 
     6133.0000        -0.0032         2.3220       0.935400      -0.159307 
      352.7500        -1.0480        81.7006        26.1108         0.3620 
        6.1905         6.0116         9.2488        10.2085        19.1687 
       24.2583        17.3239      4118.6665       0.202100
    3530.34600 
     6454.5000        -0.0134         2.3173       0.877200      -0.159505 
      351.3390        -1.0554        82.2611        26.1108         0.3645 
        6.1905         6.0099         9.2263         9.5850        18.7259 
       24.3689        17.3138      4400.5000       0.182500
    3530.49840 
     6863.6997        -0.0228         2.3620       0.879800      -0.156982 
      352.7500        -1.2375        79.6671        26.8463         0.3625 
        6.1905         6.0186         9.9763        10.4244        19.3577 
       24.5097        17.5100      4514.0000       0.167500
    3530.65080 
     7373.4004        -0.0141         2.2819       0.851500      -0.155968 
      351.3390        -1.2020        75.6994        25.7430         0.3587 
        6.1905         6.0186        10.2646        10.6126        19.7582 
       24.6853        17.6661      4472.6670       0.160300
    3530.80320 
     7366.0996         0.0098         2.4649       0.865800      -0.156347 
      351.3390        -0.8547        83.0026        25.1914         0.3580 
        6.1905         6.0186        10.0192        10.3669        19.2316 
       24.6827        17.4579      4389.5000       0.157200
    3530.95560 
     7798.1001         0.0678         2.3338       0.874100      -0.153767 
      351.3390        -0.6667        74.8744        22.8009         0.3659 
        6.1926         5.9970        10.4234        10.2734        18.7727 
       24.8316        17.2820      4308.0000       0.157400
    3531.10800 
     7154.1001        -0.0794         2.2818       0.853600      -0.153798 
      351.3390        -0.6753        73.3861        21.1460         0.3725 
        6.1928         6.0186        10.1347         9.3834        19.2763 
       24.6097        17.4840      4218.0000       0.149200
    3531.26040 
     7137.8999        -0.0560         2.2499       0.865700      -0.156327 
      351.3390        -0.9311        74.7106        19.4911         0.3745 
        6.1929         6.0186        10.3549        10.3956        19.8897 
       24.6042        17.2505      4194.0000       0.143100
    3531.41280 
     8443.2998        -0.0127         2.3459       0.838600      -0.159293 
      352.7500        -0.9643        78.8089        21.1460         0.3803 
        6.2050         6.0186        10.1106         9.7998        18.1194 
       25.0541        16.7790      4004.6665       0.134900
    3531.56520 
     8121.3999        -0.0036         2.2592       0.812100      -0.163953 
      352.7500        -0.9626        72.2481        23.1687         0.3758 
        6.1905         5.9891        10.8143         9.9320        17.9319 
       24.9430        16.1575      4112.0000       0.132200
    3531.71760 
     8729.7002         0.0009         2.2832       0.828200      -0.175392 
      352.7500        -0.9534        71.6185        25.3752         0.3763 
        6.1905         5.9862        11.6174        11.2711        18.1087 
       25.1529        15.9831      4298.5000       0.134300
    3531.87000 
     9368.7998        -0.0244         2.3042       0.818700      -0.192525 
      351.3390        -0.8019        71.3549        25.1914         0.3660 
        6.1928         5.9862        11.3468        10.4489        17.6832 
       25.3735        16.4175      4412.0000       0.131500
    3532.02240 
     9551.0000        -0.0036         2.3573       0.810500      -0.190620 
      351.3390        -0.8542        73.8716        23.9042         0.3669 
        6.1905         6.0136        11.5555        11.0129        19.3010 
       25.4364        16.4150      4464.5000       0.133700
    3532.17480 
     9880.7998         0.0508         2.3173       0.816200      -0.180453 
      351.3390        -0.9803        72.3450        24.0881         0.3700 
        6.1931         6.0186        11.2327        10.1163        18.1843 
       25.5504        16.5757      4394.0000       0.128900
    3532.32720 
    10595.3994        -0.0580         2.2185       0.825100      -0.176640 
      351.3390        -1.0127        71.0473        23.5365         0.3705 
        6.1905         6.0105        10.7695        10.5138        18.2028 
       25.7975        16.0941      4308.0000       0.137200
    3532.47960 
    11785.0996        -0.0073         2.3419       0.782000      -0.184265 
      351.3390        -1.2488        72.6261        23.7203         0.3723 
        6.1905         5.9862        11.7756        10.7654        17.8954 
       26.2094        15.8966      4173.5000       0.146700
    3532.63200 
    12934.7002        -0.0028         2.0406       0.797400      -0.189983 
      351.3390        -1.2226        70.7286        24.5171         0.3708 
        6.1905         6.0024        10.5268        10.6984        17.6012 
       26.6079        16.2160      4297.5000       0.163200
    3532.78440 
    13713.3994         0.0070         1.9921       0.784200      -0.191890 
      351.3390        -1.4305        72.0667        27.5441         0.3772 
        6.1905         6.0132        10.1699        10.7783        19.1508 
       26.8783        17.0258      4383.5000       0.169700
    3532.93680 
    15083.8008        -0.0081         2.1355       0.807200      -0.191890 
      351.3390        -1.0714        75.3774        26.9924         0.3773 
        6.1905         6.0078         9.6684         9.7155        20.2717 
       27.3547        17.2384      4365.5000       0.175400
    3533.08920 
    15938.7998        -0.0833         2.1904       0.834100      -0.190643 
      351.3390        -0.8534        75.5193        26.8086         0.3740 
        6.1905         6.0186        10.0278        10.1641        18.2078 
       27.6523        17.0777      4232.0005       0.175700
    3533.24160 
    15023.0996        -0.1561         2.1565       0.813700      -0.189372 
      351.3390        -0.8312        78.5246        26.4531         0.3730 
        6.1931         6.0186         9.6279         9.8738        18.6026 
       27.3336        16.3332      4221.5000       0.182600
    3533.39400 
    14989.2998        -0.0368         2.1633       0.828100      -0.188125 
      351.3390        -0.5836        77.6198        28.0467         0.3676 
        6.2050         6.0111         9.8136        10.4054        17.9624 
       27.3218        16.8336      4131.0005       0.182000
    3533.54640 
    15605.6006         0.0015         2.1895       0.803700      -0.186853 
      351.3390        -0.4415        76.4647        25.0197         0.3637 
        6.1929         6.0186        10.2628        10.6956        19.6234 
       27.5363        16.8670      3972.5000       0.181400
    3533.69880 
    15283.5000        -0.0285         2.2323       0.821100      -0.186830 
      351.3390        -0.4059        74.5440        24.6520         0.3661 
        6.2010         6.0186        10.4183        10.5364        18.6412 
       27.4242        17.1397      4145.0000       0.179800
    3533.85120 
    14578.3994         0.0029         2.1483       0.800900      -0.184288 
      352.7500        -0.1097        70.2912        24.2842         0.3741 
        6.1995         6.0186        10.7107        10.5359        18.6998 
       27.1789        16.8034      4174.0000       0.178600
    3534.00360 
    14839.4004        -0.0107         2.0811       0.835200      -0.182382 
      352.7500        -0.1041        71.3899        24.4558         0.3777 
        6.1984         6.0186        10.0267        10.4867        18.5764 
       27.2696        16.7953      4538.0000       0.179900
