~Version Information Block
VERS .                 2.00:  CWLS LOG ASCII STANDARD - VERSION 2.00
WRAP .                   NO:  One line per depth step
~Well Information Block
#MNEM.UNIT        Data Type   Information
#---------- ----------------  -----------
STRT .M          3460.24200:  START DEPTH
STOP .M          3530.19360:  STOP DEPTH
STEP .M             0.15240:  STEP
NULL .              -999.25:  NULL VALUE
COMP .              Statoil:  COMPANY
WELL .          NO_15/9-F-5:  WELL
FLD  .                Volve:  FIELD
LOC  .                Volve:  LOCATION
CTRY .               Norway:  COUNTRY
STAT .                     :  STATE
CNTY .                     :  COUNTY
SRVC .         Schlumberger:  SERVICE COMPANY
DATE .           11/03/2015:  DATE
API  .                     :  API NUMBER
UWI  .             15/9-F-5:  UNIQUE WELL ID
LATI .     58° 26' 29.66" N:  LATITUDE
LONG .      1° 53' 14.99" E:  LONGITUDE
~Curve Information Block
#MNEM.UNIT         API CODE   Curve Description
#---------- ----------------  -----------------
DEPTH.M                    :  Depth Index
CCLC .V                    :  (PSTP-B)                (1in)                   CCL Computed Amplitude
CVEL .M/SEC                 :  (WLWorkflow)            (1in)                   Cable Velocity
FBEF .UA                   :  (RST-D)                 (6in)                   Far Effective Beam Curre
FCOR .                     :  (RST-D)                 (6in)                   Far Carbon/Oxygen Ratio
FERD .                     :  (RST-D)                 (6in)                   Far IC Mode Capture Opti
FIRD .                     :  (RST-D)                 (6in)                   Far Inelastic Optimizati
GR   .GAPI                 :  (PSTP-B)                (6in)                   Gamma Ray
NCOR .                     :  (RST-D)                 (6in)                   Near Carbon/Oxygen Ratio
NERD .                     :  (RST-D)                 (6in)                   Near IC Mode Capture Opt
NIRD .                     :  (RST-D)                 (6in)                   Near Inelastic Optimizat
RB_PCMS.DEG                  :  (PCMS-A)                (6in)                   Relative Bearing
TENS .LBF                  :  (WLWorkflow)            (1in)                   Cable Tension
WPRE .BAR                  :  (PSTP-B)                (6in)                   Well Pressure
WTEP .DEGC                 :  (PSTP-B)                (6in)                   Well Temperature
~Parameter Information Block
#MNEM.UNIT            Value   Description
#---------- ----------------  -----------
APD  .M                  54:  Elevation of Depth Reference (LMF) Above Permanent Datum
CLAB .              Country:  :County Label
ECF  .M             -999.25:  Elevation of Casing Flange above Permanent Datum
EDF  .M                  54:  Elevation of Drill Floor Above Permanent Datum
EGL  .M                 -91:  Elevation of Ground Level Above Permanent Datum
EKB  .M             -999.25:  Elevation of Kelly Bushing Above Permanent Datum
EPD  .M                   0:  Elevation of Permanent Datum (PDAT) above Mean Sea Level
FL1  .            North Sea:  Field Location Line 1
FL2  .     Norwegian Sector:  Field Location Line 2
LMF  .                   DF:  Logging Measured From
LUL  .                 NOBO:  Logging Unit Location
LUN  .          ONCC-A 3837:  Logging Unit Number
PDAT .                  MSL:  Local Permanent Datum
RIGN .      Maersk Inspirer:  Rig Name
RIGTYP.               Jackup:  Rig Type
SON  .           C2TQ-00038:  Service Order Number
TAPE_NAME.     RST_IC_Pass-2___03Nov15_214110.las:  
TOOL_STRING.              UNKNOWN:  
WN   .             15/9-F-5:  WELL NAME
PROJECT.     SLEIPNER_OST@st-vlinapp01:  
SET  .        RSTD_1115_IC2:  
~Other Information Block
# 
~A       DEPTH           CCLC           CVEL           FBEF           FCOR           FERD           FIRD             GR           NCOR           NERD           NIRD        RB_PCMS           TENS           WPRE           WTEP 
# ...
    3509.61960        0.01936     -0.0085518       137.6610       0.127650         5.5742         5.5742        75.6706       0.009150         4.1726         4.1726       353.8087      3962.0439       362.0460        82.4308
    3509.77200       -0.00408     -0.0088623       137.3991      -0.076500         5.5661         5.5661        75.8458      -0.025020         4.2126         4.2126       353.4121      3888.5789       362.0584        82.4157
    3509.92440       -0.00460     -0.0085065       137.1327       0.029190         5.5667         5.5667        77.1983       0.019240         4.1784         4.1784       353.2656      3962.8848       362.0689        82.3978
    3510.07680        0.00460     -0.0082553       137.1906       0.025420         5.5394         5.5394        79.7981      -0.005600         4.1911         4.1911       353.2007      3895.2173       362.0786        82.3867
    3510.22920       -0.00558     -0.0073762       137.7980       0.050140         5.6009         5.6009        81.4624      -0.104260         4.1731         4.1731       353.1851      3992.3459       362.0936        82.3735
    3510.38160        0.00009     -0.0076982       138.8434       0.092470         5.4967         5.4967        83.9193       0.012650         4.1479         4.1479       353.2119      3909.5916       362.1036        82.3567
    3510.53400        0.00460     -0.0077728       137.5534       0.006080         5.6120         5.6120        87.7659       0.010590         4.1466         4.1466       353.2547      3924.0603       362.1151        82.3492
    3510.68640        0.00417     -0.0081067       138.4284       0.040340         5.6160         5.6160        92.4614       0.051720         4.1475         4.1475       353.4087      3860.2349       362.1255        82.3363
    3510.83880       -0.00567     -0.0080188       139.1383      -0.080350         5.7384         5.7384        94.7286       0.018740         4.1069         4.1069       353.5113      3891.9216       362.1413        82.3360
    3510.99120        0.02801     -0.0079315       140.3579      -0.108510         5.6949         5.6949        95.4260       0.089610         4.1115         4.1115       353.6042      3982.2656       362.1491        82.3266
    3511.14360        0.01353     -0.0079908       140.3111      -0.022630         5.6111         5.6111        95.9215       0.026220         4.0901         4.0901       353.7281      4017.9585       362.1610        82.3191
    3511.29600       -0.00572     -0.0084370       139.5865      -0.117280         5.4903         5.4903        97.4232      -0.036360         4.0482         4.0482       353.5949      3993.4048       362.1735        82.3145
    3511.44840        0.00361     -0.0081878       139.5334       0.005500         5.6900         5.6900        96.7953      -0.029700         4.0410         4.0410       353.6052      4008.2559       362.1831        82.2968
    3511.60080       -0.03102     -0.0083660       139.2677      -0.069900         5.7101         5.7101        96.0592      -0.142340         4.0216         4.0216       353.7176      4005.2185       362.1963        82.2839
    3511.75320       -0.00733     -0.0082278       137.8194       0.123470         5.7229         5.7229        96.9184       0.015800         4.0184         4.0184       353.6597      3888.0864       362.2084        82.2747
    3511.90560       -0.00597     -0.0085592       137.5147      -0.014270         5.7335         5.7335        96.5330       0.131740         4.0255         4.0255       353.6346      3938.5447       362.2196        82.2704
    3512.05800        0.01245     -0.0084388       136.3659      -0.048780         5.7130         5.7130        96.4726       0.030500         4.0213         4.0213       353.7220      3864.0657       362.2281        82.2594
    3512.21040       -0.00713     -0.0081977       137.3910      -0.003970         5.6626         5.6626        97.2232       0.044480         4.0328         4.0328       353.9218      3906.1814       362.2446        82.2475
    3512.36280       -0.00577     -0.0085662       137.4036      -0.033090         5.5534         5.5534        99.4976       0.009050         4.0269         4.0269       353.9883      3849.6599       362.2552        82.2480
    3512.51520       -0.02992     -0.0084852       137.4703      -0.073400         5.5209         5.5209       100.6576      -0.055360         4.0133         4.0133       353.9696      3873.4895       362.2632        82.2375
    3512.66760       -0.00670     -0.0084572       136.3867       0.129860         5.4704         5.4704       103.2054      -0.043940         3.9808         3.9808       353.9005      3898.3174       362.2778        82.2345
    3512.82000       -0.00480     -0.0082688       136.7657       0.034970         5.3639         5.3639       101.6318       0.037850         4.0346         4.0346       353.7670      3953.0427       362.2879        82.2279
    3512.97240        0.03069     -0.0083383       137.8046       0.024010         5.4244         5.4244       104.5737      -0.001440         3.9751         3.9751       353.8019      3977.8054       362.2994        82.2254
    3513.12480       -0.00250     -0.0085185       138.8038       0.097600         5.3736         5.3736       106.6457      -0.018680         3.9391         3.9391       354.0256      3962.1946       362.3128        82.2218
    3513.27720        0.01818     -0.0086930       139.3669       0.002360         5.3497         5.3497       107.2173       0.034580         3.9272         3.9272       353.9705      3979.5566       362.3239        82.2186
    3513.42960       -0.00040     -0.0085728       139.5532       0.077300         5.4294         5.4294       106.1813       0.015150         3.9902         3.9902       353.9176      3988.2725       362.3355        82.2193
    3513.58200       -0.00170     -0.0085868       138.7837       0.022230         5.2939         5.2939       109.9894       0.038450         3.9714         3.9714       353.9491      3998.6946       362.3473        82.2178
    3513.73440        0.01245     -0.0084107       138.1607      -0.070080         5.2689         5.2689       108.3787       0.025390         4.0018         4.0018       353.8078      3946.7346       362.3590        82.2138
    3513.88680       -0.02078     -0.0084953       136.8109       0.024760         5.2934         5.2934       107.0513       0.095690         4.0007         4.0007       353.6827      3891.9778       362.3706        82.2123
    3514.03920       -0.00173     -0.0086082       138.2684       0.010560         5.2058         5.2058       106.7725      -0.010770         3.9731         3.9731       353.3923      3864.1555       362.3819        82.2091
    3514.19160       -0.06572     -0.0084388       138.4049       0.118250         5.0818         5.0818       110.2876       0.091960         4.0308         4.0308       353.7050      3886.2451       362.3924        82.2026
    3514.34400       -0.00398     -0.0082412       137.9774      -0.127910         5.1269         5.1269       110.6223       0.017390         4.0066         4.0066       354.0761      3857.8677       362.4041        82.1981
    3514.49640       -0.00340     -0.0085233       140.0443      -0.077460         5.1684         5.1684       112.2896       0.111430         4.0316         4.0316       354.4451      3916.4438       362.4161        82.1945
    3514.64880       -0.00334     -0.0082420       140.7544       0.079750         5.3558         5.3558       115.4255      -0.077740         3.9718         3.9718       354.6178      3982.9355       362.4267        82.1893
    3514.80120        0.00127     -0.0084107       145.1711       0.004100         5.2754         5.2754       119.0340       0.045190         3.9705         3.9705       354.6897      3946.9998       362.4382        82.1841
    3514.95360       -0.01300     -0.0084768       144.1529      -0.038360         5.2463         5.2463       123.1101       0.049080         3.9786         3.9786       354.5667      3920.8613       362.4491        82.1858
