#------------------------------------------------------------------------------
#
#   Created by   : las_export
#   Created on   : 2009-06-18 13:07:55
#   Project      : VOLVE
#   User         : TONYG
#   Interpreters : *
#
#------------------------------------------------------------------------------
~VERSION INFORMATION
VERS. 2.0 : CWLS Log ASCII Standard - version 2.0
WRAP.  NO : One line per depth step

~WELL INFORMATION
#MNEMONIC   .UNIT                                           VALUE :DESCRIPTION
#------------------------------------------------------------------------------
STRT        .M                                       2560.0412 :START DEPTH
STOP        .M                                       3222.0668 :STOP DEPTH
STEP        .M                                          0.1524 :STEP
NULL        .                                        -999.2500 :NULL VALUE
COMP        .                                                  :COMPANY
WELL        .                                      15/9-F-15 C :WELL
FLD         .                                            VOLVE :FIELD
LOC         .                                          UNKNOWN :LOCATION
CNTY        .                                          UNKNOWN :COUNTY
STAT        .                                          UNKNOWN :STATE
CTRY        .                                           Norway :COUNTRY
SRVC        .                                          UNKNOWN :SERVICE COMPANY
DATE        .                                          UNKNOWN :LOG DATE
UWI         .                                   NO 15/9-F-15 C :UNIQUE WELL ID
XCOORD      .M                                   435053.550000 :SURFACE X
YCOORD      .M                                  6478560.360000 :SURFACE Y
LAT         .                                        58.441585 :LATITUDE
LON         .                                         1.887541 :LONGITUDE
ELEV        .M                                         54.9000 :SURFACE ELEV
ELEV_TYPE   .                                               KB :ELEV TYPE

~CURVE INFORMATION
#MNEMONIC   .UNIT          API CODE       : CURVE DESCRIPTION
#------------------------------------------------------------------------------
DEPTH       .M                            : Measured Depth
DT          .us/ft         UNKNOWN        : DT:UNKNOWN:rC:NONE:v1
GR          .API           UNKNOWN        : GR:UNKNOWN:rC:NONE:v1
~A     DEPTH           DT           GR 
# ...
  3200.12120    77.524918    52.876838 
  3200.27360    73.513329    52.811911 
  3200.42600    72.855431    53.124181 
  3200.57840    74.280602    54.165407 
  3200.73080    75.743027    53.997341 
  3200.88320    78.354286    54.159241 
  3201.03560    81.823387    54.470044 
  3201.18800    86.750290    54.808983 
  3201.34040    88.747513    54.301295 
  3201.49280    87.669281    52.170146 
  3201.64520    84.864342    48.705598 
  3201.79760    81.180588    45.658161 
  3201.95000    78.168121    45.713535 
  3202.10240    76.700150    47.096272 
  3202.25480    76.467209    48.555779 
  3202.40720    76.974442    48.328228 
  3202.55960    77.561996    47.782545 
  3202.71200    76.150841    48.450689 
  3202.86440    74.259903    50.020293 
  3203.01680    74.754784    52.494918 
  3203.16920    77.673279    51.421558 
  3203.32160    82.124817    51.268659 
  3203.47400    82.077377    52.298577 
  3203.62640    82.924812    59.160291 
  3203.77880    84.517563    61.926928 
  3203.93120    83.098343    62.269501 
  3204.08360    82.344017    59.482354 
  3204.23600    86.218948    58.075132 
  3204.38840    92.083290    56.895204 
  3204.54080    94.491562    54.804280 
  3204.69320    93.657471    55.543168 
  3204.84560    91.612244    55.391042 
  3204.99800    88.502861    55.510801 
  3205.15040    85.922897    54.079570 
  3205.30280    83.855598    55.366609 
  3205.45520    84.612007    57.384167 
  3205.60760    85.971573    59.337385 
  3205.76000    86.842796    58.388831 
  3205.91240    88.611778    55.844743 
  3206.06480    89.962463    52.596491 
  3206.21720  -999.250000    52.490795 
  3206.36960  -999.250000    55.967043 
  3206.52200  -999.250000    62.128751 
  3206.67440  -999.250000    63.261570 
  3206.82680  -999.250000    59.658851 
  3206.97920  -999.250000    53.444912 
  3207.13160  -999.250000    51.584423 
  3207.28400  -999.250000    50.629839 
  3207.43640  -999.250000    49.151219 
  3207.58880  -999.250000    48.770560 
  3207.74120  -999.250000    50.016597 
  3207.89360  -999.250000    50.288240 
  3208.04600  -999.250000    47.650134 
  3208.19840  -999.250000    45.479344 
  3208.35080  -999.250000    48.095814 
  3208.50320  -999.250000    52.285916 
  3208.65560  -999.250000    57.477910 
  3208.80800  -999.250000    59.500754 
  3208.96040  -999.250000    60.342637 
  3209.11280  -999.250000    61.232916 
  3209.26520  -999.250000    63.250337 
  3209.41760  -999.250000    64.887217 
  3209.57000  -999.250000    63.482786 
  3209.72240  -999.250000    62.645829 
  3209.87480  -999.250000    60.759599 
  3210.02720  -999.250000    59.079881 
  3210.17960  -999.250000    59.809794 
  3210.33200  -999.250000    67.260499 
  3210.48440  -999.250000    73.965522 
  3210.63680  -999.250000    75.239144 
  3210.78920  -999.250000    72.409018 
  3210.94160  -999.250000    70.117329 
  3211.09400  -999.250000    67.828481 
  3211.24640  -999.250000    62.194559 
  3211.39880  -999.250000    57.450441 
  3211.55120  -999.250000    54.501333 
  3211.70360  -999.250000    53.237767 
  3211.85600  -999.250000    52.870956 
  3212.00840  -999.250000    54.105550 
  3212.16080  -999.250000    58.485268 
  3212.31320  -999.250000    61.542524 
  3212.46560  -999.250000    62.708724 
  3212.61800  -999.250000    61.954081 
  3212.77040  -999.250000    64.209655 
  3212.92280  -999.250000    68.088357 
  3213.07520  -999.250000    73.685469 
  3213.22760  -999.250000    76.736390 
  3213.38000  -999.250000    75.602075 
  3213.53240  -999.250000    71.188873 
  3213.68480  -999.250000    69.095472 
  3213.83720  -999.250000    71.355170 
  3213.98960  -999.250000    75.027154 
  3214.14200  -999.250000    75.797391 
  3214.29440  -999.250000    71.657332 
  3214.44680  -999.250000    63.567116 
  3214.59920  -999.250000    57.581455 
  3214.75160  -999.250000    53.889089 
  3214.90400  -999.250000    55.856431 
  3215.05640  -999.250000    60.397770 
  3215.20880  -999.250000    66.208739 
  3215.36120  -999.250000    67.018372 
  3215.51360  -999.250000    62.486604 
  3215.66600  -999.250000    57.973406 
  3215.81840  -999.250000    55.742550 
  3215.97080  -999.250000    55.637603 
  3216.12320  -999.250000    56.209128 
  3216.27560  -999.250000    57.333902 
  3216.42800  -999.250000    55.770722 
  3216.58040  -999.250000    53.325914 
  3216.73280  -999.250000    51.610332 
  3216.88520  -999.250000    51.534896 
  3217.03760  -999.250000    50.534100 
  3217.19000  -999.250000    49.499689 
  3217.34240  -999.250000    49.175701 
  3217.49480  -999.250000    52.512563 
  3217.64720  -999.250000    55.379785 
  3217.79960  -999.250000    55.991428 
  3217.95200  -999.250000    53.545688 
  3218.10440  -999.250000    49.688326 
  3218.25680  -999.250000    47.214746 
  3218.40920  -999.250000    45.039266 
  3218.56160  -999.250000    44.662437 
  3218.71400  -999.250000    44.931125 
  3218.86640  -999.250000    44.336706 
  3219.01880  -999.250000    43.381824 
  3219.17120  -999.250000    43.624218 
  3219.32360  -999.250000    48.839889 
  3219.47600  -999.250000    57.057046 
  3219.62840  -999.250000    61.062590 
  3219.78080  -999.250000    59.876512 
  3219.93320  -999.250000    55.354190 
  3220.08560  -999.250000    55.184174 
  3220.23800  -999.250000    56.773278 
  3220.39040  -999.250000    60.226230 
  3220.54280  -999.250000    65.816935 
  3220.69520  -999.250000    72.275523 
  3220.84760  -999.250000    72.916701 
  3221.00000  -999.250000    66.815558 
  3221.15240  -999.250000    60.315683 
  3221.30480  -999.250000    57.898572 
  3221.45720  -999.250000    59.151689 
  3221.60960  -999.250000    60.225754 
  3221.76200  -999.250000    63.308179 
  3221.91440  -999.250000    61.865699 
  3222.06680  -999.250000    57.839848 
