~Version Information Block
VERS .                 2.00:  CWLS LOG ASCII STANDARD - VERSION 2.00
WRAP .                   NO:  One line per depth step
~Well Information Block
#MNEM.UNIT        Data Type   Information
#---------- ----------------  -----------
STRT .M          3199.94280:  START DEPTH
STOP .M          3410.40720:  STOP DEPTH
STEP .M             0.15240:  STEP
NULL .              -999.25:  NULL VALUE
COMP .              Statoil:  COMPANY
WELL .          NO_15/9-F-4:  WELL
FLD  .                VOLVE:  FIELD
LOC  .            North Sea:  LOCATION
CTRY .                     :  COUNTRY
STAT .                     :  STATE
CNTY .                     :  COUNTY
SRVC .         Schlumberger:  SERVICE COMPANY
DATE .          13-Sep-2012:  DATE
API  .                     :  API NUMBER
UWI  .             15/9-F-4:  UNIQUE WELL ID
~Curve Information Block
#MNEM.UNIT         API CODE   Curve Description
#---------- ----------------  -----------------
DEPTH.M                    :  DEPTH (BOREHOLE)
CCLC .V                    :  CCL
CRRA .                     :  Near-Far Count Rate Ratio
CVEL .M/MIN                 :  Cable Velocity
FBEF .UA                   :  RST Far Effective Beam Current
FCOR .                     :  RST Far Carbon/Oxygen Ratio
FERD .                     :  RST Far IC Mode Capture Optimization Resolution Degradation Factor
FIRD .                     :  RST Far Inelastic Optimization Resolution Degradation Factor
GR   .GAPI                 :  Gamma Ray
NCOR .                     :  RST Near Carbon/Oxygen Ratio
NERD .                     :  RST Near IC Mode Capture Optimization Resolution Degradation Factor
NIRD .                     :  RST Near Inelastic Optimization Resolution Degradation Factor
RB_PCMS.DEG                  :  Relative Bearing
TENS .LBF                  :  Cable Tension
~Parameter Information Block
#MNEM.UNIT            Value   Description
#---------- ----------------  -----------
APD  .M                  54:  Elevation of Depth Reference (LMF) above Permanent Datum
RUN  .                    4:  RUN NUMBER
PROJECT.     SLEIPNER_OST@st-vlinapp01:  
SET  .        RSTD_0912_IC1:  
~Other Information Block
# 
~A       DEPTH           CCLC           CRRA           CVEL           FBEF           FCOR           FERD           FIRD             GR           NCOR           NERD           NIRD        RB_PCMS           TENS 
# ...
    3372.30720        -0.0217         2.9251      -0.494400       116.3282        -0.0071         4.9713         4.9713        31.7193       0.006100         2.1421         2.1421       356.6648      2297.3994
    3372.45960        -0.0250         2.9027      -0.496000       117.5094        -0.0420         4.9953         4.9953        32.4011      -0.023600         2.1671         2.1671       356.5435      2290.3247
    3372.61200        -0.0240         2.9280      -0.493100       118.0951        -0.0828         5.0013         5.0013        33.2023       0.018300         2.2254         2.2254       355.8206      2286.1282
    3372.76440         0.1031         2.9361      -0.492000       116.9277         0.0261         4.9728         4.9728        33.1942      -0.020100         2.2219         2.2219       355.9706      2281.9531
    3372.91680         0.1767         2.9125      -0.491800       117.0889         0.0245         4.8354         4.8354        33.2073       0.081800         2.2090         2.2090       356.2300      2282.9858
    3373.06920        -0.0186         2.9089      -0.489700       117.3420        -0.0728         4.7024         4.7024        33.4078      -0.018400         2.1729         2.1729       356.3999      2280.3464
    3373.22160         0.0480         2.9087      -0.494300       117.8625        -0.0244         4.6346         4.6346        33.0194       0.052800         2.1888         2.1888       356.3920      2274.1047
    3373.37400         0.0989         2.9242      -0.493500       117.5776        -0.0087         4.5869         4.5869        32.3026       0.011700         2.1933         2.1933       356.1965      2278.2114
    3373.52640        -0.0064         2.9084      -0.491400       117.3337         0.0192         4.5827         4.5827        31.3972      -0.000800         2.1399         2.1399       356.2620      2264.3669
    3373.67880         0.1175         2.9161      -0.495700       118.3389        -0.0024         4.5643         4.5643        30.4024      -0.017000         2.1503         2.1503       356.2306      2280.1777
    3373.83120        -0.0030         2.9388      -0.493000       118.4905         0.0282         4.5300         4.5300        29.4531       0.107000         2.1119         2.1119       356.1696      2278.8250
    3373.98360        -0.0076         2.9392      -0.499500       119.3568        -0.0583         4.5448         4.5448        28.3718       0.022100         2.0881         2.0881       356.0562      2286.8909
    3374.13600        -0.0120         2.9695      -0.493400       119.4133        -0.0833         4.6415         4.6415        27.6791       0.050100         2.1365         2.1365       356.0353      2276.5452
    3374.28840        -0.0159         2.9968      -0.496600       122.7621         0.0228         4.5715         4.5715        26.9383      -0.107700         2.1505         2.1505       355.9160      2282.1377
    3374.44080        -1.1040         3.1661      -0.492300       124.8517        -0.0687         4.6011         4.6011        27.0299      -0.008100         2.1202         2.1202       355.8556      2285.3154
    3374.59320         1.3959         3.1930      -0.491200       123.5289         0.0472         4.5914         4.5914        28.0596      -0.024700         2.0913         2.0913       355.8062      2287.7688
    3374.74560        -0.0074         3.0816      -0.494900       118.8652         0.1553         4.5839         4.5839        30.2605      -0.041200         2.1419         2.1419       355.7736      2280.1907
    3374.89800        -0.0115         2.9638      -0.493300       117.6472         0.0543         4.3986         4.3986        32.5527       0.066500         2.1426         2.1426       355.8771      2286.6179
    3375.05040        -0.0118         2.9241      -0.489300       117.6713        -0.0722         4.4736         4.4736        34.6310       0.040600         2.1971         2.1971       355.9544      2282.4177
    3375.20280        -0.0131         2.9201      -0.487400       117.9845         0.0629         4.3219         4.3219        35.8003       0.029800         2.2172         2.2172       355.9441      2273.2188
    3375.35520        -0.0074         2.9306      -0.492500       118.4875         0.0844         4.3165         4.3165        35.7791       0.020500         2.2495         2.2495       355.9293      2273.2732
    3375.50760         0.0004         2.9511      -0.493700       118.2920         0.0064         4.3362         4.3362        35.4966      -0.025500         2.2373         2.2373       355.9861      2298.9526
    3375.66000        -0.0062         2.9313      -0.493600       118.9909         0.0448         4.3533         4.3533        34.1673      -0.008100         2.2390         2.2390       356.2267      2282.5715
    3375.81240        -0.0062         2.9479      -0.495300       118.3652         0.0542         4.4548         4.4548        32.6740       0.076400         2.2852         2.2852       356.2040      2294.9167
    3375.96480        -0.0063         2.9316      -0.489900       118.1898        -0.0333         4.5316         4.5316        32.3292       0.079500         2.2494         2.2494       356.0992      2269.3765
    3376.11720        -0.0069         2.9428      -0.489200       118.2663        -0.0717         4.4574         4.4574        31.4918      -0.018900         2.2571         2.2571       356.0093      2291.0535
    3376.26960        -0.0104         2.9425      -0.486000       119.0895        -0.0296         4.3924         4.3924        30.9149       0.030800         2.2875         2.2875       356.0488      2287.4114
    3376.42200        -0.0102         2.9613      -0.487600       118.7132         0.0811         4.4781         4.4781        31.3294       0.036400         2.2381         2.2381       356.0151      2283.8794
    3376.57440        -0.0116         2.9458      -0.487700       118.0815         0.1006         4.4196         4.4196        31.7649       0.015300         2.2558         2.2558       355.9560      2284.2385
    3376.72680        -0.0127         2.9331      -0.493300       118.5723        -0.2148         4.4064         4.4064        32.3146       0.106000         2.2060         2.2060       355.8171      2287.2483
    3376.87920        -0.0028         2.9638      -0.491700       117.7482        -0.0374         4.5064         4.5064        33.4099       0.070900         2.1743         2.1743       355.7176      2288.1250
    3377.03160        -0.0673         2.9509      -0.491600       117.1697        -0.0665         4.5500         4.5500        33.4256       0.032600         2.1553         2.1553       355.7317      2281.7717
    3377.18400         0.0407         2.9247      -0.491100       115.9377         0.0004         4.5962         4.5962        32.6148       0.055900         2.1650         2.1650       355.6849      2292.3640
    3377.33640         0.0731         2.9080      -0.492500       115.0983        -0.1718         4.5897         4.5897        31.8465       0.048300         2.2035         2.2035       355.6752      2278.7979
    3377.48880         0.0394         2.9088      -0.489500       111.6825        -0.0545         4.5928         4.5928        29.9491       0.029700         2.1854         2.1854       355.6360      2295.6143
    3377.64120        -0.0060         2.8345      -0.489400       112.2185         0.0866         4.5588         4.5588        27.6386       0.061700         2.1722         2.1722       355.6896      2284.4270
    3377.79360        -0.0020         2.8539      -0.488700       112.9593        -0.1135         4.4986         4.4986        25.7039       0.025900         2.1511         2.1511       355.9237      2287.4072
    3377.94600        -0.0789         2.8375      -0.489900       113.0216        -0.0817         4.4284         4.4284        24.5155       0.038500         2.1423         2.1423       356.0360      2291.2080
    3378.09840         0.1988         2.8458      -0.489400       113.5207        -0.0186         4.5156         4.5156        23.9620      -0.043000         2.1597         2.1597       356.0593      2276.5410
