~Version Information Block
VERS .                 2.00:  CWLS LOG ASCII STANDARD - VERSION 2.00
WRAP .                   NO:  One line per depth step
~Well Information Block
#MNEM.UNIT        Data Type   Information
#---------- ----------------  -----------
STRT .M          3201.31440:  START DEPTH
STOP .M          3410.40720:  STOP DEPTH
STEP .M             0.15240:  STEP
NULL .              -999.25:  NULL VALUE
COMP .              Statoil:  COMPANY
WELL .          NO_15/9-F-4:  WELL
FLD  .                VOLVE:  FIELD
LOC  .            North Sea:  LOCATION
CTRY .                     :  COUNTRY
STAT .                     :  STATE
CNTY .                     :  COUNTY
SRVC .         Schlumberger:  SERVICE COMPANY
DATE .          13-Sep-2012:  DATE
API  .                     :  API NUMBER
UWI  .             15/9-F-4:  UNIQUE WELL ID
~Curve Information Block
#MNEM.UNIT         API CODE   Curve Description
#---------- ----------------  -----------------
DEPTH.M                    :  DEPTH (BOREHOLE)
CCLC .V                    :  CCL
CCLD .V                    :  CCL Discriminated Amplitude
CRRA .                     :  Near-Far Count Rate Ratio
CVEL .M/MIN                 :  Cable Velocity
DEVI .DEG                  :  Hole Deviation
FBEF .UA                   :  RST Far Effective Beam Current
FCOR .                     :  RST Far Carbon/Oxygen Ratio
FERD .                     :  RST Far IC Mode Capture Optimization Resolution Degradation Factor
FIRD .                     :  RST Far Inelastic Optimization Resolution Degradation Factor
GR   .GAPI                 :  Gamma Ray
NCOR .                     :  RST Near Carbon/Oxygen Ratio
NERD .                     :  RST Near IC Mode Capture Optimization Resolution Degradation Factor
NIRD .                     :  RST Near Inelastic Optimization Resolution Degradation Factor
RB_PCMS.DEG                  :  Relative Bearing
TENS .LBF                  :  Cable Tension
WPRE .PSI                  :  Well Pressure
WTEP .DEGC                 :  Well Temperature
WTPE .MS                   :  Well Temperature Period
~Parameter Information Block
#MNEM.UNIT            Value   Description
#---------- ----------------  -----------
APD  .M                  54:  Elevation of Depth Reference (LMF) above Permanent Datum
RUN  .                    1:  RUN NUMBER
PROJECT.     SLEIPNER_OST@st-vlinapp01:  
SET  .        RSTD_0912_IC2:  
~Other Information Block
# 
~A       DEPTH           CCLC           CCLD           CRRA           CVEL           DEVI           FBEF           FCOR           FERD           FIRD             GR           NCOR           NERD           NIRD        RB_PCMS           TENS           WPRE           WTEP           WTPE 
# ...
    3404.61600       -0.05750       -0.05750         2.8715       -0.44170        55.8649       111.4136        -0.0986         5.1818         5.1818        31.3801    -0.02850000         2.3333         2.3333       356.4969      2345.3074      5033.5649        68.0261         3.7769
    3404.76840       -0.05750       -0.05750         2.8785       -0.44420        55.8649       112.4063         0.0539         5.1775         5.1775        31.3801    -0.02750000         2.3339         2.3339       356.4969      2337.5793      5033.5649        68.0261         3.7769
    3404.92080       -0.05750       -0.05750         2.8733       -0.44640        55.8649       114.7283         0.0767         5.2202         5.2202        31.3801    -0.12989999         2.3137         2.3137       356.4969      2343.8601      5033.5649        68.0261         3.7769
    3405.07320       -0.05750       -0.05750         2.8951       -0.43850        55.8649       117.5201         0.0008         5.2671         5.2671        31.3801    -0.03060000         2.3203         2.3203       356.4969      2337.9392      5033.5649        68.0261         3.7769
    3405.22560       -0.05750       -0.05750         2.9591       -0.43500        55.8649       119.0724        -0.0844         5.2881         5.2881        31.3801    -0.03380000         2.3503         2.3503       356.4969      2339.0605      5033.5649        68.0261         3.7769
    3405.37800       -0.05750       -0.05750         2.9850       -0.44060        55.8649       119.4204        -0.0227         5.3644         5.3644        31.3801    -0.06550000         2.3519         2.3519       356.4969      2347.2258      5033.5649        68.0261         3.7769
    3405.53040       -0.05750       -0.05750         2.9985       -0.42810        55.8649       120.0608         0.0820         5.5003         5.5003        31.3801     0.01550000         2.3536         2.3536       356.4969      2342.2834      5033.5649        68.0261         3.7769
    3405.68280       -0.05750       -0.05750         3.0094       -0.43050        55.8649       120.1205        -0.0696         5.3658         5.3658        31.3801     0.00030000         2.3435         2.3435       356.4969      2348.0627      5033.5649        68.0261         3.7769
    3405.83520       -0.05750       -0.05750         3.0144       -0.43330        55.8649       118.3354         0.0771         5.4519         5.4519        31.3801    -0.02380000         2.3167         2.3167       356.4969      2341.7192      5033.5649        68.0261         3.7769
    3405.98760       -0.05750       -0.05750         2.9910       -0.42700        55.8649       118.2420        -0.0533         5.5623         5.5623        31.3801    -0.00260000         2.3359         2.3359       356.4969      2344.5562      5033.5649        68.0261         3.7769
    3406.14000       -0.05750       -0.05750         3.0037       -0.42470        55.8649       116.7219        -0.0190         5.6870         5.6870        31.3801     0.04720000         2.3239         2.3239       356.4969      2350.3005      5033.5649        68.0261         3.7769
    3406.29240       -0.05750       -0.05750         2.9844       -0.42810        55.8649       114.7589         0.0194         5.7420         5.7420        31.3801     0.03570000         2.3125         2.3125       356.4969      2346.2212      5033.5649        68.0261         3.7769
    3406.44480       -0.05750       -0.05750         2.9418       -0.42400        55.8649       113.3022     -3725.6060     -3741.2190     -3741.2190        31.3801    -0.07820000         2.2962         2.2962       356.4969      2345.0435      5033.5649        68.0261         3.7769
    3406.59720       -0.05750       -0.05750         2.9010       -0.42730        55.8649       113.3022      -999.2500      -999.2500      -999.2500        31.3801 -3725.17285156     -3731.6509     -3731.6509       356.4969      2346.0344      5033.5649        68.0261         3.7769
    3406.74960       -0.05750       -0.05750         2.9010       -0.41420        55.8649       113.3022      -999.2500      -999.2500      -999.2500        31.3801  -999.25000000      -999.2500      -999.2500       356.4969      2346.7463      5033.5649        68.0261         3.7769
    3406.90200       -0.05750       -0.05750         2.9010       -0.41790        55.8649       113.3022      -999.2500      -999.2500      -999.2500        31.3801  -999.25000000      -999.2500      -999.2500       356.4969      2345.7507      5033.5649        68.0261         3.7769
    3407.05440       -0.05750       -0.05750         2.9010       -0.41560        55.8649       113.3022      -999.2500      -999.2500      -999.2500        31.3801  -999.25000000      -999.2500      -999.2500       356.4969      2349.4316      5033.5649        68.0261         3.7769
    3407.20680       -0.05750       -0.05750         2.9010       -0.41230        55.8649       113.3022      -999.2500      -999.2500      -999.2500        31.3801  -999.25000000      -999.2500      -999.2500       356.4969      2338.7410      5033.5649        68.0261         3.7769
    3407.35920       -0.05750       -0.05750         2.9010       -0.41380        55.8649       113.3022      -999.2500      -999.2500      -999.2500        31.3801  -999.25000000      -999.2500      -999.2500       356.4969      2353.9939      5033.5649        68.0261         3.7769
    3407.51160       -0.05750       -0.05750         2.9010       -0.41510        55.8649       113.3022      -999.2500      -999.2500      -999.2500        31.3801  -999.25000000      -999.2500      -999.2500       356.4969      2347.2334      5033.5649        68.0261         3.7769
    3407.66400       -0.05750       -0.05750         2.9010       -0.40690        55.8649       113.3022      -999.2500      -999.2500      -999.2500        31.3801  -999.25000000      -999.2500      -999.2500       356.4969      2348.0356      5033.5649        68.0261         3.7769
    3407.81640       -0.05750       -0.05750         2.9010       -0.41270        55.8649       113.3022      -999.2500      -999.2500      -999.2500        31.3801  -999.25000000      -999.2500      -999.2500       356.4969      2340.8210      5033.5649        68.0261         3.7769
    3407.96880       -0.05750       -0.05750         2.9010       -0.41370        55.8649       113.3022      -999.2500      -999.2500      -999.2500        31.3801  -999.25000000      -999.2500      -999.2500       356.4969      2342.9275      5033.5649        68.0261         3.7769
    3408.12120       -0.05750       -0.05750         2.9010       -0.40800        55.8649       113.3022      -999.2500      -999.2500      -999.2500        31.3801  -999.25000000      -999.2500      -999.2500       356.4969      2340.6707      5033.5649        68.0261         3.7769
    3408.27360       -0.05750       -0.05750         2.9010       -0.41100        55.8649       113.3022      -999.2500      -999.2500      -999.2500        31.3801  -999.25000000      -999.2500      -999.2500       356.4969      2342.6067      5033.5649        68.0261         3.7769
    3408.42600       -0.05750       -0.05750         2.9010       -0.40460        55.8649       113.3022      -999.2500      -999.2500      -999.2500        31.3801  -999.25000000      -999.2500      -999.2500       356.4969      2352.9441      5033.5649        68.0261         3.7769
    3408.57840       -0.05750       -0.05750         2.9010       -0.39740        55.8649       113.3022      -999.2500      -999.2500      -999.2500        31.3801  -999.25000000      -999.2500      -999.2500       356.4969      2345.0408      5033.5649        68.0261         3.7769
    3408.73080       -0.05750       -0.05750         2.9010       -0.40020        55.8649       113.3022      -999.2500      -999.2500      -999.2500        31.3801  -999.25000000      -999.2500      -999.2500       356.4969      2348.0784      5033.5649        68.0261         3.7769
    3408.88320       -0.05750       -0.05750         2.9010       -0.40610        55.8649       113.3022      -999.2500      -999.2500      -999.2500        31.3801  -999.25000000      -999.2500      -999.2500       356.4969      2342.4246      5033.5649        68.0261         3.7769
