~Version Information Block
VERS .                 2.00:  CWLS LOG ASCII STANDARD - VERSION 2.00
WRAP .                  YES:  Multiple lines per depth step
~Well Information Block
#MNEM.UNIT        Data Type   Information
#---------- ----------------  -----------
STRT .M          3438.44880:  START DEPTH
STOP .M          3636.26400:  STOP DEPTH
STEP .M             0.15240:  STEP
NULL .              -999.25:  NULL VALUE
COMP .              Statoil:  COMPANY
WELL .          NO_15/9-F-5:  WELL
FLD  .                Volve:  FIELD
LOC  .                Volve:  LOCATION
CTRY .               Norway:  COUNTRY
STAT .                     :  STATE
CNTY .                     :  COUNTY
SRVC .         Schlumberger:  SERVICE COMPANY
DATE .           11/03/2015:  DATE
API  .                     :  API NUMBER
UWI  .             15/9-F-5:  UNIQUE WELL ID
LATI .     58° 26' 29.66" N:  LATITUDE
LONG .      1° 53' 14.99" E:  LONGITUDE
~Curve Information Block
#MNEM.UNIT         API CODE   Curve Description
#---------- ----------------  -----------------
DEPTH.M                    :  Depth Index
BSAL .PPM                  :  (RST-D)                 (6in)                   Borehole Salinity
CCLC .V                    :  (PSTP-B)                (1in)                   CCL Computed Amplitude
CIRF .                     :  (RST-D)                 (6in)                   Capture to Inelastic Rat
CIRN .                     :  (RST-D)                 (6in)                   Capture to Inelastic Rat
CVEL .M/SEC                 :  (WLWorkflow)            (1in)                   Cable Velocity
DSIG .CU                   :  (RST-D)                 (6in)                   Sigma Difference
FBEF .UA                   :  (RST-D)                 (6in)                   Far Effective Beam Curre
GR   .GAPI                 :  (PSTP-B)                (6in)                   Gamma Ray
IRAT .                     :  (RST-D)                 (6in)                   Inelastic Ratio
RB_PCMS.DEG                  :  (PCMS-A)                (6in)                   Relative Bearing
RSCF .                     :  (RST-D)                 (6in)                   Far Detector Effective U
RSCN .                     :  (RST-D)                 (6in)                   Near Detector Effective
SFFA .CU                   :  (RST-D)                 (6in)                   Sigma Formation Far Appa
SIBF .CU                   :  (RST-D)                 (6in)                   Sigma Borehole Fluid
SIGM .CU                   :  (RST-D)                 (6in)                   Formation Sigma (Neutron
TENS .LBF                  :  (WLWorkflow)            (1in)                   Cable Tension
TPHI .V/V                  :  (RST-D)                 (6in)                   Thermal Decay Porosity
WPRE .BAR                  :  (PSTP-B)                (6in)                   Well Pressure
WTEP .DEGC                 :  (PSTP-B)                (6in)                   Well Temperature
~Parameter Information Block
#MNEM.UNIT            Value   Description
#---------- ----------------  -----------
APD  .M                  54:  Elevation of Depth Reference (LMF) Above Permanent Datum
CLAB .              Country:  :County Label
ECF  .M             -999.25:  Elevation of Casing Flange above Permanent Datum
EDF  .M                  54:  Elevation of Drill Floor Above Permanent Datum
EGL  .M                 -91:  Elevation of Ground Level Above Permanent Datum
EKB  .M             -999.25:  Elevation of Kelly Bushing Above Permanent Datum
EPD  .M                   0:  Elevation of Permanent Datum (PDAT) above Mean Sea Level
FL1  .            North Sea:  Field Location Line 1
FL2  .     Norwegian Sector:  Field Location Line 2
LMF  .                   DF:  Logging Measured From
LUL  .                 NOBO:  Logging Unit Location
LUN  .          ONCC-A 3837:  Logging Unit Number
PDAT .                  MSL:  Local Permanent Datum
RIGN .      Maersk Inspirer:  Rig Name
RIGTYP.               Jackup:  Rig Type
SON  .           C2TQ-00038:  Service Order Number
TAPE_NAME.     RST_SIGMA__03Nov15_171237.las:  
TOOL_STRING.              UNKNOWN:  
WN   .             15/9-F-5:  WELL NAME
PROJECT.     SLEIPNER_OST@st-vlinapp01:  
SET  .       RSTD_1115_SIG1:  
~Other Information Block
~Ascii Log Data
# ...
    3541.31880 
    35641.4609        -0.0680         2.4770       0.764470     -0.0777278 
       -0.7819       106.4573        17.9924       0.320390       353.4455 
        8.2718         7.8711        16.2895        34.6009        14.5988 
     4007.3992       0.210170       364.9923        80.7662
    3541.47120 
    36208.8711         0.1204         2.4181       0.752570     -0.0779818 
       -0.7896       106.4632        19.2740       0.320850       353.2485 
        8.1415         7.8628        16.4754        34.8035        14.5029 
     3992.2000       0.212290       365.0074        80.7583
    3541.62360 
    35726.5703         0.0101         2.4694       0.792000     -0.0779858 
       -0.6925       106.9833        19.1578       0.318370       353.1953 
        8.2122         8.0201        16.0929        34.6312        14.3405 
     3990.5994       0.215330       365.0118        80.7552
    3541.77600 
    35776.0391         0.0206         2.6045       0.779800     -0.0767118 
       -0.6739       110.3830        19.5010       0.323800       353.2805 
        8.1537         7.7666        15.7916        34.6489        14.1941 
     3977.6008       0.213640       365.0242        80.7419
    3541.92840 
    35988.6094        -0.0695         2.4857       0.815700     -0.0782358 
       -0.4924       103.9841        17.4333       0.324550       353.2542 
        8.0953         7.9447        16.0322        34.7248        14.1258 
     3922.1990       0.213310       365.0330        80.7227
    3542.08080 
    35077.8828         0.0153         2.5275       0.789430     -0.0774738 
       -0.3628       104.8985        16.7689       0.323260       353.3619 
        8.3311         7.7342        15.8890        34.3998        14.1153 
     4028.4009       0.211010       365.0412        80.7123
    3542.23320 
    35344.6016         0.0708         2.6321       0.797270     -0.0762077 
       -0.2218       108.8386        16.4008       0.319210       353.2444 
        8.4580         7.8614        15.7577        34.4949        14.0803 
     4021.4004       0.212250       365.0551        80.7055
    3542.38560 
    35635.7109         0.0168         2.6254       0.810420     -0.0777278 
       -0.2566       109.8683        15.3157       0.315420       353.2341 
        8.2508         7.8516        15.9260        34.5988        14.0932 
     3952.1997       0.210840       365.0609        80.7027
    3542.53800 
    35771.3516         0.0112         2.5639       0.787310     -0.0772237 
       -0.2026       106.1411        15.2825       0.317900       353.2482 
        8.5266         8.0876        15.9282        34.6472        14.0582 
     3961.0010       0.210800       365.0741        80.6920
    3542.69040 
    36308.5273        -0.0365         2.5997       0.790270     -0.0774738 
       -0.2396       106.7126        17.0845       0.319770       353.2067 
        8.3414         7.7975        15.6502        34.8391        14.1398 
     4001.5991       0.206480       365.0794        80.6883
    3542.84280 
    36429.7305         0.0262         2.5343       0.783840     -0.0774700 
       -0.2843       107.3229        18.2471       0.321020       353.1475 
        8.3120         7.9545        16.1683        34.8824        14.0867 
     4041.3994       0.204730       365.0939        80.6938
    3542.99520 
    36703.5391         0.0602         2.5410       0.768380     -0.0774778 
       -0.3767       111.1667        19.8249       0.321270       353.1601 
        8.1143         7.8084        15.7659        34.9802        14.2788 
     4056.0007       0.202210       365.1002        80.6722
    3543.14760 
    36320.5781         0.0160         2.5328       0.777390     -0.0782320 
       -0.4578       111.5653        22.9030       0.318960       353.1432 
        7.8038         7.4059        16.2204        34.8434        14.3657 
     3940.5996       0.204920       365.1091        80.6587
    3543.30000 
    36673.8086        -0.0514         2.4960       0.760720     -0.0768398 
       -0.4210       109.2382        26.4544       0.319090       353.1200 
        7.9746         7.6770        16.4207        34.9696        14.4969 
     4024.2510       0.209490       365.1220        80.6421
    3543.45240 
    36545.9805        -0.0853         2.4577       0.771860     -0.0782398 
       -0.2818       105.2392        31.3705       0.317560       353.0923 
        8.0821         7.7921        16.1538        34.9239        14.6329 
     4035.5994       0.215390       365.1305        80.6271
    3543.60480 
    36683.7305        -0.0128         2.4552       0.770010     -0.0769658 
       -0.4044       109.8065        39.6664       0.315680       353.2338 
        7.9586         7.9376        16.6256        34.9731        14.7538 
     3951.3994       0.220280       365.1402        80.6129
    3543.75720 
    36733.0508         0.0562         2.4703       0.757940     -0.0779858 
       -0.3416       111.9238        50.9601       0.315730       353.3892 
        8.0332         8.1231        16.7793        34.9908        15.0809 
     3931.2002       0.219960       365.1476        80.6121
    3543.90960 
    37283.2891        -0.0264         2.4429       0.780570     -0.0779780 
       -0.4017       109.0755        65.3014       0.312000       353.3136 
        7.6218         7.4204        17.1337        35.1875        15.1294 
     4022.4009       0.218100       365.1583        80.5993
    3544.06200 
    37185.7188        -0.0430         2.5176       0.743990     -0.0771573 
       -0.3551       110.7592        74.1232       0.313060       353.2847 
        7.8893         7.5907        16.7684        35.1526        15.0496 
     3955.2502       0.214550       365.1667        80.5980
    3544.21440 
    36720.2930         0.0008         2.5355       0.770290     -0.0774738 
       -0.3468       107.5267        80.1022       0.310660       353.4347 
        8.0687         7.6018        16.5379        34.9862        14.9929 
     3996.1992       0.212820       365.1733        80.5926
    3544.36680 
    37318.0000        -0.0519         2.4476       0.752850     -0.0769658 
       -0.2694       112.8941        80.5258       0.313260       353.6114 
        7.5227         7.3631        16.9615        35.1999        14.9871 
     3953.0000       0.212710       365.1888        80.5841
    3544.51920 
    37134.9922        -0.0146         2.4588       0.748330     -0.0781098 
       -0.2374       110.9775        79.1971       0.315640       353.5780 
        7.5862         7.1579        16.7490        35.1345        15.0927 
     4022.0005       0.212250       365.1928        80.5688
    3544.67160 
    36626.6602         0.0238         2.4272       0.761140     -0.0779780 
       -0.2389       110.4479        77.3951       0.319610       353.5604 
        7.4474         7.0787        16.8552        34.9528        15.1526 
     4066.2002       0.210860       365.2067        80.5228
    3544.82400 
    36039.4883        -0.0253         2.3545       0.741030     -0.0769658 
        0.0231       108.5385        81.8845       0.320190       353.6362 
        7.4031         7.2483        17.1417        34.7430        15.2884 
     3956.9993       0.206220       365.2122        80.4513
    3544.97640 
    36549.2773        -0.0397         2.3606       0.727780     -0.0772160 
       -0.0248       107.1757        84.5419       0.318160       353.5576 
        7.6969         7.5783        17.1612        34.9251        15.2523 
     3998.0000       0.200200       365.2266        80.4475
    3545.12880 
    36653.8711         0.0571         2.4607       0.726160     -0.0774798 
       -0.1250       108.3529        85.3197       0.318730       353.3293 
        7.9396         7.3963        16.7492        34.9625        15.0441 
     4028.4998       0.195560       365.2350        80.4520
    3545.28120 
    36608.1992        -0.0007         2.4425       0.737690     -0.0779820 
       -0.1273       106.4093        79.2576       0.324710       353.2958 
        8.0517         7.4776        16.5116        34.9462        14.9633 
     4001.1990       0.190940       365.2392        80.4399
