~Version Information Block
VERS .                 2.00:  CWLS LOG ASCII STANDARD - VERSION 2.00
WRAP .                   NO:  One line per depth step
~Well Information Block
#MNEM.UNIT        Data Type   Information
#---------- ----------------  -----------
STRT .M          3445.61160:  START DEPTH
STOP .M          3638.55000:  STOP DEPTH
STEP .M             0.15240:  STEP
NULL .              -999.25:  NULL VALUE
COMP .              Statoil:  COMPANY
WELL .          NO_15/9-F-5:  WELL
FLD  .                VOLVE:  FIELD
LOC  .            North Sea:  LOCATION
CTRY .                     :  COUNTRY
STAT .                     :  STATE
CNTY .                     :  COUNTY
SRVC .         Schlumberger:  SERVICE COMPANY
DATE .          16-Sep-2012:  DATE
API  .                     :  API NUMBER
UWI  .             15/9-F-5:  UNIQUE WELL ID
~Curve Information Block
#MNEM.UNIT         API CODE   Curve Description
#---------- ----------------  -----------------
DEPTH.M                    :  DEPTH (BOREHOLE)
CCLC .V                    :  CCL
CCLD .V                    :  CCL Discriminated Amplitude
CRRA .                     :  Near-Far Count Rate Ratio
CS   .F/MN                 :  Cable Speed
CVEL .M/MIN                 :  Cable Velocity
DEVI .DEG                  :  Hole Deviation
FBEF .UA                   :  RST Far Effective Beam Current
FCOR .                     :  RST Far Carbon/Oxygen Ratio
FERD .                     :  RST Far IC Mode Capture Optimization Resolution Degradation Factor
FIRD .                     :  RST Far Inelastic Optimization Resolution Degradation Factor
GR   .GAPI                 :  Gamma Ray
NCOR .                     :  RST Near Carbon/Oxygen Ratio
NERD .                     :  RST Near IC Mode Capture Optimization Resolution Degradation Factor
NIRD .                     :  RST Near Inelastic Optimization Resolution Degradation Factor
RB_PCMS.DEG                  :  Relative Bearing
TENS .LBF                  :  Cable Tension
WPRE .PSI                  :  Well Pressure
WTEP .DEGC                 :  Well Temperature
~Parameter Information Block
#MNEM.UNIT            Value   Description
#---------- ----------------  -----------
APD  .M           54.900002:  Elevation of Depth Reference (LMF) above Permanent Datum
RUN  .                Run 1:  RUN NUMBER
PROJECT.     SLEIPNER_OST@st-vlinapp01:  
SET  .        RSTD_0912_IC2:  
~Other Information Block
# 
~A       DEPTH           CCLC           CCLD           CRRA             CS           CVEL           DEVI           FBEF           FCOR           FERD           FIRD             GR           NCOR           NERD           NIRD        RB_PCMS           TENS           WPRE           WTEP 
# ...
    3507.48600         0.0497         0.0000         2.8627         1.4370      -0.436300        49.6384       111.1871     0.00030000         5.6233         5.6233        33.3010     0.08770000         2.6627         2.6627         8.3451      2803.9048      5041.3960        94.6845
    3507.63840        -0.0522         0.0000         2.8476         1.4226      -0.434600        49.6559       110.8701     0.02720000         5.6428         5.6428        33.4553    -0.01800000         2.6626         2.6626         8.2690      2806.7878      5041.5386        94.6668
    3507.79080         0.0156         0.0000         2.8537         1.4196      -0.436500        49.6655       111.5008     0.17910001         5.6652         5.6652        33.6078     0.05060000         2.6965         2.6965         8.1955      2813.3789      5041.6763        94.6387
    3507.94320        -0.0116         0.0000         2.8636         1.4455      -0.437000        49.6776       110.9200     0.06120000         5.6963         5.6963        34.2169     0.04130000         2.6702         2.6702         8.1779      2810.3323      5041.8335        94.6295
    3508.09560        -0.0020         0.0000         2.8464         1.4560      -0.439600        49.6894       111.4252     0.16540000         5.7073         5.7073        33.7836     0.05560000         2.6011         2.6011         8.0960      2808.6421      5041.9707        94.5995
    3508.24800        -0.0313         0.0000         2.8638         1.4603      -0.439100        49.7062       111.1436     0.04580000         5.7215         5.7215        34.2111     0.01250000         2.6231         2.6231         8.0529      2804.9839      5042.1157        94.5892
    3508.40040         0.0914         0.0000         2.8545         1.4229      -0.437800        49.7041       111.2235     0.15950000         5.7690         5.7690        33.9794     0.00650000         2.6374         2.6374         7.7702      2806.5576      5042.2300        94.5696
    3508.55280        -0.0111         0.0000         2.8662         1.4196      -0.431700        49.7260       110.9907     0.14030001         5.8259         5.8259        33.9611    -0.00690000         2.6380         2.6380         7.6900      2805.5630      5042.3901        94.5621
    3508.70520         0.0067         0.0000         2.8561         1.4196      -0.434400        49.7281       111.8564     0.13140000         5.8133         5.8133        33.2789    -0.02070000         2.6479         2.6479         7.6861      2820.8223      5042.5039        94.5365
    3508.85760        -0.0141         0.0000         2.8747         1.4275      -0.434400        49.7556       112.1089     0.01770000         5.8392         5.8392        33.9265    -0.04290000         2.6374         2.6374         7.7470      2801.4780      5042.6494        94.5264
    3509.01000         0.0453         0.0000         2.8878         1.4341      -0.437200        49.7793       112.1591     0.03430000         5.7543         5.7543        34.8839     0.03990000         2.6382         2.6382         7.7824      2802.0000      5042.7808        94.4981
    3509.16240        -0.0084         0.0000         2.8985         1.4383      -0.435500        49.7957       112.6580     0.10270000         5.5975         5.5975        36.0254    -0.03460000         2.5823         2.5823         7.8292      2801.1689      5042.9360        94.4833
    3509.31480        -0.0192         0.0000         2.9018         1.4226      -0.430800        49.8010       112.0960     0.06110000         5.7292         5.7292        37.5124    -0.05180000         2.6335         2.6335         8.0067      2810.3994      5043.0547        94.4548
    3509.46720        -0.0075         0.0000         2.8919         1.3930      -0.427300        49.8082       112.8186     0.18490000         5.6869         5.6869        39.5497    -0.06940000         2.6306         2.6306         8.0768      2795.7236      5043.2290        94.4438
    3509.61960        -0.0220         0.0000         2.8920         1.4147      -0.430100        49.8253       112.6272     0.05510000         5.6200         5.6200        41.9911     0.04490000         2.6000         2.6000         8.1254      2797.2854      5043.3521        94.4260
    3509.77200         0.0368         0.0000         2.9178         1.4052      -0.429600        49.8291       114.1210     0.02620000         5.6358         5.6358        45.6816     0.00190000         2.6113         2.6113         8.3458      2808.4609      5043.4990        94.3989
    3509.92440        -0.0079         0.0000         2.9634         1.4150      -0.430700        49.8328       114.2933     0.11540000         5.7874         5.7874        48.5635    -0.03350000         2.6704         2.6704         8.2465      2800.3838      5043.6553        94.3817
    3510.07680        -0.0448         0.0000         2.9825         1.4101      -0.427600        49.8600       115.1197     0.00130000         5.9446         5.9446        51.3367     0.05310000         2.6167         2.6167         8.2210      2817.9316      5043.7983        94.3541
    3510.22920         0.0519         0.0000         3.0018         1.3934      -0.422900        49.8905       115.3029     0.04440000         5.9634         5.9634        53.5760    -0.03960000         2.6200         2.6200         8.1492      2808.7957      5043.9292        94.3383
    3510.38160        -0.0111         0.0000         3.0091         1.3960      -0.424400        49.9074       115.0906    -0.04570000         5.9959         5.9959        54.7057     0.02620000         2.6423         2.6423         8.0059      2816.8518      5044.0659        94.3218
    3510.53400        -0.0071         0.0000         3.0003         1.3934      -0.427200        49.9321       113.9302     0.07730000         5.8744         5.8744        55.0581    -0.09410000         2.7016         2.7016         8.0630      2814.4922      5044.1987        94.3015
    3510.68640        -0.0114         0.0000         2.9821         1.4147      -0.428800        49.9332       113.3165     0.04140000         5.7526         5.7526        55.6817    -0.01130000         2.7064         2.7064         8.0558      2807.9094      5044.3218        94.2870
    3510.83880         0.1084         0.0000         2.9610         1.4009      -0.427700        49.9473       113.7449     0.10190000         5.6293         5.6293        55.7018    -0.00280000         2.7320         2.7320         8.0275      2805.6824      5044.4722        94.2711
    3510.99120         0.1272         0.0000         2.9752         1.4117      -0.426500        49.9612       114.1583    -0.03810000         5.6408         5.6408        55.4994     0.04370000         2.7487         2.7487         8.0914      2801.5078      5044.6138        94.2475
    3511.14360        -0.1396         0.0000         2.9886         1.4052      -0.427700        49.9501       112.1118     0.04190000         5.5416         5.5416        55.2300    -0.06850000         2.7643         2.7643         8.2072      2809.7197      5044.7744        94.2283
    3511.29600        -0.0066         0.0000         2.9238         1.4150      -0.429400        49.9617       111.9556     0.02770000         5.5488         5.5488        54.1611     0.03140000         2.8018         2.8018         8.1341      2806.1255      5044.9116        94.2132
    3511.44840         0.0240         0.0000         2.9060         1.4199      -0.430500        49.9668       113.5041    -0.04930000         5.3203         5.3203        53.2207    -0.02510000         2.7502         2.7502         8.0849      2802.2642      5045.0322        94.1992
    3511.60080         0.0799         0.0000         2.9579         1.4150      -0.431900        49.9768       113.0818    -0.03830000         5.2217         5.2217        52.5128    -0.01060000         2.7055         2.7055         8.1155      2818.3870      5045.1621        94.1771
    3511.75320        -0.0114         0.0000         2.9400         1.4117      -0.427300        49.9836       112.7064    -0.17800000         5.3178         5.3178        52.2013    -0.06150000         2.7380         2.7380         8.1376      2811.6250      5045.3027        94.1523
