~Version Information Block
VERS .                 2.00:  CWLS LOG ASCII STANDARD - VERSION 2.00
WRAP .                  YES:  Multiple lines per depth step
~Well Information Block
#MNEM.UNIT        Data Type   Information
#---------- ----------------  -----------
STRT .M          3438.44880:  START DEPTH
STOP .M          3636.26400:  STOP DEPTH
STEP .M             0.15240:  STEP
NULL .              -999.25:  NULL VALUE
COMP .              Statoil:  COMPANY
WELL .          NO_15/9-F-5:  WELL
FLD  .                Volve:  FIELD
LOC  .                Volve:  LOCATION
CTRY .               Norway:  COUNTRY
STAT .                     :  STATE
CNTY .                     :  COUNTY
SRVC .         Schlumberger:  SERVICE COMPANY
DATE .           11/03/2015:  DATE
API  .                     :  API NUMBER
UWI  .             15/9-F-5:  UNIQUE WELL ID
LATI .     58° 26' 29.66" N:  LATITUDE
LONG .      1° 53' 14.99" E:  LONGITUDE
~Curve Information Block
#MNEM.UNIT         API CODE   Curve Description
#---------- ----------------  -----------------
DEPTH.M                    :  Depth Index
BSAL .PPM                  :  (RST-D)                 (6in)                   Borehole Salinity
CCLC .V                    :  (PSTP-B)                (1in)                   CCL Computed Amplitude
CIRF .                     :  (RST-D)                 (6in)                   Capture to Inelastic Rat
CIRN .                     :  (RST-D)                 (6in)                   Capture to Inelastic Rat
CVEL .M/SEC                 :  (WLWorkflow)            (1in)                   Cable Velocity
DSIG .CU                   :  (RST-D)                 (6in)                   Sigma Difference
FBEF .UA                   :  (RST-D)                 (6in)                   Far Effective Beam Curre
GR   .GAPI                 :  (PSTP-B)                (6in)                   Gamma Ray
IRAT .                     :  (RST-D)                 (6in)                   Inelastic Ratio
RB_PCMS.DEG                  :  (PCMS-A)                (6in)                   Relative Bearing
RSCF .                     :  (RST-D)                 (6in)                   Far Detector Effective U
RSCN .                     :  (RST-D)                 (6in)                   Near Detector Effective
SFFA .CU                   :  (RST-D)                 (6in)                   Sigma Formation Far Appa
SIBF .CU                   :  (RST-D)                 (6in)                   Sigma Borehole Fluid
SIGM .CU                   :  (RST-D)                 (6in)                   Formation Sigma (Neutron
TENS .LBF                  :  (WLWorkflow)            (1in)                   Cable Tension
TPHI .V/V                  :  (RST-D)                 (6in)                   Thermal Decay Porosity
WPRE .BAR                  :  (PSTP-B)                (6in)                   Well Pressure
WTEP .DEGC                 :  (PSTP-B)                (6in)                   Well Temperature
~Parameter Information Block
#MNEM.UNIT            Value   Description
#---------- ----------------  -----------
APD  .M                  54:  Elevation of Depth Reference (LMF) Above Permanent Datum
CLAB .              Country:  :County Label
ECF  .M             -999.25:  Elevation of Casing Flange above Permanent Datum
EDF  .M                  54:  Elevation of Drill Floor Above Permanent Datum
EGL  .M                 -91:  Elevation of Ground Level Above Permanent Datum
EKB  .M             -999.25:  Elevation of Kelly Bushing Above Permanent Datum
EPD  .M                   0:  Elevation of Permanent Datum (PDAT) above Mean Sea Level
FL1  .            North Sea:  Field Location Line 1
FL2  .     Norwegian Sector:  Field Location Line 2
LMF  .                   DF:  Logging Measured From
LUL  .                 NOBO:  Logging Unit Location
LUN  .          ONCC-A 3837:  Logging Unit Number
PDAT .                  MSL:  Local Permanent Datum
RIGN .      Maersk Inspirer:  Rig Name
RIGTYP.               Jackup:  Rig Type
SON  .           C2TQ-00038:  Service Order Number
TAPE_NAME.     RST_SIGMA__03Nov15_171237.las:  
TOOL_STRING.              UNKNOWN:  
WN   .             15/9-F-5:  WELL NAME
PROJECT.     SLEIPNER_OST@st-vlinapp01:  
SET  .       RSTD_1115_SIG1:  
~Other Information Block
~Ascii Log Data
# ...
    3553.66320 
    37417.5664         0.0467         2.4380       0.743300     -0.0755713 
       -0.0222       104.6706        30.8396       0.324720       353.1398 
        8.0484         7.3155        16.4661        35.2355        14.9781 
     4043.8340       0.195600       365.7721        79.3920
    3553.81560 
    37515.7500         0.0552         2.3951       0.712430     -0.0746798 
       -0.1607       104.4101        31.6977       0.320820       353.0571 
        8.2006         7.6013        16.8214        35.2707        15.2804 
     3964.8003       0.195080       365.7851        79.3811
    3553.96800 
    37684.1797         0.0038         2.3331       0.720640     -0.0751915 
       -0.1072       107.2130        33.3585       0.319160       352.8669 
        7.6907         7.2885        17.7996        35.3309        15.8300 
     4008.3997       0.197700       365.7836        79.3746
    3554.12040 
    37412.6523         0.0790         2.2912       0.707680     -0.0756882 
       -0.1623       108.5454        35.4890       0.321820       352.7329 
        7.5044         7.2889        18.0924        35.2338        16.2687 
     3991.7998       0.202310       365.7977        79.3407
    3554.27280 
    38414.1680         0.0025         2.2332       0.721130     -0.0739215 
       -0.3386       107.8999        38.3622       0.322230       352.6693 
        7.2611         7.2290        18.1299        35.5923        16.5088 
     4014.5999       0.209530       365.8046        79.3179
    3554.42520 
    39440.5586        -0.0206         2.1985       0.692340     -0.0746835 
       -0.1669       108.4107        40.5213       0.322080       352.8458 
        7.3078         7.3569        18.5089        35.9601        16.7164 
     3987.6003       0.212500       365.8167        79.2999
    3554.57760 
    39462.7422        -0.0379         2.1614       0.692070     -0.0741680 
       -0.1611       104.8609        38.4619       0.319980       353.0490 
        7.0153         6.7846        18.7117        35.9681        16.8543 
     3984.7993       0.212550       365.8259        79.2843
    3554.73000 
    38861.5781         0.0067         2.2230       0.696480     -0.0756995 
       -0.2382       108.4749        36.3332       0.321700       353.1332 
        7.1941         6.9612        18.5356        35.7525        16.4668 
     3988.6008       0.213960       365.8340        79.2646
    3554.88240 
    39243.2773         0.0359         2.2269       0.700290     -0.0736673 
       -0.1740       112.0831        35.3568       0.323520       353.0482 
        6.9834         6.9674        17.3404        35.8894        16.3981 
     4082.8003       0.213510       365.8469        79.2552
    3555.03480 
    39132.3008        -0.0240         2.1841       0.717770     -0.0749338 
       -0.0975       102.2513        34.4571       0.323700       352.9941 
        7.5659         7.2945        18.5078        35.8496        16.0325 
     4018.7993       0.217980       365.8491        79.2546
    3555.18720 
    39135.2617        -0.0444         2.3113       0.719010     -0.0745098 
       -0.1876       105.1834        32.2261       0.325640       352.8940 
        7.5338         7.2472        17.4377        35.8506        16.2193 
     3964.4990       0.216130       365.8695        79.2253
    3555.33960 
    39547.4570         0.0262         2.2069       0.721960     -0.0746797 
       -0.0408       106.6095        33.3416       0.325280       352.7964 
        7.1010         7.0614        17.9056        35.9984        15.9369 
     4083.8005       0.221190       365.8677        79.2018
    3555.49200 
    39843.3906        -0.0004         2.2365       0.717900     -0.0745097 
        0.1646       103.2594        34.2619       0.325260       352.7112 
        7.6809         7.3107        17.6679        36.1046        15.9114 
     3991.1658       0.222850       365.8824        79.1890
    3555.64440 
    39747.3281        -0.0375         2.2290       0.725020     -0.0739178 
        0.2479       105.2994        35.1584       0.322990       352.7258 
        7.5670         7.4874        17.3724        36.0701        15.8517 
     3998.4001       0.227470       365.8992        79.1583
    3555.79680 
    39931.8398         0.0057         2.2133       0.705720     -0.0749338 
        0.2188       109.1587        33.6138       0.323460       352.8691 
        6.9560         6.7731        17.7371        36.1363        15.6887 
     3929.7998       0.225960       365.8929        79.1227
    3555.94920 
    40595.8711         0.0119         2.2687       0.743590     -0.0736600 
        0.3229       105.4129        35.3301       0.323370       352.9453 
        7.3762         7.3950        17.1850        36.3747        15.5019 
     3968.9998       0.222120       365.9168        79.1013
    3556.10160 
    40541.8711         0.0158         2.3463       0.721050     -0.0749375 
        0.2234       106.7824        35.9307       0.321070       353.0381 
        7.7831         7.4445        16.8188        36.3553        15.0702 
     4024.7996       0.214120       365.9188        79.0875
    3556.25400 
    40421.3203        -0.0267         2.4689       0.739880     -0.0749338 
        0.1250       107.9607        34.5814       0.320200       353.1396 
        7.9623         7.4045        16.4426        36.3120        14.8842 
     4006.5989       0.205580       365.9281        79.0721
    3556.40640 
    39811.7773        -0.1108         2.4409       0.742750     -0.0739177 
        0.0878       108.5433        33.2085       0.322800       353.1972 
        8.0426         7.6089        16.6294        36.0933        14.7756 
     3974.3997       0.198900       365.9433        79.0552
    3556.55880 
    39102.7891        -0.0289         2.3961       0.732300     -0.0749300 
        0.1174       107.7789        33.2943       0.320720       353.2562 
        7.8403         7.4524        16.4975        35.8390        14.9148 
     4002.1995       0.197010       365.9444        79.0341
    3556.71120 
    39548.1914         0.0616         2.4808       0.731830     -0.0736673 
        0.0913       107.8364        33.4659       0.318070       353.3966 
        8.1827         7.7882        16.8656        35.9987        15.0551 
     4062.7988       0.199410       365.9662        79.0221
    3556.86360 
    39133.0898        -0.0327         2.4400       0.740450     -0.0744220 
        0.2178       109.8413        32.1787       0.315370       353.3776 
        7.8416         7.4679        17.0536        35.8499        15.2692 
     4021.2002       0.202930       365.9598        78.9982
    3557.01600 
    38633.7695        -0.0932         2.3964       0.738100     -0.0751878 
        0.1761       108.8765        33.8230       0.317810       353.1667 
        7.7078         7.4214        17.1442        35.6709        15.2430 
     4018.7993       0.206060       365.9865        78.9809
    3557.16840 
    38840.5977        -0.0246         2.4377       0.750410     -0.0752475 
        0.1303       110.1236        35.3676       0.318170       353.0559 
        7.8231         7.4352        16.7909        35.7450        14.9119 
     3943.7490       0.207440       365.9926        78.9630
    3557.32080 
    38313.4375        -0.0048         2.4118       0.731370     -0.0756920 
        0.0799       109.1142        35.4534       0.317850       352.9671 
        7.7225         7.4053        16.0598        35.5562        14.8624 
     4005.4006       0.205800       365.9870        78.9758
    3557.47320 
    38616.8906        -0.0776         2.4373       0.731600     -0.0754418 
        0.2978       109.8424        35.7108       0.316700       352.6073 
        7.5690         7.2520        16.9931        35.6649        14.6469 
     4003.8000       0.205730       366.0207        78.9500
    3557.62560 
    38403.2227         0.0052         2.4349       0.739460     -0.0762038 
        0.4659       110.4814        37.5986       0.318440       352.6946 
        7.7490         7.4519        16.1408        35.5883        14.8004 
     3939.5991       0.204920       366.0161        78.9397
