~Version Information Block
VERS .                 2.00:  CWLS LOG ASCII STANDARD - VERSION 2.00
WRAP .                  YES:  Multiple lines per depth step
~Well Information Block
#MNEM.UNIT        Data Type   Information
#---------- ----------------  -----------
STRT .M          3437.38200:  START DEPTH
STOP .M          3636.11160:  STOP DEPTH
STEP .M             0.15240:  STEP
NULL .              -999.25:  NULL VALUE
COMP .                     :  COMPANY
WELL .          NO_15/9-F-5:  WELL
FLD  .                     :  FIELD
LOC  .                     :  LOCATION
CTRY .                     :  COUNTRY
STAT .                     :  STATE
CNTY .                     :  COUNTY
SRVC .                     :  SERVICE COMPANY
DATE .                     :  DATE
API  .                     :  API NUMBER
UWI  .                     :  UNIQUE WELL ID
~Curve Information Block
#MNEM.UNIT         API CODE   Curve Description
#---------- ----------------  -----------------
DEPTH.M                    :  
BSAL .PPM                  :  (RST-D)                 (6in)                   Borehole Salinity Depths
CCLC .V                    :  (PSTP-B)                (1in)                   CCL Computed Amplitude D
CIRF .                     :  (RST-D)                 (6in)                   Capture to Inelastic Rat
CIRN .                     :  (RST-D)                 (6in)                   Capture to Inelastic Rat
CVEL .M/SEC                 :  (WLWorkflow)            (1in)                   Cable Velocity Depthshif
DSIG .CU                   :  (RST-D)                 (6in)                   Sigma Difference Depthsh
DSIG21.                     :  SIGM_1 -RSTD_0912_OW.SAT201SI_SIGR_1
FBEF .UA                   :  (RST-D)                 (6in)                   Far Effective Beam Curre
GR   .GAPI                 :  (PSTP-B)                (6in)                   Gamma Ray Depthshifted
IRAT .                     :  (RST-D)                 (6in)                   Inelastic Ratio Depthshi
RB_PCMS.DEG                  :  (PCMS-A)                (6in)                   Relative Bearing Depthsh
RSCF .                     :  (RST-D)                 (6in)                   Far Detector Effective U
RSCN .                     :  (RST-D)                 (6in)                   Near Detector Effective
SFFA .CU                   :  (RST-D)                 (6in)                   Sigma Formation Far Appa
SIBF .CU                   :  (RST-D)                 (6in)                   Sigma Borehole Fluid Dep
SIGM .CU                   :  (RST-D)                 (6in)                   Formation Sigma (Neutron
TENS .LBF                  :  (WLWorkflow)            (1in)                   Cable Tension Depthshift
TPHI .V/V                  :  (RST-D)                 (6in)                   Thermal Decay Porosity D
WPRE .BAR                  :  (PSTP-B)                (6in)                   Well Pressure Depthshift
WTEP .DEGC                 :  (PSTP-B)                (6in)                   Well Temperature Depthsh
~Parameter Information Block
#MNEM.UNIT            Value   Description
#---------- ----------------  -----------
PROJECT.     SLEIPNER_OST@st-vlinapp01:  
SET  .     RSTD_1115_SIG1_DS:  
~Other Information Block
~Ascii Log Data
# ...
    3492.85560 
    42466.6211        -0.0340         1.2350       0.468003     -0.0770031 
        4.7092         0.8265       108.5027        39.9748       0.312809 
      353.4185         3.8118         4.5798        28.6214        37.0472 
       25.1747      3796.6548       0.266600       361.9686        83.2297
    3493.00800 
    43001.7070        -0.0261         1.2333       0.438799     -0.0776746 
        5.0145         0.8779       104.8064        37.5480       0.315602 
      353.4585         3.9860         4.3191        26.8214        37.2398 
       24.7528      3957.0613       0.237964       361.9804        83.2210
    3493.16040 
    42852.8867        -0.0660         1.4356       0.461255     -0.0769059 
        5.2460         0.3767       103.3360        35.4175       0.318291 
      353.4853         4.8361         4.7664        25.0094        37.1862 
       22.8159      3984.3022       0.210208       361.9959        83.2144
    3493.31280 
    42921.9219         0.0001         1.6302       0.519270     -0.0771937 
        5.2057         0.3050       103.3833        31.1489       0.322959 
      353.6537         5.5007         5.5239        22.7389        37.2111 
       21.0710      3966.0588       0.186202       362.0003        83.1949
    3493.46520 
    42818.5156         0.0285         1.6984       0.518638     -0.0774496 
        5.0051         0.0398        97.9345        27.4599       0.326798 
      353.8074         5.9414         5.3605        21.4951        37.1739 
       19.5388      3991.5505       0.169865       362.0085        83.1707
    3493.61760 
    43005.9180         0.0298         1.7982       0.529673     -0.0774735 
        4.3006        -0.0977        97.7743        26.2671       0.331054 
      353.8951         6.3282         5.5086        20.3037        37.2413 
       18.6912      4033.8093       0.160671       362.0233        83.1675
    3493.77000 
    43122.9688        -0.0157         1.8199       0.550456     -0.0774704 
        3.8657        -0.2703        96.2537        24.8321       0.334429 
      353.8496         6.7220         5.9577        20.0740        37.2835 
       17.9887      4063.0488       0.159638       362.0307        83.1643
    3493.92240 
    43529.1055        -0.0140         1.8875       0.580684     -0.0766170 
        3.2854         0.0608        99.1607        23.5552       0.336159 
      353.7136         6.7183         6.1549        19.2392        37.4298 
       17.9295      4007.1565       0.161076       362.0426        83.1479
    3494.07480 
    44223.5703         0.0400         1.9109       0.579058     -0.0778337 
        2.3694         0.1184        97.4423        23.3551       0.336832 
      353.6058         6.9682         6.2475        19.9605        37.6802 
       17.8349      3885.3691       0.166246       362.0522        83.1282
    3494.22720 
    44726.9961         0.0146         1.9058       0.584170     -0.0779079 
        1.6601         0.3839        97.8324        24.6989       0.333771 
      353.5530         6.8497         6.3588        19.6609        37.8618 
       18.1338      3975.7441       0.173451       362.0635        83.1170
    3494.37960 
    45435.9609         0.0148         1.8937       0.584151     -0.0768365 
        1.0481         0.1586        94.8008        24.5570       0.336122 
      353.6894         7.0669         6.3980        20.0419        38.1177 
       18.1468      3930.1484       0.187103       362.0749        83.1058
    3494.53200 
    46263.6484        -0.0567         1.8119       0.605481     -0.0770145 
        0.5992         0.0228        92.8321        24.0112       0.330767 
      353.6765         6.8226         6.3485        19.9143        38.4168 
       18.3564      3866.0405       0.200489       362.0824        83.0919
    3494.68440 
    46711.2969        -0.0263         1.8990       0.597361     -0.0772040 
        0.2790        -0.0666       103.2205        23.7900       0.327637 
      353.7510         6.3748         6.0832        20.2396        38.5787 
       18.6056      3819.3840       0.207301       362.0928        83.0849
    3494.83680 
    47186.7773        -0.0215         1.8660       0.585568     -0.0783342 
        0.1017         0.0925       104.3543        24.4722       0.317283 
      353.6997         6.3545         6.3537        20.7589        38.7507 
       18.6673      3829.8596       0.206135       362.1035        83.0752
    3494.98920 
    47405.9727         0.0072         2.0208       0.603613     -0.0775998 
        0.0143         0.2288       102.5771        23.4802       0.319211 
      353.8491         6.8932         6.4764        20.1035        38.8301 
       18.3196      3883.8315       0.198499       362.1137        83.0539
    3495.14160 
    47935.6172         0.0385         2.0586       0.625811     -0.0780238 
       -0.0251         0.2561       102.3026        22.8769       0.322303 
      354.1167         7.0966         6.8147        19.2007        39.0219 
       17.4974      3923.7019       0.189547       362.1219        83.0433
    3495.29400 
    48228.3750        -0.0002         2.1758       0.644246     -0.0773407 
        0.0743         0.2712       101.2154        23.3854       0.330859 
      354.1627         7.6812         6.9317        18.2865        39.1279 
       16.6908      3896.6743       0.179483       362.1305        83.0386
    3495.44640 
    48432.8008        -0.0234         2.2151       0.657038     -0.0768924 
        0.1152         0.3455        97.0984        23.8565       0.331799 
      354.1104         8.0758         6.8669        17.6776        39.2020 
       15.9132      4020.9949       0.171906       362.1442        83.0354
    3495.59880 
    48046.4805         0.0681         2.3451       0.678280     -0.0773843 
        0.0073         0.4747       101.5973        22.4230       0.332025 
      354.1197         8.0098         6.9414        16.8756        39.0620 
       15.4619      4009.8088       0.167270       362.1506        83.0257
    3495.75120 
    48087.5156         0.0585         2.3774       0.680517     -0.0772633 
       -0.0319         0.4935        97.3989        21.5407       0.335343 
      354.1790         8.6417         7.3197        16.9504        39.0769 
       14.9798      4000.4983       0.165431       362.1640        83.0097
    3495.90360 
    47735.5312         0.0044         2.2472       0.676888     -0.0776465 
        0.0733         0.4370        91.2590        21.5784       0.340518 
      354.1245         8.8085         7.5009        16.2571        38.9494 
       14.7908      4047.0889       0.164114       362.1717        82.9972
    3496.05600 
    47512.5078        -0.0105         2.2910       0.675341     -0.0776931 
        0.0446         0.3344        94.2363        21.5289       0.344072 
      354.1307         8.8440         7.5001        16.3403        38.8686 
       14.5366      4012.7449       0.162887       362.1826        82.9772
    3496.20840 
    47510.8164        -0.0353         2.3398       0.687516     -0.0775044 
       -0.1955         0.1048        96.2027        19.7958       0.343526 
      354.1199         8.8621         7.5867        16.2158        38.8680 
       14.5045      3946.0476       0.163416       362.1957        82.9617
    3496.36080 
    47288.9961         0.0185         2.3329       0.695068     -0.0785425 
       -0.3682         0.0376        97.0269        19.0719       0.341126 
      354.0877         8.6006         7.4611        16.1895        38.7877 
       14.5213      3898.5459       0.167137       362.2013        82.9599
    3496.51320 
    46676.4492        -0.0064         2.3582       0.696105     -0.0787450 
       -0.5400        -0.1616        97.1107        19.8375       0.340166 
      354.1431         8.4911         7.3393        16.3983        38.5661 
       14.5545      3857.5625       0.173400       362.2132        82.9548
    3496.66560 
    46090.8242         0.0288         2.3031       0.706547     -0.0780382 
       -0.7540         0.1616        94.8356        20.4327       0.335688 
      354.0700         8.5169         7.4026        16.3172        38.3543 
       14.9964      3884.7065       0.180019       362.2251        82.9392
