~Version Information Block
VERS .                 2.00:  CWLS LOG ASCII STANDARD - VERSION 2.00
WRAP .                   NO:  One line per depth step
~Well Information Block
#MNEM.UNIT        Data Type   Information
#---------- ----------------  -----------
STRT .M          3445.30680:  START DEPTH
STOP .M          3635.80680:  STOP DEPTH
STEP .M             0.15240:  STEP
NULL .              -999.25:  NULL VALUE
COMP .              Statoil:  COMPANY
WELL .          NO_15/9-F-5:  WELL
FLD  .                VOLVE:  FIELD
LOC  .            North Sea:  LOCATION
CTRY .                     :  COUNTRY
STAT .                     :  STATE
CNTY .                     :  COUNTY
SRVC .         Schlumberger:  SERVICE COMPANY
DATE .          16-Sep-2012:  DATE
API  .                     :  API NUMBER
UWI  .             15/9-F-5:  UNIQUE WELL ID
~Curve Information Block
#MNEM.UNIT         API CODE   Curve Description
#---------- ----------------  -----------------
DEPTH.M                    :  DEPTH (BOREHOLE)
CCLC .V                    :  CCL
CCLD .V                    :  CCL Discriminated Amplitude
CRRA .                     :  Near-Far Count Rate Ratio
CS   .F/MN                 :  Cable Speed
CVEL .M/MIN                 :  Cable Velocity
DEVI .DEG                  :  Hole Deviation
FBEF .UA                   :  RST Far Effective Beam Current
FCOR .                     :  RST Far Carbon/Oxygen Ratio
FERD .                     :  RST Far IC Mode Capture Optimization Resolution Degradation Factor
FIRD .                     :  RST Far Inelastic Optimization Resolution Degradation Factor
GR   .GAPI                 :  Gamma Ray
NCOR .                     :  RST Near Carbon/Oxygen Ratio
NERD .                     :  RST Near IC Mode Capture Optimization Resolution Degradation Factor
NIRD .                     :  RST Near Inelastic Optimization Resolution Degradation Factor
RB_PCMS.DEG                  :  Relative Bearing
TENS .LBF                  :  Cable Tension
WPRE .PSI                  :  Well Pressure
WTEP .DEGC                 :  Well Temperature
~Parameter Information Block
#MNEM.UNIT            Value   Description
#---------- ----------------  -----------
APD  .M           54.900002:  Elevation of Depth Reference (LMF) above Permanent Datum
RUN  .                Run 1:  RUN NUMBER
PROJECT.     SLEIPNER_OST@st-vlinapp01:  
SET  .        RSTD_0912_IC1:  
~Other Information Block
# 
~A       DEPTH           CCLC           CCLD           CRRA             CS           CVEL           DEVI           FBEF           FCOR           FERD           FIRD             GR           NCOR           NERD           NIRD        RB_PCMS           TENS           WPRE           WTEP 
# ...
    3480.66360        -0.0161         0.0000         2.7908         1.6831      -0.513600        48.0342       108.1071     0.11600000         5.3817         5.3817        18.5319      -0.052000         2.7168         2.7168         8.3551      2762.9326      5017.0928        95.8731
    3480.81600        -0.0762         0.0000         2.7899         1.6772      -0.515500        48.0508       108.4090     0.00110000         5.4053         5.4053        18.4906      -0.042000         2.7410         2.7410         8.2642      2754.2480      5017.2163        95.8724
    3480.96840        -0.0167         0.0000         2.7913         1.7041      -0.517200        48.0752       107.3411     0.03550000         5.6215         5.6215        18.2315      -0.117400         2.7980         2.7980         8.0283      2762.7964      5017.3325        95.8706
    3481.12080         0.0426         0.0000         2.7791         1.7041      -0.520000        48.0949       107.6300    -0.08810000         5.6576         5.6576        18.3116       0.028900         2.7896         2.7896         7.9023      2755.4658      5017.4927        95.8699
    3481.27320         0.2027         0.0000         2.7777         1.6716      -0.510100        48.1353       107.7312     0.09650000         5.7098         5.7098        18.9692       0.051000         2.7845         2.7845         8.0032      2753.2119      5017.6162        95.8678
    3481.42560        -0.0131         0.0000         2.7769         1.6864      -0.512000        48.1453       108.6582     0.04180000         5.7061         5.7061        19.7422      -0.037600         2.7866         2.7866         8.1893      2757.0710      5017.7993        95.8659
    3481.57800        -0.0150         0.0000         2.7946         1.7064      -0.516200        48.1761       107.9642     0.01350000         5.6479         5.6479        20.5173      -0.026500         2.8081         2.8081         8.2274      2742.7961      5017.9346        95.8657
    3481.73040        -0.0316         0.0000         2.7962         1.6726      -0.512000        48.2039       108.3069     0.10360000         5.5905         5.5905        21.0459       0.011100         2.7927         2.7927         8.1255      2748.1643      5018.0498        95.8636
    3481.88280         0.0409         0.0000         2.7897         1.6667      -0.512000        48.2251       108.7369     0.12950000         5.5939         5.5939        21.2309       0.016000         2.7787         2.7787         8.0736      2755.4404      5018.2197        95.8617
    3482.03520        -0.0103         0.0000         2.8259         1.6890      -0.513000        48.2407       107.7853     0.05670000         5.6589         5.6589        20.6265      -0.046700         2.7738         2.7738         8.0846      2754.8577      5018.3540        95.8604
    3482.18760         0.0358         0.0000         2.7971         1.6772      -0.509900        48.2560       108.0825     0.03860000         5.6725         5.6725        19.8607       0.049900         2.7607         2.7607         7.9169      2751.6506      5018.4702        95.8586
    3482.34000        -0.0144         0.0000         2.8028         1.6719      -0.512600        48.2570       107.0741    -0.01710000         5.6001         5.6001        18.9162       0.016500         2.7721         2.7721         7.8876      2761.1157      5018.6514        95.8566
    3482.49240        -0.0073         0.0000         2.7912         1.6972      -0.517000        48.2757       107.2374    -0.01910000         5.5867         5.5867        18.5258       0.041900         2.7526         2.7526         7.6894      2756.8074      5018.7749        95.8555
    3482.64480        -0.0045         0.0000         2.7802         1.6886      -0.512100        48.2984       107.7590    -0.21820000         5.6246         5.6246        17.8853      -0.019900         2.7063         2.7063         7.7406      2763.1643      5018.8916        95.8522
    3482.79720        -0.0024         0.0000         2.8070         1.6772      -0.512800        48.3060       106.9140    -0.01480000         5.4815         5.4815        17.2957       0.001200         2.6738         2.6738         7.7014      2743.5281      5019.0898        95.8504
    3482.94960        -0.0006         0.0000         2.7891         1.6778      -0.509800        48.3252       106.7999     0.13670000         5.5569         5.5569        16.7530      -0.055600         2.6993         2.6993         7.8974      2749.7957      5019.2031        95.8493
    3483.10200        -0.0040         0.0000         2.7729         1.6654      -0.506500        48.3445       105.8164    -0.05870000         5.5651         5.5651        15.8939       0.044300         2.7185         2.7185         8.1261      2744.4946      5019.3403        95.8453
    3483.25440        -0.0024         0.0000         2.7636         1.6719      -0.497700        48.3560       105.9967     0.15180001         5.4900         5.4900        15.3125      -0.020600         2.6986         2.6986         8.0066      2740.0405      5019.5005        95.8443
    3483.40680        -0.0016         0.0000         2.7581         1.6886      -0.511300        48.3873       105.4149    -0.01400000         5.5685         5.5685        14.7140      -0.011700         2.6911         2.6911         8.0237      2754.2017      5019.6372        95.8419
    3483.55920        -0.0903         0.0000         2.7526         1.7044      -0.519400        48.4018       106.7569     0.02820000         5.3771         5.3771        14.8974      -0.004100         2.6838         2.6838         8.2264      2746.2083      5019.7876        95.8377
    3483.71160        -0.1163         0.0000         2.7799         1.7205      -0.516900        48.4109       106.4133    -0.06600000         5.4972         5.4972        14.6249       0.067600         2.6473         2.6473         8.4060      2751.0906      5019.9248        95.8357
    3483.86400         0.1050         0.0000         2.7587         1.6873      -0.514700        48.4262       105.8184     0.10800000         5.3313         5.3313        15.0448       0.054100         2.6219         2.6219         8.1462      2744.5903      5020.0620        95.8338
    3484.01640         0.0901         0.0000         2.7525         1.6821      -0.513700        48.4414       106.4373     0.04490000         5.3963         5.3963        15.0410       0.025600         2.6512         2.6512         7.9846      2762.9290      5020.1982        95.8295
    3484.16880        -0.0056         0.0000         2.7761         1.6611      -0.509200        48.4606       105.9169     0.12840000         5.4311         5.4311        15.3294      -0.013100         2.6628         2.6628         7.9164      2758.8923      5020.3271        95.8297
    3484.32120        -0.0113         0.0000         2.7724         1.6946      -0.511300        48.4759       105.7174     0.01860000         5.3117         5.3117        15.5654       0.030100         2.6748         2.6748         7.8944      2755.2231      5020.4810        95.8273
    3484.47360        -0.0160         0.0000         2.7518         1.6755      -0.514900        48.5192       105.9399    -0.02740000         5.4560         5.4560        15.8341       0.088100         2.6871         2.6871         7.9182      2746.1504      5020.6104        95.8193
    3484.62600        -0.0181         0.0000         2.7623         1.6929      -0.509200        48.5129       107.2060     0.21789999         5.4804         5.4804        15.8955      -0.043800         2.6733         2.6733         7.9862      2743.9854      5020.7822        95.8180
    3484.77840        -0.0196         0.0000         2.7842         1.6831      -0.510800        48.5187       106.0685     0.05350000         5.5040         5.5040        16.1975      -0.081400         2.6714         2.6714         7.7640      2747.7957      5020.8867        95.8112
    3484.93080        -0.0197        -0.0197         2.7463         1.6608      -0.509200        48.5373       106.3722     0.04940000         5.4654         5.4654        16.5958       0.019500         2.6497         2.6497         7.3709      2743.4685      5021.0703        95.8095
