~Version Information Block
VERS .                 2.00:  CWLS LOG ASCII STANDARD - VERSION 2.00
WRAP .                   NO:  One line per depth step
~Well Information Block
#MNEM.UNIT        Data Type   Information
#---------- ----------------  -----------
STRT .M          3454.60320:  START DEPTH
STOP .M          3792.47400:  STOP DEPTH
STEP .M             0.15240:  STEP
NULL .              -999.25:  NULL VALUE
COMP .              Statoil:  COMPANY
WELL .        NO_15/9-F-1_C:  WELL
FLD  .                Volve:  FIELD
LOC  .            North Sea:  LOCATION
CTRY .               Norway:  COUNTRY
STAT .                     :  STATE
CNTY .                     :  COUNTY
SRVC .         Schlumberger:  SERVICE COMPANY
DATE .          27-Nov-2014:  DATE
API  .                     :  API NUMBER
UWI  .           15/9-F-1 C:  UNIQUE WELL ID
LATI .     58° 26' 29.91" N:  LATITUDE
LONG .      1° 53' 14.71" E:  LONGITUDE
~Curve Information Block
#MNEM.UNIT         API CODE   Curve Description
#---------- ----------------  -----------------
DEPTH.M                    :  DEPTH (BOREHOLE)
CVEL .M/SEC                 :  Cable Velocity
DFRB .DEG                  :  Calibrated Relative Bearing
FBEF .UA                   :  RST Far Effective Beam Current
FCOR .                     :  RST Far Carbon/Oxygen Ratio
FERD .                     :  RST Far IC Mode Capture Optimization
FIRD .                     :  RST Far Inelastic Optimization Resolution
GR   .GAPI                 :  Gamma Ray
NCOR .                     :  RST Near Carbon/Oxygen Ratio
NERD .                     :  RST Near IC Mode Capture Optimization
NIRD .                     :  RST Near Inelastic Optimization Resolution
PFC1 .IN                   :  PFCS CaliperX
PFC2 .IN                   :  PFCS CaliperY
TENS .LBF                  :  Cable Tension
~Parameter Information Block
#MNEM.UNIT            Value   Description
#---------- ----------------  -----------
APD  .M           54.900002:  Elevation of Depth Reference (LMF) above Permanent Datum
EPD  .C3                  0:  Elevation of Permanent Datum above Mean Sea Level
LMF  .                   KB:  Logging Measured From (Name of Logging Elevation Reference)
PDAT .                  MSL:  Permanent Datum
RUN  .                Run 1:  RUN NUMBER
TAPE_NAME.     ConCu_R1L19Up_S012_PFCS_PILS_DEFT_RST_PCMS_PSTP.las:  
TOOL_STRING.              UNKNOWN:  
WN   .           15/9-F-1 C:  WELL
PROJECT.     SLEIPNER_OST@st-vlinapp01:  
SET  .        RSTD_1114_IC3:  
~Other Information Block
# 
~A       DEPTH           CVEL           DFRB           FBEF           FCOR           FERD           FIRD             GR           NCOR           NERD           NIRD           PFC1           PFC2           TENS 
# ...
    3787.44480      -0.010123       331.5850       119.7057         0.0539         5.3045         5.3045        28.2143         0.0541         7.2039         7.2039         6.2714         6.1073      4761.8232
    3787.59720      -0.009472       331.5850       119.7057         0.0539         5.3045         5.3045        28.2143         0.0541         7.2039         7.2039         6.2662         6.0834      4735.2490
    3787.74960      -0.009927       331.5850       119.7057         0.0539         5.3045         5.3045        28.2143         0.0541         7.2039         7.2039         6.2542         6.0857      4732.0347
    3787.90200      -0.009992       331.5850       119.7057         0.0539         5.3045         5.3045        28.2143         0.0541         7.2039         7.2039         6.2539         6.0842      4778.0347
    3788.05440      -0.009350       331.5850       119.7057         0.0539         5.3045         5.3045        28.2143         0.0541         7.2039         7.2039         6.2612         6.0834      4783.1436
    3788.20680      -0.009952       331.5850       119.7057         0.0539         5.3045         5.3045        28.2143         0.0541         7.2039         7.2039         6.2450         6.0835      4705.9521
    3788.35920      -0.009235       331.5850       119.7057         0.0539         5.3045         5.3045        28.2143         0.0541         7.2039         7.2039         6.2232         6.0837      4753.2300
    3788.51160      -0.009633       331.5850       119.7057         0.0539         5.3045         5.3045        28.2143         0.0541         7.2039         7.2039         6.2219         6.0834      4743.9126
    3788.66400      -0.009693       331.5850       119.7057         0.0539         5.3045         5.3045        28.2143         0.0541         7.2039         7.2039         6.2168         6.0835      4784.9570
    3788.81640      -0.009462       331.5850       119.7057         0.0539         5.3045         5.3045        28.2143         0.0541         7.2039         7.2039         6.2214         6.1165      4839.7739
    3788.96880      -0.009525       331.5850       119.7057         0.0539         5.3045         5.3045        28.2143         0.0541         7.2039         7.2039         6.2214         6.1157      4832.0923
    3789.12120      -0.009677       331.5850       119.7057         0.0539         5.3045         5.3045        28.2143         0.0541         7.2039         7.2039         6.2215         6.1120      4784.4878
    3789.27360      -0.009412       331.5850       119.7057         0.0539         5.3045         5.3045        28.2143         0.0541         7.2039         7.2039         6.2211         6.1065      4838.4048
    3789.42600      -0.009540       331.5850       119.7057         0.0539         5.3045         5.3045        28.2143         0.0541         7.2039         7.2039         6.2215         6.1088      4795.4067
    3789.57840      -0.009237       331.5850       119.7057         0.0539         5.3045         5.3045        28.2143         0.0541         7.2039         7.2039         6.2200         6.1045      4786.3281
    3789.73080      -0.009567       332.9960       119.7057         0.0539         5.3045         5.3045        28.2143         0.0541         7.2039         7.2039         6.2181         6.0897      4775.9165
    3789.88320      -0.009238       332.9960       119.7057         0.0539         5.3045         5.3045        28.2143         0.0541         7.2039         7.2039         6.2220         6.0834      4725.7876
    3790.03560      -0.009287       332.9960       119.7057         0.0539         5.3045         5.3045        28.2143         0.0541         7.2039         7.2039         6.2190         6.0834      4772.7920
    3790.18800      -0.009163       332.9960       119.7057         0.0539         5.3045         5.3045        28.2143         0.0541         7.2039         7.2039         6.1927         6.0834      4763.5889
    3790.34040      -0.009078       332.9960       119.7057         0.0539         5.3045         5.3045        28.2143         0.0541         7.2039         7.2039         6.2064         6.0835      4781.1777
    3790.49280      -0.008897       334.4070       119.7057         0.0539         5.3045         5.3045        28.2143         0.0541         7.2039         7.2039         6.2182         6.0834      4800.6953
    3790.64520      -0.009012       334.4070       119.7057         0.0539         5.3045         5.3045        28.2143         0.0541         7.2039         7.2039         6.2201         6.0837      4763.8506
    3790.79760      -0.008482       334.4070       119.7057         0.0539         5.3045         5.3045        28.2143         0.0541         7.2039         7.2039         6.2219         6.0834      4775.2964
    3790.95000      -0.008610       334.4070       119.7057         0.0539         5.3045         5.3045        28.2143         0.0541         7.2039         7.2039         6.2219         6.0834      4781.1880
    3791.10240      -0.008667       334.4070       119.7057         0.0539         5.3045         5.3045        28.2143         0.0541         7.2039         7.2039         6.2211         6.0835      4728.1855
    3791.25480      -0.008440       334.4070       119.7057         0.0539         5.3045         5.3045        28.2143         0.0541         7.2039         7.2039         6.2212         6.0836      4750.7925
    3791.40720      -0.008653       335.8180       119.7057         0.0539         5.3045         5.3045        28.2143         0.0541         7.2039         7.2039         6.2219         6.0834      4729.4814
    3791.55960      -0.009252       335.8180       119.7057         0.0539         5.3045         5.3045        28.2143         0.0541         7.2039         7.2039         6.2219         6.0834      4663.0850
    3791.71200      -0.009690       335.8180       119.7057         0.0539         5.3045         5.3045        28.2143         0.0541         7.2039         7.2039         6.2219         6.0834      4709.8145
    3791.86440      -0.010310       335.8180       119.7057         0.0539         5.3045         5.3045        28.2143         0.0541         7.2039         7.2039         6.2219         6.0834      4709.7861
    3792.01680      -0.011510       335.8180       119.7057         0.0539         5.3045         5.3045        28.2143         0.0541         7.2039         7.2039         6.2219         6.0834      4669.5435
    3792.16920      -0.005338       335.8180       119.7057         0.0539         5.3045         5.3045        28.2143         0.0541         7.2039         7.2039         6.2219         6.0834      4592.3350
    3792.32160      -0.011288       335.8180       119.7057         0.0539         5.3045         5.3045        28.2143         0.0541         7.2039         7.2039         6.2219         6.0834      4606.0811
    3792.47400       0.000683       335.8180       119.7057         0.0539         5.3045         5.3045        28.2143         0.0541         7.2039         7.2039         6.2219         6.0834      4472.7314
