~Version Information Block
VERS .                 2.00:  CWLS LOG ASCII STANDARD - VERSION 2.00
WRAP .                   NO:  One line per depth step
~Well Information Block
#MNEM.UNIT        Data Type   Information
#---------- ----------------  -----------
STRT .M          3460.24200:  START DEPTH
STOP .M          3530.19360:  STOP DEPTH
STEP .M             0.15240:  STEP
NULL .              -999.25:  NULL VALUE
COMP .              Statoil:  COMPANY
WELL .          NO_15/9-F-5:  WELL
FLD  .                Volve:  FIELD
LOC  .                Volve:  LOCATION
CTRY .               Norway:  COUNTRY
STAT .                     :  STATE
CNTY .                     :  COUNTY
SRVC .         Schlumberger:  SERVICE COMPANY
DATE .           11/03/2015:  DATE
API  .                     :  API NUMBER
UWI  .             15/9-F-5:  UNIQUE WELL ID
LATI .     58° 26' 29.66" N:  LATITUDE
LONG .      1° 53' 14.99" E:  LONGITUDE
~Curve Information Block
#MNEM.UNIT         API CODE   Curve Description
#---------- ----------------  -----------------
DEPTH.M                    :  Depth Index
CCLC .V                    :  (PSTP-B)                (1in)                   CCL Computed Amplitude
CVEL .M/SEC                 :  (WLWorkflow)            (1in)                   Cable Velocity
FBEF .UA                   :  (RST-D)                 (6in)                   Far Effective Beam Curre
FCOR .                     :  (RST-D)                 (6in)                   Far Carbon/Oxygen Ratio
FERD .                     :  (RST-D)                 (6in)                   Far IC Mode Capture Opti
FIRD .                     :  (RST-D)                 (6in)                   Far Inelastic Optimizati
GR   .GAPI                 :  (PSTP-B)                (6in)                   Gamma Ray
NCOR .                     :  (RST-D)                 (6in)                   Near Carbon/Oxygen Ratio
NERD .                     :  (RST-D)                 (6in)                   Near IC Mode Capture Opt
NIRD .                     :  (RST-D)                 (6in)                   Near Inelastic Optimizat
RB_PCMS.DEG                  :  (PCMS-A)                (6in)                   Relative Bearing
TENS .LBF                  :  (WLWorkflow)            (1in)                   Cable Tension
WPRE .BAR                  :  (PSTP-B)                (6in)                   Well Pressure
WTEP .DEGC                 :  (PSTP-B)                (6in)                   Well Temperature
~Parameter Information Block
#MNEM.UNIT            Value   Description
#---------- ----------------  -----------
APD  .M                  54:  Elevation of Depth Reference (LMF) Above Permanent Datum
CLAB .              Country:  :County Label
ECF  .M             -999.25:  Elevation of Casing Flange above Permanent Datum
EDF  .M                  54:  Elevation of Drill Floor Above Permanent Datum
EGL  .M                 -91:  Elevation of Ground Level Above Permanent Datum
EKB  .M             -999.25:  Elevation of Kelly Bushing Above Permanent Datum
EPD  .M                   0:  Elevation of Permanent Datum (PDAT) above Mean Sea Level
FL1  .            North Sea:  Field Location Line 1
FL2  .     Norwegian Sector:  Field Location Line 2
LMF  .                   DF:  Logging Measured From
LUL  .                 NOBO:  Logging Unit Location
LUN  .          ONCC-A 3837:  Logging Unit Number
PDAT .                  MSL:  Local Permanent Datum
RIGN .      Maersk Inspirer:  Rig Name
RIGTYP.               Jackup:  Rig Type
SON  .           C2TQ-00038:  Service Order Number
TAPE_NAME.     RST_IC_Pass-2___03Nov15_214110.las:  
TOOL_STRING.              UNKNOWN:  
WN   .             15/9-F-5:  WELL NAME
PROJECT.     SLEIPNER_OST@st-vlinapp01:  
SET  .        RSTD_1115_IC2:  
~Other Information Block
# 
~A       DEPTH           CCLC           CVEL           FBEF           FCOR           FERD           FIRD             GR           NCOR           NERD           NIRD        RB_PCMS           TENS           WPRE           WTEP 
# ...
    3498.64680       -0.00400     -0.0075442       134.2739       0.131190         5.9612         5.9612        93.3772      -0.070110         4.1830         4.1830       352.3943      3963.3389       361.2136        83.3100
    3498.79920       -0.00400     -0.0078903       134.5286       0.004580         5.9864         5.9864       101.0893      -0.028570         4.1616         4.1616       352.3588      4090.6167       361.2250        83.3119
    3498.95160       -0.00380     -0.0083770       135.3900       0.093360         5.8341         5.8341       102.5519       0.060070         4.1344         4.1344       352.4004      4062.5967       361.2313        83.3035
    3499.10400       -0.00416     -0.0080622       135.5679      -0.019320         5.8109         5.8109       103.0021       0.038830         4.1372         4.1372       352.4846      4083.1306       361.2496        83.3014
    3499.25640       -0.00306     -0.0084387       136.4536      -0.005070         5.8807         5.8807       105.0921      -0.053590         4.1691         4.1691       352.5663      4136.1992       361.2593        83.2978
    3499.40880       -0.00335     -0.0087493       136.0093       0.005530         5.6012         5.6012       109.0699       0.036400         4.2402         4.2402       352.5808      3979.6892       361.2682        83.2901
    3499.56120       -0.02278     -0.0081850       134.4357      -0.000980         5.6745         5.6745       109.4580       0.077530         4.2603         4.2603       352.7402      4017.5562       361.2813        83.2843
    3499.71360       -0.00194     -0.0122245       134.3839       0.010860         5.7063         5.7063       110.7713       0.070050         4.2475         4.2475       352.9451      3882.6572       361.2945        83.2805
    3499.86600       -0.00359     -0.0124623       134.4925       0.049020         5.6584         5.6584       111.4463       0.044660         4.2533         4.2533       352.8286      3752.5940       361.3051        83.2759
    3500.01840       -0.00255     -0.0119533       131.0976       0.107270         5.8026         5.8026       107.4784       0.109710         4.2440         4.2440       352.7752      3805.2354       361.3157        83.2723
    3500.17080        0.02155     -0.0114682       131.4772      -0.014370         5.8006         5.8006       102.3042       0.112050         4.2067         4.2067       352.6448      3831.7358       361.3295        83.2705
    3500.32320        0.02720     -0.0086742       127.1265      -0.093750         5.6533         5.6533        98.5098       0.083250         4.1928         4.1928       352.7140      3801.7014       361.3400        83.2711
    3500.47560       -0.02982     -0.0085728       125.8834       0.167380         5.6059         5.6059        92.5634       0.039060         4.1690         4.1690       352.8336      3851.8630       361.3466        83.2639
    3500.62800        0.00158     -0.0080245       125.0165       0.021900         5.4698         5.4698        86.3389       0.026660         4.1391         4.1391       353.0211      3866.9768       361.3625        83.2590
    3500.78040        0.01239     -0.0083708       127.4044       0.090070         5.4054         5.4054        83.8686      -0.003130         4.0993         4.0993       353.0035      3984.6150       361.3694        83.2467
    3500.93280       -0.00152     -0.0085153       129.8586       0.031200         5.3518         5.3518        80.4264       0.075320         4.1028         4.1028       352.7730      4062.2729       361.3855        83.2378
    3501.08520       -0.00103     -0.0088018       130.7932       0.121490         5.1832         5.1832        79.0059       0.023090         4.1515         4.1515       352.7794      4072.4883       361.3967        83.2362
    3501.23760        0.01470     -0.0091183       130.5488       0.022230         5.0790         5.0790        75.5719       0.126540         4.1540         4.1540       352.8077      4132.8203       361.4057        83.2256
    3501.39000       -0.05334     -0.0091627       130.2012       0.035400         5.0285         5.0285        75.3006       0.116430         4.2089         4.2089       352.6581      4075.8582       361.4205        83.2143
    3501.54240        0.00038     -0.0095255       129.8295      -0.025930         4.9896         4.9896        75.7128       0.019060         4.2143         4.2143       352.6625      3953.4204       361.4305        83.2001
    3501.69480       -0.00051     -0.0094650       131.6083       0.077800         4.9807         4.9807        78.3720       0.050130         4.2156         4.2156       352.6834      4019.5952       361.4407        83.1893
    3501.84720       -0.00047     -0.0089200       130.5768       0.126000         5.1033         5.1033        77.5496       0.043330         4.2013         4.2013       352.6620      3923.6287       361.4553        83.1799
    3501.99960        0.00055     -0.0090562       131.0352       0.053650         5.1929         5.1929        80.7096       0.021460         4.1944         4.1944       352.7883      3892.5444       361.4655        83.1644
    3502.15200        0.02502     -0.0089175       130.6780       0.067500         5.2125         5.2125        79.9533       0.069930         4.1963         4.1963       352.8481      3779.4902       361.4772        83.1518
    3502.30440        0.00158     -0.0087050       130.9426       0.006110         5.1478         5.1478        80.8072       0.074250         4.2547         4.2547       352.8557      3806.6875       361.4878        83.1353
    3502.45680        0.03144     -0.0084672       131.4902       0.037630         5.0636         5.0636        81.4805       0.012240         4.2764         4.2764       353.3297      3869.8005       361.5004        83.1272
    3502.60920        0.00842     -0.0084763       131.1448      -0.038680         5.0690         5.0690        81.9004       0.074490         4.2673         4.2673       353.4150      3765.5430       361.5099        83.1064
    3502.76160        0.00479     -0.0084672       131.8342       0.130020         5.0497         5.0497        82.0690      -0.038920         4.2564         4.2564       353.5646      3850.9546       361.5238        83.0931
    3502.91400        0.00717     -0.0084287       133.6803       0.095670         5.0477         5.0477        82.3005       0.095490         4.2848         4.2848       353.4621      3931.2048       361.5354        83.0782
    3503.06640        0.02806     -0.0085657       134.0683       0.038850         5.1234         5.1234        80.6289      -0.028520         4.2737         4.2737       353.4321      3967.5339       361.5479        83.0644
    3503.21880        0.01612     -0.0087750       132.1096      -0.076590         5.0603         5.0603        79.1417       0.031860         4.2877         4.2877       353.5087      4090.9990       361.5594        83.0599
    3503.37120        0.02696     -0.0091762       131.8647       0.117820         5.0738         5.0738        79.9852       0.010990         4.2769         4.2769       353.4373      4022.3491       361.5670        83.0403
    3503.52360        0.01474     -0.0091833       132.2669       0.092880         5.1343         5.1343        81.7865       0.013330         4.2263         4.2263       353.4641      3999.6165       361.5815        83.0217
    3503.67600        0.01671     -0.0090417       132.4207       0.111480         5.1054         5.1054        81.6219       0.088210         4.2422         4.2422       353.4987      4052.4756       361.5916        83.0101
    3503.82840        0.01883     -0.0093138       132.1726       0.081530         5.0915         5.0915        81.8692       0.107740         4.2187         4.2187       353.5654      3936.6902       361.6029        82.9984
    3503.98080        0.03214     -0.0089772       132.1415       0.044780         5.1926         5.1926        79.2570       0.006570         4.1642         4.1642       353.6287      3928.7048       361.6148        82.9830
