~Version Information Block
VERS .                 2.00:  CWLS LOG ASCII STANDARD - VERSION 2.00
WRAP .                  YES:  Multiple lines per depth step
~Well Information Block
#MNEM.UNIT        Data Type   Information
#---------- ----------------  -----------
STRT .M          3174.64440:  START DEPTH
STOP .M          3422.90400:  STOP DEPTH
STEP .M             0.15240:  STEP
NULL .              -999.25:  NULL VALUE
COMP .         StatoilHydro:  COMPANY
WELL .          NO_15/9-F-4:  WELL
FLD  .                VOLVE:  FIELD
LOC  .            North Sea:  LOCATION
CTRY .                     :  COUNTRY
STAT .                     :  STATE
CNTY .                     :  COUNTY
SRVC .         Schlumberger:  SERVICE COMPANY
DATE .          13-Sep-2012:  DATE
API  .                     :  API NUMBER
UWI  .             15/9-F-4:  UNIQUE WELL ID
~Curve Information Block
#MNEM.UNIT         API CODE   Curve Description
#---------- ----------------  -----------------
DEPTH.M                    :  DEPTH (BOREHOLE)
BSAL .PPM                  :  Borehole Salinity
CCLC .V                    :  CCL
CCLD .V                    :  CCL Discriminated Amplitude
CIRF .                     :  RST Capture to Inelastic Ratio Far
CIRN .                     :  RST Capture to Inelastic Ratio Near
CVEL .M/MIN                 :  Cable Velocity
DEVI .DEG                  :  Hole Deviation
DSIG .CU                   :  Sigma Difference
FBEF .UA                   :  RST Far Effective Beam Current
GR   .GAPI                 :  Gamma Ray
IRAT .                     :  RST Inelastic Ratio
RB_PCMS.DEG                  :  Relative Bearing
RSCF .                     :  RST Far Detector Effective Unregulated Capture Count Rate
RSCN .                     :  RST Near Detector Effective Unregulated Capture Count Rate
SFFA .CU                   :  RST Sigma Formation Far Apparent
SIBF .CU                   :  RST Sigma Borehole Fluid
SIGM .CU                   :  Formation Sigma (Neutron Capture Cross Section)
TPHI .V/V                  :  Thermal Decay Porosity
WPRE .PSI                  :  Well Pressure
WTEP .DEGC                 :  Well Temperature
~Parameter Information Block
#MNEM.UNIT            Value   Description
#---------- ----------------  -----------
APD  .M                  54:  Elevation of Depth Reference (LMF) above Permanent Datum
BHS  .                 CASE:  Borehole Status (Open or Cased Hole)
BS   .IN                8.5:  Bit Size
BSAL .PPM       34972.17188:  Borehole Salinity
BSALOPT.              UNKNOWN:  Borehole Salinity Option
CSID .IN              6.184:  Casing Inner Diameter
CSIZ .IN                  7:  Current Casing Size
CWEI .LB/F               29:  Casing Weight
MATR .                 SAND:  Rock Matrix for Neutron Porosity Corrections
RUN  .                    4:  RUN NUMBER
PROJECT.     SLEIPNER_OST@st-vlinapp01:  
SET  .       RSTD_0912_SIG1:  
~Other Information Block
~Ascii Log Data
    3174.64440 
    70222.6016        -0.0331         0.0000         0.9821     0.45039999 
      -4.72170        45.9264      -999.2500        83.3586        71.1261 
    0.33010000       356.4621         4.2537         5.6661        32.8633 
       47.2010      -999.2500     0.39030001      4838.9751        91.1730
    3174.79680 
    70222.6016        -0.0331         0.0000         0.9821     0.45039999 
      -4.72170        45.9264      -999.2500        83.3586        71.1261 
    0.33010000       356.4621         4.2537         5.6661        32.8633 
       47.2010      -999.2500     0.39030001      4838.9751        91.1730
    3174.94920 
    70222.6016        -0.0331         0.0000         0.9821     0.45039999 
      -4.72170        45.9264      -999.2500        83.3586        71.1261 
    0.33010000       356.4621         4.2537         5.6661        32.8633 
       47.2010      -999.2500     0.39030001      4838.9751        91.1730
    3175.10160 
    70222.6016        -0.0331         0.0000         0.9821     0.45039999 
      -4.72170        45.9264      -999.2500        83.3586        71.1261 
    0.33010000       356.4621         4.2537         5.6661        32.8633 
       47.2010      -999.2500     0.39030001      4838.9751        91.1730
    3175.25400 
    70222.6016        -0.0331         0.0000         0.9821     0.45039999 
      -4.72170        45.9264      -999.2500        83.3586        71.1261 
    0.33010000       356.4621         4.2537         5.6661        32.8633 
       47.2010      -999.2500     0.39030001      4838.9751        91.1730
    3175.40640 
    70222.6016        -0.0331         0.0000         0.9821     0.45039999 
      -4.72170        45.9264      -999.2500        83.3586        71.1261 
    0.33010000       356.4621         4.2537         5.6661        32.8633 
       47.2010      -999.2500     0.39030001      4838.9751        91.1730
    3175.55880 
    70222.6016        -0.0331         0.0000         0.9821     0.45039999 
      -4.72170        45.9264      -999.2500        83.3586        71.1261 
    0.33010000       356.4621         4.2537         5.6661        32.8633 
       47.2010      -999.2500     0.39030001      4838.9751        91.1730
    3175.71120 
    70222.6016        -0.0331         0.0000         0.9821     0.45039999 
      -4.72170        45.9264      -999.2500        83.3586        71.1261 
    0.33010000       356.4621         4.2537         5.6661        32.8633 
       47.2010      -999.2500     0.39030001      4838.9751        91.1730
    3175.86360 
    70222.6016        -0.0331         0.0000         0.9821     0.45039999 
      -4.72170        45.9264      -999.2500        83.3586        71.1261 
    0.33010000       356.4621         4.2537         5.6661        32.8633 
       47.2010      -999.2500     0.39030001      4838.9751        91.1730
    3176.01600 
    70222.6016        -0.0331         0.0000         0.9821     0.45039999 
      -4.72170        45.9264      -999.2500        83.3586        71.1261 
    0.33010000       356.4621         4.2537         5.6661        32.8633 
       47.2010      -999.2500     0.39030001      4838.9751        91.1730
    3176.16840 
    70222.6016        -0.0331         0.0000         0.9821     0.45039999 
      -4.72170        45.9264      -999.2500        83.3586        71.1261 
    0.33010000       356.4621         4.2537         5.6661        32.8633 
       47.2010      -999.2500     0.39030001      4838.9751        91.1730
    3176.32080 
    70222.6016        -0.0331         0.0000         0.9821     0.45039999 
      -4.72170        45.9264      -999.2500        83.3586        71.1261 
    0.33010000       356.4621         4.2537         5.6661        32.8633 
       47.2010      -999.2500     0.39030001      4838.9751        91.1730
    3176.47320 
    70222.6016        -0.0331         0.0000         0.9821     0.45039999 
      -4.72170        45.9264      -999.2500        83.3586        71.1261 
    0.33010000       356.4621         4.2537         5.6661        32.8633 
       47.2010      -999.2500     0.39030001      4838.9751        91.1730
    3176.62560 
    70222.6016        -0.0331         0.0000         0.9821     0.45039999 
      -4.72170        45.9264      -999.2500        83.3586        71.1261 
    0.33010000       356.4621         4.2537         5.6661        32.8633 
       47.2010      -999.2500     0.39030001      4838.9751        91.1730
    3176.77800 
    70222.6016        -0.0331         0.0000         0.9821     0.45039999 
      -4.72170        45.9264      -999.2500        83.3586        71.1261 
    0.33010000       356.4621         4.2537         5.6661        32.8633 
       47.2010      -999.2500     0.39030001      4838.9751        91.1730
    3176.93040 
    70222.6016        -0.0331         0.0000         0.9821     0.45039999 
      -4.72170        45.9264      -999.2500        83.3586        71.1261 
    0.33010000       356.4621         4.2537         5.6661        32.8633 
       47.2010      -999.2500     0.39030001      4838.9751        91.1730
    3177.08280 
    70222.6016        -0.0331         0.0000         0.9821     0.45039999 
      -4.72170        45.9264      -999.2500        83.3586        71.1261 
    0.33010000       356.4621         4.2537         5.6661        32.8633 
       47.2010      -999.2500     0.39030001      4838.9751        91.1730
    3177.23520 
    70222.6016        -0.0331         0.0000         0.9821     0.45039999 
      -4.72170        45.9264      -999.2500        83.3586        71.1261 
    0.33010000       356.4621         4.2537         5.6661        32.8633 
       47.2010      -999.2500     0.39030001      4838.9751        91.1730
    3177.38760 
    70222.6016        -0.0331         0.0000         0.9821     0.45039999 
      -4.72170        45.9264      -999.2500        83.3586        71.1261 
    0.33010000       356.4621         4.2537         5.6661        32.8633 
       47.2010      -999.2500     0.39030001      4838.9751        91.1730
    3177.54000 
    70222.6016        -0.0331         0.0000         0.9821     0.45039999 
      -4.72170        45.9264      -999.2500        83.3586        71.1261 
    0.33010000       356.4621         4.2537         5.6661        32.8633 
       47.2010      -999.2500     0.39030001      4838.9751        91.1730
    3177.69240 
    70222.6016        -0.0331         0.0000         0.9821     0.45039999 
      -4.72170        45.9264      -999.2500        83.3586        71.1261 
    0.33010000       356.4621         4.2537         5.6661        32.8633 
       47.2010      -999.2500     0.39030001      4838.9751        91.1730
    3177.84480 
    70222.6016        -0.0331         0.0000         0.9821     0.45039999 
      -4.72170        45.9264      -999.2500        83.3586        71.1261 
    0.33010000       356.4621         4.2537         5.6661        32.8633 
       47.2010      -999.2500     0.39030001      4838.9751        91.1730
    3177.99720 
    70222.6016        -0.0331         0.0000         0.9821     0.45039999 
      -4.72170        45.9264      -999.2500        83.3586        71.1261 
    0.33010000       356.4621         4.2537         5.6661        32.8633 
       47.2010      -999.2500     0.39030001      4838.9751        91.1730
    3178.14960 
    70222.6016        -0.0331         0.0000         0.9821     0.45039999 
      -4.72170        45.9264      -999.2500        83.3586        71.1261 
    0.33010000       356.4621         4.2537         5.6661        32.8633 
       47.2010      -999.2500     0.39030001      4838.9751        91.1730
    3178.30200 
    70222.6016        -0.0331         0.0000         0.9821     0.45039999 
      -4.72170        45.9264      -999.2500        83.3586        71.1261 
    0.33010000       356.4621         4.2537         5.6661        32.8633 
       47.2010      -999.2500     0.39030001      4838.9751        91.1730
    3178.45440 
    70222.6016        -0.0331         0.0000         0.9821     0.45039999 
      -4.72170        45.9264      -999.2500        83.3586        71.1261 
    0.33010000       356.4621         4.2537         5.6661        32.8633 
       47.2010      -999.2500     0.39030001      4838.9751        91.1730
