~Version Information Block
VERS .                 2.00:  CWLS LOG ASCII STANDARD - VERSION 2.00
WRAP .                  YES:  Multiple lines per depth step
~Well Information Block
#MNEM.UNIT        Data Type   Information
#---------- ----------------  -----------
STRT .M          3437.38200:  START DEPTH
STOP .M          3636.11160:  STOP DEPTH
STEP .M             0.15240:  STEP
NULL .              -999.25:  NULL VALUE
COMP .                     :  COMPANY
WELL .          NO_15/9-F-5:  WELL
FLD  .                     :  FIELD
LOC  .                     :  LOCATION
CTRY .                     :  COUNTRY
STAT .                     :  STATE
CNTY .                     :  COUNTY
SRVC .                     :  SERVICE COMPANY
DATE .                     :  DATE
API  .                     :  API NUMBER
UWI  .                     :  UNIQUE WELL ID
~Curve Information Block
#MNEM.UNIT         API CODE   Curve Description
#---------- ----------------  -----------------
DEPTH.M                    :  
BSAL .PPM                  :  (RST-D)                 (6in)                   Borehole Salinity Depths
CCLC .V                    :  (PSTP-B)                (1in)                   CCL Computed Amplitude D
CIRF .                     :  (RST-D)                 (6in)                   Capture to Inelastic Rat
CIRN .                     :  (RST-D)                 (6in)                   Capture to Inelastic Rat
CVEL .M/SEC                 :  (WLWorkflow)            (1in)                   Cable Velocity Depthshif
DSIG .CU                   :  (RST-D)                 (6in)                   Sigma Difference Depthsh
DSIG21.                     :  SIGM_1 -RSTD_0912_OW.SAT201SI_SIGR_1
FBEF .UA                   :  (RST-D)                 (6in)                   Far Effective Beam Curre
GR   .GAPI                 :  (PSTP-B)                (6in)                   Gamma Ray Depthshifted
IRAT .                     :  (RST-D)                 (6in)                   Inelastic Ratio Depthshi
RB_PCMS.DEG                  :  (PCMS-A)                (6in)                   Relative Bearing Depthsh
RSCF .                     :  (RST-D)                 (6in)                   Far Detector Effective U
RSCN .                     :  (RST-D)                 (6in)                   Near Detector Effective
SFFA .CU                   :  (RST-D)                 (6in)                   Sigma Formation Far Appa
SIBF .CU                   :  (RST-D)                 (6in)                   Sigma Borehole Fluid Dep
SIGM .CU                   :  (RST-D)                 (6in)                   Formation Sigma (Neutron
TENS .LBF                  :  (WLWorkflow)            (1in)                   Cable Tension Depthshift
TPHI .V/V                  :  (RST-D)                 (6in)                   Thermal Decay Porosity D
WPRE .BAR                  :  (PSTP-B)                (6in)                   Well Pressure Depthshift
WTEP .DEGC                 :  (PSTP-B)                (6in)                   Well Temperature Depthsh
~Parameter Information Block
#MNEM.UNIT            Value   Description
#---------- ----------------  -----------
PROJECT.     SLEIPNER_OST@st-vlinapp01:  
SET  .     RSTD_1115_SIG1_DS:  
~Other Information Block
~Ascii Log Data
# ...
    3528.51720 
    30383.6738         0.0422         2.6435       0.821919     -0.0774750 
       -0.4255        -0.5702       106.9378        17.0939       0.324570 
      352.1486         8.8482         8.3328        14.6522        32.7300 
       12.7280      3996.9172       0.192500       364.2589        81.0886
    3528.66960 
    30278.3066         0.0020         2.7526       0.809534     -0.0778835 
       -0.5829        -0.4178       112.4657        17.9422       0.323777 
      352.1308         8.5873         7.9799        14.5565        32.6926 
       12.7818      3985.1777       0.186271       364.2619        81.0852
    3528.82200 
    30279.6855        -0.0356         2.7728       0.824034     -0.0777257 
       -0.8131        -0.3412       109.3675        18.2205       0.320263 
      352.2644         8.7148         8.0747        14.6611        32.6931 
       12.6465      3986.8748       0.188526       364.2792        81.0842
    3528.97440 
    30973.4922         0.0350         2.7113       0.816186     -0.0779674 
       -0.9694        -0.3544       110.0345        16.8647       0.317110 
      352.4691         8.9189         8.7098        14.2507        32.9393 
       12.5472      4019.9116       0.194155       364.2814        81.0810
    3529.12680 
    30509.0430         0.0206         2.7669       0.822469     -0.0782321 
       -0.9335        -0.3277       107.9328        16.3822       0.317816 
      352.5054         9.2681         8.6964        14.2496        32.7745 
       12.4797      3910.5093       0.202718       364.2921        81.0769
    3529.27920 
    30972.2188        -0.0413         2.7293       0.840531     -0.0775187 
       -0.8438        -0.3845       109.4842        16.3572       0.319079 
      352.3749         8.8844         8.5327        14.4509        32.9388 
       12.5491      3967.1550       0.208807       364.3062        81.0772
    3529.43160 
    31419.9609        -0.0426         2.6851       0.853440     -0.0774664 
       -0.8229        -0.3761       109.1437        16.3572       0.320625 
      352.3241         8.5607         8.2661        14.4579        33.0978 
       12.6593      3953.1086       0.212885       364.3108        81.0780
    3529.58400 
    31707.3457        -0.0617         2.7214       0.837557     -0.0767725 
       -0.8067        -0.4119       108.6606        17.2781       0.320916 
      352.2509         8.5819         8.0744        14.5791        33.1999 
       12.8061      3953.4727       0.211729       364.3235        81.0776
    3529.73640 
    31579.0586         0.0183         2.6572       0.818051     -0.0776485 
       -0.7445        -0.5055       106.7803        18.2898       0.320468 
      352.1298         8.7146         8.2564        14.8888        33.1543 
       12.8912      3993.5542       0.209410       364.3325        81.0621
    3529.88880 
    31453.8301        -0.0045         2.6990       0.833456     -0.0775009 
       -0.7265        -0.6563       107.7622        17.9004       0.321323 
      352.0225         8.7193         8.1915        14.7169        33.1098 
       12.9749      3968.2585       0.208788       364.3380        81.0573
    3530.04120 
    30674.6582        -0.0977         2.6861       0.834947     -0.0774756 
       -0.6933        -0.8306       111.1274        17.9796       0.319136 
      352.0061         8.5167         8.1062        14.8293        32.8333 
       12.9131      3999.6663       0.211179       364.3538        81.0523
    3530.19360 
    30738.9355         0.0523         2.6799       0.834421     -0.0767717 
       -0.6879        -0.8548       108.7362        17.4452       0.318620 
      352.2222         8.5600         8.2914        14.6969        32.8561 
       12.8165      3992.7595       0.214812       364.3584        81.0489
    3530.34600 
    31141.6562         0.1077         2.7359       0.842907     -0.0764770 
       -0.6559        -0.7484       108.6961        17.2719       0.317909 
      352.4904         8.5997         8.1465        14.4196        32.9990 
       12.7218      3952.9299       0.215431       364.3680        81.0417
    3530.49840 
    31059.2070         0.0329         2.6922       0.840335     -0.0762301 
       -0.5982        -0.7236       108.1573        16.9493       0.317840 
      352.3327         8.6927         8.3451        14.5313        32.9697 
       12.6279      4029.7593       0.216156       364.3807        81.0430
    3530.65080 
    31395.2715        -0.0302         2.6930       0.822927     -0.0780326 
       -0.4518        -0.7466       109.7194        17.4756       0.317579 
      352.0600         8.5526         8.0568        14.4080        33.0891 
       12.7230      4009.7769       0.213449       364.3870        81.0407
    3530.80320 
    31345.2852        -0.0209         2.7207       0.837466     -0.0777810 
       -0.4285        -0.6303       111.5345        15.9238       0.316341 
      352.1055         8.4163         8.0577        14.7057        33.0713 
       12.8442      3947.8428       0.209253       364.3986        81.0389
    3530.95560 
    31212.0176         0.0591         2.8153       0.851068     -0.0775014 
       -0.4373        -0.3816       109.9201        16.7646       0.318456 
      352.3617         8.7721         8.1691        14.8931        33.0240 
       12.9571      3998.2358       0.202470       364.4060        81.0384
    3531.10800 
    31070.8691        -0.0075         2.7588       0.825568     -0.0771930 
       -0.4893        -0.3666       108.0328        16.5091       0.317639 
      352.6033         8.6866         7.9915        14.7512        32.9739 
       12.8622      3980.3989       0.196403       364.4161        81.0292
    3531.26040 
    31090.3203         0.0143         2.8305       0.834197     -0.0781100 
       -0.5392        -0.9353       106.3831        17.1428       0.320079 
      352.6804         9.1804         8.2275        14.4227        32.9808 
       12.5291      3941.3489       0.194494       364.4265        81.0193
    3531.41280 
    30739.6543         0.0191         2.7190       0.817937     -0.0778460 
       -0.5753        -1.2405       104.1363        16.9807       0.321668 
      352.7157         9.1497         8.2523        13.8946        32.8563 
       12.4928      3955.1912       0.192440       364.4347        81.0073
    3531.56520 
    31125.2188        -0.0100         2.6683       0.810852     -0.0775137 
       -0.6137        -1.2792       106.8162        19.1981       0.325112 
      352.5835         8.7215         7.9932        14.6349        32.9932 
       12.6668      3995.2378       0.193326       364.4443        81.0048
    3531.71760 
    30798.2695         0.0285         2.6826       0.819828     -0.0772562 
       -0.6899        -0.9017       106.8389        19.6749       0.322864 
      352.5690         8.4621         7.6978        14.9445        32.8771 
       13.1070      3995.3770       0.194126       364.4533        81.0091
    3531.87000 
    30712.7070        -0.0312         2.6182       0.805888     -0.0776539 
       -0.6921        -0.7835       108.9814        20.5901       0.320502 
      352.6302         8.1154         7.8252        15.2192        32.8467 
       13.3058      3962.8860       0.197868       364.4647        81.0097
    3532.02240 
    31292.0527         0.0123         2.6142       0.797113     -0.0786064 
       -0.7282        -0.7535       108.8511        20.9342       0.320579 
      352.5408         8.3470         7.9519        15.2281        33.0524 
       13.3876      3935.9248       0.196981       364.4743        81.0049
    3532.17480 
    31200.7344         0.0639         2.6025       0.801230     -0.0757480 
       -0.6769        -0.4428       107.2697        22.2927       0.322270 
      352.3411         8.2886         7.7335        15.1840        33.0200 
       13.6063      4032.2476       0.192528       364.4818        80.9994
    3532.32720 
    31185.2266         0.0533         2.6173       0.785794     -0.0771462 
       -0.6862        -0.2227       106.7041        21.2660       0.322583 
      352.1388         8.7156         7.9812        15.8684        33.0145 
       13.7702      4003.7014       0.188397       364.4913        80.9895
