#------------------------------------------------------------------------------
#
#   Created by   : las_export
#   Created on   : 2009-06-18 13:07:55
#   Project      : VOLVE
#   User         : TONYG
#   Interpreters : *
#
#------------------------------------------------------------------------------
~VERSION INFORMATION
VERS. 2.0 : CWLS Log ASCII Standard - version 2.0
WRAP.  NO : One line per depth step

~WELL INFORMATION
#MNEMONIC   .UNIT                                           VALUE :DESCRIPTION
#------------------------------------------------------------------------------
STRT        .M                                       2560.0412 :START DEPTH
STOP        .M                                       3222.0668 :STOP DEPTH
STEP        .M                                          0.1524 :STEP
NULL        .                                        -999.2500 :NULL VALUE
COMP        .                                                  :COMPANY
WELL        .                                      15/9-F-15 C :WELL
FLD         .                                            VOLVE :FIELD
LOC         .                                          UNKNOWN :LOCATION
CNTY        .                                          UNKNOWN :COUNTY
STAT        .                                          UNKNOWN :STATE
CTRY        .                                           Norway :COUNTRY
SRVC        .                                          UNKNOWN :SERVICE COMPANY
DATE        .                                          UNKNOWN :LOG DATE
UWI         .                                   NO 15/9-F-15 C :UNIQUE WELL ID
XCOORD      .M                                   435053.550000 :SURFACE X
YCOORD      .M                                  6478560.360000 :SURFACE Y
LAT         .                                        58.441585 :LATITUDE
LON         .                                         1.887541 :LONGITUDE
ELEV        .M                                         54.9000 :SURFACE ELEV
ELEV_TYPE   .                                               KB :ELEV TYPE

~CURVE INFORMATION
#MNEMONIC   .UNIT          API CODE       : CURVE DESCRIPTION
#------------------------------------------------------------------------------
DEPTH       .M                            : Measured Depth
DT          .us/ft         UNKNOWN        : DT:UNKNOWN:rC:NONE:v1
GR          .API           UNKNOWN        : GR:UNKNOWN:rC:NONE:v1
~A     DEPTH           DT           GR 
  2560.04120  -999.250000    40.871465 
  2560.19360  -999.250000    37.006094 
  2560.34600  -999.250000    34.650767 
  2560.49840  -999.250000    33.878028 
  2560.65080  -999.250000    34.358641 
  2560.80320  -999.250000    33.106181 
  2560.95560  -999.250000    34.794912 
  2561.10800  -999.250000    40.520636 
  2561.26040  -999.250000    45.726295 
  2561.41280  -999.250000    50.082930 
  2561.56520  -999.250000    53.190795 
  2561.71760  -999.250000    55.656288 
  2561.87000  -999.250000    56.220927 
  2562.02240  -999.250000    55.905963 
  2562.17480  -999.250000    56.564701 
  2562.32720  -999.250000    54.386615 
  2562.47960  -999.250000    53.047105 
  2562.63200  -999.250000    50.562457 
  2562.78440  -999.250000    49.363861 
  2562.93680  -999.250000    47.241086 
  2563.08920  -999.250000    47.594461 
  2563.24160  -999.250000    49.770837 
  2563.39400  -999.250000    48.236271 
  2563.54640  -999.250000    45.309354 
  2563.69880  -999.250000    42.142831 
  2563.85120  -999.250000    42.761986 
  2564.00360  -999.250000    43.460177 
  2564.15600  -999.250000    42.606883 
  2564.30840  -999.250000    41.744446 
  2564.46080  -999.250000    38.974330 
  2564.61320  -999.250000    38.119425 
  2564.76560  -999.250000    35.688162 
  2564.91800  -999.250000    39.181126 
  2565.07040  -999.250000    43.332595 
  2565.22280  -999.250000    49.192477 
  2565.37520  -999.250000    49.019015 
  2565.52760  -999.250000    46.726860 
  2565.68000  -999.250000    44.972609 
  2565.83240  -999.250000    46.035914 
  2565.98480  -999.250000    42.824638 
  2566.13720  -999.250000    40.087635 
  2566.28960  -999.250000    35.660775 
  2566.44200  -999.250000    39.164112 
  2566.59440  -999.250000    42.098708 
  2566.74680  -999.250000    44.766440 
  2566.89920  -999.250000    43.131111 
  2567.05160  -999.250000    41.647133 
  2567.20400  -999.250000    40.404073 
  2567.35640  -999.250000    42.193354 
  2567.50880  -999.250000    43.761530 
  2567.66120  -999.250000    45.122283 
  2567.81360  -999.250000    43.627850 
  2567.96600  -999.250000    42.888553 
  2568.11840  -999.250000    44.187822 
  2568.27080  -999.250000    46.108616 
  2568.42320  -999.250000    46.511860 
  2568.57560  -999.250000    45.509233 
  2568.72800  -999.250000    46.013521 
  2568.88040  -999.250000    46.253783 
  2569.03280  -999.250000    46.305475 
  2569.18520  -999.250000    47.759283 
  2569.33760  -999.250000    46.757807 
  2569.49000  -999.250000    47.711498 
  2569.64240  -999.250000    45.858440 
  2569.79480  -999.250000    49.240159 
  2569.94720  -999.250000    51.181808 
  2570.09960  -999.250000    53.977881 
  2570.25200  -999.250000    54.470100 
  2570.40440  -999.250000    53.259024 
  2570.55680  -999.250000    51.627472 
  2570.70920  -999.250000    49.069734 
  2570.86160  -999.250000    51.431640 
  2571.01400  -999.250000    54.353673 
  2571.16640  -999.250000    58.460260 
  2571.31880  -999.250000    59.066393 
  2571.47120  -999.250000    59.726455 
  2571.62360  -999.250000    57.704446 
  2571.77600  -999.250000    55.801253 
  2571.92840  -999.250000    52.510311 
  2572.08080  -999.250000    52.409719 
  2572.23320  -999.250000    53.061580 
  2572.38560  -999.250000    54.855809 
  2572.53800  -999.250000    55.144012 
  2572.69040  -999.250000    54.043812 
  2572.84280  -999.250000    53.091077 
  2572.99520  -999.250000    53.990361 
  2573.14760  -999.250000    53.323197 
  2573.30000  -999.250000    52.590061 
  2573.45240  -999.250000    51.065525 
  2573.60480  -999.250000    53.910868 
  2573.75720  -999.250000    53.976799 
  2573.90960  -999.250000    51.884668 
  2574.06200  -999.250000    49.594333 
  2574.21440  -999.250000    53.257790 
  2574.36680  -999.250000    56.293084 
  2574.51920  -999.250000    58.231066 
  2574.67160  -999.250000    59.081910 
  2574.82400  -999.250000    61.805933 
  2574.97640  -999.250000    63.134066 
  2575.12880  -999.250000    60.326839 
  2575.28120  -999.250000    60.740349 
  2575.43360  -999.250000    60.958241 
  2575.58600  -999.250000    66.221748 
  2575.73840  -999.250000    65.031423 
  2575.89080  -999.250000    65.913647 
  2576.04320  -999.250000    62.277714 
  2576.19560  -999.250000    66.347251 
  2576.34800  -999.250000    68.968344 
  2576.50040  -999.250000    75.778116 
  2576.65280  -999.250000    76.894207 
  2576.80520  -999.250000    80.576807 
  2576.95760  -999.250000    78.771990 
  2577.11000  -999.250000    75.076410 
  2577.26240  -999.250000    67.144142 
  2577.41480  -999.250000    61.252450 
  2577.56720  -999.250000    63.639289 
  2577.71960  -999.250000    68.990308 
  2577.87200  -999.250000    75.033274 
  2578.02440  -999.250000    73.523902 
  2578.17680  -999.250000    76.228612 
  2578.32920  -999.250000    79.671429 
  2578.48160  -999.250000    83.100434 
  2578.63400  -999.250000    79.028633 
  2578.78640  -999.250000    71.010949 
  2578.93880  -999.250000    67.618856 
  2579.09120  -999.250000    67.568898 
  2579.24360  -999.250000    71.585464 
  2579.39600  -999.250000    74.369839 
  2579.54840  -999.250000    75.300679 
  2579.70080  -999.250000    74.332512 
  2579.85320  -999.250000    73.103082 
  2580.00560  -999.250000    71.277993 
  2580.15800  -999.250000    71.368768 
  2580.31040  -999.250000    72.984866 
  2580.46280  -999.250000    75.085505 
  2580.61520  -999.250000    76.473842 
  2580.76760  -999.250000    78.122577 
  2580.92000  -999.250000    81.845803 
  2581.07240  -999.250000    86.600057 
  2581.22480  -999.250000    84.520582 
  2581.37720  -999.250000    77.559436 
  2581.52960  -999.250000    65.841949 
  2581.68200  -999.250000    59.687458 
  2581.83440  -999.250000    58.627172 
  2581.98680  -999.250000    64.590964 
  2582.13920  -999.250000    70.218678 
  2582.29160  -999.250000    74.880837 
  2582.44400  -999.250000    72.704288 
  2582.59640  -999.250000    74.455607 
  2582.74880  -999.250000    73.934767 
  2582.90120  -999.250000    73.334572 
  2583.05360  -999.250000    69.009922 
  2583.20600  -999.250000    64.017528 
  2583.35840  -999.250000    65.210786 
  2583.51080  -999.250000    67.058493 
  2583.66320  -999.250000    71.070108 
  2583.81560  -999.250000    74.110240 
  2583.96800  -999.250000    71.962795 
  2584.12040  -999.250000    67.352593 
  2584.27280  -999.250000    62.684753 
  2584.42520  -999.250000    63.064883 
  2584.57760  -999.250000    65.251999 
  2584.73000  -999.250000    65.089278 
  2584.88240  -999.250000    64.484842 
  2585.03480  -999.250000    66.363768 
  2585.18720  -999.250000    72.604260 
  2585.33960  -999.250000    81.803465 
  2585.49200  -999.250000    92.568327 
  2585.64440  -999.250000   103.255563 
  2585.79680  -999.250000   110.942141 
  2585.94920  -999.250000   113.845246 
  2586.10160  -999.250000   112.134378 
  2586.25400  -999.250000   107.226663 
  2586.40640  -999.250000   101.436877 
  2586.55880  -999.250000    99.645302 
  2586.71120  -999.250000   100.569001 
  2586.86360  -999.250000   105.107456 
  2587.01600  -999.250000   105.196522 
  2587.16840  -999.250000   103.794963 
  2587.32080  -999.250000    99.656802 
  2587.47320  -999.250000    95.798181 
  2587.62560  -999.250000    93.638078 
  2587.77800  -999.250000    92.004425 
  2587.93040  -999.250000    92.729141 
  2588.08280  -999.250000    93.223334 
  2588.23520  -999.250000    96.758468 
  2588.38760  -999.250000    97.455688 
  2588.54000  -999.250000    97.240208 
  2588.69240  -999.250000    92.079730 
  2588.84480  -999.250000    87.552602 
  2588.99720  -999.250000    85.493917 
  2589.14960  -999.250000    87.213274 
  2589.30200  -999.250000    88.811556 
  2589.45440  -999.250000    86.439274 
  2589.60680  -999.250000    84.370364 
  2589.75920  -999.250000    81.165903 
  2589.91160  -999.250000    80.414019 
  2590.06400  -999.250000    84.110641 
  2590.21640  -999.250000    89.498815 
  2590.36880  -999.250000    94.377420 
