~Version Information Block
VERS .                 2.00:  CWLS LOG ASCII STANDARD - VERSION 2.00
WRAP .                  YES:  Multiple lines per depth step
~Well Information Block
#MNEM.UNIT        Data Type   Information
#---------- ----------------  -----------
STRT .M          3174.64440:  START DEPTH
STOP .M          3422.90400:  STOP DEPTH
STEP .M             0.15240:  STEP
NULL .              -999.25:  NULL VALUE
COMP .         StatoilHydro:  COMPANY
WELL .          NO_15/9-F-4:  WELL
FLD  .                VOLVE:  FIELD
LOC  .            North Sea:  LOCATION
CTRY .                     :  COUNTRY
STAT .                     :  STATE
CNTY .                     :  COUNTY
SRVC .         Schlumberger:  SERVICE COMPANY
DATE .          13-Sep-2012:  DATE
API  .                     :  API NUMBER
UWI  .             15/9-F-4:  UNIQUE WELL ID
~Curve Information Block
#MNEM.UNIT         API CODE   Curve Description
#---------- ----------------  -----------------
DEPTH.M                    :  DEPTH (BOREHOLE)
BSAL .PPM                  :  Borehole Salinity
CCLC .V                    :  CCL
CCLD .V                    :  CCL Discriminated Amplitude
CIRF .                     :  RST Capture to Inelastic Ratio Far
CIRN .                     :  RST Capture to Inelastic Ratio Near
CVEL .M/MIN                 :  Cable Velocity
DEVI .DEG                  :  Hole Deviation
DSIG .CU                   :  Sigma Difference
FBEF .UA                   :  RST Far Effective Beam Current
GR   .GAPI                 :  Gamma Ray
IRAT .                     :  RST Inelastic Ratio
RB_PCMS.DEG                  :  Relative Bearing
RSCF .                     :  RST Far Detector Effective Unregulated Capture Count Rate
RSCN .                     :  RST Near Detector Effective Unregulated Capture Count Rate
SFFA .CU                   :  RST Sigma Formation Far Apparent
SIBF .CU                   :  RST Sigma Borehole Fluid
SIGM .CU                   :  Formation Sigma (Neutron Capture Cross Section)
TPHI .V/V                  :  Thermal Decay Porosity
WPRE .PSI                  :  Well Pressure
WTEP .DEGC                 :  Well Temperature
~Parameter Information Block
#MNEM.UNIT            Value   Description
#---------- ----------------  -----------
APD  .M                  54:  Elevation of Depth Reference (LMF) above Permanent Datum
BHS  .                 CASE:  Borehole Status (Open or Cased Hole)
BS   .IN                8.5:  Bit Size
BSAL .PPM       34972.17188:  Borehole Salinity
BSALOPT.              UNKNOWN:  Borehole Salinity Option
CSID .IN              6.184:  Casing Inner Diameter
CSIZ .IN                  7:  Current Casing Size
CWEI .LB/F               29:  Casing Weight
MATR .                 SAND:  Rock Matrix for Neutron Porosity Corrections
RUN  .                    4:  RUN NUMBER
PROJECT.     SLEIPNER_OST@st-vlinapp01:  
SET  .       RSTD_0912_SIG1:  
~Other Information Block
~Ascii Log Data
# ...
    3206.34360 
    51819.1992         0.2573         0.0000         0.8005     0.40570000 
      -4.66890        47.7136         2.5136        81.9019        68.9617 
    0.31810001       356.3347         3.3416         5.2186        36.7726 
       40.4318        34.0720     0.40689999      4863.5225        92.0179
    3206.49600 
    51845.9023        -0.0624         0.0000         0.7836     0.41310000 
      -4.72870        47.7578         1.9512        78.8205        70.0091 
    0.31600001       356.2931         3.4571         5.5455        36.0510 
       40.4415        33.9622     0.41029999      4863.6187        92.0240
    3206.64840 
    52219.3008        -0.3622         0.0000         0.8153     0.41900000 
      -4.72140        47.6863         2.0011        85.3460        69.8316 
    0.31130001       356.2535         3.2684         5.5800        35.7956 
       40.5774        33.6016     0.41510001      4863.7793        92.0341
    3206.80080 
    51916.4023         0.0852         0.0000         0.7952     0.40400001 
      -4.71790        47.7096         2.1525        82.7263        71.5478 
    0.31189999       356.2331         3.3797         5.4369        35.7785 
       40.4672        33.2130     0.41870001      4863.9883        92.0400
    3206.95320 
    52172.1992         0.1960         0.0000         0.7745     0.40650001 
      -4.70250        47.8137         2.1762        83.7450        69.2398 
    0.31200001       356.2925         3.1368         5.0276        34.9781 
       40.5603        33.7130     0.41319999      4864.0933        92.0411
    3207.10560 
    51721.2969         0.0645         0.0000         0.8284     0.41900000 
      -4.69370        47.8520         2.6010        86.1389        70.2162 
    0.31459999       356.4688         3.3272         5.3771        37.3849 
       40.3962        33.5437     0.40889999      4864.2144        92.0507
    3207.25800 
    51754.3984         0.0667         0.0000         0.8336     0.42210001 
      -4.69930        47.7547         2.7846        84.5660        70.5595 
    0.31420001       356.5905         3.3842         5.4406        35.3046 
       40.4082        33.7281     0.40120000      4864.3945        92.0602
    3207.41040 
    52123.7969         0.0134         0.0000         0.8623     0.41510001 
      -4.70300        47.7068         2.9482        81.1037        68.4290 
    0.31779999       356.6468         3.6985         5.4867        35.5301 
       40.5427        32.6399     0.39989999      4864.5347        92.0691
    3207.56280 
    51891.0000         0.0293         0.0000         0.8202     0.41330001 
      -4.72500        47.9318         2.7283        78.4158        65.9258 
    0.31770000       356.6419         3.8385         5.9719        34.1294 
       40.4580        32.3895     0.39780000      4864.6455        92.0662
    3207.71520 
    51803.6992        -0.4508         0.0000         0.8852     0.41990000 
      -4.70760        47.8499         2.8291        82.5586        64.9730 
    0.31740001       356.6927         3.8569         5.7522        34.5276 
       40.4262        31.6019     0.39680001      4864.8140        92.0684
    3207.86760 
    51594.3984         0.1464         0.0000         0.8350     0.41060001 
      -4.69970        47.7344         2.8553        79.2296        62.3987 
    0.31630000       356.8219         3.6767         5.4548        33.1713 
       40.3500        31.8688     0.39430001      4864.9883        92.0700
    3208.02000 
    51763.6992         0.0676         0.0000         0.8884     0.41240001 
      -4.67360        47.8513         3.1457        80.4358        61.5406 
    0.31670001       356.8251         3.8645         5.6320        34.9128 
       40.4116        31.6060     0.39500001      4865.0835        92.0750
    3208.17240 
    51369.0977        -0.0046         0.0000         0.8336     0.41280001 
      -4.71310        47.9075         3.1727        81.9054        61.9844 
    0.31500000       356.6657         3.6065         5.7872        33.7368 
       40.2681        32.2986     0.39550000      4865.2026        92.0906
    3208.32480 
    51042.3984        -0.0536         0.0000         0.8289     0.40640000 
      -4.71060        47.6854         3.2515        79.6429        62.2566 
    0.31729999       356.6435         3.6645         5.5864        35.2161 
       40.1493        31.9123     0.39989999      4865.4111        92.0915
    3208.47720 
    50193.1992        -0.0827         0.0000         0.8323     0.41260001 
      -4.70480        47.8587         3.2772        81.6201        65.6062 
    0.31770000       356.7491         3.4987         5.3234        33.6956 
       39.8407        32.1297     0.40230000      4865.5454        92.0934
    3208.62960 
    49709.0000         0.1105         0.0000         0.8303     0.40810001 
      -4.55570        47.9721         3.3946        81.8440        66.4939 
    0.31520000       356.8239         3.4928         5.3183        34.3419 
       39.6649        32.3322     0.40529999      4865.6543        92.1076
    3208.78200 
    49836.1016         0.0344         0.0000         0.8022     0.40979999 
      -4.71330        47.8991         3.3281        81.4644        66.8490 
    0.31000000       356.7287         3.3596         5.4096        35.7637 
       39.7110        33.1888     0.40830001      4865.8369        92.1162
    3208.93440 
    50060.0000         0.0309         0.0000         0.8388     0.41650000 
      -4.68180        47.7677         3.2469        82.3436        67.6479 
    0.31209999       356.4879         3.4669         5.3502        36.2254 
       39.7923        34.1811     0.40419999      4865.9902        92.1279
    3209.08680 
    49857.0000        -0.0424         0.0000         0.7842     0.42559999 
      -4.70600        47.9728         3.3720        80.8167        66.7898 
    0.31729999       356.4478         3.3513         5.5175        37.2939 
       39.7186        34.1676     0.40380001      4866.0635        92.1350
    3209.23920 
    49468.6016        -0.8192         0.0000         0.8202     0.40590000 
      -4.71010        47.9304         3.6644        80.7085        64.3042 
    0.31920001       356.3013         3.5579         5.2884        35.7093 
       39.5776        34.2786     0.39539999      4866.2769        92.1394
    3209.39160 
    48665.9023         0.2894         0.0000         0.8146     0.40720001 
      -4.71320        47.7495         3.7011        82.2303        61.3009 
    0.31430000       356.2157         3.4508         5.3665        36.5685 
       39.2865        33.6048     0.39640000      4866.4272        92.1459
    3209.54400 
    48469.8984         0.1329         0.0000         0.8397     0.40750000 
      -4.71720        47.9890         3.9414        82.5960        61.5672 
    0.30790001       356.1623         3.5154         5.4904        35.2661 
       39.2154        33.6893     0.39230001      4866.5327        92.1498
    3209.69640 
    48499.5977         0.8653         0.0000         0.8376     0.39840001 
      -4.68810        48.0733         4.3233        84.5945        60.1469 
    0.30750000       356.0212         3.4061         5.2932        35.9885 
       39.2262        32.6686     0.39690000      4866.6738        92.1534
    3209.84880 
    48786.2031         0.1452         0.0000         0.8509     0.41749999 
      -4.69110        47.8605         4.5769        83.5938        59.2888 
    0.31169999       356.0662         3.5648         5.5456        33.5533 
       39.3301        32.2537     0.39120001      4866.8408        92.1593
    3210.00120 
    48879.9023        -0.0337         0.0000         0.8926     0.42879999 
      -4.67520        48.0034         4.5103        77.4235        56.2706 
    0.31639999       356.1407         4.0957         5.8064        34.0684 
       39.3641        31.1404     0.37979999      4866.9624        92.1709
    3210.15360 
    48455.1992        -0.3761         0.0000         0.9732     0.43720001 
      -4.70380        48.1467         4.2015        83.8603        55.8120 
    0.31950000       356.2948         4.0641         5.8324        32.6820 
       39.2101        30.0638     0.36160001      4867.1055        92.1786
