~Version Information Block
VERS .                 2.00:  CWLS LOG ASCII STANDARD - VERSION 2.00
WRAP .                   NO:  One line per depth step
~Well Information Block
#MNEM.UNIT        Data Type   Information
#---------- ----------------  -----------
STRT .M          3454.45080:  START DEPTH
STOP .M          3788.05440:  STOP DEPTH
STEP .M             0.15240:  STEP
NULL .              -999.25:  NULL VALUE
COMP .              Statoil:  COMPANY
WELL .        NO_15/9-F-1_C:  WELL
FLD  .                Volve:  FIELD
LOC  .            North Sea:  LOCATION
CTRY .               Norway:  COUNTRY
STAT .                     :  STATE
CNTY .                     :  COUNTY
SRVC .         Schlumberger:  SERVICE COMPANY
DATE .          27-Nov-2014:  DATE
API  .                     :  API NUMBER
UWI  .           15/9-F-1 C:  UNIQUE WELL ID
LATI .     58° 26' 29.91" N:  LATITUDE
LONG .      1° 53' 14.71" E:  LONGITUDE
~Curve Information Block
#MNEM.UNIT         API CODE   Curve Description
#---------- ----------------  -----------------
DEPTH.M                    :  DEPTH (BOREHOLE)
CRRA .                     :  Near/Far Count Rate Ratio
CVEL .M/SEC                 :  Cable Velocity
DFRB .DEG                  :  Calibrated Relative Bearing
FBEF .UA                   :  RST Far Effective Beam Current
FCOR .                     :  RST Far Carbon/Oxygen Ratio
FERD .                     :  RST Far IC Mode Capture Optimization
FIRD .                     :  RST Far Inelastic Optimization Resolution
GR   .GAPI                 :  Gamma Ray
NCOR .                     :  RST Near Carbon/Oxygen Ratio
NERD .                     :  RST Near IC Mode Capture Optimization
NIRD .                     :  RST Near Inelastic Optimization Resolution
PFC1 .IN                   :  PFCS CaliperX
PFC2 .IN                   :  PFCS CaliperY
TENS .LBF                  :  Cable Tension
~Parameter Information Block
#MNEM.UNIT            Value   Description
#---------- ----------------  -----------
APD  .M           54.900002:  Elevation of Depth Reference (LMF) above Permanent Datum
EPD  .C3                  0:  Elevation of Permanent Datum above Mean Sea Level
LMF  .                   KB:  Logging Measured From (Name of Logging Elevation Reference)
PDAT .                  MSL:  Permanent Datum
RUN  .                Run 1:  RUN NUMBER
TAPE_NAME.     Statoil_Volve_15-9-F-1 C_PLT-RST_28Nov14_ConCu_R1L17Up_IC1.las:  
TOOL_STRING.              UNKNOWN:  
WN   .           15/9-F-1 C:  WELL
PROJECT.     SLEIPNER_OST@st-vlinapp01:  
SET  .        RSTD_1114_IC1:  
~Other Information Block
# 
~A       DEPTH           CRRA           CVEL           DFRB           FBEF           FCOR           FERD           FIRD             GR           NCOR           NERD           NIRD           PFC1           PFC2           TENS 
# ...
    3651.96120         2.7798      -0.007428       358.3940       120.6739         0.1799         5.3891         5.3891        27.1160        -0.8005         6.9432         6.9432         6.2533         6.0611      4290.0591
    3652.11360         2.7798      -0.007608       358.3940       120.8196        -0.1038         5.3891         5.3891        26.4295        -0.8005         6.9432         6.9432         6.2536         6.0639      4228.0430
    3652.26600         2.7742      -0.007712       359.8050       122.4130         0.5822         5.3891         5.3891        27.9741         0.2570         6.9432         6.9432         6.2557         6.0510      4271.0303
    3652.41840         2.7951      -0.008628       359.8050       120.2932         0.0308         5.3891         5.3891        27.8024        -0.4503         6.9432         6.9432         6.2488         6.0510      4267.2788
    3652.57080         2.7833      -0.009465       359.8050       123.4234        -0.1253         5.3891         5.3891        28.9057        -0.4842         6.9432         6.9432         6.2333         6.0510      4244.6470
    3652.72320         2.8489      -0.003507       358.3940       123.4234        -0.1253         5.3891         5.3891        27.8760         0.1494         6.9432         6.9432         6.2468         6.0510      4136.7188
    3652.87560         2.8489      -0.008223       359.8050       126.5743        -0.6271         5.3891         5.3891        28.3909         0.1494         6.9432         6.9432         6.2522         6.0510      4255.8389
    3653.02800         2.9221      -0.007967       359.8050       120.1715        -1.9373         5.3891         5.3891        28.2192         0.1542         6.9432         6.9432         6.2466         6.0512      4343.1626
    3653.18040         2.7777      -0.007317       359.8050       122.3787         0.2901         5.3710         5.3710        29.4206         0.1173         6.9432         6.9432         6.2286         6.0510      4345.3862
    3653.33280         2.8229      -0.007648       359.8050       119.8834         0.0263         5.3710         5.3710        29.0038         0.1598         7.0189         7.0189         6.2483         6.0510      4285.5693
    3653.48520         2.7393      -0.007107       359.8050       119.8834         0.0263         5.3710         5.3710        31.9213        -0.0739         7.0189         7.0189         6.2346         6.0510      4283.0527
    3653.63760         2.7393      -0.007028       359.8050       122.6486         0.1894         5.3710         5.3710        30.5484        -0.0739         7.0189         7.0189         6.2458         6.0506      4317.2959
    3653.79000         2.8861      -0.005478       359.8050       118.9256         0.1858         5.3710         5.3710        28.8322         0.2010         7.0189         7.0189         6.2533         6.0504      4311.0957
    3653.94240         2.7300      -0.005332       359.8050       125.4821        -0.4851         5.3710         5.3710        28.1457        -0.0818         7.0189         7.0189         6.2532         6.0508      4353.4263
    3654.09480         2.8804      -0.004572         5.6440       121.6231        -0.3160         5.3710         5.3710        29.8619        -0.4842         7.0189         7.0189         6.2532         6.0510      4325.2295
    3654.24720         2.8264      -0.005215       131.2230       122.2971        -0.0235         5.3710         5.3710        25.7430        -0.0607         7.0189         7.0189         6.2530         6.0510      4354.8335
    3654.39960         2.7602      -0.004973         1.4110       122.2971        -0.0235         5.3710         5.3710        25.9146        -0.3770         7.0189         7.0189         6.2526         6.0510      4348.2642
    3654.55200         2.7602      -0.004402         1.4110       125.6069         0.0879         5.4411         5.4411        27.3857        -0.3770         7.0189         7.0189         6.2533         6.0509      4350.3115
    3654.70440         2.8608      -0.005418         1.4110       122.5543       -81.3324         5.4411         5.4411        27.3857         0.2400         7.0209         7.0209         6.2538         6.0509      4374.3608
    3654.85680         2.8192      -0.005003         1.4110       117.7408         0.2013         5.4411         5.4411        24.8113         0.0857         7.0209         7.0209         6.2525         6.0510      4232.5107
    3655.00920         2.7575      -0.007830         1.4110       120.0921        -0.1800         5.4411         5.4411        28.4154         0.0607         7.0209         7.0209         6.2295         6.0472      4337.6748
    3655.16160         2.7318      -0.007337         1.4110       120.0921        -0.1800         5.4411         5.4411        29.6167         0.2243         7.0209         7.0209         6.2224         6.0447      4310.6377
    3655.31400         2.7318      -0.005042         1.4110       120.2252        -0.0496         5.4411         5.4411        30.5484         0.2243         7.0209         7.0209         6.2220         6.0460      4226.6074
    3655.46640         2.7370      -0.007305       359.8050       119.8827        -0.0617         5.4411         5.4411        32.7794        -0.0525         7.0209         7.0209         6.2219         6.0507      4167.0806
    3655.61880         2.7742      -0.007063       359.8050       123.0137        -0.0559         5.4411         5.4411        34.1524        -0.0285         7.0209         7.0209         6.2221         6.0510      4349.5850
    3655.77120         2.8629      -0.013047       359.8050       127.5415        -0.2508         5.4228         5.4228        32.2646        -0.2077         7.0209         7.0209         6.2222         6.0510      4351.8066
    3655.92360         2.9622      -0.007015       359.8050       120.4381         0.0235         5.4228         5.4228        33.8091         0.1107         7.0680         7.0680         6.2234         6.0510      4366.7471
    3656.07600         2.8453      -0.006920         1.4110       120.4381         0.0235         5.4228         5.4228        32.5097         0.0253         7.0680         7.0680         6.2355         6.0509      4442.2266
    3656.22840         2.8453      -0.006570         1.4110       124.2926        -1.0064         5.4228         5.4228        30.4503         0.0253         7.0680         7.0680         6.2241         6.0279      4407.8965
    3656.38080         2.8949      -0.006607         1.4110       125.3826         0.1328         5.4228         5.4228        30.9651         0.2102         7.0680         7.0680         6.2219         6.0192      4482.7241
    3656.53320         2.8228      -0.006467         1.4110       123.2916         0.4113         5.4228         5.4228        30.7935         0.2810         7.0680         7.0680         6.2219         6.0226      4451.6040
    3656.68560         2.8268      -0.007280         1.4110       123.5069         0.4155         5.4228         5.4228        29.9354         0.0503         7.0680         7.0680         6.2219         6.0506      4347.3130
    3656.83800         2.8212      -0.010685         1.4110       125.4906         0.1417         5.4228         5.4228        29.1754         0.1701         7.0680         7.0680         6.2219         6.0504      4361.9048
    3656.99040         2.8372      -0.008543         1.4110       125.4906         0.1417         5.4228         5.4228        30.2051        -0.1395         7.0680         7.0680         6.2219         6.0505      4331.5752
    3657.14280         2.8372      -0.007968         1.4110       124.7457         0.0889         5.3491         5.3491        31.0632        -0.1395         7.0680         7.0680         6.2221         6.0502      4321.8149
    3657.29520         2.8813      -0.007505         1.4110       125.0603        -0.0386         5.3491         5.3491        31.4065         0.2879         7.0262         7.0262         6.2264         6.0503      4447.9971
