~Version Information Block
VERS .                 2.00:  CWLS LOG ASCII STANDARD - VERSION 2.00
WRAP .                   NO:  One line per depth step
~Well Information Block
#MNEM.UNIT        Data Type   Information
#---------- ----------------  -----------
STRT .M          3445.61160:  START DEPTH
STOP .M          3638.55000:  STOP DEPTH
STEP .M             0.15240:  STEP
NULL .              -999.25:  NULL VALUE
COMP .              Statoil:  COMPANY
WELL .          NO_15/9-F-5:  WELL
FLD  .                VOLVE:  FIELD
LOC  .            North Sea:  LOCATION
CTRY .                     :  COUNTRY
STAT .                     :  STATE
CNTY .                     :  COUNTY
SRVC .         Schlumberger:  SERVICE COMPANY
DATE .          16-Sep-2012:  DATE
API  .                     :  API NUMBER
UWI  .             15/9-F-5:  UNIQUE WELL ID
~Curve Information Block
#MNEM.UNIT         API CODE   Curve Description
#---------- ----------------  -----------------
DEPTH.M                    :  DEPTH (BOREHOLE)
CCLC .V                    :  CCL
CCLD .V                    :  CCL Discriminated Amplitude
CRRA .                     :  Near-Far Count Rate Ratio
CS   .F/MN                 :  Cable Speed
CVEL .M/MIN                 :  Cable Velocity
DEVI .DEG                  :  Hole Deviation
FBEF .UA                   :  RST Far Effective Beam Current
FCOR .                     :  RST Far Carbon/Oxygen Ratio
FERD .                     :  RST Far IC Mode Capture Optimization Resolution Degradation Factor
FIRD .                     :  RST Far Inelastic Optimization Resolution Degradation Factor
GR   .GAPI                 :  Gamma Ray
NCOR .                     :  RST Near Carbon/Oxygen Ratio
NERD .                     :  RST Near IC Mode Capture Optimization Resolution Degradation Factor
NIRD .                     :  RST Near Inelastic Optimization Resolution Degradation Factor
RB_PCMS.DEG                  :  Relative Bearing
TENS .LBF                  :  Cable Tension
WPRE .PSI                  :  Well Pressure
WTEP .DEGC                 :  Well Temperature
~Parameter Information Block
#MNEM.UNIT            Value   Description
#---------- ----------------  -----------
APD  .M           54.900002:  Elevation of Depth Reference (LMF) above Permanent Datum
RUN  .                Run 1:  RUN NUMBER
PROJECT.     SLEIPNER_OST@st-vlinapp01:  
SET  .        RSTD_0912_IC2:  
~Other Information Block
# 
~A       DEPTH           CCLC           CCLD           CRRA             CS           CVEL           DEVI           FBEF           FCOR           FERD           FIRD             GR           NCOR           NERD           NIRD        RB_PCMS           TENS           WPRE           WTEP 
# ...
    3573.78000         0.0450         0.0000         2.9891         1.1394      -0.342900        54.5637       116.6633     0.05350000         4.7187         4.7187        49.5858     0.00830000         2.4261         2.4261         8.2781      2784.2705      5098.8345        85.0983
    3573.93240         0.0519         0.0000         3.0119         1.1998      -0.354500        54.5525       115.3547     0.00820000         4.8277         4.8277        49.6614    -0.00520000         2.4859         2.4859         8.3977      2792.4756      5098.9521        85.0722
    3574.08480        -0.0168         0.0000         2.9868         1.2093      -0.367000        54.5475       117.1358     0.02920000         4.7668         4.7668        49.6022    -0.06050000         2.4657         2.4657         8.4127      2780.1313      5099.0894        85.0516
    3574.23720         0.0172         0.0000         3.0004         1.1972      -0.365900        54.5206       115.5649    -0.01320000         4.7191         4.7191        50.5437     0.06200000         2.4866         2.4866         8.4624      2793.2588      5099.1968        85.0327
    3574.38960         0.1608         0.0000         2.9622         1.1903      -0.366100        54.5131       115.1864    -0.00230000         4.7668         4.7668        50.7425    -0.01770000         2.4909         2.4909         8.4184      2782.1680      5099.3047        85.0049
    3574.54200         0.0235         0.0000         2.9353         1.2051      -0.366300        54.5004       114.8632    -0.07600000         4.7131         4.7131        50.6448     0.07330000         2.4995         2.4995         8.3785      2786.7546      5099.4492        84.9924
    3574.69440        -0.0398         0.0000         2.9266         1.2136      -0.368400        54.4307       114.8577    -0.08050000         4.6704         4.6704        51.3782     0.02530000         2.4170         2.4170         8.4859      2782.8010      5099.5591        84.9741
    3574.84680         0.0245         0.0000         2.9335         1.2096      -0.368400        54.4056       115.0253    -0.03700000         4.7170         4.7170        52.1923     0.04630000         2.4465         2.4465         8.3172      2787.0884      5099.6675        84.9522
    3574.99920         0.0265         0.0000         2.9382         1.1942      -0.368600        54.3941       115.8054    -0.01670000         4.7420         4.7420        51.9583     0.00070000         2.4346         2.4346         8.4430      2790.4099      5099.8311        84.9244
    3575.15160         0.0334         0.0000         2.9570         1.2333      -0.373100        54.3814       115.5767     0.06090000         4.8298         4.8298        52.1119    -0.05620000         2.4615         2.4615         8.3633      2791.6821      5099.9370        84.9064
    3575.30400         0.0374         0.0000         2.9455         1.2287      -0.372600        54.3726       115.7473    -0.01690000         4.8102         4.8102        52.9251     0.05170000         2.3642         2.3642         8.4400      2782.4116      5100.0571        84.8935
    3575.45640         0.0114         0.0000         2.9814         1.1975      -0.365900        54.3656       117.7597     0.04560000         4.8506         4.8506        52.2288     0.05070000         2.3586         2.3586         8.4599      2789.0532      5100.1665        84.8663
    3575.60880         0.0500         0.0500         3.0904         1.2001      -0.370500        54.3551       119.4526    -0.10630000         4.8315         4.8315        51.0103    -0.00640000         2.4785         2.4785         8.5173      2786.9192      5100.2822        84.8504
    3575.76120         0.0509         0.0509         3.1983         1.2254      -0.390000        54.3442       119.6777     0.03640000         4.6698         4.6698        50.7893     0.05910000         2.4121         2.4121         8.4941      2790.9375      5100.4048        84.8256
    3575.91360        -2.3342        -2.3342         3.1353         1.2297      -0.376300        54.3458       116.8698     0.06830000         4.5698         4.5698        51.3955    -0.01530000         2.3415         2.3415         8.5106      2786.4438      5100.5269        84.8135
    3576.06600        -0.0049         0.0000         3.0043         1.2500      -0.379700        54.3384       114.1705    -0.01940000         4.6040         4.6040        51.7872     0.01130000         2.3318         2.3318         8.5728      2781.3547      5100.6396        84.7829
    3576.21840        -0.0051         0.0000         2.9362         1.2536      -0.379500        54.3095       114.2602    -0.06350000         4.4816         4.4816        53.2072     0.02850000         2.3398         2.3398         8.6131      2778.2769      5100.7896        84.7673
    3576.37080        -0.0048         0.0000         2.9260         1.2625      -0.383300        54.2839       114.2542     0.11280000         4.5368         4.5368        54.8549     0.03320000         2.3812         2.3812         8.5683      2790.1956      5100.8867        84.7477
    3576.52320        -0.0002         0.0000         2.9292         1.2372      -0.382600        54.2846       114.3727     0.02640000         4.6002         4.6002        55.8864    -0.01820000         2.3508         2.3508         8.6345      2793.9973      5100.9873        84.7270
    3576.67560        -0.0030         0.0000         2.9298         1.2408      -0.381500        54.2790       113.5685     0.01800000         4.6467         4.6467        56.3502    -0.05430000         2.3161         2.3161         8.6920      2792.5542      5101.1235        84.6983
    3576.82800        -0.0022         0.0000         2.8989         1.2789      -0.386100        54.2851       113.0580    -0.01210000         4.6511         4.6511        56.2947     0.01260000         2.3100         2.3100         8.6137      2801.2278      5101.2422        84.6909
    3576.98040        -0.0324         0.0000         2.9023         1.2628      -0.385100        54.2919       113.1763     0.10200000         4.6542         4.6542        54.7169     0.01160000         2.2979         2.2979         8.3695      2791.6321      5101.3545        84.6620
    3577.13280         0.0018         0.0000         2.8959         1.2497      -0.384100        54.2930       112.5373     0.05380000         4.6916         4.6916        53.7128     0.06500000         2.2578         2.2578         8.3388      2783.1350      5101.4702        84.6423
    3577.28520        -0.0030         0.0000         2.8938         1.2717      -0.385100        54.3017       112.1102    -0.02790000         4.7109         4.7109        53.4963    -0.02290000         2.1979         2.1979         8.3333      2794.7837      5101.5669        84.6151
    3577.43760        -0.0030         0.0000         2.8982         1.2369      -0.384300        54.3045       111.5062     0.07390000         4.6619         4.6619        53.1790     0.04060000         2.1962         2.1962         8.2958      2784.7466      5101.7534        84.5968
    3577.59000        -0.0024         0.0000         2.8969         1.2539      -0.381800        54.2981       111.2121     0.07640000         4.6807         4.6807        52.6998    -0.03120000         2.2909         2.2909         8.1150      2788.8074      5101.8374        84.5851
    3577.74240        -0.0011         0.0000         2.8746         1.2579      -0.382400        54.3114       111.5155     0.07200000         4.5310         4.5310        52.9737     0.00170000         2.2421         2.2421         7.9929      2782.5728      5101.9629        84.5497
    3577.89480         0.0138         0.0000         2.8726         1.2411      -0.380400        54.3153       111.4311    -0.02780000         4.5027         4.5027        52.4046     0.01010000         2.2890         2.2890         7.8695      2783.4556      5102.0830        84.5314
    3578.04720        -0.0007         0.0000         2.8691         1.2372      -0.377800        54.3090       112.8344     0.02260000         4.3991         4.3991        50.8878     0.06070000         2.4118         2.4118         7.8099      2798.7190      5102.1997        84.5032
