~Version Information Block
VERS .                 2.00:  CWLS LOG ASCII STANDARD - VERSION 2.00
WRAP .                  YES:  Multiple lines per depth step
~Well Information Block
#MNEM.UNIT        Data Type   Information
#---------- ----------------  -----------
STRT .M          3174.64440:  START DEPTH
STOP .M          3422.90400:  STOP DEPTH
STEP .M             0.15240:  STEP
NULL .              -999.25:  NULL VALUE
COMP .         StatoilHydro:  COMPANY
WELL .          NO_15/9-F-4:  WELL
FLD  .                VOLVE:  FIELD
LOC  .            North Sea:  LOCATION
CTRY .                     :  COUNTRY
STAT .                     :  STATE
CNTY .                     :  COUNTY
SRVC .         Schlumberger:  SERVICE COMPANY
DATE .          13-Sep-2012:  DATE
API  .                     :  API NUMBER
UWI  .             15/9-F-4:  UNIQUE WELL ID
~Curve Information Block
#MNEM.UNIT         API CODE   Curve Description
#---------- ----------------  -----------------
DEPTH.M                    :  DEPTH (BOREHOLE)
BSAL .PPM                  :  Borehole Salinity
CCLC .V                    :  CCL
CCLD .V                    :  CCL Discriminated Amplitude
CIRF .                     :  RST Capture to Inelastic Ratio Far
CIRN .                     :  RST Capture to Inelastic Ratio Near
CVEL .M/MIN                 :  Cable Velocity
DEVI .DEG                  :  Hole Deviation
DSIG .CU                   :  Sigma Difference
FBEF .UA                   :  RST Far Effective Beam Current
GR   .GAPI                 :  Gamma Ray
IRAT .                     :  RST Inelastic Ratio
RB_PCMS.DEG                  :  Relative Bearing
RSCF .                     :  RST Far Detector Effective Unregulated Capture Count Rate
RSCN .                     :  RST Near Detector Effective Unregulated Capture Count Rate
SFFA .CU                   :  RST Sigma Formation Far Apparent
SIBF .CU                   :  RST Sigma Borehole Fluid
SIGM .CU                   :  Formation Sigma (Neutron Capture Cross Section)
TPHI .V/V                  :  Thermal Decay Porosity
WPRE .PSI                  :  Well Pressure
WTEP .DEGC                 :  Well Temperature
~Parameter Information Block
#MNEM.UNIT            Value   Description
#---------- ----------------  -----------
APD  .M                  54:  Elevation of Depth Reference (LMF) above Permanent Datum
BHS  .                 CASE:  Borehole Status (Open or Cased Hole)
BS   .IN                8.5:  Bit Size
BSAL .PPM       34972.17188:  Borehole Salinity
BSALOPT.              UNKNOWN:  Borehole Salinity Option
CSID .IN              6.184:  Casing Inner Diameter
CSIZ .IN                  7:  Current Casing Size
CWEI .LB/F               29:  Casing Weight
MATR .                 SAND:  Rock Matrix for Neutron Porosity Corrections
RUN  .                    4:  RUN NUMBER
PROJECT.     SLEIPNER_OST@st-vlinapp01:  
SET  .       RSTD_0912_SIG1:  
~Other Information Block
~Ascii Log Data
# ...
    3238.04280 
    38997.8008        -0.0378         0.0000         0.5455     0.35690001 
      -4.69570        50.4744        -0.5261        88.2807        24.8109 
    0.28950000       356.9625         2.2433         5.0007        48.0237 
       35.8014        45.9500     0.35319999      4892.5874        93.2808
    3238.19520 
    39501.0977        -0.0634         0.0000         0.5569     0.35820001 
      -4.69940        50.6113        -0.2412        88.1393        25.8406 
    0.28920001       357.0434         2.3461         5.1210        48.4689 
       35.9818        44.9147     0.36660001      4892.7188        93.2857
    3238.34760 
    39740.0000         0.2570         0.0000         0.5855     0.36939999 
      -4.72350        50.6073         0.2839        87.4681        26.7283 
    0.28790000       357.2026         2.3571         4.9419        42.8773 
       36.0675        42.9917     0.38310000      4892.8296        93.2947
    3238.50000 
    39928.6016         0.0444         0.0000         0.6607     0.38670000 
      -4.74000        50.5765         0.2279        90.5469        25.8406 
    0.29319999       357.3393         2.5414         5.1728        42.4639 
       36.1352        40.7710     0.38929999      4892.9795        93.3001
    3238.65240 
    39853.1016        -0.0707         0.0000         0.7241     0.39080000 
      -4.69950        50.5610         0.2263        85.2352        25.8318 
    0.30270001       357.2814         2.8916         5.0739        41.9022 
       36.1081        37.7430     0.38350001      4893.1128        93.3083
    3238.80480 
    39178.0000         0.2793         0.0000         0.9173     0.42770001 
      -4.69840        50.6059         0.4400        80.2180        24.0919 
    0.31250000       357.1460         3.8328         5.4613        33.8912 
       35.8659        34.7382     0.37140000      4893.2349        93.3113
    3238.95720 
    39975.8008        -0.1355         0.0000         1.0053     0.45710000 
      -4.65830        50.6308         1.0202        80.9169        23.2042 
    0.31580001       357.1282         4.2860         6.1464        33.5312 
       36.1521        31.9264     0.37310001      4893.3647        93.3152
    3239.10960 
    40434.6016         0.0228         0.0000         0.9621     0.45829999 
      -4.70570        50.5923         1.8533        80.8322        21.9614 
    0.31099999       357.1041         4.1135         6.1482        33.5641 
       36.3168        32.7416     0.37560001      4893.5264        93.3237
    3239.26200 
    40437.0000         0.0266         0.0000         0.8819     0.43160000 
      -4.72950        50.6607         2.4684        81.2556        20.8962 
    0.30700001       357.0981         3.9323         6.3034        36.5087 
       36.3176        34.2482     0.38409999      4893.6426        93.3320
    3239.41440 
    40006.3008        -0.0539         0.0000         0.7794     0.41560000 
      -4.69710        50.7530         2.8332        80.3278        20.1328 
    0.30610001       357.2508         3.5184         6.0496        38.1442 
       36.1630        36.1910     0.38839999      4893.7500        93.3464
    3239.56680 
    39890.7031        -0.0877         0.0000         0.8062     0.41720000 
      -4.58560        50.6223         3.2980        83.7076        20.2748 
    0.30910000       357.2666         3.4086         5.5911        39.5231 
       36.1215        37.0969     0.38560000      4893.9194        93.3545
    3239.71920 
    40222.5977        -0.0760         0.0000         0.7265     0.41029999 
      -4.63790        50.6547         3.4011        83.8563        21.0767 
    0.31040001       357.2451         3.1212         5.5340        39.4160 
       36.2407        36.3223     0.38600001      4894.0610        93.3575
    3239.87160 
    40074.9023        -0.0944         0.0000         0.8500     0.40549999 
      -4.67650        50.7932         3.8083        85.5849        20.5441 
    0.31220001       357.1582         3.6899         5.8129        35.9001 
       36.1877        35.1069     0.37439999      4894.1646        93.3640
    3240.02400 
    40510.8984        -0.2489         0.0000         0.8799     0.42280000 
      -4.71860        50.7812         3.9579        83.9057        20.9879 
    0.31439999       357.1258         3.8135         5.7947        35.9472 
       36.3441        33.5657     0.36640000      4894.3022        93.3669
    3240.17640 
    40082.6016         0.0668         0.0000         0.9273     0.42910001 
      -4.73250        50.6965         4.4215        80.3872        22.1893 
    0.31639999       357.2039         4.1131         5.8488        34.7904 
       36.1904        32.1802     0.35280001      4894.4517        93.3729
    3240.32880 
    39699.0000         0.1384         0.0000         0.9901     0.45289999 
      -4.70610        50.7945         4.7419        78.8507        22.8994 
    0.31950000       357.1450         4.3780         6.1605        31.7989 
       36.0528        29.8069     0.34430000      4894.5850        93.3794
    3240.48120 
    39439.6992        -0.0745         0.0000         1.0946     0.47099999 
      -4.69300        50.8053         4.8869        76.7822        24.5831 
    0.31930000       357.0164         4.9909         6.4277        28.9388 
       35.9598        27.6763     0.32269999      4894.7085        93.3871
    3240.63360 
    39017.6992         0.0960         0.0000         1.2897     0.50150001 
      -4.71680        50.7157         4.8393        79.6105        24.8494 
    0.32130000       356.8702         5.5793         6.7892        28.5077 
       35.8085        26.2755     0.28540000      4894.8872        93.3942
    3240.78600 
    39095.9023        -0.0957         0.0000         1.3481     0.50800002 
      -4.69120        50.7847         4.3512        77.5692        24.3789 
    0.32310000       356.7771         5.8721         6.5940        27.6854 
       35.8365        24.9360     0.24950001      4895.0059        93.3978
    3240.93840 
    38642.6016         0.3016         0.0000         1.5843     0.53079998 
      -4.70560        50.9236         3.6953        80.0588        23.8522 
    0.32690001       356.7057         6.7461         6.8808        24.8891 
       35.6741        23.2613     0.22139999      4895.1147        93.4007
    3241.09080 
    38961.0000         0.2302         0.0000         1.6543     0.56819999 
      -4.71670        50.9412         3.2911        76.3409        23.5859 
    0.33280000       356.3074         7.5618         7.6690        23.4331 
       35.7882        21.5774     0.21510001      4895.2520        93.4057
    3241.24320 
    38935.0000         0.1237         0.0000         1.6747     0.59109998 
      -4.71810        50.8510         2.9013        74.7233        22.1597 
    0.33649999       355.8981         7.9846         8.1029        22.5496 
       35.7788        20.5682     0.22170000      4895.3887        93.4134
    3241.39560 
    39034.6992        -0.0510         0.0000         1.6735     0.59219998 
      -4.69700        50.9032         2.3804        75.8218        25.9768 
    0.33530000       355.8679         7.7741         7.8973        21.7302 
       35.8146        20.3961     0.24030000      4895.5098        93.4170
    3241.54800 
    39944.0000        -0.2093         0.0000         1.5816     0.58870000 
      -4.69470        50.9686         2.0169        80.7333        29.3766 
    0.33600000       355.9500         6.8999         7.7379        22.8105 
       36.1407        21.5607     0.26050001      4895.6616        93.4289
    3241.70040 
    40189.6992         0.0019         0.0000         1.4659     0.58359998 
      -4.69930        50.9673         2.0329        78.8469        32.8386 
    0.33460000       356.0454         6.4212         7.5517        25.9408 
       36.2289        23.1221     0.27890000      4895.8037        93.4379
    3241.85280 
    41076.0000         0.0528         0.0000         1.3745     0.56910002 
      -4.71730        51.0158         1.8810        81.9284        36.1142 
    0.33350000       356.1946         5.9480         7.5748        26.3518 
       36.5471        24.6105     0.28920001      4895.8955        93.4469
