~Version Information Block
VERS .                 2.00:  CWLS LOG ASCII STANDARD - VERSION 2.00
WRAP .                   NO:  One line per depth step
~Well Information Block
#MNEM.UNIT        Data Type   Information
#---------- ----------------  -----------
STRT .M          3445.30680:  START DEPTH
STOP .M          3635.80680:  STOP DEPTH
STEP .M             0.15240:  STEP
NULL .              -999.25:  NULL VALUE
COMP .              Statoil:  COMPANY
WELL .          NO_15/9-F-5:  WELL
FLD  .                VOLVE:  FIELD
LOC  .            North Sea:  LOCATION
CTRY .                     :  COUNTRY
STAT .                     :  STATE
CNTY .                     :  COUNTY
SRVC .         Schlumberger:  SERVICE COMPANY
DATE .          16-Sep-2012:  DATE
API  .                     :  API NUMBER
UWI  .             15/9-F-5:  UNIQUE WELL ID
~Curve Information Block
#MNEM.UNIT         API CODE   Curve Description
#---------- ----------------  -----------------
DEPTH.M                    :  DEPTH (BOREHOLE)
CCLC .V                    :  CCL
CCLD .V                    :  CCL Discriminated Amplitude
CRRA .                     :  Near-Far Count Rate Ratio
CS   .F/MN                 :  Cable Speed
CVEL .M/MIN                 :  Cable Velocity
DEVI .DEG                  :  Hole Deviation
FBEF .UA                   :  RST Far Effective Beam Current
FCOR .                     :  RST Far Carbon/Oxygen Ratio
FERD .                     :  RST Far IC Mode Capture Optimization Resolution Degradation Factor
FIRD .                     :  RST Far Inelastic Optimization Resolution Degradation Factor
GR   .GAPI                 :  Gamma Ray
NCOR .                     :  RST Near Carbon/Oxygen Ratio
NERD .                     :  RST Near IC Mode Capture Optimization Resolution Degradation Factor
NIRD .                     :  RST Near Inelastic Optimization Resolution Degradation Factor
RB_PCMS.DEG                  :  Relative Bearing
TENS .LBF                  :  Cable Tension
WPRE .PSI                  :  Well Pressure
WTEP .DEGC                 :  Well Temperature
~Parameter Information Block
#MNEM.UNIT            Value   Description
#---------- ----------------  -----------
APD  .M           54.900002:  Elevation of Depth Reference (LMF) above Permanent Datum
RUN  .                Run 1:  RUN NUMBER
PROJECT.     SLEIPNER_OST@st-vlinapp01:  
SET  .        RSTD_0912_IC1:  
~Other Information Block
# 
~A       DEPTH           CCLC           CCLD           CRRA             CS           CVEL           DEVI           FBEF           FCOR           FERD           FIRD             GR           NCOR           NERD           NIRD        RB_PCMS           TENS           WPRE           WTEP 
# ...
    3617.67120         0.0312         0.0000         2.8502         1.7156      -0.519500        54.5636       112.0738    -0.00530000         4.4054         4.4054        15.7287      -0.097400         2.2746         2.2746         7.4838      2730.9170      5137.6841        70.0212
    3617.82360        -0.0498         0.0000         2.8644         1.7323      -0.528100        54.5855       111.7295     0.02780000         4.3326         4.3326        15.5873       0.052100         2.2906         2.2906         7.4439      2728.2510      5137.8125        70.0679
    3617.97600         0.0038         0.0000         2.8480         1.7375      -0.529000        54.5731       111.5216     0.05970000         4.3569         4.3569        15.3884       0.026700         2.2889         2.2889         7.5019      2731.9539      5137.9292        70.1289
    3618.12840         0.0032         0.0000         2.8530         1.7270      -0.525700        54.5832       111.7653    -0.06730000         4.3736         4.3736        15.3475       0.015000         2.3135         2.3135         7.5980      2724.7039      5138.0361        70.1754
    3618.28080         0.0040         0.0000         2.8327         1.6877      -0.522200        54.5972       113.1067     0.01940000         4.2560         4.2560        15.8745      -0.030200         2.3189         2.3189         7.5328      2732.9697      5138.1909        70.2302
    3618.43320         0.0078         0.0000         2.8415         1.7100      -0.524300        54.5985       112.7316     0.07940000         4.2843         4.2843        15.7790       0.019300         2.3163         2.3163         7.6049      2741.2539      5138.3584        70.2873
    3618.58560        -0.0084         0.0000         2.8281         1.6942      -0.521100        54.5980       114.1555     0.06030000         4.1654         4.1654        15.2729      -0.047700         2.3138         2.3138         7.7439      2753.8784      5138.4644        70.3582
    3618.73800        -0.0097         0.0000         2.8320         1.7671      -0.537200        54.5864       115.1756    -0.17420000         4.2282         4.2282        14.9419      -0.065800         2.2935         2.2935         7.8819      2752.1133      5138.5903        70.3941
    3618.89040        -0.0147         0.0000         2.8248         1.7851      -0.551400        54.5766       115.0677    -0.11490000         4.1851         4.1851        14.9622       0.011300         2.2909         2.2909         7.8927      2745.0603      5138.7339        70.4426
    3619.04280        -0.0102         0.0000         2.8215         1.8530      -0.567400        54.5849       115.2772    -0.11530000         4.2337         4.2337        14.1168       0.006200         2.2692         2.2692         7.9206      2738.2881      5138.8281        70.5062
    3619.19520        -0.0124         0.0000         2.8091         2.0000      -0.606200        54.5778       116.4071    -0.06420000         4.1937         4.1937        13.9449      -0.022400         2.2525         2.2525         7.9915      2747.9734      5138.9878        70.6129
    3619.34760        -0.0109         0.0000         2.8274         1.9249      -0.577200        54.5822       115.5408    -0.05640000         4.1907         4.1907        14.2538      -0.030900         2.2540         2.2540         8.0799      2728.0466      5139.1523        70.6622
    3619.50000        -0.0188         0.0000         2.8104         1.6161      -0.479200        54.5832       116.9426    -0.10930000         4.1313         4.1313        14.6746       0.017700         2.2505         2.2505         8.1306      2732.7234      5139.2783        70.6983
    3619.65240        -0.0159         0.0000         2.8310         1.2707      -0.387800        54.5757       115.4804    -0.06810000         4.0417         4.0417        14.4839      -0.058300         2.2186         2.2186         8.1166      2729.9407      5139.4043        70.7377
    3619.80480        -0.0135         0.0000         2.8256         1.3471      -0.424400        54.5696       114.4077     0.03340000         4.0158         4.0158        14.9723      -0.022500         2.2565         2.2565         8.0752      2720.3345      5139.5210        70.7910
    3619.95720        -0.0153         0.0000         2.8297         2.3274      -0.747100        54.5670       113.7048    -0.07950000         3.9214         3.9214        15.1081       0.023600         2.2545         2.2545         8.1149      2752.8271      5139.6860        70.7920
    3620.10960        -0.0187         0.0000         2.8536         2.6719      -0.567800        54.5613       114.4098     0.04170000         3.9955         3.9955        14.9358      -0.033200         2.2316         2.2316         8.2322      2737.2693      5139.8042        70.8701
    3620.26200         0.0250         0.0000         2.8312         2.1109      -0.477400        54.5605       113.8807    -0.11470000         3.9408         3.9408        14.7674      -0.005400         2.2374         2.2374         8.2705      2711.7361      5139.9561        70.9180
    3620.41440         0.0101         0.0000         2.8306         2.1837      -0.672700        54.5644       114.0934    -0.05720000         3.8947         3.8947        14.6604      -0.034200         2.2055         2.2055         8.0281      2741.6960      5140.0625        71.0104
    3620.56680        -0.1353         0.0000         2.8420         2.1693      -0.667500        54.5794       113.9226    -0.04760000         3.8903         3.8903        14.3769       0.012700         2.2052         2.2052         7.8061      2743.9807      5140.1797        71.0564
    3620.71920         0.1266         0.0000         2.8389         2.1998      -0.666900        54.5910       114.0925     0.00760000         3.9505         3.9505        14.3824      -0.041400         2.1918         2.1918         7.7708      2736.7622      5140.3799        71.1256
    3620.87160        -0.0182         0.0000         2.8431         2.2119      -0.675900        54.5948       114.6273     0.13010000         4.0255         4.0255        14.1769       0.066000         2.1757         2.1757         7.7172      2743.7795      5140.4941        71.1778
    3621.02400        -0.0064         0.0000         2.8592         2.2192      -0.673600        54.5978       114.5474    -0.11220000         3.9508         3.9508        13.7868       0.022600         2.1263         2.1263         7.6900      2714.1577      5140.6309        71.1614
    3621.17640        -0.0082         0.0000         2.8428         2.1923      -0.672100        54.6297       114.7007     0.11590000         3.9844         3.9844        13.7466      -0.048700         2.1075         2.1075         7.7154      2740.1323      5140.7451        71.2033
    3621.32880        -0.0040         0.0000         2.8624         2.2185      -0.675100        54.6247       114.5109    -0.10420000         4.0067         4.0067        14.0859      -0.061500         2.1165         2.1165         7.7370      2738.3499      5140.9019        71.2784
    3621.48120        -0.0080         0.0000         2.8716         2.1988      -0.671900        54.6262       113.6894    -0.06470000         4.0344         4.0344        13.9270      -0.171500         2.1368         2.1368         7.7230      2738.0393      5141.0166        71.3941
    3621.63360        -0.0096         0.0000         2.9121         2.1969      -0.674400        54.6397       116.7396    -0.06160000         4.0498         4.0498        14.3299       0.016400         2.1128         2.1128         7.7204      2737.0049      5141.1665        71.4478
    3621.78600        -0.0092         0.0000         2.8803         2.2057      -0.674900        54.6416       114.9274     0.06200000         4.0989         4.0989        14.7604       0.029000         2.1035         2.1035         7.6797      2763.0591      5141.2798        71.5588
    3621.93840        -0.0091         0.0000         2.8691         2.1919      -0.673300        54.6428       113.8241     0.04010000         4.2993         4.2993        15.2924      -0.033600         2.0864         2.0864         7.7071      2749.5854      5141.4463        71.5823
