~Version Information Block
VERS .                 2.00:  CWLS LOG ASCII STANDARD - VERSION 2.00
WRAP .                  YES:  Multiple lines per depth step
~Well Information Block
#MNEM.UNIT        Data Type   Information
#---------- ----------------  -----------
STRT .M          3513.58200:  START DEPTH
STOP .M          3649.06560:  STOP DEPTH
STEP .M             0.15240:  STEP
NULL .              -999.25:  NULL VALUE
COMP .              Statoil:  COMPANY
WELL .        NO_15/9-F-1_C:  WELL
FLD  .                Volve:  FIELD
LOC  .            North Sea:  LOCATION
CTRY .               Norway:  COUNTRY
STAT .                     :  STATE
CNTY .                     :  COUNTY
SRVC .         Schlumberger:  SERVICE COMPANY
DATE .          27-Nov-2014:  DATE
API  .                     :  API NUMBER
UWI  .           15/9-F-1 C:  UNIQUE WELL ID
LATI .     58° 26' 29.91" N:  LATITUDE
LONG .      1° 53' 14.71" E:  LONGITUDE
~Curve Information Block
#MNEM.UNIT         API CODE   Curve Description
#---------- ----------------  -----------------
DEPTH.M                    :  DEPTH (BOREHOLE)
BSAL .PPM                  :  Borehole Salinity
CCLC .V                    :  CCL
CIRF .                     :  RST Capture to Inelastic Ratio Far
CIRN .                     :  RST Capture to Inelastic Ratio Near
CVEL .M/SEC                 :  Cable Velocity
DFRB .DEG                  :  Calibrated Relative Bearing
DSIG .CU                   :  Sigma Difference
FBEF .UA                   :  RST Far Effective Beam Current
GR   .GAPI                 :  Gamma Ray
IRAT .                     :  RST Inelastic Ratio
PFC1 .IN                   :  PFCS CaliperX
PFC2 .IN                   :  PFCS CaliperY
RSCF .                     :  RST Far Detector Effective Unregulated
RSCN .                     :  RST Near Detector Effective
SFFA .CU                   :  RST Sigma Formation Far Apparent
SIBF .CU                   :  RST Sigma Borehole Fluid
SIGM .CU                   :  Formation Sigma (Neutron Capture Cross
TENS .LBF                  :  Cable Tension
TPHI .V/V                  :  Thermal Decay Porosity
~Parameter Information Block
#MNEM.UNIT            Value   Description
#---------- ----------------  -----------
APD  .M           54.900002:  Elevation of Depth Reference (LMF) above Permanent Datum
BHS  .                 CASE:  Borehole Status (Open or Cased Hole)
BS   .IN                8.5:  Bit Size
BSAL .PPM                 0:  Borehole Salinity
BSALOPT.              UNKNOWN:  Borehole Salinity Option
CSIZ .IN                  7:  Current Casing Size
CWEI .LB/F               29:  Casing Weight
EPD  .C3                  0:  Elevation of Permanent Datum above Mean Sea Level
LMF  .                   KB:  Logging Measured From (Name of Logging Elevation Reference)
MATR .                 SAND:  Rock Matrix for Neutron Porosity Corrections
PDAT .                  MSL:  Permanent Datum
RUN  .                Run 1:  RUN NUMBER
TAPE_NAME.     Statoil_Volve_15-9-F-1 C_PLT-RST_28Nov14_ConCu_R1L15Up_SigmaRepeat.las:  
TOOL_STRING.              UNKNOWN:  
WN   .           15/9-F-1 C:  WELL
PROJECT.     SLEIPNER_OST@st-vlinapp01:  
SET  .       RSTD_1114_SIG2:  
~Other Information Block
~Ascii Log Data
# ...
    3550.61520 
    20735.7988        -0.0064         2.0452       0.719500      -0.163557 
      355.5720        -1.2289        79.9997        28.8689         0.3495 
        6.2241         6.0510         9.0758         8.9389        21.4349 
       29.3284        19.3249      4253.3335       0.181600
    3550.76760 
    21066.0996        -0.0018         2.0925       0.736800      -0.163133 
      355.5720        -1.1845        82.6108        27.3979         0.3400 
        6.2241         6.0510         9.2225         9.4237        20.6377 
       29.4442        18.9636      4073.0002       0.183600
    3550.92000 
    21465.9004        -0.0105         2.1150       0.732100      -0.163543 
      355.5720        -1.0756        90.9502        24.8236         0.3408 
        6.2241         6.0510         8.3328         9.1359        20.0733 
       29.5844        18.7516      4162.6670       0.186400
    3551.07240 
    21170.0000        -0.0051         1.9964       0.706900      -0.164377 
      355.5720        -0.9753        79.3449        23.7203         0.3455 
        6.2219         6.0510         8.8835         8.6096        20.7969 
       29.4806        18.9664      4265.3335       0.178300
    3551.22480 
    21005.6992        -0.0157         1.9695       0.724900      -0.163105 
      354.1610        -1.1430        81.3270        24.7133         0.3522 
        6.2219         6.0510         8.3565         8.5196        21.2752 
       29.4230        18.9986      4393.6670       0.173000
    3551.37720 
    20202.5996         0.1393         2.2728       0.731300      -0.162682 
      354.1610        -1.1793        86.6255        26.7359         0.3574 
        6.2219         6.0510         9.1754         8.8795        20.1801 
       29.1416        19.0442      4450.0000       0.160600
    3551.52960 
    19917.6016        -0.1323         2.1357       0.820000      -0.162723 
      352.7500        -1.3437        76.8589        28.3909         0.3640 
        6.2286         6.0510         9.6146         9.9107        20.9425 
       29.0418        18.5714      4312.3335       0.173300
    3551.68200 
    19236.9004         0.0732         2.1636       0.822300      -0.163557 
      352.7500        -1.4473        74.9494        28.7586         0.3694 
        6.2331         6.0510        10.1879        10.2027        19.8910 
       28.8036        18.1743      4261.0000       0.184900
    3551.83440 
    19744.3008         0.0363         2.2143       0.869000      -0.163133 
      352.7500        -1.6403        76.2855        28.2070         0.3700 
        6.2533         6.0510        10.3557        10.8178        18.9970 
       28.9811        17.9250      4220.6665       0.202400
    3551.98680 
    19053.6992         0.0227         2.1482       0.837200      -0.163105 
      352.7500        -1.5916        77.9576        27.3979         0.3677 
        6.2466         6.0510         9.7587        10.4045        20.1932 
       28.7395        18.1209      4072.3337       0.198700
    3552.13920 
    19818.3008        -0.0043         2.1519       0.818200      -0.163557 
      352.7500        -1.7173        76.3065        25.1914         0.3701 
        6.2533         6.0510         9.7550         9.6735        20.4879 
       29.0070        18.3452      4132.0000       0.194200
    3552.29160 
    20042.5000        -0.0146         2.1382       0.816800      -0.163967 
      354.1610        -1.7326        78.3910        23.7203         0.3706 
        6.2533         6.0510         9.6981        10.1811        19.6818 
       29.0855        18.1479      4274.0000       0.192300
    3552.44400 
    21205.4004        -0.0008         2.1572       0.839600      -0.163967 
      355.5720        -1.8148        77.2881        23.9042         0.3741 
        6.2533         6.0510         9.9344        10.3278        19.6112 
       29.4930        17.6340      4514.3335       0.202800
    3552.59640 
    21612.9004        -0.0011         2.1193       0.829100      -0.163530 
      355.5720        -1.7174        75.6267        26.4295         0.3689 
        6.2533         6.0510        10.1315        10.5446        18.9554 
       29.6360        17.6426      4477.6670       0.209800
    3552.74880 
    22043.9004         0.0080         2.2302       0.854600      -0.162258 
      355.5720        -1.8123        82.9874        26.2456         0.3596 
        6.2533         6.0510         9.3373        10.1306        19.7202 
       29.7872        17.5693      4403.6670       0.216200
    3552.90120 
    21788.2988         0.0421         2.3821       0.888000      -0.162258 
      355.5720        -1.7049        82.3012        26.9811         0.3531 
        6.2533         6.0510         9.9818        10.5123        19.3957 
       29.6975        17.4697      4326.0005       0.216900
    3553.05360 
    22538.4004        -0.0148         2.2465       0.866100      -0.162272 
      355.5720        -1.5626        79.8452        28.8199         0.3580 
        6.2533         6.0510         9.6609        10.3276        18.6529 
       29.9608        17.5587      4291.6670       0.216000
    3553.20600 
    23764.6016        -0.0155         2.2833       0.892300      -0.163318 
      355.5720        -1.2995        80.1422        28.4521         0.3604 
        6.2388         6.0510         9.6504        10.3113        19.9990 
       30.3919        17.4647      4153.0000       0.214500
    3553.35840 
    24715.2988        -0.0447         2.3368       0.869600      -0.163953 
      355.5720        -1.3122        80.1610        28.3173         0.3585 
        6.2533         6.0510         9.9766        10.1357        19.0905 
       30.7265        17.6259      4014.0002       0.212300
    3553.51080 
    26283.8008        -0.0301         2.3491       0.851200      -0.164588 
      355.5720        -1.4935        80.4716        28.3173         0.3532 
        6.2443         6.0510        10.1399        10.2186        19.1393 
       31.2795        17.5422      4118.0000       0.210600
    3553.66320 
    26190.0996        -0.0072         2.3533       0.866200      -0.163953 
      355.5720        -1.5286        82.6405        28.6851         0.3593 
        6.2421         6.0487         9.8138        10.3230        19.7456 
       31.2465        17.7727      4214.5005       0.208200
    3553.81560 
    25531.0996        -0.0077         2.2746       0.871600      -0.162682 
      355.5720        -1.4421        80.0800        28.1334         0.3602 
        6.2443         6.0510         9.6425         9.9712        19.7789 
       31.0140        17.6894      4581.0005       0.207500
    3553.96800 
    26852.4004        -0.0034         2.2572       0.836900      -0.163932 
      355.5720        -1.6203        83.6658        28.1334         0.3604 
        6.2488         6.0510         9.2378         9.7047        18.8900 
       31.4802        17.7764      4490.0000       0.210100
    3554.12040 
    26933.0000        -0.0234         2.3586       0.871500      -0.164588 
      355.5720        -1.4541        81.6830        27.7534         0.3576 
        6.2443         6.0510        10.1391        10.6467        20.0048 
       31.5087        18.0882      4428.0005       0.213800
    3554.27280 
    27513.2012        -0.0051         2.2492       0.878900      -0.162682 
      355.5720        -1.4755        79.8174        27.7958         0.3555 
        6.2354         6.0510         9.4065         9.7890        20.7199 
       31.7137        18.8983      4378.5000       0.210300
    3554.42520 
    26778.2988         0.0012         2.1211       0.799500      -0.162258 
      355.5720        -1.5426        84.7480        27.9797         0.3515 
        6.2510         6.0510         8.5563         9.4158        21.3181 
       31.4541        18.8645      4281.0005       0.213900
    3554.57760 
    26983.9004        -0.1102         2.2122       0.748400      -0.162272 
      355.5720        -1.3760        80.8773        25.2215         0.3474 
        6.2407         6.0510         9.3380         9.0500        19.8992 
       31.5267        18.7487      4199.3335       0.213400
