~Version Information Block
VERS .                 2.00:  CWLS LOG ASCII STANDARD - VERSION 2.00
WRAP .                   NO:  One line per depth step
~Well Information Block
#MNEM.UNIT        Data Type   Information
#---------- ----------------  -----------
STRT .M          3445.30680:  START DEPTH
STOP .M          3635.80680:  STOP DEPTH
STEP .M             0.15240:  STEP
NULL .              -999.25:  NULL VALUE
COMP .              Statoil:  COMPANY
WELL .          NO_15/9-F-5:  WELL
FLD  .                VOLVE:  FIELD
LOC  .            North Sea:  LOCATION
CTRY .                     :  COUNTRY
STAT .                     :  STATE
CNTY .                     :  COUNTY
SRVC .         Schlumberger:  SERVICE COMPANY
DATE .          16-Sep-2012:  DATE
API  .                     :  API NUMBER
UWI  .             15/9-F-5:  UNIQUE WELL ID
~Curve Information Block
#MNEM.UNIT         API CODE   Curve Description
#---------- ----------------  -----------------
DEPTH.M                    :  DEPTH (BOREHOLE)
CCLC .V                    :  CCL
CCLD .V                    :  CCL Discriminated Amplitude
CRRA .                     :  Near-Far Count Rate Ratio
CS   .F/MN                 :  Cable Speed
CVEL .M/MIN                 :  Cable Velocity
DEVI .DEG                  :  Hole Deviation
FBEF .UA                   :  RST Far Effective Beam Current
FCOR .                     :  RST Far Carbon/Oxygen Ratio
FERD .                     :  RST Far IC Mode Capture Optimization Resolution Degradation Factor
FIRD .                     :  RST Far Inelastic Optimization Resolution Degradation Factor
GR   .GAPI                 :  Gamma Ray
NCOR .                     :  RST Near Carbon/Oxygen Ratio
NERD .                     :  RST Near IC Mode Capture Optimization Resolution Degradation Factor
NIRD .                     :  RST Near Inelastic Optimization Resolution Degradation Factor
RB_PCMS.DEG                  :  Relative Bearing
TENS .LBF                  :  Cable Tension
WPRE .PSI                  :  Well Pressure
WTEP .DEGC                 :  Well Temperature
~Parameter Information Block
#MNEM.UNIT            Value   Description
#---------- ----------------  -----------
APD  .M           54.900002:  Elevation of Depth Reference (LMF) above Permanent Datum
RUN  .                Run 1:  RUN NUMBER
PROJECT.     SLEIPNER_OST@st-vlinapp01:  
SET  .        RSTD_0912_IC1:  
~Other Information Block
# 
~A       DEPTH           CCLC           CCLD           CRRA             CS           CVEL           DEVI           FBEF           FCOR           FERD           FIRD             GR           NCOR           NERD           NIRD        RB_PCMS           TENS           WPRE           WTEP 
# ...
    3520.44000        -0.0036         0.0000         2.8684         1.4843      -0.449800        50.7422       112.9519    -0.14730000         5.0061         5.0061        15.6890       0.051700         2.6508         2.6508         7.7847      2721.8000      5053.7144        92.8045
    3520.59240        -0.0036         0.0000         2.8844         1.4856      -0.450200        50.7689       112.5434    -0.02500000         4.9882         4.9882        15.7427      -0.034800         2.6392         2.6392         7.7577      2715.1443      5053.8428        92.7870
    3520.74480        -0.2247         0.0000         2.8675         1.4898      -0.451600        50.7612       113.5199     0.02960000         5.0456         5.0456        15.8877       0.025200         2.5942         2.5942         7.7076      2704.8059      5053.9834        92.7853
    3520.89720        -0.0231         0.0000         2.8837         1.4803      -0.449600        50.7858       112.8762     0.05560000         5.0473         5.0473        15.4840      -0.097900         2.5817         2.5817         7.6266      2713.3750      5054.0889        92.7589
    3521.04960        -0.0492         0.0000         2.8604         1.4800      -0.454300        50.7973       111.5254     0.02150000         5.0683         5.0683        15.4120       0.075200         2.5507         2.5507         7.5827      2713.9207      5054.2476        92.7450
    3521.20200        -0.0129         0.0000         2.8557         1.4760      -0.451100        50.8053       112.3790    -0.08350000         5.0544         5.0544        14.9800       0.093900         2.5211         2.5211         7.6364      2717.8357      5054.3892        92.7346
    3521.35440         0.0820         0.0000         2.8504         1.4852      -0.450900        50.8314       112.8406    -0.15740000         4.9512         4.9512        15.0206      -0.008400         2.5129         2.5129         7.8132      2719.8357      5054.5142        92.7236
    3521.50680         0.1335         0.0000         2.8591         1.4459      -0.446000        50.8508       112.3189    -0.09400000         4.9144         4.9144        14.7801      -0.005500         2.4826         2.4826         7.8543      2706.9805      5054.6533        92.7102
    3521.65920         0.1050         0.0000         2.8688         1.4813      -0.448900        50.8605       112.2731    -0.04640000         5.0036         5.0036        15.1888       0.017000         2.5064         2.5064         7.7951      2709.5706      5054.7964        92.6951
    3521.81160        -0.0044         0.0000         2.8778         1.4754      -0.447200        50.8870       111.2480    -0.01430000         4.9940         4.9940        15.5955       0.017400         2.4895         2.4895         7.7502      2713.4268      5054.9146        92.6787
    3521.96400        -0.0068         0.0000         2.8610         1.4843      -0.450500        50.8985       111.0367     0.09060000         4.9741         4.9741        15.9296      -0.071700         2.5054         2.5054         7.6900      2712.3025      5055.0479        92.6661
    3522.11640        -0.0122         0.0000         2.8368         1.4898      -0.451500        50.8822       110.8696    -0.14929999         4.9327         4.9327        15.7948       0.001800         2.4973         2.4973         7.2277      2711.6482      5055.1831        92.6465
    3522.26880        -0.0060         0.0000         2.8607         1.4754      -0.448900        50.9060       111.0155    -0.06270000         4.9689         4.9689        16.1262      -0.060600         2.5097         2.5097         6.9423      2720.0000      5055.3467        92.6415
    3522.42120        -0.0396         0.0000         2.8568         1.4554      -0.446700        50.9127       111.1371     0.08140000         4.9850         4.9850        15.7764       0.053200         2.5568         2.5568         6.8298      2715.0618      5055.4473        92.6216
    3522.57360        -0.0044         0.0000         2.8507         1.4701      -0.449300        50.9356       110.4777    -0.13680001         4.9267         4.9267        15.1447      -0.054600         2.5005         2.5005         6.8730      2717.2100      5055.6123        92.6090
    3522.72600        -0.0053         0.0000         2.8289         1.4751      -0.452500        50.9444       111.2593    -0.01950000         4.9638         4.9638        14.7524      -0.010700         2.5498         2.5498         7.0159      2710.0330      5055.7427        92.5909
    3522.87840        -0.0163         0.0000         2.8502         1.4902      -0.452900        50.9589       110.1532    -0.07010000         4.8624         4.8624        14.5447      -0.063600         2.5420         2.5420         7.1348      2718.4324      5055.8921        92.5761
    3523.03080         0.0553         0.0000         2.8308         1.4948      -0.448100        50.9658       111.0985     0.02940000         4.8717         4.8717        14.2911       0.023800         2.5392         2.5392         7.4878      2720.0100      5056.0098        92.5551
    3523.18320         0.1126         0.0000         2.8337         1.4698      -0.447000        50.9911       111.1849     0.03090000         4.9365         4.9365        14.3038      -0.006500         2.5505         2.5505         7.4455      2723.8992      5056.1543        92.5417
    3523.33560        -0.0078         0.0000         2.8518         1.4380      -0.444300        51.0037       110.8078    -0.12770000         4.8775         4.8775        14.4727       0.004100         2.5672         2.5672         7.3944      2722.6118      5056.2764        92.5219
    3523.48800        -0.0080         0.0000         2.8346         1.4803      -0.447800        51.0159       110.6749    -0.01630000         4.8374         4.8374        14.6489       0.060600         2.5829         2.5829         7.4096      2715.8269      5056.4146        92.4961
    3523.64040         0.0300         0.0000         2.8336         1.4705      -0.445800        51.0475       110.6809    -0.00590000         4.7007         4.7007        14.7400       0.001700         2.5861         2.5861         7.5844      2708.0000      5056.5366        92.4831
    3523.79280        -0.0117         0.0000         2.8437         1.4800      -0.449200        51.0604       110.4520     0.07070000         4.6977         4.6977        14.4776      -0.042400         2.6260         2.6260         7.6762      2710.1865      5056.6372        92.4583
    3523.94520        -0.0118         0.0000         2.8396         1.4705      -0.448400        51.0797       110.1660     0.07570000         4.7122         4.7122        14.5367       0.063100         2.6534         2.6534         7.6195      2716.9902      5056.8286        92.4492
    3524.09760        -0.0078         0.0000         2.8417         1.4754      -0.447800        51.0816       109.8876    -0.09180000         4.7960         4.7960        14.3406       0.041200         2.6318         2.6318         7.6661      2720.2524      5056.9292        92.4286
    3524.25000        -0.0082         0.0000         2.8213         1.4803      -0.448300        51.0903       109.7089    -0.03220000         4.9715         4.9715        14.6075      -0.049200         2.6344         2.6344         7.5224      2722.3333      5057.0869        92.4026
    3524.40240        -0.0105         0.0000         2.8220         1.4708      -0.450400        51.1054       110.9098    -0.12710001         5.0666         5.0666        14.8868       0.035800         2.6314         2.6314         7.5009      2715.0132      5057.2129        92.3819
    3524.55480        -0.0276         0.0000         2.8498         1.4803      -0.449100        51.1222       111.1321    -0.04050000         4.9586         4.9586        15.4499       0.057400         2.6933         2.6933         7.6849      2714.8425      5057.3613        92.3621
    3524.70720        -0.0240         0.0000         2.8573         1.4469      -0.443000        51.1413       111.6057     0.01350000         4.9481         4.9481        15.5861      -0.028900         2.7186         2.7186         7.8868      2723.7605      5057.4912        92.3382
