~Version Information Block
VERS .                 2.00:  CWLS LOG ASCII STANDARD - VERSION 2.00
WRAP .                   NO:  One line per depth step
~Well Information Block
#MNEM.UNIT        Data Type   Information
#---------- ----------------  -----------
STRT .M          3199.94280:  START DEPTH
STOP .M          3410.40720:  STOP DEPTH
STEP .M             0.15240:  STEP
NULL .              -999.25:  NULL VALUE
COMP .              Statoil:  COMPANY
WELL .          NO_15/9-F-4:  WELL
FLD  .                VOLVE:  FIELD
LOC  .            North Sea:  LOCATION
CTRY .                     :  COUNTRY
STAT .                     :  STATE
CNTY .                     :  COUNTY
SRVC .         Schlumberger:  SERVICE COMPANY
DATE .          13-Sep-2012:  DATE
API  .                     :  API NUMBER
UWI  .             15/9-F-4:  UNIQUE WELL ID
~Curve Information Block
#MNEM.UNIT         API CODE   Curve Description
#---------- ----------------  -----------------
DEPTH.M                    :  DEPTH (BOREHOLE)
CCLC .V                    :  CCL
CRRA .                     :  Near-Far Count Rate Ratio
CVEL .M/MIN                 :  Cable Velocity
FBEF .UA                   :  RST Far Effective Beam Current
FCOR .                     :  RST Far Carbon/Oxygen Ratio
FERD .                     :  RST Far IC Mode Capture Optimization Resolution Degradation Factor
FIRD .                     :  RST Far Inelastic Optimization Resolution Degradation Factor
GR   .GAPI                 :  Gamma Ray
NCOR .                     :  RST Near Carbon/Oxygen Ratio
NERD .                     :  RST Near IC Mode Capture Optimization Resolution Degradation Factor
NIRD .                     :  RST Near Inelastic Optimization Resolution Degradation Factor
RB_PCMS.DEG                  :  Relative Bearing
TENS .LBF                  :  Cable Tension
~Parameter Information Block
#MNEM.UNIT            Value   Description
#---------- ----------------  -----------
APD  .M                  54:  Elevation of Depth Reference (LMF) above Permanent Datum
RUN  .                    4:  RUN NUMBER
PROJECT.     SLEIPNER_OST@st-vlinapp01:  
SET  .        RSTD_0912_IC1:  
~Other Information Block
# 
~A       DEPTH           CCLC           CRRA           CVEL           FBEF           FCOR           FERD           FIRD             GR           NCOR           NERD           NIRD        RB_PCMS           TENS 
# ...
    3253.43520        -0.0066         2.8051      -0.504500       108.9724        -0.0915         5.4732         5.4732        19.1042       0.085700         2.6003         2.6003       356.7023      2260.1838
    3253.58760        -0.1721         2.8144      -0.505500       107.1590        -0.0615         5.4079         5.4079        18.6202       0.029300         2.6108         2.6108       356.6852      2269.8823
    3253.74000        -0.0170         2.7851      -0.505900       106.5484        -0.1883         5.3820         5.3820        18.4347       0.053200         2.6362         2.6362       356.6117      2274.2334
    3253.89240        -0.0365         2.7528      -0.508200       106.3881        -0.0467         5.3250         5.3250        17.8080       0.011200         2.6215         2.6215       356.4917      2267.4370
    3254.04480        -0.0127         2.7539      -0.506300       107.5241        -0.1434         5.5890         5.5890        17.4839       0.071100         2.6067         2.6067       356.3818      2271.2769
    3254.19720        -0.0120         2.7569      -0.506400       107.0384        -0.0266         5.4710         5.4710        16.9571       0.037000         2.6424         2.6424       356.4435      2260.2722
    3254.34960         0.0919         2.7742      -0.503700       107.7803        -0.0241         5.5746         5.5746        16.9696      -0.006200         2.6431         2.6431       356.3789      2268.6497
    3254.50200        -0.0119         2.7741      -0.503600       107.4061         0.0484         5.6636         5.6636        17.0702      -0.026000         2.6186         2.6186       356.4023      2264.0149
    3254.65440        -0.0332         2.7854      -0.506000       107.7742         0.0691         5.7037         5.7037        17.5114       0.078500         2.6496         2.6496       356.4982      2261.1218
    3254.80680        -0.0217         2.7805      -0.508700       107.0387        -0.0983         5.6908         5.6908        17.2419       0.090700         2.6353         2.6353       356.2473      2266.6592
    3254.95920        -0.0037         2.7740      -0.506300       107.6126         0.0644         5.5399         5.5399        17.3893      -0.103000         2.5759         2.5759       355.8042      2267.8303
    3255.11160        -0.0182         2.7774      -0.500600       107.9105        -0.0029         5.5800         5.5800        17.2652       0.008200         2.5498         2.5498       355.7122      2270.0879
    3255.26400        -0.0179         2.7783      -0.501000       107.8531        -0.0158         5.6750         5.6750        17.1108       0.022900         2.5064         2.5064       355.6366      2276.3833
    3255.41640        -0.0245         2.7668      -0.502900       108.3872        -0.0642         5.6352         5.6352        16.1435       0.080600         2.5447         2.5447       355.6655      2265.3186
    3255.56880        -0.0320         2.8295      -0.501000       111.4752        -0.0120         5.6697         5.6697        15.3931       0.076700         2.5610         2.5610       355.8159      2262.1460
    3255.72120        -0.0220         2.9564      -0.495700       113.3802         0.1003         5.6642         5.6642        14.6705       0.043600         2.5820         2.5820       355.8558      2272.2644
    3255.87360        -0.0175         3.0299      -0.503700       112.8252        -0.0636         5.6098         5.6098        14.8260       0.029000         2.5837         2.5837       355.9239      2266.5605
    3256.02600        -0.0082         2.9424      -0.505200       107.3172        -0.1358         5.5358         5.5358        14.8639      -0.005900         2.5791         2.5791       355.9742      2264.6345
    3256.17840        -0.0082         2.7914      -0.505500       107.5183        -0.1564         5.5221         5.5221        15.9262       0.072500         2.6186         2.6186       355.9859      2258.2832
    3256.33080        -0.0100         2.8039      -0.508600       107.1405        -0.0407         5.5059         5.5059        17.4176       0.034600         2.5949         2.5949       355.9131      2260.4163
    3256.48320         0.0342         2.7924      -0.505500       107.5886        -0.0387         5.4724         5.4724        19.6105       0.063100         2.5992         2.5992       355.9636      2261.1919
    3256.63560        -0.0074         2.8012      -0.505600       108.6679        -0.0450         5.2856         5.2856        20.8453       0.060400         2.6334         2.6334       355.8916      2271.7683
    3256.78800        -0.0452         2.8197      -0.503300       108.3236        -0.0408         5.2485         5.2485        21.7034       0.030600         2.6355         2.6355       355.9311      2258.0149
    3256.94040        -0.0046         2.8073      -0.504100       108.8975         0.1156         5.3644         5.3644        22.4093       0.028200         2.6233         2.6233       355.9992      2262.0847
    3257.09280        -0.0053         2.8154      -0.500000       108.7389        -0.1584         5.4529         5.4529        22.6080       0.049800         2.6298         2.6298       356.0739      2271.1489
    3257.24520        -0.0061         2.7984      -0.502500       108.6181        -0.0336         5.4067         5.4067        21.3621       0.023500         2.6341         2.6341       356.1219      2272.0588
    3257.39760        -0.0069         2.7995      -0.504900       108.8570         0.0187         5.4834         5.4834        20.2938       0.064600         2.6734         2.6734       356.2037      2273.7859
    3257.55000         0.0344         2.7963      -0.500800       108.9963         0.0148         5.3724         5.3724        19.5378       0.052600         2.6802         2.6802       356.3913      2266.4526
    3257.70240        -0.0098         2.8019      -0.504400       109.2236        -0.0172         5.3280         5.3280        18.4969       0.016100         2.6802         2.6802       356.5322      2264.1399
    3257.85480        -0.0106         2.8116      -0.504500       108.4376         0.0386         5.4265         5.4265        17.9301      -0.002100         2.6474         2.6474       356.5437      2269.0842
    3258.00720        -0.0505         2.7870      -0.505100       108.0660        -0.2858         5.3213         5.3213        17.8014       0.027800         2.6604         2.6604       356.4760      2264.1699
    3258.15960         0.0074         2.7776      -0.504600       108.4501         0.0708         5.2964         5.2964        17.4200      -0.102300         2.6989         2.6989       356.4532      2266.2288
    3258.31200        -0.0117         2.7934      -0.497800       108.8390         0.0178         5.2708         5.2708        17.4811       0.042200         2.7141         2.7141       356.4297      2267.5671
    3258.46440         0.0083         2.7834      -0.495700       109.8369        -0.1897         5.2424         5.2424        17.0908      -0.063300         2.7011         2.7011       356.4981      2259.1294
    3258.61680        -0.0098         2.8133      -0.501700       110.2034         0.0244         5.2264         5.2264        17.2151      -0.024700         2.6902         2.6902       356.7527      2277.2307
    3258.76920        -0.0088         2.8177      -0.496900       110.4816         0.1298         5.1830         5.1830        16.9960       0.024500         2.7355         2.7355       356.7319      2266.8225
    3258.92160        -0.0080         2.8238      -0.499400       111.3443        -0.0867         5.1280         5.1280        17.3281      -0.016200         2.7598         2.7598       356.7966      2269.8540
    3259.07400        -0.0046         2.8310      -0.502800       111.3361         0.0244         5.2175         5.2175        17.0739       0.007900         2.6686         2.6686       357.1306      2245.8933
    3259.22640        -0.0035         2.8483      -0.505600       111.4550         0.0212         5.2161         5.2161        17.5350       0.053200         2.7313         2.7313       357.1898      2284.8975
