~Version Information Block
VERS .                 2.00:  CWLS LOG ASCII STANDARD - VERSION 2.00
WRAP .                   NO:  One line per depth step
~Well Information Block
#MNEM.UNIT        Data Type   Information
#---------- ----------------  -----------
STRT .M          3445.30680:  START DEPTH
STOP .M          3639.15960:  STOP DEPTH
STEP .M             0.15240:  STEP
NULL .              -999.25:  NULL VALUE
COMP .              Statoil:  COMPANY
WELL .          NO_15/9-F-5:  WELL
FLD  .                VOLVE:  FIELD
LOC  .            North Sea:  LOCATION
CTRY .                     :  COUNTRY
STAT .                     :  STATE
CNTY .                     :  COUNTY
SRVC .         Schlumberger:  SERVICE COMPANY
DATE .          16-Sep-2012:  DATE
API  .                     :  API NUMBER
UWI  .             15/9-F-5:  UNIQUE WELL ID
~Curve Information Block
#MNEM.UNIT         API CODE   Curve Description
#---------- ----------------  -----------------
DEPTH.M                    :  DEPTH (BOREHOLE)
CCLC .V                    :  CCL
CRRA .                     :  Near-Far Count Rate Ratio
CVEL .M/MIN                 :  Cable Velocity
FBEF .UA                   :  RST Far Effective Beam Current
FCOR .                     :  RST Far Carbon/Oxygen Ratio
FERD .                     :  RST Far IC Mode Capture Optimization Resolution Degradation Factor
FIRD .                     :  RST Far Inelastic Optimization Resolution Degradation Factor
GR   .GAPI                 :  Gamma Ray
NCOR .                     :  RST Near Carbon/Oxygen Ratio
NERD .                     :  RST Near IC Mode Capture Optimization Resolution Degradation Factor
NIRD .                     :  RST Near Inelastic Optimization Resolution Degradation Factor
RB_PCMS.DEG                  :  Relative Bearing
TENS .LBF                  :  Cable Tension
~Parameter Information Block
#MNEM.UNIT            Value   Description
#---------- ----------------  -----------
APD  .M           54.900002:  Elevation of Depth Reference (LMF) above Permanent Datum
RUN  .                Run 1:  RUN NUMBER
PROJECT.     SLEIPNER_OST@st-vlinapp01:  
SET  .        RSTD_0912_IC3:  
~Other Information Block
# 
~A       DEPTH           CCLC           CRRA           CVEL           FBEF           FCOR           FERD           FIRD             GR           NCOR           NERD           NIRD        RB_PCMS           TENS 
# ...
    3498.79920        -0.0066         2.9610       -0.41550       113.0767     0.03300000         5.7355         5.7355        63.7838       0.061900         2.7523         2.7523         8.2836      2813.9880
    3498.95160         0.0128         2.9497       -0.41650       113.4047     0.14860000         5.7636         5.7636        62.6016      -0.017100         2.7660         2.7660         8.2381      2801.7305
    3499.10400         0.0821         2.9317       -0.41640       112.8333     0.12930000         5.3926         5.3926        60.7587       0.097500         2.6731         2.6731         8.2254      2817.2981
    3499.25640        -0.0044         2.9301       -0.41470       111.2712    -0.06280000         5.3951         5.3951        57.0818      -0.014900         2.6880         2.6880         8.2475      2814.2507
    3499.40880        -0.0051         2.9183       -0.41110       108.4559    -0.13860001         5.4151         5.4151        52.9466       0.027800         2.6862         2.6862         8.2950      2818.4011
    3499.56120        -0.0064         2.8763       -0.42260       106.5996     0.01400000         5.5800         5.5800        47.2579       0.018600         2.6653         2.6653         8.1499      2834.1853
    3499.71360        -0.0055         2.8461       -0.42360       104.7766     0.02060000         5.5321         5.5321        42.4057       0.051300         2.6820         2.6820         8.2101      2807.1147
    3499.86600        -0.0144         2.7516       -0.42580       105.0646    -0.12740000         5.3919         5.3919        37.7640       0.104100         2.6914         2.6914         8.1619      2808.2019
    3500.01840        -0.0022         2.7211       -0.41500       106.5180    -0.08090000         5.2670         5.2670        35.3754       0.088800         2.6982         2.6982         8.1742      2805.1389
    3500.17080        -0.0010         2.7546       -0.40510       108.5615     0.11420000         5.1786         5.1786        33.6383       0.043000         2.7004         2.7004         8.0884      2806.3669
    3500.32320         0.0002         2.8142       -0.40400       107.9139    -0.01320000         5.2105         5.2105        33.1671       0.071400         2.6966         2.6966         8.0526      2823.1001
    3500.47560         0.0008         2.7971       -0.40120       108.4132    -0.00720000         5.2665         5.2665        32.8707       0.008400         2.7240         2.7240         8.0857      2805.4060
    3500.62800        -0.0001         2.8040       -0.39540       109.2838    -0.11780000         5.2410         5.2410        33.1460       0.088000         2.7092         2.7092         7.9785      2815.3994
    3500.78040        -0.0021         2.8181       -0.39210       109.2138    -0.02590000         5.0227         5.0227        33.3631       0.057200         2.7532         2.7532         7.8642      2819.9487
    3500.93280        -0.0030         2.7955       -0.39700       109.1543     0.00940000         4.9941         4.9941        33.2388       0.037300         2.7672         2.7672         7.9585      2829.8000
    3501.08520        -0.0043         2.8064       -0.39430       109.4832     0.02200000         5.0848         5.0848        33.5334       0.025900         2.7427         2.7427         8.0074      2818.8218
    3501.23760        -0.0025         2.8121       -0.39960       109.3282     0.08300000         5.1435         5.1435        33.5849      -0.073600         2.7266         2.7266         8.0957      2821.9941
    3501.39000        -0.0028         2.7974       -0.39650       109.0182     0.03400000         5.1218         5.1218        32.9998      -0.004100         2.6981         2.6981         8.2678      2815.0029
    3501.54240        -0.0011         2.8165       -0.39810       108.9933     0.10260000         5.1840         5.1840        33.1346       0.057900         2.6901         2.6901         8.2539      2828.8867
    3501.69480        -0.0262         2.8181       -0.40120       109.4019    -0.00820000         5.2450         5.2450        33.8396       0.039300         2.7205         2.7205         8.1999      2816.1931
    3501.84720        -0.0672         2.8238       -0.39780       109.6853     0.06610000         5.1463         5.1463        34.4115       0.046700         2.6991         2.6991         8.2137      2815.6958
    3501.99960         0.0005         2.8359       -0.39930       109.8709     0.02140000         5.2135         5.2135        34.4928       0.019200         2.7052         2.7052         8.2006      2817.2217
    3502.15200        -0.0002         2.8681       -0.39180       111.8197     0.03760000         5.1994         5.1994        35.2767       0.010200         2.6733         2.6733         8.3157      2814.0115
    3502.30440        -0.0027         2.9096       -0.39500       111.3340     0.19910000         5.2540         5.2540        35.1658      -0.028100         2.6693         2.6693         8.4143      2824.2183
    3502.45680         0.0801         2.8700       -0.39750       110.5963     0.02110000         5.3372         5.3372        34.9156       0.017800         2.7050         2.7050         8.3866      2821.5942
    3502.60920         0.0025         2.8431       -0.39970       110.5223    -0.09890000         5.2912         5.2912        33.5466       0.065400         2.7442         2.7442         8.1990      2823.9739
    3502.76160         0.0024         2.8431       -0.40290       111.3924     0.00080000         5.2738         5.2738        33.4626      -0.007300         2.7929         2.7929         8.0801      2821.3970
    3502.91400         0.0068         2.8471       -0.40430       110.9015     0.02480000         5.2377         5.2377        33.1196       0.022000         2.7744         2.7744         8.2024      2812.4868
    3503.06640         0.0627         2.8428       -0.41160       110.7502     0.06360000         5.2676         5.2676        33.6323       0.017400         2.7390         2.7390         8.2253      2817.9099
    3503.21880         0.0118         2.8312       -0.41290       111.1489     0.07820000         5.3353         5.3353        33.9343       0.003700         2.7285         2.7285         8.1143      2827.3025
    3503.37120         0.0177         2.8568       -0.41710       110.6132     0.09470000         5.4210         5.4210        34.7615       0.028300         2.7579         2.7579         8.0983      2810.3718
    3503.52360         0.0197         2.8243       -0.41460       110.8177    -0.00420000         5.5510         5.5510        34.8955       0.022300         2.7660         2.7660         8.0711      2812.1760
    3503.67600         0.0224         2.8366       -0.41080       111.5516     0.08930000         5.5242         5.5242        34.8176      -0.002100         2.7725         2.7725         8.1828      2815.3953
    3503.82840        -0.0370         2.8453       -0.40960       111.0811     0.03210000         5.3938         5.3938        34.5231       0.028900         2.7783         2.7783         8.1959      2817.3047
    3503.98080         0.0281         2.8508       -0.40710       112.9965     0.15889999         5.4331         5.4331        34.2817       0.070500         2.7772         2.7772         8.1130      2823.3472
    3504.13320         0.0484         2.9823       -0.40230       114.8734    -0.05920000         5.7719         5.7719        34.5550       0.081700         2.7212         2.7212         8.1981      2819.2229
    3504.28560         1.9516         3.0870       -0.40400       114.2535    -0.05950000         5.6734         5.6734        34.4241       0.052400         2.6862         2.6862         8.2788      2823.0652
    3504.43800         0.0913         2.9985       -0.40160       112.0032     0.01880000         5.8059         5.8059        34.8544       0.060600         2.7017         2.7017         8.4719      2823.7896
    3504.59040        -0.0059         2.8895       -0.40190       109.7146     0.21690001         5.7607         5.7607        35.1920      -0.053800         2.7784         2.7784         8.4301      2822.0146
