~Version Information Block
VERS .                 2.00:  CWLS LOG ASCII STANDARD - VERSION 2.00
WRAP .                   NO:  One line per depth step
~Well Information Block
#MNEM.UNIT        Data Type   Information
#---------- ----------------  -----------
STRT .M          3439.51560:  START DEPTH
STOP .M          3642.36000:  STOP DEPTH
STEP .M             0.15240:  STEP
NULL .              -999.25:  NULL VALUE
COMP .              Statoil:  COMPANY
WELL .          NO_15/9-F-5:  WELL
FLD  .                VOLVE:  FIELD
LOC  .            North Sea:  LOCATION
CTRY .                     :  COUNTRY
STAT .                     :  STATE
CNTY .                     :  COUNTY
SRVC .         Schlumberger:  SERVICE COMPANY
DATE .          16-Sep-2012:  DATE
API  .                     :  API NUMBER
UWI  .             15/9-F-5:  UNIQUE WELL ID
~Curve Information Block
#MNEM.UNIT         API CODE   Curve Description
#---------- ----------------  -----------------
DEPTH.M                    :  DEPTH (BOREHOLE)
BSAL .PPM                  :  Borehole Salinity
CCLC .V                    :  CCL
CIRF .                     :  RST Capture to Inelastic Ratio Far
CIRN .                     :  RST Capture to Inelastic Ratio Near
CVEL .M/MIN                 :  Cable Velocity
DSIG .CU                   :  Sigma Difference
FBEF .UA                   :  RST Far Effective Beam Current
GR   .GAPI                 :  Gamma Ray
IRAT .                     :  RST Inelastic Ratio
RSCF .                     :  RST Far Detector Effective Unregulated Capture Count Rate
RSCN .                     :  RST Near Detector Effective Unregulated Capture Count Rate
SFFA .CU                   :  RST Sigma Formation Far Apparent
SIBF .CU                   :  RST Sigma Borehole Fluid
SIGM .CU                   :  Formation Sigma (Neutron Capture Cross Section)
TENS .LBF                  :  Cable Tension
TPHI .V/V                  :  Thermal Decay Porosity
~Parameter Information Block
#MNEM.UNIT            Value   Description
#---------- ----------------  -----------
APD  .M           54.900002:  Elevation of Depth Reference (LMF) above Permanent Datum
BHS  .                 CASE:  Borehole Status (Open or Cased Hole)
BS   .IN                8.5:  Bit Size
BSAL .PPM       34972.17188:  Borehole Salinity
BSALOPT.              UNKNOWN:  Borehole Salinity Option
CSID .IN              6.184:  Casing Inner Diameter
CSIZ .IN                  7:  Current Casing Size
CWEI .LB/F               29:  Casing Weight
MATR .                 SAND:  Rock Matrix for Neutron Porosity Corrections
RUN  .                Run 1:  RUN NUMBER
PROJECT.     SLEIPNER_OST@st-vlinapp01:  
SET  .       RSTD_0912_SIG1:  
~Other Information Block
# 
~A       DEPTH           BSAL           CCLC           CIRF           CIRN           CVEL           DSIG           FBEF             GR           IRAT           RSCF           RSCN           SFFA           SIBF           SIGM           TENS           TPHI 
# ...
    3610.20360     36045.8008        -0.0253         2.7869     0.78609997       -4.78680        -0.4996        82.1067        10.3131     0.31389999        11.9277        10.5406        13.7078        34.7452        11.7238      2677.9312     0.20260000
    3610.35600     35861.5000         0.0599         2.6337     0.78549999       -4.78330        -0.4874        78.3457        11.9997     0.31850001        11.8250        10.7225        13.5994        34.6794        11.7067      2673.7500     0.19990000
    3610.50840     35921.3008        -0.1169         2.7815     0.82470000       -4.79420        -0.5399        80.3031        12.2660     0.32380000        11.6665        10.4354        13.3020        34.7008        11.5804      2663.1379     0.19920000
    3610.66080     36243.3008        -0.1069         2.7306     0.82520002       -4.78660        -0.5057        81.0143        13.4200     0.32490000        11.9370        11.2269        13.3181        34.8158        11.6334      2666.7859     0.20160000
    3610.81320     35645.3008        -0.2147         2.6642     0.80640000       -4.77810        -0.3972        81.7469        14.9290     0.32640001        11.1889        10.5386        13.7573        34.6022        11.9163      2662.2415     0.20000000
    3610.96560     34741.9023        -0.1787         2.5983     0.79699999       -4.74110        -0.3477        77.9648        14.5613     0.33230001        11.5382        10.5231        14.1469        34.2799        12.1439      2658.4827     0.19970000
    3611.11800     35021.8008        -0.6051         2.5777     0.80900002       -4.78430        -0.2716        79.8396        13.6736     0.33390000        11.1918        10.4318        14.0013        34.3798        12.1758      2655.7932     0.19880000
    3611.27040     35542.5000        -0.0184         2.6269     0.82020003       -4.81370        -0.2417        80.2280        13.8511     0.33309999        11.1845        10.5910        13.8515        34.5655        12.0423      2669.5862     0.19920000
    3611.42280     35926.0000        -0.0638         2.7115     0.81770003       -4.82460        -0.2044        80.3828        12.9634     0.32210001        11.9727        11.0740        13.7504        34.7025        11.9475      2667.7144     0.19700000
    3611.57520     35733.3008        -0.1713         2.8469     0.79110003       -4.80000        -0.1313        85.1354        10.3891     0.30759999        12.2102        11.3223        13.7200        34.6336        11.7785      2663.5715     0.19720000
    3611.72760     35628.8984         0.8344         2.7022     0.72770000       -4.79470        -0.1743        84.8521         9.2320     0.30019999        11.5316        10.2125        13.3492        34.5964        11.8607      2680.4138     0.19870000
    3611.88000     35305.3008        -0.4613         2.3605     0.68210000       -4.77340        -0.1890        81.5180         9.9421     0.31189999        10.5365         9.8587        14.0037        34.4809        11.7059      2677.8276     0.20170000
    3612.03240     35019.2969        -0.0534         2.4325     0.77209997       -4.78910        -0.2111        75.3595        10.2084     0.32630000        11.3631        10.7103        13.2605        34.3788        11.6166      2672.0000     0.20000000
    3612.18480     35347.5000         0.0165         2.6460     0.79250002       -4.79670        -0.0838        78.5559        10.7410     0.33350000        11.9853        10.7870        13.0794        34.4959        11.3499      2659.7144     0.19599999
    3612.33720     35463.5000        -0.0337         2.6963     0.80540001       -4.77550        -0.1027        80.3172        11.8855     0.33160001        12.2034        11.4322        13.2122        34.5373        11.3604      2675.6428     0.19170000
    3612.48960     35859.6992         0.1498         2.6654     0.81230003       -4.77590        -0.1941        80.2915        12.7791     0.32949999        11.5546        10.4536        13.3032        34.6788        11.4434      2671.9656     0.18810000
    3612.64200     35845.6016         0.0000         2.7827     0.81440002       -4.78290        -0.3182        79.5293        11.6029     0.33039999        12.0864        10.5132        13.3430        34.6737        11.6124      2656.5173     0.18550000
    3612.79440     35517.8984         0.0569         2.7131     0.79920000       -4.81140        -0.4669        77.2828        11.0851     0.32859999        12.2294        10.7920        13.7325        34.5568        11.5276      2670.7932     0.18590000
    3612.94680     35985.5977        -0.0473         2.7366     0.82290000       -4.80860        -0.5042        80.7238        12.3812     0.32820001        11.8391        10.8505        13.0693        34.7237        11.5054      2666.9287     0.18660000
    3613.09920     35323.8008         0.0069         2.7222     0.80720001       -4.80550        -0.6086        78.4407        12.4794     0.32960001        12.0615        10.6683        13.2853        34.4875        11.2408      2662.8967     0.18719999
    3613.25160     35243.3008        -0.0161         2.7552     0.81449997       -4.77970        -0.6930        78.3286        12.6511     0.32859999        12.7273        11.2311        12.9473        34.4588        11.1379      2681.0356     0.18340001
    3613.40400     35083.5977        -0.0381         2.8125     0.81760001       -4.77350        -0.6664        79.1304        13.7237     0.32980001        12.3441        10.8348        12.7698        34.4018        11.0320      2682.6897     0.17990001
    3613.55640     35012.6992         0.0532         2.7583     0.80820000       -4.79980        -0.7744        77.6426        14.4190     0.32890001        12.3358        10.7528        12.9854        34.3765        11.0074      2678.4829     0.17780000
    3613.70880     34570.0977        -0.4750         2.7701     0.80390000       -4.80370        -0.7602        77.1637        13.0461     0.32960001        12.5792        10.7605        12.8915        34.2187        11.1226      2676.4287     0.17569999
    3613.86120     33619.2031        -0.0179         2.7648     0.81419998       -4.79200        -0.8237        79.2551        12.7946     0.32789999        12.0026        10.4632        13.1385        33.8799        11.2020      2664.9656     0.17569999
    3614.01360     33689.6992         0.1260         2.8002     0.80790001       -4.77280        -0.7032        79.9501        12.3655     0.32679999        12.0290        10.1506        13.2429        33.9050        11.2798      2657.3572     0.17730001
    3614.16600     33864.6016        -0.1288         2.7660     0.80690002       -4.76550        -0.7292        79.2747        11.6702     0.32730001        12.2341        10.8477        13.1387        33.9673        11.4384      2665.2759     0.18040000
    3614.31840     34232.6016        -0.0721         2.7163     0.82150000       -4.77940        -0.7685        77.9301        11.7471     0.32980001        12.0447        10.9167        13.6187        34.0984        11.4376      2666.0691     0.18330000
    3614.47080     34625.7031        -0.0861         2.6910     0.81209999       -4.81830        -0.6745        79.4497        11.8329     0.33030000        11.8264        10.9442        13.2372        34.2385        11.5081      2671.3215     0.18279999
    3614.62320     34447.6992        -0.0857         2.7599     0.80089998       -4.80540        -0.6883        81.3784        13.5076     0.32510000        11.7939        10.4900        13.3424        34.1750        11.3797      2677.4485     0.18279999
    3614.77560     34409.1992         0.0687         2.7527     0.78270000       -4.88590        -0.6871        83.0157        14.2799     0.32280001        11.6761        10.3722        13.2387        34.1613        11.4302      2680.0000     0.18189999
    3614.92800     33509.0000         0.3374         2.7125     0.80669999       -4.83070        -0.6238        81.6489        15.6257     0.32269999        11.3650        10.3560        13.3874        33.8406        11.5015      2668.2222     0.18179999
