~Version Information Block
VERS .                 2.00:  CWLS LOG ASCII STANDARD - VERSION 2.00
WRAP .                   NO:  One line per depth step
~Well Information Block
#MNEM.UNIT        Data Type   Information
#---------- ----------------  -----------
STRT .M          3445.30680:  START DEPTH
STOP .M          3635.80680:  STOP DEPTH
STEP .M             0.15240:  STEP
NULL .              -999.25:  NULL VALUE
COMP .              Statoil:  COMPANY
WELL .          NO_15/9-F-5:  WELL
FLD  .                VOLVE:  FIELD
LOC  .            North Sea:  LOCATION
CTRY .                     :  COUNTRY
STAT .                     :  STATE
CNTY .                     :  COUNTY
SRVC .         Schlumberger:  SERVICE COMPANY
DATE .          16-Sep-2012:  DATE
API  .                     :  API NUMBER
UWI  .             15/9-F-5:  UNIQUE WELL ID
~Curve Information Block
#MNEM.UNIT         API CODE   Curve Description
#---------- ----------------  -----------------
DEPTH.M                    :  DEPTH (BOREHOLE)
CCLC .V                    :  CCL
CCLD .V                    :  CCL Discriminated Amplitude
CRRA .                     :  Near-Far Count Rate Ratio
CS   .F/MN                 :  Cable Speed
CVEL .M/MIN                 :  Cable Velocity
DEVI .DEG                  :  Hole Deviation
FBEF .UA                   :  RST Far Effective Beam Current
FCOR .                     :  RST Far Carbon/Oxygen Ratio
FERD .                     :  RST Far IC Mode Capture Optimization Resolution Degradation Factor
FIRD .                     :  RST Far Inelastic Optimization Resolution Degradation Factor
GR   .GAPI                 :  Gamma Ray
NCOR .                     :  RST Near Carbon/Oxygen Ratio
NERD .                     :  RST Near IC Mode Capture Optimization Resolution Degradation Factor
NIRD .                     :  RST Near Inelastic Optimization Resolution Degradation Factor
RB_PCMS.DEG                  :  Relative Bearing
TENS .LBF                  :  Cable Tension
WPRE .PSI                  :  Well Pressure
WTEP .DEGC                 :  Well Temperature
~Parameter Information Block
#MNEM.UNIT            Value   Description
#---------- ----------------  -----------
APD  .M           54.900002:  Elevation of Depth Reference (LMF) above Permanent Datum
RUN  .                Run 1:  RUN NUMBER
PROJECT.     SLEIPNER_OST@st-vlinapp01:  
SET  .        RSTD_0912_IC1:  
~Other Information Block
# 
~A       DEPTH           CCLC           CCLD           CRRA             CS           CVEL           DEVI           FBEF           FCOR           FERD           FIRD             GR           NCOR           NERD           NIRD        RB_PCMS           TENS           WPRE           WTEP 
# ...
    3604.41240        -0.0123         0.0000         2.8233         1.1637      -0.355200        54.4260       112.8084    -0.10740000         4.4518         4.4518        15.0485       0.005200         2.1090         2.1090         6.7248      2737.8157      5125.7764        67.8145
    3604.56480        -0.0131         0.0000         2.8441         1.1795      -0.354500        54.4257       113.4587    -0.20250000         4.4649         4.4649        14.5628       0.037400         2.0679         2.0679         6.8127      2737.4353      5125.8916        67.8029
    3604.71720        -0.0142         0.0000         2.8657         1.1667      -0.359800        54.4252       113.6608    -0.17010000         4.4795         4.4795        14.3632      -0.034000         2.0962         2.0962         6.8312      2739.4766      5126.0293        67.7927
    3604.86960        -0.0107         0.0000         2.8507         1.1755      -0.360000        54.4294       112.8334    -0.19010000         4.4536         4.4536        14.4784       0.006000         2.1139         2.1139         6.8449      2732.5750      5126.1445        67.7577
    3605.02200        -0.0092         0.0000         2.8229         1.1932      -0.365900        54.4403       113.2005    -0.01770000         4.3574         4.3574        14.4958       0.003800         2.1230         2.1230         6.9231      2750.1868      5126.3438        67.7483
    3605.17440        -0.0085         0.0000         2.8350         1.1539      -0.360400        54.4515       113.2359     0.02970000         4.4286         4.4286        14.7105       0.041500         2.0848         2.0848         7.0908      2756.1763      5126.4678        67.7515
    3605.32680        -0.0095         0.0000         2.8583         1.1637      -0.357700        54.4560       113.0007    -0.13050000         4.4043         4.4043        14.9829      -0.007900         2.0214         2.0214         7.1565      2744.2761      5126.6196        67.7509
    3605.47920        -0.0099         0.0000         2.8568         1.1873      -0.373100        54.4558       113.5205     0.01000000         4.3411         4.3411        15.0027      -0.027000         2.0254         2.0254         7.1708      2745.8809      5126.7324        67.7511
    3605.63160        -0.0053         0.0000         2.8685         1.2418      -0.374700        54.4612       113.3141     0.02860000         4.3417         4.3417        14.9210      -0.016800         2.0551         2.0551         7.2187      2747.4561      5126.8818        67.7541
    3605.78400        -0.0138         0.0000         2.8515         1.2290      -0.379000        54.4731       113.1678     0.02550000         4.2576         4.2576        14.6973       0.029400         2.0297         2.0297         7.2665      2745.5664      5126.9927        67.7568
    3605.93640        -0.0029         0.0000         2.8508         1.2169      -0.378600        54.4588       113.8765    -0.01350000         4.2017         4.2017        14.6912      -0.097100         2.0303         2.0303         7.1679      2742.5769      5127.1582        67.7638
    3606.08880        -0.0129         0.0000         2.8386         1.2539      -0.380600        54.4711       114.3071     0.00800000         4.1957         4.1957        14.8905       0.017200         2.0202         2.0202         7.1817      2737.6575      5127.3213        67.7733
    3606.24120        -0.1128         0.0000         2.8295         1.2749      -0.385800        54.4812       115.7910     0.07190000         4.2491         4.2491        14.6781      -0.066600         2.0024         2.0024         7.2369      2742.2056      5127.4331        67.7917
    3606.39360        -0.1033         0.0000         2.8300         1.2674      -0.388000        54.4960       116.9310    -0.01570000         4.2923         4.2923        14.7504      -0.050900         2.0648         2.0648         7.3013      2738.4419      5127.5762        67.7880
    3606.54600         0.1747         0.0000         2.8545         1.2713      -0.386700        54.5124       116.9464     0.01840000         4.3405         4.3405        14.6792       0.021500         2.0191         2.0191         7.3443      2738.3708      5127.7690        67.7975
    3606.69840        -0.0222         0.0000         2.8436         1.2667      -0.388100        54.5192       118.0756    -0.04540000         4.4117         4.4117        14.6392      -0.009600         2.0269         2.0269         7.5168      2739.5752      5127.8853        67.8140
    3606.85080        -0.0165         0.0000         2.8462         1.2500      -0.383200        54.5208       118.3752    -0.02750000         4.3479         4.3479        14.2753       0.025300         2.0288         2.0288         7.6023      2736.4905      5128.0117        67.8303
    3607.00320        -0.0209         0.0000         2.8593         1.2375      -0.379800        54.5264       115.2226     0.19720000         4.3094         4.3094        14.1239      -0.017000         2.0323         2.0323         7.6825      2742.3628      5128.1719        67.8392
    3607.15560        -0.0235         0.0000         2.8706         1.2822      -0.386900        54.5480       115.0281     0.04960000         4.2440         4.2440        14.2989      -0.063500         2.0384         2.0384         7.7396      2743.1443      5128.2739        67.8447
    3607.30800        -0.0110         0.0000         2.8488         1.2976      -0.393800        54.5706       113.3887    -0.03950000         4.1248         4.1248        14.0132      -0.007600         2.0445         2.0445         7.7359      2747.3926      5128.4126        67.8783
    3607.46040         0.0469         0.0000         2.8219         1.2936      -0.392500        54.5682       114.6356    -0.01370000         4.1504         4.1504        13.8936      -0.029300         2.0347         2.0347         7.8170      2738.1116      5128.5747        67.8759
    3607.61280         0.0321         0.0000         2.8529         1.2329      -0.389800        54.5636       114.2006     0.01440000         4.1040         4.1040        13.8817       0.040900         2.0080         2.0080         7.9853      2733.2480      5128.7227        67.8954
    3607.76520         0.0833         0.0000         2.8536         1.2415      -0.382200        54.5584       112.9399     0.06890000         4.2345         4.2345        14.4288      -0.030100         2.0389         2.0389         7.9832      2735.7041      5128.8579        67.8979
    3607.91760        -0.0001         0.0000         2.8526         1.2762      -0.397500        54.5552       112.8991     0.05530000         4.3123         4.3123        14.3515       0.018100         2.0087         2.0087         7.9997      2732.0576      5128.9609        67.9042
    3608.07000         0.0418         0.0000         2.8651         1.2621      -0.387400        54.5522       112.2869     0.02800000         4.1935         4.1935        15.0056       0.014100         2.0320         2.0320         8.0627      2735.6772      5129.1221        67.9316
    3608.22240        -0.0114         0.0000         2.8504         1.2841      -0.388500        54.5541       115.4935     0.04490000         4.1342         4.1342        15.1069       0.030300         2.0523         2.0523         8.1393      2721.5327      5129.2559        67.9438
    3608.37480        -0.0148         0.0000         2.8488         1.2493      -0.385700        54.5469       116.8175     0.15380000         4.1122         4.1122        15.5025      -0.031000         2.0604         2.0604         8.1295      2735.0505      5129.3901        67.9394
    3608.52720        -0.0117         0.0000         2.8644         1.2500      -0.383500        54.5283       116.6485    -0.09230000         4.1166         4.1166        15.1995       0.003000         1.9892         1.9892         8.1884      2733.3474      5129.5649        67.9332
    3608.67960        -0.0637         0.0000         2.8405         1.2841      -0.392500        54.5125       117.7444     0.05300000         4.1033         4.1033        15.0941      -0.018600         2.0434         2.0434         8.1216      2732.8516      5129.7041        67.9456
