~Version Information Block
VERS .                 2.00:  CWLS LOG ASCII STANDARD - VERSION 2.00
WRAP .                  YES:  Multiple lines per depth step
~Well Information Block
#MNEM.UNIT        Data Type   Information
#---------- ----------------  -----------
STRT .M          3513.58200:  START DEPTH
STOP .M          3649.06560:  STOP DEPTH
STEP .M             0.15240:  STEP
NULL .              -999.25:  NULL VALUE
COMP .              Statoil:  COMPANY
WELL .        NO_15/9-F-1_C:  WELL
FLD  .                Volve:  FIELD
LOC  .            North Sea:  LOCATION
CTRY .               Norway:  COUNTRY
STAT .                     :  STATE
CNTY .                     :  COUNTY
SRVC .         Schlumberger:  SERVICE COMPANY
DATE .          27-Nov-2014:  DATE
API  .                     :  API NUMBER
UWI  .           15/9-F-1 C:  UNIQUE WELL ID
LATI .     58° 26' 29.91" N:  LATITUDE
LONG .      1° 53' 14.71" E:  LONGITUDE
~Curve Information Block
#MNEM.UNIT         API CODE   Curve Description
#---------- ----------------  -----------------
DEPTH.M                    :  DEPTH (BOREHOLE)
BSAL .PPM                  :  Borehole Salinity
CCLC .V                    :  CCL
CIRF .                     :  RST Capture to Inelastic Ratio Far
CIRN .                     :  RST Capture to Inelastic Ratio Near
CVEL .M/SEC                 :  Cable Velocity
DFRB .DEG                  :  Calibrated Relative Bearing
DSIG .CU                   :  Sigma Difference
FBEF .UA                   :  RST Far Effective Beam Current
GR   .GAPI                 :  Gamma Ray
IRAT .                     :  RST Inelastic Ratio
PFC1 .IN                   :  PFCS CaliperX
PFC2 .IN                   :  PFCS CaliperY
RSCF .                     :  RST Far Detector Effective Unregulated
RSCN .                     :  RST Near Detector Effective
SFFA .CU                   :  RST Sigma Formation Far Apparent
SIBF .CU                   :  RST Sigma Borehole Fluid
SIGM .CU                   :  Formation Sigma (Neutron Capture Cross
TENS .LBF                  :  Cable Tension
TPHI .V/V                  :  Thermal Decay Porosity
~Parameter Information Block
#MNEM.UNIT            Value   Description
#---------- ----------------  -----------
APD  .M           54.900002:  Elevation of Depth Reference (LMF) above Permanent Datum
BHS  .                 CASE:  Borehole Status (Open or Cased Hole)
BS   .IN                8.5:  Bit Size
BSAL .PPM                 0:  Borehole Salinity
BSALOPT.              UNKNOWN:  Borehole Salinity Option
CSIZ .IN                  7:  Current Casing Size
CWEI .LB/F               29:  Casing Weight
EPD  .C3                  0:  Elevation of Permanent Datum above Mean Sea Level
LMF  .                   KB:  Logging Measured From (Name of Logging Elevation Reference)
MATR .                 SAND:  Rock Matrix for Neutron Porosity Corrections
PDAT .                  MSL:  Permanent Datum
RUN  .                Run 1:  RUN NUMBER
TAPE_NAME.     Statoil_Volve_15-9-F-1 C_PLT-RST_28Nov14_ConCu_R1L15Up_SigmaRepeat.las:  
TOOL_STRING.              UNKNOWN:  
WN   .           15/9-F-1 C:  WELL
PROJECT.     SLEIPNER_OST@st-vlinapp01:  
SET  .       RSTD_1114_SIG2:  
~Other Information Block
~Ascii Log Data
# ...
    3645.25560 
    58615.0000        -0.0335         2.3637       0.612000      -0.182405 
      352.7500        -3.6227        82.9422        15.4368         0.3338 
        6.2243         6.0510         9.8219         7.4846        17.8769 
       42.9146        16.1403      4838.0000       0.113900
    3645.40800 
    58615.0000        -0.0335         2.3637       0.612000      -0.177320 
      352.7500        -3.6227        82.9422        15.4368         0.3338 
        6.2354         6.0487         9.8219         7.4846        17.8769 
       42.9146        16.1403      5084.0000       0.113900
    3645.56040 
    58615.0000        -0.0335         2.3637       0.612000      -0.171557 
      354.1610        -3.6227        82.9422        15.4368         0.3338 
        6.2488         6.0464         9.8219         7.4846        17.8769 
       42.9146        16.1403      5106.0000       0.113900
    3645.71280 
    58615.0000        -0.0335         2.3637       0.612000      -0.168358 
      355.5720        -3.6227        82.9422        15.4368         0.3338 
        6.2331         6.0510         9.8219         7.4846        17.8769 
       42.9146        16.1403      5126.5000       0.113900
    3645.86520 
    58615.0000        -0.0335         2.3637       0.612000      -0.166918 
      355.5720        -3.6227        82.9422        15.4368         0.3338 
        6.2386         6.0532         9.8219         7.4846        17.8769 
       42.9146        16.1403      5135.6670       0.113900
    3646.01760 
    58615.0000        -0.0335         2.3637       0.612000      -0.164568 
      355.5720        -3.6227        82.9422        15.4368         0.3338 
        6.2533         6.0834         9.8219         7.4846        17.8769 
       42.9146        16.1403      5122.5000       0.113900
    3646.17000 
    58615.0000        -0.0335         2.3637       0.612000      -0.160140 
      355.5720        -3.6227        82.9422        15.4368         0.3338 
        6.2494         6.0834         9.8219         7.4846        17.8769 
       42.9146        16.1403      5050.0000       0.113900
    3646.32240 
    58615.0000        -0.0335         2.3637       0.612000      -0.154440 
      355.5720        -3.6227        82.9422        15.4368         0.3338 
        6.2417         6.0834         9.8219         7.4846        17.8769 
       42.9146        16.1403      5089.0000       0.113900
    3646.47480 
    58615.0000        -0.0335         2.3637       0.612000      -0.144090 
      355.5720        -3.6227        82.9422        15.4368         0.3338 
        6.2439         6.0834         9.8219         7.4846        17.8769 
       42.9146        16.1403      4908.3335       0.113900
    3646.62720 
    58615.0000        -0.0335         2.3637       0.612000      -0.133483 
      355.5720        -3.6227        82.9422        15.4368         0.3338 
        6.2458         6.0834         9.8219         7.4846        17.8769 
       42.9146        16.1403      4975.0000       0.113900
    3646.77960 
    58615.0000        -0.0335         2.3637       0.612000      -0.124162 
      355.5720        -3.6227        82.9422        15.4368         0.3338 
        6.2492         6.0834         9.8219         7.4846        17.8769 
       42.9146        16.1403      4750.3335       0.113900
    3646.93200 
    58615.0000        -0.0335         2.3637       0.612000      -0.114405 
      355.5720        -3.6227        82.9422        15.4368         0.3338 
        6.2468         6.0834         9.8219         7.4846        17.8769 
       42.9146        16.1403      4764.0000       0.113900
    3647.08440 
    58615.0000        -0.0335         2.3637       0.612000      -0.108348 
      355.5720        -3.6227        82.9422        15.4368         0.3338 
        6.2454         6.0834         9.8219         7.4846        17.8769 
       42.9146        16.1403      4703.5000       0.113900
    3647.23680 
    58615.0000        -0.0335         2.3637       0.612000      -0.100398 
      355.5720        -3.6227        82.9422        15.4368         0.3338 
        6.2407         6.0834         9.8219         7.4846        17.8769 
       42.9146        16.1403      4564.0000       0.113900
    3647.38920 
    58615.0000        -0.0335         2.3637       0.612000      -0.082612 
      355.5720        -3.6227        82.9422        15.4368         0.3338 
        6.2458         6.0834         9.8219         7.4846        17.8769 
       42.9146        16.1403      4536.3335       0.113900
    3647.54160 
    58615.0000        -0.0335         2.3637       0.612000      -0.079295 
      355.5720        -3.6227        82.9422        15.4368         0.3338 
        6.2401         6.0834         9.8219         7.4846        17.8769 
       42.9146        16.1403      4451.1997       0.113900
    3647.69400 
    58615.0000        -0.0335         2.3637       0.612000      -0.107533 
      355.5720        -3.6227        82.9422        15.4368         0.3338 
        6.2422         6.0834         9.8219         7.4846        17.8769 
       42.9146        16.1403      4297.2002       0.113900
    3647.84640 
    58615.0000        -0.0335         2.3637       0.612000      -0.110177 
      355.5720        -3.6227        82.9422        15.4368         0.3338 
        6.2441         6.0834         9.8219         7.4846        17.8769 
       42.9146        16.1403      4268.0000       0.113900
    3647.99880 
    58615.0000        -0.0335         2.3637       0.612000      -0.124987 
      355.5720        -3.6227        82.9422        15.4368         0.3338 
        6.2398         6.0834         9.8219         7.4846        17.8769 
       42.9146        16.1403      4174.0000       0.113900
    3648.15120 
    58615.0000        -0.0335         2.3637       0.612000      -0.131332 
      355.5720        -3.6227        82.9422        15.4368         0.3338 
        6.2428         6.0834         9.8219         7.4846        17.8769 
       42.9146        16.1403      4051.3333       0.113900
    3648.30360 
    58615.0000        -0.0335         2.3637       0.612000      -0.145737 
      355.5720        -3.6227        82.9422        15.4368         0.3338 
        6.2491         6.0834         9.8219         7.4846        17.8769 
       42.9146        16.1403      3981.0002       0.113900
    3648.45600 
    58615.0000        -0.0335         2.3637       0.612000      -0.169015 
      355.5720        -3.6227        82.9422        15.4368         0.3338 
        6.2476         6.0834         9.8219         7.4846        17.8769 
       42.9146        16.1403      3830.0002       0.113900
    3648.60840 
    58615.0000        -0.0335         2.3637       0.612000      -0.167738 
      355.5720        -3.6227        82.9422        15.4368         0.3338 
        6.2439         6.0834         9.8219         7.4846        17.8769 
       42.9146        16.1403      3761.6665       0.113900
    3648.76080 
    58615.0000        -0.0335         2.3637       0.612000      -0.137882 
      355.5720        -3.6227        82.9422        15.4368         0.3338 
        6.2439         6.0834         9.8219         7.4846        17.8769 
       42.9146        16.1403      3705.0002       0.113900
    3648.91320 
    58615.0000        -0.0335         2.3637       0.612000      -0.106098 
      355.5720        -3.6227        82.9422        15.4368         0.3338 
        6.2439         6.0834         9.8219         7.4846        17.8769 
       42.9146        16.1403      3454.0002       0.113900
    3649.06560 
    58615.0000        -0.0335         2.3637       0.612000      -0.082602 
      355.5720        -3.6227        82.9422        15.4368         0.3338 
        6.2439         6.0834         9.8219         7.4846        17.8769 
       42.9146        16.1403      3310.2500       0.113900
