~Version Information Block
VERS .                 2.00:  CWLS LOG ASCII STANDARD - VERSION 2.00
WRAP .                   NO:  One line per depth step
~Well Information Block
#MNEM.UNIT        Data Type   Information
#---------- ----------------  -----------
STRT .M          3445.61160:  START DEPTH
STOP .M          3638.55000:  STOP DEPTH
STEP .M             0.15240:  STEP
NULL .              -999.25:  NULL VALUE
COMP .              Statoil:  COMPANY
WELL .          NO_15/9-F-5:  WELL
FLD  .                VOLVE:  FIELD
LOC  .            North Sea:  LOCATION
CTRY .                     :  COUNTRY
STAT .                     :  STATE
CNTY .                     :  COUNTY
SRVC .         Schlumberger:  SERVICE COMPANY
DATE .          16-Sep-2012:  DATE
API  .                     :  API NUMBER
UWI  .             15/9-F-5:  UNIQUE WELL ID
~Curve Information Block
#MNEM.UNIT         API CODE   Curve Description
#---------- ----------------  -----------------
DEPTH.M                    :  DEPTH (BOREHOLE)
CCLC .V                    :  CCL
CCLD .V                    :  CCL Discriminated Amplitude
CRRA .                     :  Near-Far Count Rate Ratio
CS   .F/MN                 :  Cable Speed
CVEL .M/MIN                 :  Cable Velocity
DEVI .DEG                  :  Hole Deviation
FBEF .UA                   :  RST Far Effective Beam Current
FCOR .                     :  RST Far Carbon/Oxygen Ratio
FERD .                     :  RST Far IC Mode Capture Optimization Resolution Degradation Factor
FIRD .                     :  RST Far Inelastic Optimization Resolution Degradation Factor
GR   .GAPI                 :  Gamma Ray
NCOR .                     :  RST Near Carbon/Oxygen Ratio
NERD .                     :  RST Near IC Mode Capture Optimization Resolution Degradation Factor
NIRD .                     :  RST Near Inelastic Optimization Resolution Degradation Factor
RB_PCMS.DEG                  :  Relative Bearing
TENS .LBF                  :  Cable Tension
WPRE .PSI                  :  Well Pressure
WTEP .DEGC                 :  Well Temperature
~Parameter Information Block
#MNEM.UNIT            Value   Description
#---------- ----------------  -----------
APD  .M           54.900002:  Elevation of Depth Reference (LMF) above Permanent Datum
RUN  .                Run 1:  RUN NUMBER
PROJECT.     SLEIPNER_OST@st-vlinapp01:  
SET  .        RSTD_0912_IC2:  
~Other Information Block
# 
~A       DEPTH           CCLC           CCLD           CRRA             CS           CVEL           DEVI           FBEF           FCOR           FERD           FIRD             GR           NCOR           NERD           NIRD        RB_PCMS           TENS           WPRE           WTEP 
# ...
    3458.87040         0.0523         0.0000         3.2606         0.9774      -0.303700        46.2932       122.8896     0.19890000         5.8445         5.8445        60.8160     0.02360000         2.7808         2.7808         8.4274      2801.7087      4995.4634        96.2285
    3459.02280        -0.0052         0.0000         3.2022         0.9774      -0.303700        46.3057       123.4656    -0.03530000         5.8816         5.8816        64.6341     0.04180000         2.7492         2.7492         8.6734      2801.7087      4995.6426        96.2186
    3459.17520        -0.0746         0.0000         3.2140         0.9774      -0.303700        46.3113       127.9782     0.10520000         5.9331         5.9331        68.2672     0.03560000         2.7672         2.7672         8.5747      2801.7087      4995.7729        96.2078
    3459.32760        -0.0067         0.0000         3.2961         0.9774      -0.303700        46.3141       127.4564    -0.08030000         5.9331         5.9331        70.5680    -0.02380000         2.7890         2.7890         8.5919      2801.7087      4995.9639        96.2035
    3459.48000        -0.0073         0.0000         3.2696         0.9774      -0.303700        46.3178       127.7732     0.22200000         6.2972         6.2972        70.5429    -0.02950000         2.7890         2.7890         8.5724      2801.7087      4996.0923        96.1925
    3459.63240        -0.0311         0.0000         3.3034         0.9774      -0.303700        46.3213       128.0422     0.10150000         6.2661         6.2661        67.0814     0.02720000         2.8772         2.8772         8.3945      2801.7087      4996.2402        96.1821
    3459.78480        -0.0088         0.0000         3.3991         0.9774      -0.303700        46.3326       130.3880    -0.03200000         6.4593         6.4593        62.7846     0.02980000         2.8691         2.8691         8.6003      2801.7087      4996.3940        96.1769
    3459.93720        -0.0630         0.0000         3.4783         0.9774      -0.303700        46.3389       129.1812     0.16850001         6.2987         6.2987        59.1810     0.06490000         2.8798         2.8798         8.8007      2801.7087      4996.5303        96.1692
    3460.08960        -0.0097         0.0000         3.4062         0.9774      -0.303700        46.3595       128.2058     0.22380000         6.3536         6.3536        53.5198     0.00710000         2.9416         2.9416         8.8322      2801.7087      4996.6973        96.1638
    3460.24200         0.0941         0.0000         3.4055         0.9774      -0.303700        46.3565       129.4867     0.14410000         6.0897         6.0897        49.9779     0.04390000         2.9582         2.9582         8.7258      2801.7087      4996.8491        96.1580
    3460.39440        -0.0103         0.0000         3.4628         0.9774      -0.303700        46.3622       129.3581     0.17700000         6.1315         6.1315        48.6113     0.05240000         2.9691         2.9691         8.7312      2801.7087      4996.9897        96.1559
    3460.54680        -0.0113         0.0000         3.4645         0.9774      -0.303700        46.3632       128.0367     0.14410000         6.1641         6.1641        47.6209     0.04380000         2.9261         2.9261         8.8390      2801.7087      4997.1558        96.1537
    3460.69920        -0.0178         0.0000         3.4518         0.9774      -0.303700        46.3754       128.1864     0.10420000         6.0266         6.0266        45.8760     0.08640000         2.9558         2.9558         8.8776      2801.7087      4997.3018        96.1532
    3460.85160        -0.0152         0.0000         3.4310         0.9774      -0.303700        46.3970       128.3239     0.19820000         6.0802         6.0802        46.3095     0.04270000         2.9046         2.9046         8.8545      2801.7087      4997.4526        96.1544
    3461.00400        -0.0784         0.0000         3.3976         0.9774      -0.303700        46.4160       129.3856     0.09060000         6.1161         6.1161        47.1202    -0.00460000         2.9794         2.9794         8.7530      2801.7087      4997.6006        96.1566
    3461.15640        -0.0075         0.0000         3.4197         0.9774      -0.303700        46.4305       128.2349     0.13720000         6.1726         6.1726        46.9259     0.09480000         2.9473         2.9473         8.5884      2801.7087      4997.7417        96.1569
    3461.30880        -0.0080         0.0000         3.4054         0.9774      -0.303700        46.4449       127.8444     0.16200000         6.2072         6.2072        46.8405     0.01100000         2.9605         2.9605         8.3793      2801.7087      4997.8940        96.1580
    3461.46120        -0.0111         0.0000         3.4113         0.9774      -0.303700        46.4622       126.1527     0.09330000         6.2123         6.2123        46.8957     0.06360000         2.9903         2.9903         8.1961      2801.7087      4998.0366        96.1623
    3461.61360         0.0612         0.0000         3.3343         0.9774      -0.303700        46.4733       123.2851    -0.00830000         6.0841         6.0841        47.5837     0.01230000         3.0043         3.0043         8.1628      2801.7087      4998.1919        96.1674
    3461.76600        -0.0068         0.0000         3.2358         0.9964      -0.303700        46.4853       119.9145    -0.02290000         6.2112         6.2112        47.8811     0.05000000         2.9494         2.9494         8.2379      2801.7087      4998.3408        96.1681
    3461.91840         0.0258         0.0000         3.1490         0.9898      -0.303400        46.4841       115.2897     0.14129999         6.2234         6.2234        48.5723     0.00170000         2.9212         2.9212         8.3843      2799.8740      4998.4658        96.1673
    3462.07080        -0.0277         0.0000         3.0538         1.5089      -0.471900        46.5025       115.0947    -0.07060000         5.9441         5.9441        49.1677     0.05840000         2.9063         2.9063         8.4724      2794.7100      4998.6133        96.1725
    3462.22320        -0.0077         0.0000         3.0318         2.0341      -0.644300        46.5183       115.3417    -0.19020000         6.0604         6.0604        48.8448     0.02200000         2.9221         2.9221         8.4875      2803.0361      4998.8101        96.1779
    3462.37560        -0.0038         0.0000         3.0739         2.5335      -0.375200        46.5310       119.0567    -0.04010000         5.9787         5.9787        48.4902     0.00110000         2.8403         2.8403         8.4974      2724.0920      4998.9341        96.1792
    3462.52800        -0.0057         0.0000         3.1677         4.0443      -0.669000        46.5481       118.5473    -0.10560000         5.8724         5.8724        47.6700     0.01270000         2.8153         2.8153         8.5143      2710.8738      4999.0850        96.1796
    3462.68040         0.0612         0.0000         3.1554         2.5892      -0.578500        46.5667       117.9318    -0.01620000         5.7583         5.7583        46.6285     0.05730000         2.7715         2.7715         8.4040      2656.0298      4999.2271        96.1809
    3462.83280        -0.0446         0.0000         3.1062         6.6654      -1.406100        46.5798       118.0781     0.06960000         5.7078         5.7078        45.5548     0.07450000         2.7324         2.7324         8.3747      2830.8948      4999.3765        96.1847
    3462.98520        -0.0053         0.0000         3.0979         2.0492      -0.613800        46.5950       118.7227     0.03140000         5.7906         5.7906        45.3014    -0.05340000         2.6922         2.6922         8.3518      2810.9548      4999.5278        96.1881
    3463.13760         0.0089         0.0000         3.0957         9.9987      -0.933400        46.6154       118.2699    -0.02850000         5.8637         5.8637        45.2443     0.05030000         2.6878         2.6878         8.3509      2752.5315      4999.6802        96.1909
