~Version Information Block
VERS .                 2.00:  CWLS LOG ASCII STANDARD - VERSION 2.00
WRAP .                   NO:  One line per depth step
~Well Information Block
#MNEM.UNIT        Data Type   Information
#---------- ----------------  -----------
STRT .M          3201.31440:  START DEPTH
STOP .M          3410.40720:  STOP DEPTH
STEP .M             0.15240:  STEP
NULL .              -999.25:  NULL VALUE
COMP .              Statoil:  COMPANY
WELL .          NO_15/9-F-4:  WELL
FLD  .                VOLVE:  FIELD
LOC  .            North Sea:  LOCATION
CTRY .                     :  COUNTRY
STAT .                     :  STATE
CNTY .                     :  COUNTY
SRVC .         Schlumberger:  SERVICE COMPANY
DATE .          13-Sep-2012:  DATE
API  .                     :  API NUMBER
UWI  .             15/9-F-4:  UNIQUE WELL ID
~Curve Information Block
#MNEM.UNIT         API CODE   Curve Description
#---------- ----------------  -----------------
DEPTH.M                    :  DEPTH (BOREHOLE)
CCLC .V                    :  CCL
CCLD .V                    :  CCL Discriminated Amplitude
CRRA .                     :  Near-Far Count Rate Ratio
CVEL .M/MIN                 :  Cable Velocity
DEVI .DEG                  :  Hole Deviation
FBEF .UA                   :  RST Far Effective Beam Current
FCOR .                     :  RST Far Carbon/Oxygen Ratio
FERD .                     :  RST Far IC Mode Capture Optimization Resolution Degradation Factor
FIRD .                     :  RST Far Inelastic Optimization Resolution Degradation Factor
GR   .GAPI                 :  Gamma Ray
NCOR .                     :  RST Near Carbon/Oxygen Ratio
NERD .                     :  RST Near IC Mode Capture Optimization Resolution Degradation Factor
NIRD .                     :  RST Near Inelastic Optimization Resolution Degradation Factor
RB_PCMS.DEG                  :  Relative Bearing
TENS .LBF                  :  Cable Tension
WPRE .PSI                  :  Well Pressure
WTEP .DEGC                 :  Well Temperature
WTPE .MS                   :  Well Temperature Period
~Parameter Information Block
#MNEM.UNIT            Value   Description
#---------- ----------------  -----------
APD  .M                  54:  Elevation of Depth Reference (LMF) above Permanent Datum
RUN  .                    1:  RUN NUMBER
PROJECT.     SLEIPNER_OST@st-vlinapp01:  
SET  .        RSTD_0912_IC2:  
~Other Information Block
# 
~A       DEPTH           CCLC           CCLD           CRRA           CVEL           DEVI           FBEF           FCOR           FERD           FIRD             GR           NCOR           NERD           NIRD        RB_PCMS           TENS           WPRE           WTEP           WTPE 
# ...
    3267.60840        0.01990        0.01990         2.9266       -0.37490        52.5150       115.0864         0.1027         5.5316         5.5316        32.3822     0.03190000         2.8331         2.8331       356.1780      2297.9016      4920.2266        95.7702         4.0219
    3267.76080       -0.01250        0.00000         3.0697       -0.37080        52.5176       114.9053         0.1637         5.5293         5.5293        32.1600    -0.04990000         2.8932         2.8932       356.1236      2311.5125      4920.3623        95.7706         4.0219
    3267.91320       -0.01330        0.00000         3.0144       -0.36870        52.4640       113.7734        -0.1178         5.4993         5.4993        32.0876     0.09060000         2.8382         2.8382       356.1042      2307.8713      4920.4937        95.7686         4.0219
    3268.06560       -0.01100        0.00000         2.9521       -0.37080        52.4379       109.4691         0.0381         5.5486         5.5486        31.6259    -0.01070000         2.8414         2.8414       356.1230      2299.9241      4920.6343        95.7688         4.0219
    3268.21800        0.02380        0.00000         2.8111       -0.37730        52.4269       109.7192         0.1509         5.5717         5.5717        31.4106     0.07350000         2.8309         2.8309       356.1186      2307.9065      4920.7485        95.7678         4.0219
    3268.37040       -0.01030        0.00000         2.8174       -0.37830        52.4273       109.2956        -0.0958         5.5447         5.5447        31.5466     0.07370000         2.7517         2.7517       356.1063      2316.2209      4920.9155        95.7668         4.0219
    3268.52280       -0.00730        0.00000         2.8134       -0.37570        52.4299       110.6122         0.0096         5.5033         5.5033        31.1214     0.04440000         2.7563         2.7563       356.1740      2305.2952      4921.0366        95.7666         4.0219
    3268.67520       -0.00840        0.00000         2.8308       -0.37880        52.4267       111.2661         0.0769         5.5329         5.5329        30.9515     0.09670000         2.7637         2.7637       356.2221      2311.0828      4921.1792        95.7673         4.0219
    3268.82760        0.04800        0.00000         2.8525       -0.37650        52.4291       111.4539         0.0456         5.5710         5.5710        31.5778    -0.04710000         2.7688         2.7688       356.1602      2306.8899      4921.2974        95.7661         4.0219
    3268.98000       -0.00900        0.00000         2.8692       -0.37550        52.4458       110.9819         0.1349         5.5731         5.5731        32.1017    -0.03240000         2.8463         2.8463       356.2203      2317.2549      4921.4541        95.7656         4.0219
    3269.13240        0.01500        0.00000         2.8341       -0.37610        52.4640       111.8413         0.0888         5.5933         5.5933        32.4114     0.01440000         2.8392         2.8392       356.2106      2307.2273      4921.5586        95.7650         4.0219
    3269.28480        0.02100        0.00000         2.8647       -0.37770        52.4696       112.0448         0.1160         5.5885         5.5885        32.5308     0.00760000         2.9191         2.9191       356.1672      2310.9587      4921.6753        95.7653         4.0219
    3269.43720       -0.00630        0.00000         2.8636       -0.38010        52.4860       111.9233        -0.0077         5.5267         5.5267        32.3685     0.03840000         2.9691         2.9691       356.0567      2302.6851      4921.8159        95.7638         4.0219
    3269.58960       -0.00780        0.00000         2.8690       -0.37900        52.5017       110.7278         0.0109         5.5391         5.5391        32.2947    -0.01440000         2.9312         2.9312       355.8917      2307.0249      4921.9580        95.7632         4.0219
    3269.74200       -0.04550        0.00000         2.8378       -0.38410        52.5218       111.0775        -0.0835         5.6629         5.6629        32.2197     0.00260000         2.9323         2.9323       355.8664      2301.5786      4922.0972        95.7628         4.0219
    3269.89440       -0.00700        0.00000         2.8455       -0.38180        52.5033       111.9276         0.0114         5.7035         5.7035        31.4303     0.03110000         2.9507         2.9507       356.0779      2309.1143      4922.2271        95.7621         4.0219
    3270.04680       -0.00600        0.00000         2.8641       -0.37860        52.5165       111.9315        -0.0268         5.7445         5.7445        31.8756     0.02060000         2.9414         2.9414       356.2803      2299.9451      4922.3252        95.7638         4.0219
    3270.19920        0.07370        0.00000         2.8555       -0.38010        52.5304       111.8775        -0.0615         5.7013         5.7013        31.8885    -0.04450000         2.9490         2.9490       356.2913      2307.0305      4922.4775        95.7641         4.0219
    3270.35160       -0.00470        0.00000         2.8557       -0.37700        52.5355       112.0235        -0.0078         5.6486         5.6486        32.1761    -0.04600000         2.9519         2.9519       356.1348      2316.3940      4922.6226        95.7647         4.0219
    3270.50400        0.05850        0.00000         2.8688       -0.38100        52.5583       112.1306         0.0210         5.6089         5.6089        31.8500     0.00640000         2.9366         2.9366       356.2227      2316.8528      4922.7578        95.7645         4.0219
    3270.65640       -0.00400        0.00000         2.8696       -0.37730        52.5598       112.5590        -0.0893         5.6276         5.6276        32.9179     0.04270000         2.8898         2.8898       356.3164      2302.7800      4922.8755        95.7671         4.0219
    3270.80880       -0.00290        0.00000         2.8765       -0.37910        52.5740       111.8655         0.0442         5.6028         5.6028        33.2579    -0.00740000         2.8727         2.8727       356.3424      2302.6399      4923.0181        95.7683         4.0219
    3270.96120        0.00480        0.00000         2.8637       -0.37700        52.5818       112.3700         0.0222         5.4171         5.4171        34.1206     0.03800000         2.8501         2.8501       356.2693      2303.5935      4923.1548        95.7680         4.0219
    3271.11360       -0.00060        0.00000         2.8772       -0.37730        52.5773       111.4372        -0.0627         5.5298         5.5298        35.1546    -0.03960000         2.9020         2.9020       356.4766      2300.1863      4923.2827        95.7696         4.0219
    3271.26600        0.00140        0.00000         2.8616       -0.37490        52.5830       111.1939        -0.0680         5.5193         5.5193        37.7886    -0.02700000         2.9038         2.9038       356.5639      2301.8955      4923.4214        95.7724         4.0219
    3271.41840       -0.07620        0.00000         2.8698       -0.37780        52.5875       111.3745        -0.0971         5.3790         5.3790        41.1849     0.02380000         2.9016         2.9016       356.6883      2310.3057      4923.5503        95.7738         4.0220
    3271.57080        0.02550        0.00000         2.9069       -0.37200        52.5968       111.2239        -0.0063         5.5555         5.5555        44.7852    -0.01410000         2.8988         2.8988       356.7076      2302.4646      4923.6636        95.7759         4.0220
    3271.72320        0.00310        0.00000         2.9087       -0.36690        52.6060       110.2835         0.1072         5.6146         5.6146        48.2570     0.02480000         2.9570         2.9570       356.6315      2326.9307      4923.8340        95.7772         4.0220
    3271.87560        0.00600        0.00000         2.8943       -0.36800        52.6184       110.3773         0.1779         5.5823         5.5823        50.8870    -0.02040000         2.9648         2.9648       356.5770      2315.1423      4923.9541        95.7778         4.0220
