#------------------------------------------------------------------------------
#
#   Created by   : las_export
#   Created on   : 2009-06-18 13:07:55
#   Project      : VOLVE
#   User         : TONYG
#   Interpreters : *
#
#------------------------------------------------------------------------------
~VERSION INFORMATION
VERS. 2.0 : CWLS Log ASCII Standard - version 2.0
WRAP.  NO : One line per depth step

~WELL INFORMATION
#MNEMONIC   .UNIT                                           VALUE :DESCRIPTION
#------------------------------------------------------------------------------
STRT        .M                                       2560.0412 :START DEPTH
STOP        .M                                       3222.0668 :STOP DEPTH
STEP        .M                                          0.1524 :STEP
NULL        .                                        -999.2500 :NULL VALUE
COMP        .                                                  :COMPANY
WELL        .                                      15/9-F-15 C :WELL
FLD         .                                            VOLVE :FIELD
LOC         .                                          UNKNOWN :LOCATION
CNTY        .                                          UNKNOWN :COUNTY
STAT        .                                          UNKNOWN :STATE
CTRY        .                                           Norway :COUNTRY
SRVC        .                                          UNKNOWN :SERVICE COMPANY
DATE        .                                          UNKNOWN :LOG DATE
UWI         .                                   NO 15/9-F-15 C :UNIQUE WELL ID
XCOORD      .M                                   435053.550000 :SURFACE X
YCOORD      .M                                  6478560.360000 :SURFACE Y
LAT         .                                        58.441585 :LATITUDE
LON         .                                         1.887541 :LONGITUDE
ELEV        .M                                         54.9000 :SURFACE ELEV
ELEV_TYPE   .                                               KB :ELEV TYPE

~CURVE INFORMATION
#MNEMONIC   .UNIT          API CODE       : CURVE DESCRIPTION
#------------------------------------------------------------------------------
DEPTH       .M                            : Measured Depth
DT          .us/ft         UNKNOWN        : DT:UNKNOWN:rC:NONE:v1
GR          .API           UNKNOWN        : GR:UNKNOWN:rC:NONE:v1
~A     DEPTH           DT           GR 
# ...
  3017.24120    77.496078    32.110703 
  3017.39360    74.115021    26.882081 
  3017.54600    71.843147    23.979119 
  3017.69840    71.273109    23.961971 
  3017.85080    73.091026    22.681748 
  3018.00320    75.996208    21.244373 
  3018.15560    77.475281    20.945299 
  3018.30800    77.010803    24.700145 
  3018.46040    76.419548    28.312342 
  3018.61280    77.103859    31.138895 
  3018.76520    79.765877    31.172832 
  3018.91760    82.486717    31.868131 
  3019.07000    82.248062    33.827177 
  3019.22240    83.057983    36.282499 
  3019.37480    81.896690    39.007892 
  3019.52720    79.316429    41.186366 
  3019.67960    74.909599    43.559372 
  3019.83200    73.897430    42.147849 
  3019.98440    76.837837    37.827672 
  3020.13680    80.318497    32.428638 
  3020.28920    82.632294    30.782812 
  3020.44160    82.945808    31.637379 
  3020.59400    80.593269    33.827188 
  3020.74640    78.423347    35.708563 
  3020.89880    77.611877    39.128147 
  3021.05120    76.291649    42.060265 
  3021.20360    75.136833    42.065239 
  3021.35600    75.106888    38.061653 
  3021.50840    75.166428    32.994250 
  3021.66080    74.927612    30.437054 
  3021.81320    75.860420    30.115892 
  3021.96560    75.694054    31.639471 
  3022.11800    75.377663    32.084636 
  3022.27040    76.081673    32.486746 
  3022.42280    76.172997    31.995831 
  3022.57520    76.963432    33.403934 
  3022.72760    77.471184    34.564309 
  3022.88000    79.058701    35.985164 
  3023.03240    81.333130    35.032684 
  3023.18480    81.663582    33.458851 
  3023.33720    80.829483    32.445344 
  3023.48960    79.955391    33.973355 
  3023.64200    79.821609    35.954134 
  3023.79440    78.155510    37.064891 
  3023.94680    77.540222    37.368980 
  3024.09920    77.609573    36.905570 
  3024.25160    77.635948    35.264724 
  3024.40400    78.160507    33.109638 
  3024.55640    78.258347    31.716893 
  3024.70880    79.898232    32.095932 
  3024.86120    81.380234    32.347235 
  3025.01360    81.331688    33.789344 
  3025.16600    81.154823    35.316435 
  3025.31840    79.493607    37.115589 
  3025.47080    77.981903    38.446176 
  3025.62320    78.137917    36.669091 
  3025.77560    76.992867    33.737040 
  3025.92800    76.622673    31.544467 
  3026.08040    76.744347    32.038992 
  3026.23280    77.163406    33.071664 
  3026.38520    77.886276    32.270375 
  3026.53760    78.050453    31.095229 
  3026.69000    78.558563    29.930390 
  3026.84240    79.922760    29.646092 
  3026.99480    81.237320    31.321783 
  3027.14720    81.225029    34.826633 
  3027.29960    81.827980    37.513372 
  3027.45200    83.479507    37.101821 
  3027.60440    83.491508    35.459014 
  3027.75680    82.282898    36.066804 
  3027.90920    80.427780    38.498352 
  3028.06160    77.159431    39.977099 
  3028.21400    75.077026    37.483639 
  3028.36640    76.447884    33.423257 
  3028.51880    77.429260    30.236169 
  3028.67120    77.999329    30.116637 
  3028.82360    78.288353    31.119547 
  3028.97600    78.847107    33.276242 
  3029.12840    78.726433    34.569792 
  3029.28080    77.672440    37.211857 
  3029.43320    75.289017    39.063056 
  3029.58560    72.875572    38.519095 
  3029.73800    72.835197    33.971969 
  3029.89040    73.795410    28.963365 
  3030.04280    75.878387    26.588808 
  3030.19520    76.824951    27.724713 
  3030.34760    76.938683    29.952370 
  3030.50000    76.202461    32.940009 
  3030.65240    75.505707    33.413466 
  3030.80480    75.840698    32.439827 
  3030.95720    76.022163    30.819766 
  3031.10960    76.143806    30.371881 
  3031.26200    76.093552    30.394574 
  3031.41440    75.463058    30.255641 
  3031.56680    75.091751    30.394742 
  3031.71920    74.622429    30.186992 
  3031.87160    73.668793    30.404840 
  3032.02400    73.863083    30.774040 
  3032.17640    73.609497    30.666955 
  3032.32880    74.005913    30.108336 
  3032.48120    73.967522    30.237784 
  3032.63360    73.703133    30.641094 
  3032.78600    74.175369    31.493901 
  3032.93840    74.409821    30.248306 
  3033.09080    74.381844    31.484022 
  3033.24320    74.583450    32.334448 
  3033.39560    74.274330    34.199796 
  3033.54800    72.051003    33.299975 
  3033.70040    68.379967    32.087244 
  3033.85280    65.608932    30.510824 
  3034.00520    65.706032    29.198599 
  3034.15760    67.461922    26.060719 
  3034.31000    70.113487    23.215060 
  3034.46240    73.250771    22.522570 
  3034.61480    76.423637    25.335946 
  3034.76720    79.852509    30.661176 
  3034.91960    82.680481    36.319135 
  3035.07200    83.968933    42.180413 
  3035.22440    83.239647    46.944741 
  3035.37680    83.483978    48.819670 
  3035.52920    84.426407    50.066475 
  3035.68160    85.343552    49.099030 
  3035.83400    85.261192    49.435068 
  3035.98640    84.868477    47.596059 
  3036.13880    81.740532    47.253248 
  3036.29120    79.042160    47.670210 
  3036.44360    78.283333    48.039815 
  3036.59600    77.916344    44.862535 
  3036.74840    77.069252    40.808489 
  3036.90080    76.832687    36.605626 
  3037.05320    78.319962    35.864743 
  3037.20560    78.533882    36.238425 
  3037.35800    79.072220    36.955612 
  3037.51040    78.902657    37.640769 
  3037.66280    79.091118    38.796675 
  3037.81520    79.637413    40.508210 
  3037.96760    80.797417    41.748341 
  3038.12000    80.768257    41.125021 
  3038.27240    79.803268    40.700772 
  3038.42480    80.110291    40.970909 
  3038.57720    80.110741    40.270510 
  3038.72960    79.644463    40.603160 
  3038.88200    79.729187    41.173694 
  3039.03440    79.073189    42.994141 
  3039.18680    77.945442    45.149655 
  3039.33920    78.516006    44.589924 
  3039.49160    79.590897    45.240541 
  3039.64400    80.427589    44.970812 
  3039.79640    81.549103    44.967555 
  3039.94880    83.309196    42.810535 
  3040.10120    86.629311    41.121931 
  3040.25360    89.495377    43.819631 
  3040.40600    89.414818    49.500869 
  3040.55840    87.827278    54.306735 
  3040.71080    84.529694    55.079420 
  3040.86320    81.411690    53.134884 
  3041.01560    78.290466    49.439369 
  3041.16800    76.503883    49.014387 
  3041.32040    77.706200    47.522472 
  3041.47280    80.887192    44.882397 
  3041.62520    82.049744    43.374345 
  3041.77760    81.265137    46.401994 
  3041.93000    80.234848    52.618780 
  3042.08240    81.262573    51.201861 
  3042.23480    83.346031    44.764941 
  3042.38720    82.162018    41.306914 
  3042.53960    77.628464    46.347382 
  3042.69200    76.163017    50.620420 
  3042.84440    79.720848    47.360071 
  3042.99680    85.324158    39.321579 
  3043.14920    88.058449    38.885637 
  3043.30160    87.568100    48.105920 
  3043.45400    85.889732    58.255199 
  3043.60640    85.749069    59.866172 
  3043.75880    86.314056    54.222896 
  3043.91120    86.333946    48.396826 
  3044.06360    86.376373    45.807769 
  3044.21600    86.728622    46.381314 
  3044.36840    88.428299    46.503706 
  3044.52080    88.627693    48.055069 
  3044.67320    88.667473    47.919435 
  3044.82560    87.624870    47.847747 
  3044.97800    86.250366    48.642274 
  3045.13040    84.065903    49.974565 
  3045.28280    82.524696    52.267148 
  3045.43520    82.676750    51.172234 
  3045.58760    84.181931    49.103984 
  3045.74000    84.932289    45.846102 
  3045.89240    85.201492    45.163856 
  3046.04480    86.300270    45.656410 
  3046.19720    86.334373    46.659732 
  3046.34960    86.303871    45.657029 
  3046.50200    85.607788    45.202901 
  3046.65440    85.171783    45.116298 
  3046.80680    84.948151    45.832859 
  3046.95920    85.144882    45.412357 
  3047.11160    84.003197    46.037412 
  3047.26400    82.984627    46.859952 
  3047.41640    83.307091    48.105674 
  3047.56880    82.958763    47.986459 
