~Version Information Block
VERS .                 2.00:  CWLS LOG ASCII STANDARD - VERSION 2.00
WRAP .                   NO:  One line per depth step
~Well Information Block
#MNEM.UNIT        Data Type   Information
#---------- ----------------  -----------
STRT .M          3199.94280:  START DEPTH
STOP .M          3410.40720:  STOP DEPTH
STEP .M             0.15240:  STEP
NULL .              -999.25:  NULL VALUE
COMP .              Statoil:  COMPANY
WELL .          NO_15/9-F-4:  WELL
FLD  .                VOLVE:  FIELD
LOC  .            North Sea:  LOCATION
CTRY .                     :  COUNTRY
STAT .                     :  STATE
CNTY .                     :  COUNTY
SRVC .         Schlumberger:  SERVICE COMPANY
DATE .          13-Sep-2012:  DATE
API  .                     :  API NUMBER
UWI  .             15/9-F-4:  UNIQUE WELL ID
~Curve Information Block
#MNEM.UNIT         API CODE   Curve Description
#---------- ----------------  -----------------
DEPTH.M                    :  DEPTH (BOREHOLE)
CCLC .V                    :  CCL
CRRA .                     :  Near-Far Count Rate Ratio
CVEL .M/MIN                 :  Cable Velocity
FBEF .UA                   :  RST Far Effective Beam Current
FCOR .                     :  RST Far Carbon/Oxygen Ratio
FERD .                     :  RST Far IC Mode Capture Optimization Resolution Degradation Factor
FIRD .                     :  RST Far Inelastic Optimization Resolution Degradation Factor
GR   .GAPI                 :  Gamma Ray
NCOR .                     :  RST Near Carbon/Oxygen Ratio
NERD .                     :  RST Near IC Mode Capture Optimization Resolution Degradation Factor
NIRD .                     :  RST Near Inelastic Optimization Resolution Degradation Factor
RB_PCMS.DEG                  :  Relative Bearing
TENS .LBF                  :  Cable Tension
~Parameter Information Block
#MNEM.UNIT            Value   Description
#---------- ----------------  -----------
APD  .M                  54:  Elevation of Depth Reference (LMF) above Permanent Datum
RUN  .                    4:  RUN NUMBER
PROJECT.     SLEIPNER_OST@st-vlinapp01:  
SET  .        RSTD_0912_IC1:  
~Other Information Block
# 
~A       DEPTH           CCLC           CRRA           CVEL           FBEF           FCOR           FERD           FIRD             GR           NCOR           NERD           NIRD        RB_PCMS           TENS 
# ...
    3241.54800        -0.0016         2.8439      -0.514100       109.3110         0.0184         5.0090         5.0090        27.2491      -0.020200         2.7859         2.7859       355.9174      2263.4045
    3241.70040        -0.0360         2.8083      -0.509800       111.6237        -0.0159         5.2519         5.2519        30.2176       0.152400         2.7878         2.7878       355.9911      2266.1147
    3241.85280        -0.0008         2.8741      -0.509500       112.7812         0.0069         5.3758         5.3758        33.8436      -0.041300         2.7451         2.7451       356.1719      2266.1265
    3242.00520         0.0671         2.8948      -0.509500       114.5727        -0.0555         5.4980         5.4980        36.4647       0.007100         2.7286         2.7286       356.4205      2261.5466
    3242.15760        -0.0001         2.9471      -0.513900       114.3974         0.1424         5.5666         5.5666        37.6422       0.004200         2.6713         2.6713       356.2917      2260.2549
    3242.31000        -0.0287         2.9429      -0.514900       113.9532         0.0548         5.4623         5.4623        37.8919      -0.002100         2.7051         2.7051       356.4338      2252.7256
    3242.46240         0.1354         2.9509      -0.510900       112.4806         0.0545         5.4839         5.4839        35.8980       0.062400         2.6661         2.6661       356.4548      2272.3955
    3242.61480         0.0032         2.9119      -0.512500       111.8118         0.0102         5.4297         5.4297        33.8967       0.017400         2.6649         2.6649       356.3105      2254.0300
    3242.76720         0.0031         2.9181      -0.509000       111.1565        -0.1073         5.4834         5.4834        31.3132      -0.035900         2.6542         2.6542       355.9599      2263.8037
    3242.91960         0.0048         2.8840      -0.510800       110.9706         0.0711         5.6015         5.6015        29.3221      -0.042600         2.6594         2.6594       355.9970      2269.9290
    3243.07200         0.0046         2.8564      -0.509800       112.1429        -0.0820         5.6020         5.6020        27.4991       0.018500         2.6471         2.6471       356.1034      2262.4797
    3243.22440         0.0040         2.8818      -0.514700       113.4578        -0.0048         5.4338         5.4338        27.4988      -0.016700         2.7397         2.7397       356.1156      2268.1428
    3243.37680         0.0043         2.9361      -0.510600       115.6559         0.1600         5.4508         5.4508        26.4889       0.010100         2.6888         2.6888       356.1366      2271.0149
    3243.52920         0.0051         3.0027      -0.511400       116.6831        -0.2279         5.4619         5.4619        26.0753      -0.006900         2.6630         2.6630       356.2505      2253.2090
    3243.68160         0.0121         3.0968      -0.513300       117.9955         0.1934         5.3898         5.3898        25.2893       0.090400         2.6344         2.6344       356.1810      2268.0264
    3243.83400         0.0038         3.1354      -0.513300       117.8421        -0.0732         5.5230         5.5230        25.2614       0.002700         2.6626         2.6626       355.8759      2264.2097
    3243.98640        -0.0135         3.0670      -0.510800       114.7112        -0.0173         5.4479         5.4479        24.3403       0.053300         2.6351         2.6351       355.8954      2270.7798
    3244.13880        -0.0123         2.9589      -0.510300       112.1732         0.0094         5.3642         5.3642        23.6465      -0.095300         2.6403         2.6403       355.9383      2269.3123
    3244.29120        -0.0129         2.8669      -0.503300       112.1684         0.0625         5.3811         5.3811        23.2868      -0.056400         2.6555         2.6555       356.1566      2266.1470
    3244.44360        -0.0268         2.8776      -0.502100       111.0448         0.0293         5.4586         5.4586        22.9816       0.047700         2.6408         2.6408       356.3091      2267.5803
    3244.59600         0.0214         2.8500      -0.503300       111.0767         0.0286         5.5249         5.5249        22.3155      -0.080900         2.6388         2.6388       356.1916      2264.0439
    3244.74840         0.0119         2.8625      -0.505500       110.5592         0.0567         5.6190         5.6190        21.7264      -0.063400         2.6176         2.6176       356.1870      2256.2437
    3244.90080         0.1581         2.8501      -0.508200       110.3442        -0.0759         5.6261         5.6261        22.0365       0.060000         2.6177         2.6177       356.1191      2255.1631
    3245.05320        -0.0096         2.8411      -0.506600       110.3824         0.0611         5.6365         5.6365        21.9540      -0.017000         2.6361         2.6361       356.1913      2259.3911
    3245.20560        -0.0551         2.8496      -0.508400       110.0364         0.0937         5.7383         5.7383        22.0106       0.023500         2.6209         2.6209       356.2712      2258.1853
    3245.35800         0.1184         2.8334      -0.503500       111.2506        -0.2506         5.7362         5.7362        22.3603       0.037600         2.6453         2.6453       356.2833      2263.9004
    3245.51040         0.1280         2.8592      -0.500900       111.4421        -0.0200         5.7003         5.7003        23.0293       0.008700         2.6010         2.6010       356.2467      2266.1418
    3245.66280        -0.0094         2.8627      -0.510300       112.2758         0.0569         5.9863         5.9863        23.5367       0.003400         2.5870         2.5870       356.0748      2256.3530
    3245.81520        -0.0191         2.8788      -0.513300       113.2997         0.1019         5.7974         5.7974        24.3452       0.073200         2.5351         2.5351       355.9601      2272.2659
    3245.96760         0.0610         2.9012      -0.508300       113.5702         0.0471         5.9356         5.9356        25.3748       0.060700         2.5479         2.5479       356.0706      2265.1934
    3246.12000        -0.0105         2.8969      -0.506300       114.4787         0.0920         5.6619         5.6619        27.1858      -0.030200         2.5327         2.5327       356.1539      2255.3801
    3246.27240        -0.0158         2.9306      -0.495000       115.9776         0.1158         5.6555         5.6555        28.8805      -0.040000         2.5539         2.5539       356.1097      2258.4692
    3246.42480        -0.0107         2.9663      -0.511400       118.9951         0.0864         5.5664         5.5664        30.1676      -0.007100         2.4942         2.4942       356.0977      2258.7688
    3246.57720        -0.0104         3.0532      -0.511100       124.0839        -0.0764         5.5334         5.5334        32.9751       0.110700         2.4940         2.4940       356.3166      2265.9851
    3246.72960         0.0586         3.1976      -0.509300       125.3462         0.0083         5.5331         5.5331        36.8678      -0.018100         2.5712         2.5712       356.5267      2261.5447
    3246.88200        -0.0307         3.2110      -0.513000       124.6369         0.0602         5.4331         5.4331        41.0932       0.066600         2.5885         2.5885       356.6221      2258.8650
    3247.03440        -0.0265         3.1641      -0.513100       124.9351         0.0985         5.4970         5.4970        45.7383       0.066600         2.5882         2.5882       356.5144      2270.0820
    3247.18680        -0.0102         3.1604      -0.511400       126.8483         0.0130         5.6103         5.6103        50.6333       0.077900         2.5862         2.5862       356.5991      2271.1455
    3247.33920        -0.0064         3.2035      -0.519400       127.8353         0.0335         5.4788         5.4788        53.5434       0.056800         2.6426         2.6426       356.6051      2266.6997
