~Version Information Block
VERS .                 2.00:  CWLS LOG ASCII STANDARD - VERSION 2.00
WRAP .                  YES:  Multiple lines per depth step
~Well Information Block
#MNEM.UNIT        Data Type   Information
#---------- ----------------  -----------
STRT .M          3450.03120:  START DEPTH
STOP .M          3948.83640:  STOP DEPTH
STEP .M             0.15240:  STEP
NULL .              -999.25:  NULL VALUE
COMP .              Statoil:  COMPANY
WELL .        NO_15/9-F-1_C:  WELL
FLD  .                Volve:  FIELD
LOC  .            North Sea:  LOCATION
CTRY .               Norway:  COUNTRY
STAT .                     :  STATE
CNTY .                     :  COUNTY
SRVC .         Schlumberger:  SERVICE COMPANY
DATE .          27-Nov-2014:  DATE
API  .                     :  API NUMBER
UWI  .           15/9-F-1 C:  UNIQUE WELL ID
LATI .     58° 26' 29.91" N:  LATITUDE
LONG .      1° 53' 14.71" E:  LONGITUDE
~Curve Information Block
#MNEM.UNIT         API CODE   Curve Description
#---------- ----------------  -----------------
DEPTH.M                    :  DEPTH (BOREHOLE)
BSAL .PPM                  :  Borehole Salinity
CCLC .V                    :  CCL
CIRF .                     :  RST Capture to Inelastic Ratio Far
CIRN .                     :  RST Capture to Inelastic Ratio Near
CVEL .M/SEC                 :  Cable Velocity
DFRB .DEG                  :  Calibrated Relative Bearing
DSIG .CU                   :  Sigma Difference
FBEF .UA                   :  RST Far Effective Beam Current
GR   .GAPI                 :  Gamma Ray
IRAT .                     :  RST Inelastic Ratio
PFC1 .IN                   :  PFCS CaliperX
PFC2 .IN                   :  PFCS CaliperY
RSCF .                     :  RST Far Detector Effective Unregulated
RSCN .                     :  RST Near Detector Effective
SFFA .CU                   :  RST Sigma Formation Far Apparent
SIBF .CU                   :  RST Sigma Borehole Fluid
SIGM .CU                   :  Formation Sigma (Neutron Capture Cross
TENS .LBF                  :  Cable Tension
TPHI .V/V                  :  Thermal Decay Porosity
~Parameter Information Block
#MNEM.UNIT            Value   Description
#---------- ----------------  -----------
APD  .M           54.900002:  Elevation of Depth Reference (LMF) above Permanent Datum
BHS  .                 CASE:  Borehole Status (Open or Cased Hole)
BS   .IN                8.5:  Bit Size
BSAL .PPM                 0:  Borehole Salinity
BSALOPT.              UNKNOWN:  Borehole Salinity Option
CSIZ .IN                  7:  Current Casing Size
CWEI .LB/F               29:  Casing Weight
EPD  .C3                  0:  Elevation of Permanent Datum above Mean Sea Level
LMF  .                   KB:  Logging Measured From (Name of Logging Elevation Reference)
MATR .                 SAND:  Rock Matrix for Neutron Porosity Corrections
PDAT .                  MSL:  Permanent Datum
RUN  .                Run 1:  RUN NUMBER
TAPE_NAME.     Statoil_Volve_15-9-F-1 C_PLT-RST_28Nov14_ConCu_R1L16Up_SigmaMain.las:  
TOOL_STRING.              UNKNOWN:  
WN   .           15/9-F-1 C:  WELL
PROJECT.     SLEIPNER_OST@st-vlinapp01:  
SET  .       RSTD_1114_SIG1:  
~Other Information Block
~Ascii Log Data
# ...
    3643.42680 
    71436.6016        -0.0488         1.9123         0.5117      -0.164568 
      335.8180         0.4210        89.4511        27.8081     0.32310000 
        6.1905         6.0834         7.4595         6.0934        19.7253 
       47.6526        18.4938      4420.7856     0.16960000
    3643.57920 
    70207.2969         0.0218         1.9719         0.5200      -0.165667 
      335.8180         0.4665        89.5648        26.8887     0.32789999 
        6.1905         6.0834         7.7140         6.4113        20.1562 
       47.1953        18.1484      4442.7856     0.15760000
    3643.73160 
    69885.5938         0.0021         1.9536         0.5135      -0.166302 
      335.8180         0.2341        84.3819        25.9693     0.32620001 
        6.1905         6.0834         8.0094         6.2012        19.1936 
       47.0757        18.2174      4437.0718     0.14430000
    3643.88400 
    68704.6953         0.0067         1.9678         0.5212      -0.166558 
      335.8180        -0.0582        86.0093        25.4177     0.32720000 
        6.1905         6.0834         8.1177         6.6057        19.9430 
       46.6372        17.9743      4458.1431     0.14659999
    3644.03640 
    68729.3984        -0.0030         1.9551         0.4885      -0.166258 
      335.8180        -0.2911        85.8129        25.0075     0.32010001 
        6.1905         6.0834         7.8693         5.9825        19.4570 
       46.6463        18.4515      4349.3081     0.14650001
    3644.18880 
    68677.5000         0.0214         1.9134         0.5092      -0.166995 
      335.8180        -0.2532        87.3829        26.3936     0.31799999 
        6.1905         6.0834         8.0979         6.6976        20.6307 
       46.6271        18.7267      4384.2144     0.15750000
    3644.34120 
    67967.5000        -0.0067         1.8731         0.5056      -0.166810 
      335.8180        -0.5872        88.8718        27.2150     0.32150000 
        6.1905         6.0834         7.2832         6.0382        20.7852 
       46.3637        19.3065      4309.4287     0.16020000
    3644.49360 
    67399.1016        -0.0354         1.7748         0.5174      -0.166297 
      335.8180        -0.5367        88.7979        26.1683     0.32260001 
        6.1905         6.0834         7.0785         6.3454        21.1940 
       46.1530        19.6296      4371.3081     0.16419999
    3644.64600 
    67722.8047        -0.0436         1.9217         0.5035      -0.165877 
      335.8180        -1.0425        93.1775        26.5360     0.31830001 
        6.1905         6.0834         7.4130         6.3515        21.5969 
       46.2730        20.2150      4443.3569     0.15770000
    3644.79840 
    67958.3984        -0.0680         1.9223         0.5081      -0.165702 
      335.8180        -1.2844        92.4815        25.8005     0.31639999 
        6.1905         6.0834         7.3025         6.1606        22.5388 
       46.3603        19.7287      4521.9287     0.15970001
    3644.95080 
    68494.2031        -0.0336         1.9131         0.5117      -0.165680 
      335.8180        -1.5420        86.0213        23.6788     0.31619999 
        6.1905         6.0834         7.7399         6.2306        19.7482 
       46.5591        19.5966      4483.2856     0.15820000
    3645.10320 
    68978.7969         0.0045         1.8266         0.4786      -0.166307 
      335.8180        -1.4843        86.4970        21.3865     0.32400000 
        6.1905         6.0834         7.4939         5.9363        21.2059 
       46.7389        18.5330      4486.8574     0.16869999
    3645.25560 
    69172.0000        -0.0009         1.8852         0.5298      -0.166867 
      335.8180        -1.6296        86.7073        21.9806     0.32539999 
        6.1905         6.0834         7.3586         6.1006        19.3602 
       46.8106        19.2784      4341.6924     0.16700000
    3645.40800 
    68719.5938         0.0050         1.8643         0.5372      -0.167282 
      335.8180        -1.4891        86.4342        23.6355     0.32929999 
        6.1905         6.0834         7.3886         6.4118        21.9576 
       46.6427        18.8968      4301.5000     0.17090000
    3645.56040 
    68494.6953        -0.0721         2.0041         0.5526      -0.167638 
      335.8180        -1.3184        84.9655        24.5549     0.33180001 
        6.2107         6.0834         8.2786         6.8827        20.0545 
       46.5592        19.1539      4208.2144     0.16329999
    3645.71280 
    68645.6016        -0.0502         1.9120         0.5428      -0.166860 
      334.4070        -1.1805        87.9576        24.5549     0.33700001 
        6.2197         6.0834         7.6051         6.6069        20.1029 
       46.6152        18.3201      4325.5386     0.16380000
    3645.86520 
    68823.3047         0.0150         1.9605         0.5428      -0.165848 
      334.4070        -1.3446        87.0819        25.4743     0.33770001 
        6.1972         6.0834         8.0138         6.6164        19.4637 
       46.6812        18.4624      4447.8574     0.15770000
    3646.01760 
    69091.1016        -0.0283         1.9874         0.5567      -0.165862 
      334.4070        -1.4205        89.1919        25.1914     0.33739999 
        6.1905         6.0834         7.5007         6.2888        20.4749 
       46.7806        18.3421      4535.5713     0.16110000
    3646.17000 
    67948.3047        -0.0004         2.0020         0.5575      -0.165883 
      334.4070        -1.5872        87.6336        24.2720     0.33510000 
        6.1950         6.0834         7.9841         6.7037        19.7693 
       46.3566        18.4820      4504.1431     0.15809999
    3646.32240 
    67999.5000         0.0047         1.8284         0.5446      -0.166148 
      334.4070        -1.4916        85.9322        25.5591     0.33270001 
        6.2195         6.0834         7.6756         6.8363        19.8860 
       46.3756        18.0695      4509.3076     0.15380000
    3646.47480 
    67890.7031         0.0322         2.1947         0.5667      -0.165632 
      334.4070        -1.5971        91.2469        27.2847     0.33260000 
        6.2219         6.0880         8.3032         6.5836        19.2604 
       46.3352        17.6333      4336.6426     0.14550000
    3646.62720 
    67956.8984         0.0485         2.2129         0.5823      -0.166243 
      334.4070        -1.8009        88.8681        26.7331     0.33050001 
        6.2219         6.0811         8.6215         6.9583        18.4931 
       46.3598        17.0014      4457.4287     0.14040001
    3646.77960 
    68122.5000         0.0174         2.2717         0.5948      -0.166398 
      334.4070        -1.8350        83.5029        28.3880     0.33160001 
        6.2174         6.0834         9.4974         7.3072        18.0262 
       46.4212        16.6216      4368.0000     0.13980000
    3646.93200 
    67921.6016        -0.0099         2.3220         0.5896      -0.166855 
      334.4070        -2.0075        88.1570        28.5719     0.33370000 
        6.2152         6.0834         9.2060         7.2283        18.1551 
       46.3467        16.4673      4520.1431     0.14150000
    3647.08440 
    68369.2031         0.0338         2.2019         0.5929      -0.167577 
      334.4070        -2.1784        81.7002        26.9170     0.33710000 
        6.2197         6.0834         9.4391         7.2735        18.0764 
       46.5127        16.2506      4458.0000     0.15009999
    3647.23680 
    67963.0000        -0.0097         2.2110         0.6208      -0.167142 
      334.4070        -2.3933        83.4626        25.9269     0.33829999 
        6.2122         6.0834         9.2924         7.6094        17.3992 
       46.3620        16.3050      4560.5000     0.15820000
    3647.38920 
    67701.6016        -0.0151         2.2254         0.6255      -0.165783 
      334.4070        -2.5071        85.4959        24.8236     0.33770001 
        6.2174         6.0834         9.1779         7.7410        18.3274 
       46.2651        16.3925      4484.8574     0.16270000
