~Version Information Block
VERS .                 2.00:  CWLS LOG ASCII STANDARD - VERSION 2.00
WRAP .                   NO:  One line per depth step
~Well Information Block
#MNEM.UNIT        Data Type   Information
#---------- ----------------  -----------
STRT .M          3230.11800:  START DEPTH
STOP .M          3389.98560:  STOP DEPTH
STEP .M             0.15240:  STEP
NULL .              -999.25:  NULL VALUE
COMP .              Statoil:  COMPANY
WELL .          NO_15/9-F-4:  WELL
FLD  .                VOLVE:  FIELD
LOC  .            North Sea:  LOCATION
CTRY .                     :  COUNTRY
STAT .                     :  STATE
CNTY .                     :  COUNTY
SRVC .         Schlumberger:  SERVICE COMPANY
DATE .          13-Sep-2012:  DATE
API  .                     :  API NUMBER
UWI  .             15/9-F-4:  UNIQUE WELL ID
~Curve Information Block
#MNEM.UNIT         API CODE   Curve Description
#---------- ----------------  -----------------
DEPTH.M                    :  DEPTH (BOREHOLE)
CCLC .V                    :  CCL
CCLD .V                    :  CCL Discriminated Amplitude
CRRA .                     :  Near-Far Count Rate Ratio
CS   .F/MN                 :  Cable Speed
CVEL .M/MIN                 :  Cable Velocity
FBEF .UA                   :  RST Far Effective Beam Current
FCOR .                     :  RST Far Carbon/Oxygen Ratio
FERD .                     :  RST Far IC Mode Capture Optimization Resolution Degradation Factor
FIRD .                     :  RST Far Inelastic Optimization Resolution Degradation Factor
GR   .GAPI                 :  Gamma Ray
NCOR .                     :  RST Near Carbon/Oxygen Ratio
NERD .                     :  RST Near IC Mode Capture Optimization Resolution Degradation Factor
NIRD .                     :  RST Near Inelastic Optimization Resolution Degradation Factor
RB_PCMS.DEG                  :  Relative Bearing
TENS .LBF                  :  Cable Tension
WTEP .DEGC                 :  Well Temperature
WTPE .MS                   :  Well Temperature Period
~Parameter Information Block
#MNEM.UNIT            Value   Description
#---------- ----------------  -----------
APD  .M                  54:  Elevation of Depth Reference (LMF) above Permanent Datum
RUN  .                    1:  RUN NUMBER
PROJECT.     SLEIPNER_OST@st-vlinapp01:  
SET  .        RSTD_0912_IC3:  
~Other Information Block
# 
~A       DEPTH           CCLC           CCLD           CRRA             CS           CVEL           FBEF           FCOR           FERD           FIRD             GR           NCOR           NERD           NIRD        RB_PCMS           TENS           WTEP           WTPE 
# ...
    3321.55800        -0.0108         0.0000         2.8958         1.7782       -0.54200       112.6677        -0.0598         5.2989         5.2989        44.1815      -0.048900         2.3814         2.3814       356.2252      2301.8777        91.0010         3.9799
    3321.71040        -0.0120         0.0000         2.8879         1.7818       -0.54310       113.2654        -0.2490         5.3068         5.3068        43.9011       0.014100         2.4380         2.4380       356.2545      2307.6985        90.9683         3.9796
    3321.86280        -0.0073         0.0000         2.8772         1.7812       -0.54290       112.5530        -0.1976         5.1634         5.1634        44.0227      -0.115600         2.4639         2.4639       356.1603      2315.8096        90.9146         3.9791
    3322.01520         0.0183         0.0000         2.8783         1.8192       -0.55450       113.4397        -0.1257         5.3428         5.3428        44.1641       0.078000         2.5113         2.5113       356.3806      2308.1768        90.8165         3.9782
    3322.16760        -0.0996         0.0000         2.9144         1.8248       -0.55620       112.7360         0.1015         5.2871         5.2871        42.8938       0.084700         2.5096         2.5096       356.3032      2318.9395        90.7847         3.9780
    3322.32000        -0.0418         0.0000         2.8715         1.8166       -0.55370       113.2908         0.1255         5.2590         5.2590        42.8125      -0.052300         2.4896         2.4896       356.0848      2312.3726        90.7280         3.9775
    3322.47240        -0.0192         0.0000         2.9031         1.8140       -0.55290       113.3448        -0.0421         5.3353         5.3353        44.0878      -0.003700         2.4941         2.4941       356.0498      2311.7017        90.6784         3.9770
    3322.62480        -0.0196         0.0000         2.8960         1.8091       -0.55140       111.9045         0.0554         5.3890         5.3890        44.6959       0.047800         2.5008         2.5008       355.9893      2308.5728        90.6141         3.9765
    3322.77720        -0.0180         0.0000         2.8763         1.8209       -0.55500       112.7116        -0.1211         5.2660         5.2660        44.7221      -0.022900         2.5329         2.5329       355.9065      2293.7056        90.5438         3.9758
    3322.92960        -0.0133         0.0000         2.8841         1.8238       -0.55590       113.1757        -0.2302         5.2565         5.2565        46.0291      -0.002600         2.5221         2.5221       355.8356      2311.3171        90.4950         3.9754
    3323.08200        -0.0100         0.0000         2.8849         1.8215       -0.55520       111.8027         0.0060         5.3321         5.3321        46.6599      -0.141500         2.5145         2.5145       355.7784      2313.8462        90.4384         3.9749
    3323.23440        -0.0105         0.0000         2.8660         1.8399       -0.56080       112.8219         0.0741         5.3186         5.3186        46.4732      -0.036200         2.4906         2.4906       355.7985      2319.1101        90.3628         3.9742
    3323.38680        -0.0111         0.0000         2.8843         1.8222       -0.55540       112.8209        -0.0254         5.3139         5.3139        46.9831       0.099200         2.4998         2.4998       355.6268      2309.6357        90.3236         3.9739
    3323.53920         0.0489         0.0000         2.8888         1.8346       -0.55920       112.9327         0.0787         5.3806         5.3806        48.2367      -0.054400         2.5082         2.5082       355.7602      2303.6777        90.2764         3.9735
    3323.69160        -0.0149         0.0000         2.8889         1.8248       -0.55620       112.5258         0.0138         5.3972         5.3972        49.6205      -0.020700         2.5017         2.5017       355.8268      2329.0325        90.2075         3.9729
    3323.84400        -0.0108         0.0000         2.8759         1.8373       -0.56000       112.5919         0.0003         5.3556         5.3556        50.4651      -0.003200         2.4814         2.4814       355.7479      2324.1221        90.1633         3.9725
    3323.99640        -0.0109         0.0000         2.8760         1.8363       -0.55970       112.6637        -0.0785         5.4686         5.4686        51.3513      -0.061700         2.5010         2.5010       355.6700      2316.3347        90.0959         3.9719
    3324.14880        -0.0046         0.0000         2.8856         1.8278       -0.55710       112.6594        -0.0658         5.4703         5.4703        52.8876      -0.023900         2.5352         2.5352       355.7820      2315.0203        90.0248         3.9713
    3324.30120        -0.0061         0.0000         2.8790         1.8445       -0.56220       112.9848        -0.0164         5.3750         5.3750        54.4423      -0.054800         2.5989         2.5989       355.9467      2315.8560        89.9984         3.9710
    3324.45360        -0.0503         0.0000         2.8818         1.8281       -0.55720       112.6489        -0.0501         5.4724         5.4724        54.5300       0.122800         2.6007         2.6007       356.1318      2307.5710        89.9254         3.9704
    3324.60600         0.0721         0.0000         2.8849         1.8327       -0.55860       112.9648        -0.1663         5.3478         5.3478        55.2583      -0.059000         2.5662         2.5662       356.1415      2317.5510        89.8942         3.9701
    3324.75840         0.0871         0.0000         2.8792         1.8271       -0.55690       112.7427        -0.0570         5.2762         5.2762        55.4152      -0.027800         2.5866         2.5866       356.1373      2303.9106        89.8526         3.9697
    3324.91080        -0.0015         0.0000         2.8666         1.8284       -0.55730       112.3434        -0.0442         5.3209         5.3209        55.4878      -0.056100         2.6015         2.6015       356.0883      2316.4192        89.7862         3.9692
    3325.06320        -0.0010         0.0000         2.8825         1.8222       -0.55540       112.2288        -0.1021         5.1141         5.1141        53.8395      -0.079800         2.6047         2.6047       356.1257      2311.2693        89.7487         3.9688
    3325.21560        -0.0018         0.0000         2.8752         1.8130       -0.55260       111.8427        -0.0167         5.2722         5.2722        52.2487      -0.034400         2.5934         2.5934       356.1125      2312.9116        89.7025         3.9684
    3325.36800        -0.0069         0.0000         2.8948         1.8215       -0.55520       110.1330        -0.1122         5.3331         5.3331        49.3640      -0.040800         2.6102         2.6102       356.1355      2316.1335        89.6882         3.9683
    3325.52040        -0.0090         0.0000         2.8529         1.8235       -0.55580       108.4829         0.0113         5.3364         5.3364        45.2500       0.006200         2.6438         2.6438       356.1971      2306.1179        89.6655         3.9681
    3325.67280        -0.1363         0.0000         2.8556         1.8232       -0.55570       105.3784        -0.0394         5.1939         5.1939        40.2120      -0.009500         2.6563         2.6563       356.0884      2303.1179        89.6326         3.9678
    3325.82520        -0.0235         0.0000         2.7545         1.8212       -0.55510       104.8649         0.1095         5.1625         5.1625        36.1439      -0.000800         2.6477         2.6477       356.0524      2304.0161        89.5992         3.9675
    3325.97760        -0.0125        -0.0125         2.7425         1.8238       -0.55590       105.2242        -0.0712         5.3615         5.3615        32.8827      -0.005100         2.6651         2.6651       356.0851      2307.0730        89.5727         3.9673
