~Version Information Block
VERS .                 2.00:  CWLS LOG ASCII STANDARD - VERSION 2.00
WRAP .                  YES:  Multiple lines per depth step
~Well Information Block
#MNEM.UNIT        Data Type   Information
#---------- ----------------  -----------
STRT .M          3438.44880:  START DEPTH
STOP .M          3636.26400:  STOP DEPTH
STEP .M             0.15240:  STEP
NULL .              -999.25:  NULL VALUE
COMP .              Statoil:  COMPANY
WELL .          NO_15/9-F-5:  WELL
FLD  .                Volve:  FIELD
LOC  .                Volve:  LOCATION
CTRY .               Norway:  COUNTRY
STAT .                     :  STATE
CNTY .                     :  COUNTY
SRVC .         Schlumberger:  SERVICE COMPANY
DATE .           11/03/2015:  DATE
API  .                     :  API NUMBER
UWI  .             15/9-F-5:  UNIQUE WELL ID
LATI .     58° 26' 29.66" N:  LATITUDE
LONG .      1° 53' 14.99" E:  LONGITUDE
~Curve Information Block
#MNEM.UNIT         API CODE   Curve Description
#---------- ----------------  -----------------
DEPTH.M                    :  Depth Index
BSAL .PPM                  :  (RST-D)                 (6in)                   Borehole Salinity
CCLC .V                    :  (PSTP-B)                (1in)                   CCL Computed Amplitude
CIRF .                     :  (RST-D)                 (6in)                   Capture to Inelastic Rat
CIRN .                     :  (RST-D)                 (6in)                   Capture to Inelastic Rat
CVEL .M/SEC                 :  (WLWorkflow)            (1in)                   Cable Velocity
DSIG .CU                   :  (RST-D)                 (6in)                   Sigma Difference
FBEF .UA                   :  (RST-D)                 (6in)                   Far Effective Beam Curre
GR   .GAPI                 :  (PSTP-B)                (6in)                   Gamma Ray
IRAT .                     :  (RST-D)                 (6in)                   Inelastic Ratio
RB_PCMS.DEG                  :  (PCMS-A)                (6in)                   Relative Bearing
RSCF .                     :  (RST-D)                 (6in)                   Far Detector Effective U
RSCN .                     :  (RST-D)                 (6in)                   Near Detector Effective
SFFA .CU                   :  (RST-D)                 (6in)                   Sigma Formation Far Appa
SIBF .CU                   :  (RST-D)                 (6in)                   Sigma Borehole Fluid
SIGM .CU                   :  (RST-D)                 (6in)                   Formation Sigma (Neutron
TENS .LBF                  :  (WLWorkflow)            (1in)                   Cable Tension
TPHI .V/V                  :  (RST-D)                 (6in)                   Thermal Decay Porosity
WPRE .BAR                  :  (PSTP-B)                (6in)                   Well Pressure
WTEP .DEGC                 :  (PSTP-B)                (6in)                   Well Temperature
~Parameter Information Block
#MNEM.UNIT            Value   Description
#---------- ----------------  -----------
APD  .M                  54:  Elevation of Depth Reference (LMF) Above Permanent Datum
CLAB .              Country:  :County Label
ECF  .M             -999.25:  Elevation of Casing Flange above Permanent Datum
EDF  .M                  54:  Elevation of Drill Floor Above Permanent Datum
EGL  .M                 -91:  Elevation of Ground Level Above Permanent Datum
EKB  .M             -999.25:  Elevation of Kelly Bushing Above Permanent Datum
EPD  .M                   0:  Elevation of Permanent Datum (PDAT) above Mean Sea Level
FL1  .            North Sea:  Field Location Line 1
FL2  .     Norwegian Sector:  Field Location Line 2
LMF  .                   DF:  Logging Measured From
LUL  .                 NOBO:  Logging Unit Location
LUN  .          ONCC-A 3837:  Logging Unit Number
PDAT .                  MSL:  Local Permanent Datum
RIGN .      Maersk Inspirer:  Rig Name
RIGTYP.               Jackup:  Rig Type
SON  .           C2TQ-00038:  Service Order Number
TAPE_NAME.     RST_SIGMA__03Nov15_171237.las:  
TOOL_STRING.              UNKNOWN:  
WN   .             15/9-F-5:  WELL NAME
PROJECT.     SLEIPNER_OST@st-vlinapp01:  
SET  .       RSTD_1115_SIG1:  
~Other Information Block
~Ascii Log Data
# ...
    3479.59680 
    39389.2305        -0.0540         2.3940       0.748530     -0.0784900 
       -0.0008       103.9635        17.9816       0.324320       353.6151 
        8.0777         7.5592        15.3889        35.9417        13.7272 
     3914.6003       0.210680       361.0182        83.8773
    3479.74920 
    39018.3164         0.0998         2.4892       0.763700     -0.0792560 
        0.0221       108.9811        19.0528       0.324420       353.6160 
        8.1145         7.8759        15.4501        35.8087        13.7434 
     3960.8008       0.207340       361.0305        83.8820
    3479.90160 
    39278.2109         0.0758         2.4933       0.751600     -0.0784938 
       -0.0218       104.9442        19.9582       0.321710       353.5822 
        8.1820         7.5040        15.7004        35.9019        13.9451 
     3927.4009       0.200810       361.0381        83.8881
    3480.05400 
    39092.8594        -0.0189         2.4907       0.747700     -0.0782322 
       -0.0882       105.7225        19.8014       0.326350       353.6685 
        8.1036         7.6954        15.9971        35.8354        13.8666 
     3972.7988       0.197380       361.0494        83.8842
    3480.20640 
    38523.6875        -0.0245         2.4540       0.756910     -0.0790018 
        0.0562       104.7665        19.5824       0.328370       353.8476 
        7.9489         7.3171        15.2212        35.6315        13.6130 
     3952.3997       0.195230       361.0583        83.8877
    3480.35880 
    38207.9688        -0.0438         2.4869       0.763320     -0.0784860 
        0.2001       103.1388        19.7600       0.330730       353.6420 
        8.4507         7.6007        14.9427        35.5184        13.2927 
     3873.3997       0.193610       361.0702        83.8881
    3480.51120 
    37642.5078        -0.0313         2.4974       0.759600     -0.0795020 
        0.2063       106.5379        18.3870       0.328450       353.5519 
        8.0630         7.2897        15.0405        35.3160        13.0136 
     3960.6008       0.191870       361.0802        83.8906
    3480.66360 
    37685.0898         0.0960         2.5530       0.747510     -0.0790020 
        0.3217       107.6455        17.1443       0.322970       353.6398 
        8.4412         7.7664        14.3931        35.3313        12.8321 
     3937.4004       0.188220       361.0884        83.8920
    3480.81600 
    37422.3086         0.0182         2.6417       0.766760     -0.0789940 
        0.2896       106.5206        16.6146       0.311490       353.6447 
        8.5801         7.7879        14.4077        35.2372        12.8427 
     3934.3994       0.186340       361.1018        83.8894
    3480.96840 
    37604.1289         0.0157         2.5845       0.685150     -0.0787478 
        0.2327       109.6704        16.3009       0.303830       353.5463 
        8.6999         7.8223        15.0873        35.3023        13.0650 
     4007.3992       0.187230       361.1090        83.8866
    3481.12080 
    37590.3906         1.7867         2.3424       0.640260     -0.0782320 
        0.0824       107.4208        14.8806       0.305920       353.7122 
        8.1003         7.1716        15.0765        35.2974        13.3081 
     3938.6011       0.195490       361.1226        83.8874
    3481.27320 
    37219.2109         0.0545         2.3156       0.727480     -0.0782397 
       -0.0770       102.7678        15.1381       0.319530       353.8399 
        8.1265         7.6873        15.1488        35.1646        13.1328 
     3978.0010       0.205910       361.1278        83.8908
    3481.42560 
    37418.7812        -0.0933         2.4566       0.798530     -0.0785250 
       -0.1021       100.5424        15.2180       0.328590       353.8018 
        8.3454         7.7111        14.5694        35.2360        13.0481 
     3921.1670       0.207900       361.1441        83.8908
    3481.57800 
    36543.5781        -0.0470         2.5726       0.772920     -0.0792520 
       -0.2184        99.9004        16.8128       0.331260       353.8091 
        8.8659         7.8086        14.8271        34.9231        12.9675 
     3879.8000       0.201630       361.1520        83.8945
    3481.73040 
    36567.6797         0.0330         2.5980       0.796940     -0.0784938 
       -0.3637       100.2586        16.3542       0.325990       353.7482 
        9.0789         8.1587        14.9102        34.9317        12.9269 
     3969.5999       0.192150       361.1582        83.8949
    3481.88280 
    36214.7773        -0.0148         2.6581       0.784340     -0.0781050 
       -0.4101       105.9812        17.3307       0.328540       353.6668 
        8.8579         8.0777        14.4496        34.8056        12.7323 
     3963.7502       0.185240       361.1732        83.8916
    3482.03520 
    35376.9297        -0.0152         2.7067       0.800260     -0.0796975 
       -0.5227       108.6494        17.1087       0.325580       353.5656 
        8.5671         7.7841        14.2529        34.5065        12.5696 
     3922.5002       0.181040       361.1808        83.8908
    3482.18760 
    35431.0117        -0.1671         2.7559       0.801400     -0.0779858 
       -0.7116       107.4654        17.0229       0.333380       353.5743 
        8.9109         7.8270        14.4324        34.5257        12.6448 
     3964.2000       0.180090       361.1913        83.8886
    3482.34000 
    35661.7891        -0.0146         2.5526       0.809280     -0.0787400 
       -0.7408        98.9172        16.3128       0.330010       353.5685 
        8.7126         7.8632        14.6791        34.6081        12.8345 
     3916.6011       0.181340       361.2013        83.8884
    3482.49240 
    35468.8672         0.0262         2.6429       0.775710     -0.0784938 
       -0.6441       101.8639        18.5438       0.326570       353.5693 
        9.1165         8.1634        14.8296        34.5393        12.9563 
     3969.1997       0.183010       361.2107        83.8826
    3482.64480 
    35623.4570         0.0008         2.7117       0.773160     -0.0792480 
       -0.5692       108.7495        19.7866       0.318860       353.6319 
        8.8902         8.1228        14.8023        34.5944        13.0578 
     3916.2009       0.185600       361.2238        83.8747
    3482.79720 
    36309.7812         0.1112         2.6095       0.774230     -0.0784938 
       -0.4332       107.2454        20.5234       0.321300       353.6471 
        8.6126         7.8494        14.9866        34.8395        13.2843 
     3939.3992       0.185160       361.2311        83.8822
    3482.94960 
    36638.7305         0.0443         2.5143       0.775220     -0.0777240 
       -0.3006       104.5821        21.7721       0.328270       353.5201 
        8.1483         7.3603        15.5185        34.9571        13.1876 
     4006.1987       0.186310       361.2421        83.8840
    3483.10200 
    35971.1094        -0.0329         2.6196       0.775660     -0.0787478 
       -0.2987       101.9776        22.2188       0.328250       353.2777 
        8.8308         7.8060        14.5298        34.7186        12.9822 
     3964.2000       0.184840       361.2536        83.8848
    3483.25440 
    36352.3477        -0.0239         2.6761       0.793450     -0.0790018 
       -0.2349       103.1643        20.4464       0.325980       353.1666 
        8.9655         7.9867        14.3879        34.8547        12.6066 
     3889.1992       0.184920       361.2639        83.8727
    3483.40680 
    36237.2383        -0.0088         2.6770       0.795810     -0.0792480 
       -0.2242       103.5073        19.2036       0.325010       353.3120 
        9.3458         8.5472        14.4126        34.8136        12.2888 
     3936.2000       0.182410       361.2703        83.8695
    3483.55920 
    35659.4883         0.0076         2.7450       0.794330     -0.0782398 
       -0.4164       105.0617        18.8603       0.329990       353.4073 
        9.1674         8.1777        13.5985        34.6073        12.0189 
     3950.5991       0.178260       361.2852        83.8588
