~Version Information Block
VERS .                 2.00:  CWLS LOG ASCII STANDARD - VERSION 2.00
WRAP .                  YES:  Multiple lines per depth step
~Well Information Block
#MNEM.UNIT        Data Type   Information
#---------- ----------------  -----------
STRT .M          3450.03120:  START DEPTH
STOP .M          3948.83640:  STOP DEPTH
STEP .M             0.15240:  STEP
NULL .              -999.25:  NULL VALUE
COMP .              Statoil:  COMPANY
WELL .        NO_15/9-F-1_C:  WELL
FLD  .                Volve:  FIELD
LOC  .            North Sea:  LOCATION
CTRY .               Norway:  COUNTRY
STAT .                     :  STATE
CNTY .                     :  COUNTY
SRVC .         Schlumberger:  SERVICE COMPANY
DATE .          27-Nov-2014:  DATE
API  .                     :  API NUMBER
UWI  .           15/9-F-1 C:  UNIQUE WELL ID
LATI .     58° 26' 29.91" N:  LATITUDE
LONG .      1° 53' 14.71" E:  LONGITUDE
~Curve Information Block
#MNEM.UNIT         API CODE   Curve Description
#---------- ----------------  -----------------
DEPTH.M                    :  DEPTH (BOREHOLE)
BSAL .PPM                  :  Borehole Salinity
CCLC .V                    :  CCL
CIRF .                     :  RST Capture to Inelastic Ratio Far
CIRN .                     :  RST Capture to Inelastic Ratio Near
CVEL .M/SEC                 :  Cable Velocity
DFRB .DEG                  :  Calibrated Relative Bearing
DSIG .CU                   :  Sigma Difference
FBEF .UA                   :  RST Far Effective Beam Current
GR   .GAPI                 :  Gamma Ray
IRAT .                     :  RST Inelastic Ratio
PFC1 .IN                   :  PFCS CaliperX
PFC2 .IN                   :  PFCS CaliperY
RSCF .                     :  RST Far Detector Effective Unregulated
RSCN .                     :  RST Near Detector Effective
SFFA .CU                   :  RST Sigma Formation Far Apparent
SIBF .CU                   :  RST Sigma Borehole Fluid
SIGM .CU                   :  Formation Sigma (Neutron Capture Cross
TENS .LBF                  :  Cable Tension
TPHI .V/V                  :  Thermal Decay Porosity
~Parameter Information Block
#MNEM.UNIT            Value   Description
#---------- ----------------  -----------
APD  .M           54.900002:  Elevation of Depth Reference (LMF) above Permanent Datum
BHS  .                 CASE:  Borehole Status (Open or Cased Hole)
BS   .IN                8.5:  Bit Size
BSAL .PPM                 0:  Borehole Salinity
BSALOPT.              UNKNOWN:  Borehole Salinity Option
CSIZ .IN                  7:  Current Casing Size
CWEI .LB/F               29:  Casing Weight
EPD  .C3                  0:  Elevation of Permanent Datum above Mean Sea Level
LMF  .                   KB:  Logging Measured From (Name of Logging Elevation Reference)
MATR .                 SAND:  Rock Matrix for Neutron Porosity Corrections
PDAT .                  MSL:  Permanent Datum
RUN  .                Run 1:  RUN NUMBER
TAPE_NAME.     Statoil_Volve_15-9-F-1 C_PLT-RST_28Nov14_ConCu_R1L16Up_SigmaMain.las:  
TOOL_STRING.              UNKNOWN:  
WN   .           15/9-F-1 C:  WELL
PROJECT.     SLEIPNER_OST@st-vlinapp01:  
SET  .       RSTD_1114_SIG1:  
~Other Information Block
~Ascii Log Data
# ...
    3775.10040 
    73684.8984         0.0092         2.0749         0.6113      -0.162872 
      325.9410        -1.5632        85.3751        24.8481     0.33450001 
        6.2219         6.0834         8.3885         7.1805        18.6056 
       48.4907        17.1347      4362.1426     0.18520001
    3775.25280 
    73187.3984        -0.0682         2.1552         0.5891      -0.163405 
      325.9410        -1.8354        86.6505        24.2965     0.33550000 
        6.2219         6.0834         8.6044         6.9863        18.6616 
       48.3050        17.2907      4439.3569     0.17600000
    3775.40520 
    74457.3984        -0.0254         2.1092         0.5749      -0.163037 
      325.9410        -1.8539        85.0077        25.0320     0.33770001 
        6.2219         6.0834         8.6063         6.8886        19.0097 
       48.7792        17.2517      4560.5718     0.17470001
    3775.55760 
    74335.5000         0.0032         2.1288         0.5837      -0.162940 
      325.9410        -1.8040        87.0734        24.2965     0.33280000 
        6.2197         6.0834         8.6963         7.4006        18.4905 
       48.7336        17.1017      4788.8574     0.17810000
    3775.71000 
    75876.1016        -0.0066         2.0897         0.5956      -0.162752 
      325.9410        -1.6523        85.8220        23.5365     0.33770001 
        6.2219         6.0856         8.2541         6.9457        18.2023 
       49.3096        17.2267      4826.5000     0.18680000
    3775.86240 
    76405.1016        -0.0072         2.0116         0.5938      -0.161562 
      325.9410        -1.7858        79.9421        23.2668     0.34020001 
        6.2219         6.0834         8.7067         7.2152        19.3836 
       49.5076        17.2801      4813.7144     0.18870001
    3776.01480 
    76177.5938         0.0672         2.0893         0.6010      -0.160948 
      325.9410        -1.6990        84.3275        22.1635     0.34920001 
        6.2219         6.0834         8.4892         7.2391        18.6404 
       49.4224        17.3688      4710.9287     0.18700001
    3776.16720 
    76141.6016         0.0736         2.0338         0.6053      -0.161327 
      325.9410        -1.4767        82.0663        21.0602     0.34570000 
        6.2219         6.0927         8.6263         7.3280        18.4587 
       49.4089        17.1631      4676.6001     0.18480000
    3776.31960 
    76871.1016        -0.0473         2.1699         0.6036      -0.161757 
      325.9410        -1.4347        88.6313        22.3474     0.34320000 
        6.2040         6.0857         8.3385         6.9284        18.7577 
       49.6821        16.8444      4573.8574     0.18580000
    3776.47200 
    77478.8984         0.0318         2.1176         0.5932      -0.161745 
      325.9410        -1.5484        88.5344        25.2894     0.33000001 
        6.1905         6.0973         8.3759         7.2236        17.6768 
       49.9099        17.3001      4506.0000     0.18520001
    3776.62440 
    78083.5000        -0.0060         2.1084         0.5707      -0.162407 
      325.9410        -1.6971        89.0285        26.4785     0.31630000 
        6.1928         6.1158         8.4424         7.2034        19.8209 
       50.1366        17.2723      4471.7856     0.19640000
    3776.77680 
    77565.2969        -0.0087         1.9504         0.4569      -0.163233 
      325.9410        -1.5634        92.5705        27.2018     0.31079999 
        6.1905         6.1158         7.6098         5.9234        18.6683 
       49.9423        17.4410      4386.0000     0.20829999
    3776.92920 
    77875.6016         0.0214         1.7337         0.4951      -0.163068 
      325.9410        -1.2539        90.5186        27.7534     0.31110001 
        6.1905         6.1158         7.1832         6.6981        18.1951 
       50.0587        17.0809      4599.5000     0.23040000
    3777.08160 
    77787.9062        -0.0636         1.6771         0.5148      -0.163060 
      325.9410        -1.0567        87.6380        25.5469     0.32170001 
        6.1905         6.1158         6.7937         6.3536        18.7575 
       50.0258        17.3081      4679.6431     0.24609999
    3777.23400 
    77222.1953         0.1649         1.7022         0.5279      -0.162677 
      325.9410        -0.9030        84.2826        24.2597     0.32760000 
        6.1905         6.1158         7.2708         6.8441        19.3682 
       49.8137        18.1842      4774.3569     0.25330001
    3777.38640 
    77293.6016        -0.0030         1.6225         0.5411      -0.162507 
      325.9410        -0.9869        80.5531        23.7081     0.33090001 
        6.1905         6.1158         7.0278         6.6992        20.8653 
       49.8404        17.8192      4696.7144     0.24020000
    3777.53880 
    77303.0000        -0.0036         2.0121         0.5792      -0.161788 
      325.9410        -0.7726        84.9568        25.3752     0.33260000 
        6.1703         6.0742         8.3826         7.3444        17.6867 
       49.8440        17.3057      4654.6426     0.21179999
    3777.69120 
    77217.5000         0.0049         2.1078         0.5511      -0.161795 
      325.9410        -0.8514        82.6114        25.8901     0.33579999 
        6.1905         6.0834         9.2228         7.3366        17.8358 
       49.8119        16.5032      4583.2144     0.18610001
    3777.84360 
    77921.2031         0.0384         2.0051         0.5663      -0.162360 
      325.9410        -1.2929        77.8718        27.3611     0.34090000 
        6.1928         6.0834         8.9028         6.8673        18.4597 
       50.0758        16.7271      4517.0000     0.17500000
    3777.99600 
    78371.8047        -0.0097         2.0093         0.5790      -0.162507 
      325.9410        -1.1587        81.3646        25.7062     0.34880000 
        6.1905         6.0556         8.7867         7.2903        18.3616 
       50.2448        16.8963      4359.0000     0.18080001
    3778.14840 
    78980.7969         0.0001         2.0576         0.5945      -0.162593 
      325.9410        -1.0614        81.5754        26.2579     0.34799999 
        6.1905         6.0510         8.7117         7.1283        18.3483 
       50.4734        16.9959      4487.5000     0.18590000
    3778.30080 
    77900.8047        -0.0782         2.0850         0.6203      -0.162415 
      325.9410        -0.8828        80.8799        24.9339     0.34529999 
        6.1905         6.0510         9.0947         7.6448        18.7588 
       50.0681        16.8216      4600.7144     0.18790001
    3778.45320 
    77903.1016        -0.0448         2.2026         0.5938      -0.162125 
      325.9410        -1.0837        85.0970        25.1546     0.34279999 
        6.1905         6.0510         9.0669         7.1398        17.8356 
       50.0690        17.1126      4769.2856     0.17900001
    3778.60560 
    77747.1016        -0.0099         2.1860         0.6110      -0.162392 
      325.9410        -1.2593        85.1747        25.8901     0.33919999 
        6.1905         6.0510         8.7924         7.0300        19.2032 
       50.0105        16.9274      4786.2856     0.17900001
    3778.75800 
    77281.1953         0.0334         2.1622         0.6023      -0.162213 
      325.9410        -1.4072        85.4549        26.6256     0.33480000 
        6.1905         6.0556         8.6989         7.0510        18.1854 
       49.8358        17.0932      4739.3569     0.18170001
    3778.91040 
    78194.0000         0.0341         2.1249         0.5863      -0.161830 
      325.9410        -1.5403        84.8128        28.0966     0.33210000 
        6.1905         6.0811         9.0358         7.6375        18.2922 
       50.1781        16.7962      4656.2144     0.19030000
    3779.06280 
    79101.5000         0.0002         2.0529         0.5750      -0.161663 
      325.9410        -1.5314        81.5354        27.3979     0.32839999 
        6.1905         6.0834         8.9078         7.0883        18.2655 
       50.5188        16.9225      4586.0718     0.19419999
