#------------------------------------------------------------------------------
#
#   Created by   : las_export
#   Created on   : 2009-06-18 13:07:55
#   Project      : VOLVE
#   User         : TONYG
#   Interpreters : *
#
#------------------------------------------------------------------------------
~VERSION INFORMATION
VERS. 2.0 : CWLS Log ASCII Standard - version 2.0
WRAP.  NO : One line per depth step

~WELL INFORMATION
#MNEMONIC   .UNIT                                           VALUE :DESCRIPTION
#------------------------------------------------------------------------------
STRT        .M                                       2560.0412 :START DEPTH
STOP        .M                                       3222.0668 :STOP DEPTH
STEP        .M                                          0.1524 :STEP
NULL        .                                        -999.2500 :NULL VALUE
COMP        .                                                  :COMPANY
WELL        .                                      15/9-F-15 C :WELL
FLD         .                                            VOLVE :FIELD
LOC         .                                          UNKNOWN :LOCATION
CNTY        .                                          UNKNOWN :COUNTY
STAT        .                                          UNKNOWN :STATE
CTRY        .                                           Norway :COUNTRY
SRVC        .                                          UNKNOWN :SERVICE COMPANY
DATE        .                                          UNKNOWN :LOG DATE
UWI         .                                   NO 15/9-F-15 C :UNIQUE WELL ID
XCOORD      .M                                   435053.550000 :SURFACE X
YCOORD      .M                                  6478560.360000 :SURFACE Y
LAT         .                                        58.441585 :LATITUDE
LON         .                                         1.887541 :LONGITUDE
ELEV        .M                                         54.9000 :SURFACE ELEV
ELEV_TYPE   .                                               KB :ELEV TYPE

~CURVE INFORMATION
#MNEMONIC   .UNIT          API CODE       : CURVE DESCRIPTION
#------------------------------------------------------------------------------
DEPTH       .M                            : Measured Depth
DT          .us/ft         UNKNOWN        : DT:UNKNOWN:rC:NONE:v1
GR          .API           UNKNOWN        : GR:UNKNOWN:rC:NONE:v1
~A     DEPTH           DT           GR 
# ...
  3169.64120    72.259750    46.477068 
  3169.79360    73.641121    46.645711 
  3169.94600    74.491524    48.005969 
  3170.09840    76.046913    48.793517 
  3170.25080    77.233879    50.674747 
  3170.40320    78.758850    52.446510 
  3170.55560    81.019249    52.214301 
  3170.70800    81.319763    49.866105 
  3170.86040    78.396584    46.143126 
  3171.01280    73.427834    47.951856 
  3171.16520    68.070107    51.395463 
  3171.31760    64.992752    54.114289 
  3171.47000    65.654503    53.369712 
  3171.62240    68.160431    50.236961 
  3171.77480    72.800056    47.701847 
  3171.92720    76.805000    43.723945 
  3172.07960    78.443558    41.071781 
  3172.23200    77.775261    41.497269 
  3172.38440    76.126892    45.630670 
  3172.53680    76.491638    51.347465 
  3172.68920    79.555908    56.601100 
  3172.84160    82.446693    61.400877 
  3172.99400    83.339813    67.891162 
  3173.14640    84.212334    76.810748 
  3173.29880    85.378967    82.387986 
  3173.45120    85.845161    83.074258 
  3173.60360    83.839684    81.069097 
  3173.75600    81.977951    78.715511 
  3173.90840    81.302254    77.588011 
  3174.06080    81.210403    72.491198 
  3174.21320    80.396523    67.570226 
  3174.36560    78.892982    64.215340 
  3174.51800    77.132843    62.833674 
  3174.67040    74.993759    62.297139 
  3174.82280    75.315338    60.418935 
  3174.97520    77.407257    58.688217 
  3175.12760    79.273872    58.514134 
  3175.28000    79.915497    58.107747 
  3175.43240    80.340363    59.868495 
  3175.58480    81.917557    60.543906 
  3175.73720    82.157639    63.046575 
  3175.88960    79.718323    63.438781 
  3176.04200    77.840752    65.186057 
  3176.19440    76.861298    66.780348 
  3176.34680    76.836029    70.013748 
  3176.49920    78.172379    72.246579 
  3176.65160    78.087242    74.760136 
  3176.80400    78.959778    75.650642 
  3176.95640    79.676613    77.497930 
  3177.10880    79.740913    78.463676 
  3177.26120    79.327507    80.730203 
  3177.41360    79.319420    79.323100 
  3177.56600    79.821503    74.504539 
  3177.71840    80.560242    69.283640 
  3177.87080    81.670227    66.232160 
  3178.02320    82.008553    66.167781 
  3178.17560    82.535500    68.736728 
  3178.32800    82.914703    72.466970 
  3178.48040    80.507942    74.465660 
  3178.63280    79.059967    72.679125 
  3178.78520    77.830727    68.610747 
  3178.93760    76.970482    66.049632 
  3179.09000    78.164230    66.062071 
  3179.24240    79.014183    66.912579 
  3179.39480    79.344971    69.859228 
  3179.54720    79.665138    72.011888 
  3179.69960    78.559128    72.323604 
  3179.85200    75.940720    70.988217 
  3180.00440    74.800011    68.017155 
  3180.15680    75.186180    67.604694 
  3180.30920    76.496353    68.380781 
  3180.46160    76.763710    71.039023 
  3180.61400    75.682983    70.451789 
  3180.76640    73.904800    64.239031 
  3180.91880    73.590698    52.632254 
  3181.07120    73.977417    42.671654 
  3181.22360    74.961807    38.591804 
  3181.37600    77.236237    38.594867 
  3181.52840    80.366943    41.587228 
  3181.68080    82.176826    45.498743 
  3181.83320    81.259903    50.148715 
  3181.98560    80.843513    52.236910 
  3182.13800    81.065582    52.530610 
  3182.29040    80.932854    54.931216 
  3182.44280    81.743736    61.999177 
  3182.59520    82.257607    69.319716 
  3182.74760    81.272987    76.599287 
  3182.90000    80.758652    78.423110 
  3183.05240    81.460907    79.507313 
  3183.20480    83.238838    79.129254 
  3183.35720    84.753197    77.252195 
  3183.50960    85.128960    72.889765 
  3183.66200    85.282249    69.575051 
  3183.81440    84.992943    69.022093 
  3183.96680    83.848328    68.639192 
  3184.11920    81.015221    65.706759 
  3184.27160    79.458794    62.657906 
  3184.42400    79.556419    60.186550 
  3184.57640    80.946274    61.763404 
  3184.72880    82.902832    68.183037 
  3184.88120    84.466751    74.865177 
  3185.03360    86.743187    78.243826 
  3185.18600    89.074699    77.903578 
  3185.33840    89.656151    76.976406 
  3185.49080    91.263367    74.190617 
  3185.64320    92.208771    71.011374 
  3185.79560    92.031776    70.575281 
  3185.94800    92.545677    72.140500 
  3186.10040    91.322433    72.612065 
  3186.25280    91.044693    69.831287 
  3186.40520    91.738876    64.676597 
  3186.55760    91.835373    63.495097 
  3186.71000    91.712021    65.740635 
  3186.86240    89.557663    68.929584 
  3187.01480    85.581718    68.944738 
  3187.16720    81.755478    68.341205 
  3187.31960    80.651611    69.054357 
  3187.47200    82.099213    68.334643 
  3187.62440    84.638153    67.998860 
  3187.77680    85.859550    67.414436 
  3187.92920    84.115784    68.582686 
  3188.08160    80.467743    70.271349 
  3188.23400    76.716072    72.897245 
  3188.38640    74.732323    76.228239 
  3188.53880    76.664558    77.984952 
  3188.69120    81.053596    79.296349 
  3188.84360    85.058372    82.136178 
  3188.99600    86.772232    84.240487 
  3189.14840    86.266144    85.720199 
  3189.30080    85.874763    85.887204 
  3189.45320    85.311684    85.476358 
  3189.60560    83.732903    85.224858 
  3189.75800    81.496819    84.332062 
  3189.91040    78.635719    81.886130 
  3190.06280    76.900063    77.986799 
  3190.21520    76.405457    75.005163 
  3190.36760    76.244766    73.603465 
  3190.52000    76.489166    74.114625 
  3190.67240    76.662949    71.826746 
  3190.82480    76.270828    68.918319 
  3190.97720    77.005333    60.830305 
  3191.12960    78.744331    54.819426 
  3191.28200    81.105476    51.735590 
  3191.43440    82.888962    54.127215 
  3191.58680    82.926193    56.320397 
  3191.73920    82.035263    61.258698 
  3191.89160    80.020050    65.960739 
  3192.04400    79.192703    71.674476 
  3192.19640    79.521622    72.170126 
  3192.34880    80.756119    72.346438 
  3192.50120    81.778603    70.474317 
  3192.65360    81.288017    70.961346 
  3192.80600    79.327164    70.455081 
  3192.95840    76.713150    71.451789 
  3193.11080    74.667542    71.737201 
  3193.26320    73.808517    68.628750 
  3193.41560    74.180344    67.500038 
  3193.56800    74.181000    69.649137 
  3193.72040    74.333420    75.453036 
  3193.87280    74.827812    76.953087 
  3194.02520    76.406593    77.438114 
  3194.17760    79.031509    78.363039 
  3194.33000    81.176857    79.303786 
  3194.48240    82.404427    78.119984 
  3194.63480    83.977074    75.476855 
  3194.78720    85.554390    73.192548 
  3194.93960    86.441353    68.722492 
  3195.09200    87.044563    64.371062 
  3195.24440    87.574272    62.304757 
  3195.39680    87.005386    60.990580 
  3195.54920    86.808891    59.970129 
  3195.70160    86.803551    58.228468 
  3195.85400    87.746361    57.266544 
  3196.00640    88.968384    58.255651 
  3196.15880    89.202682    57.099482 
  3196.31120    88.468361    56.051912 
  3196.46360    87.098412    55.163489 
  3196.61600    86.641144    57.362662 
  3196.76840    87.251709    62.160392 
  3196.92080    86.606682    65.769857 
  3197.07320    85.603867    67.215169 
  3197.22560    86.266823    67.478500 
  3197.37800    87.209732    67.841408 
  3197.53040    88.102676    69.419040 
  3197.68280    88.015617    68.314396 
  3197.83520    87.415863    66.999427 
  3197.98760    87.385193    65.056059 
  3198.14000    87.461929    63.659603 
  3198.29240    88.727173    61.626530 
  3198.44480    90.697067    60.512609 
  3198.59720    90.547577    61.386338 
  3198.74960    87.507561    65.030938 
  3198.90200    83.751579    68.125291 
  3199.05440    82.361328    70.370222 
  3199.20680    84.470627    71.391283 
  3199.35920    87.945091    70.787343 
  3199.51160    91.077316    67.187048 
  3199.66400    91.862312    61.227160 
  3199.81640    89.320427    56.496927 
  3199.96880    84.002228    54.256201 
