~Version Information Block
VERS .                 2.00:  CWLS LOG ASCII STANDARD - VERSION 2.00
WRAP .                  YES:  Multiple lines per depth step
~Well Information Block
#MNEM.UNIT        Data Type   Information
#---------- ----------------  -----------
STRT .M          3437.38200:  START DEPTH
STOP .M          3636.11160:  STOP DEPTH
STEP .M             0.15240:  STEP
NULL .              -999.25:  NULL VALUE
COMP .                     :  COMPANY
WELL .          NO_15/9-F-5:  WELL
FLD  .                     :  FIELD
LOC  .                     :  LOCATION
CTRY .                     :  COUNTRY
STAT .                     :  STATE
CNTY .                     :  COUNTY
SRVC .                     :  SERVICE COMPANY
DATE .                     :  DATE
API  .                     :  API NUMBER
UWI  .                     :  UNIQUE WELL ID
~Curve Information Block
#MNEM.UNIT         API CODE   Curve Description
#---------- ----------------  -----------------
DEPTH.M                    :  
BSAL .PPM                  :  (RST-D)                 (6in)                   Borehole Salinity Depths
CCLC .V                    :  (PSTP-B)                (1in)                   CCL Computed Amplitude D
CIRF .                     :  (RST-D)                 (6in)                   Capture to Inelastic Rat
CIRN .                     :  (RST-D)                 (6in)                   Capture to Inelastic Rat
CVEL .M/SEC                 :  (WLWorkflow)            (1in)                   Cable Velocity Depthshif
DSIG .CU                   :  (RST-D)                 (6in)                   Sigma Difference Depthsh
DSIG21.                     :  SIGM_1 -RSTD_0912_OW.SAT201SI_SIGR_1
FBEF .UA                   :  (RST-D)                 (6in)                   Far Effective Beam Curre
GR   .GAPI                 :  (PSTP-B)                (6in)                   Gamma Ray Depthshifted
IRAT .                     :  (RST-D)                 (6in)                   Inelastic Ratio Depthshi
RB_PCMS.DEG                  :  (PCMS-A)                (6in)                   Relative Bearing Depthsh
RSCF .                     :  (RST-D)                 (6in)                   Far Detector Effective U
RSCN .                     :  (RST-D)                 (6in)                   Near Detector Effective
SFFA .CU                   :  (RST-D)                 (6in)                   Sigma Formation Far Appa
SIBF .CU                   :  (RST-D)                 (6in)                   Sigma Borehole Fluid Dep
SIGM .CU                   :  (RST-D)                 (6in)                   Formation Sigma (Neutron
TENS .LBF                  :  (WLWorkflow)            (1in)                   Cable Tension Depthshift
TPHI .V/V                  :  (RST-D)                 (6in)                   Thermal Decay Porosity D
WPRE .BAR                  :  (PSTP-B)                (6in)                   Well Pressure Depthshift
WTEP .DEGC                 :  (PSTP-B)                (6in)                   Well Temperature Depthsh
~Parameter Information Block
#MNEM.UNIT            Value   Description
#---------- ----------------  -----------
PROJECT.     SLEIPNER_OST@st-vlinapp01:  
SET  .     RSTD_1115_SIG1_DS:  
~Other Information Block
~Ascii Log Data
# ...
    3453.23160 
    54113.8125        -0.1133         1.4207       0.524540     -0.0754418 
        2.1245      -999.2500       108.3553        32.7010       0.316050 
      353.9420         4.5834         5.2884        26.6588        41.2679 
       25.2051      3888.0010       0.309000       359.3188        83.7882
    3453.38400 
    53884.7305        -0.0214         1.2686       0.518780     -0.0769620 
        2.3568      -999.2500       107.8802        30.4847       0.317880 
      353.9564         4.0503         5.2259        29.3750        41.1844 
       25.9752      3858.6006       0.315060       359.3340        83.7802
    3453.53640 
    53658.5508         0.0326         1.2770       0.501980     -0.0754455 
        2.4764      -999.2500       107.2627        31.8638       0.318660 
      353.9546         3.9849         4.9161        27.9756        41.1019 
       26.3168      3905.2012       0.307810       359.3415        83.7749
    3453.68880 
    54428.6602         0.0182         1.3398       0.487350     -0.0757798 
        2.5736      -999.2500       102.4764        30.4406       0.312170 
      353.8089         4.4318         4.9488        27.6988        41.3828 
       25.5392      3876.0007       0.297800       359.3529        83.7647
    3453.84120 
    55154.4180         0.0463         1.4090       0.482540     -0.0759498 
        2.5523      -999.2500       113.8282        30.2567       0.309050 
      353.8220         4.4157         5.1207        27.0505        41.6479 
       24.3487      3954.8008       0.287960       359.3633        83.7600
    3453.99360 
    55570.7109         0.0041         1.4995       0.524930     -0.0772238 
        2.7144      -999.2500       110.8586        28.6441       0.309260 
      354.1165         4.6877         5.2146        24.4152        41.8000 
       23.2421      3960.2007       0.285390       359.3753        83.7588
    3454.14600 
    55517.0859        -0.0072         1.5617       0.538325     -0.0767154 
        2.6158      -999.2500       104.4695        29.1406       0.310481 
      354.5464         5.2688         5.6616        24.3955        41.7804 
       22.3905      3951.6599       0.286870       359.3836        83.7602
    3454.29840 
    55535.3555        -0.0796         1.5282       0.531172     -0.0762057 
        3.0438      -999.2500       109.3562        27.9623       0.307316 
      354.6190         4.9118         5.6514        24.4855        41.7870 
       21.9386      3949.8210       0.292032       359.3908        83.7517
    3454.45080 
    55179.5586         0.0246         1.5432       0.523036     -0.0774543 
        2.9927      -999.2500       108.2742        29.1318       0.306522 
      354.4185         5.0993         5.8114        23.0606        41.6570 
       21.9656      3873.1948       0.294611       359.4094        83.7436
    3454.60320 
    55524.2500         0.0045         1.4947       0.527597     -0.0764814 
        3.0276      -999.2500       105.9720        28.9637       0.308157 
      354.4720         5.0788         5.7031        24.4420        41.7830 
       21.9570      3990.8323       0.300180       359.4114        83.7275
    3454.75560 
    55265.9688        -0.0259         1.5439       0.548817     -0.0774508 
        2.7317      -999.2500       109.9576        28.3503       0.312818 
      354.5370         4.9467         5.6732        24.4266        41.6886 
       22.8579      3970.7937       0.299607       359.4268        83.7209
    3454.90800 
    55201.4180         0.0726         1.4370       0.530976     -0.0766471 
        2.5084      -999.2500       107.1670        27.6681       0.312327 
      354.4213         4.6923         5.4968        25.7462        41.6650 
       23.0161      3868.7434       0.295993       359.4366        83.7169
    3455.06040 
    54647.9297         0.0119         1.4907       0.535328     -0.0764668 
        2.3576      -999.2500       104.4832        27.1242       0.317208 
      354.3701         4.8355         5.4333        24.8965        41.4629 
       22.7204      3955.2395       0.283074       359.4438        83.7172
    3455.21280 
    54197.8867        -0.0046         1.6317       0.557185     -0.0779231 
        2.0983      -999.2500       103.7888        26.8074       0.319076 
      354.1755         5.4400         5.7547        23.5160        41.2986 
       21.6124      3912.1321       0.267788       359.4598        83.7132
    3455.36520 
    54460.5820         0.0527         1.6656       0.550179     -0.0765856 
        1.7931      -999.2500       101.8148        26.9666       0.325214 
      354.0576         5.6661         5.6396        22.3570        41.3945 
       21.0547      3954.8779       0.254534       359.4657        83.6993
    3455.51760 
    53961.5938         0.0120         1.6469       0.570230     -0.0764536 
        1.7263      -999.2500        99.7575        27.6553       0.325852 
      354.1532         5.7412         5.7734        23.1852        41.2124 
       20.9562      3963.6770       0.249844       359.4756        83.6874
    3455.67000 
    53432.3867         0.0077         1.6716       0.566100     -0.0762212 
        1.6657      -999.2500       106.2539        28.2021       0.326783 
      354.2198         5.3673         5.6261        23.2039        41.0194 
       21.3649      3883.7764       0.246378       359.4899        83.6786
    3455.82240 
    52703.1914        -0.0033         1.6187       0.558017     -0.0766925 
        1.3419      -999.2500       102.6991        29.9941       0.325684 
      354.3005         5.4474         5.7428        23.5745        40.7537 
       21.3007      3927.3374       0.253200       359.4961        83.6695
    3455.97480 
    52274.6484        -0.0092         1.6821       0.568839     -0.0774198 
        1.0366      -999.2500       100.3823        29.2586       0.321084 
      354.3193         5.6925         5.7141        22.9368        40.5976 
       21.9864      3868.8987       0.262208       359.5101        83.6612
    3456.12720 
    51431.1133         0.0402         1.5661       0.555157     -0.0759838 
        0.9075      -999.2500       106.5780        29.9220       0.310972 
      354.3839         5.1254         5.7906        25.2183        40.2906 
       23.2688      3933.5430       0.289973       359.5191        83.6460
    3456.27960 
    51188.3828        -0.0276         1.3326       0.483770     -0.0763803 
        1.0099      -999.2500       109.3988        30.2175       0.296274 
      354.2693         4.4856         5.5261        27.3952        40.2024 
       25.3526      3946.8799       0.328153       359.5272        83.6300
    3456.43200 
    50825.9492         0.0227         1.0695       0.430048     -0.0764548 
        1.2642      -999.2500       111.1418        29.2438       0.293727 
      353.9022         3.5050         4.8558        29.2192        40.0706 
       28.0762      3859.5752       0.365703       359.5408        83.6213
    3456.58440 
    50254.7539         0.0575         0.9481       0.449084     -0.0768117 
        1.8371      -999.2500       109.6997        27.0319       0.296824 
      353.7355         2.9407         4.5387        33.4243        39.8631 
       29.9915      3906.7241       0.390680       359.5506        83.6102
    3456.73680 
    49361.5391        -0.0373         0.9571       0.443937     -0.0774244 
        2.2020      -999.2500       108.8636        26.9406       0.302447 
      353.9102         2.9938         4.4480        33.2498        39.5388 
       31.2510      3985.6890       0.397624       359.5583        83.6008
    3456.88920 
    48887.8477         0.0035         0.9558       0.439293     -0.0763046 
        2.5693      -999.2500       112.7701        26.3307       0.301597 
      354.0659         2.9367         4.5013        33.1131        39.3670 
       31.4298      3935.8235       0.397564       359.5726        83.5907
    3457.04160 
    48272.1172         0.0005         0.9251       0.429729     -0.0762029 
        2.8960      -999.2500       110.2911        26.4378       0.302403 
      354.2173         2.9576         4.5009        34.0514        39.1438 
       31.7489      3918.3435       0.387204       359.5817        83.5835
