~Version Information Block
VERS .                 2.00:  CWLS LOG ASCII STANDARD - VERSION 2.00
WRAP .                   NO:  One line per depth step
~Well Information Block
#MNEM.UNIT        Data Type   Information
#---------- ----------------  -----------
STRT .M          3461.15640:  START DEPTH
STOP .M          3535.07040:  STOP DEPTH
STEP .M             0.15240:  STEP
NULL .              -999.25:  NULL VALUE
COMP .              Statoil:  COMPANY
WELL .          NO_15/9-F-5:  WELL
FLD  .                Volve:  FIELD
LOC  .                Volve:  LOCATION
CTRY .               Norway:  COUNTRY
STAT .                     :  STATE
CNTY .                     :  COUNTY
SRVC .         Schlumberger:  SERVICE COMPANY
DATE .          03-Nov-2015:  DATE
API  .                     :  API NUMBER
UWI  .             15/9-F-5:  UNIQUE WELL ID
LATI .     58° 26' 29.66" N:  LATITUDE
LONG .      1° 53' 14.99" E:  LONGITUDE
~Curve Information Block
#MNEM.UNIT         API CODE   Curve Description
#---------- ----------------  -----------------
DEPTH.M                    :  DEPTH (BOREHOLE)
CRRA .                     :  Near/Far Count Rate Ratio
CVEL .M/SEC                 :  Cable Velocity
FBEF .UA                   :  Far Effective Beam Current
FCOR .                     :  Far Carbon/Oxygen Ratio
FIRD .                     :  Far Inelastic Optimization Resolution Degradation Factor
NCOR .                     :  Near Carbon/Oxygen Ratio
NIRD .                     :  Near Inelastic Optimization Resolution Degradation Factor
RB_PCMS.DEG                  :  Relative Bearing
WPRE .BAR                  :  Well Pressure
WTEP .DEGC                 :  Well Temperature
~Parameter Information Block
#MNEM.UNIT            Value   Description
#---------- ----------------  -----------
APD  .M                  54:  Elevation of Depth Reference (LMF) above Permanent Datum
EPD  .C3                  0:  Elevation of Permanent Datum above Mean Sea Level
LMF  .                   DF:  Logging Measured From (Name of Logging Elevation Reference)
PDAT .                  MSL:  Permanent Datum
RUN  .                Run 1:  RUN NUMBER
TAPE_NAME.     ConCu_R02_L004Up_RST_PCMS_PSTP.las:  
TOOL_STRING.              UNKNOWN:  
WN   .             15/9-F-5:  WELL
PROJECT.     SLEIPNER_OST@st-vlinapp01:  
SET  .        RSTD_1115_IC1:  
~Other Information Block
# 
~A       DEPTH           CRRA           CVEL           FBEF           FCOR           FIRD           NCOR           NIRD        RB_PCMS           WPRE           WTEP 
# ...
    3528.36480         2.9382     -0.0088900       136.2992    -0.03940000         5.7888    -0.00020000         4.3483       353.3057       363.9511        81.4581
    3528.51720         2.9427     -0.0088850       136.9644     0.17970000         5.8295     0.01460000         4.2773       353.3057       363.9511        81.4581
    3528.66960         2.9711     -0.0090967       141.3826     0.09040000         5.7945     0.00680000         4.2649       353.3057       363.9511        81.4581
    3528.82200         3.1775     -0.0091067       143.4003     0.06170000         5.7824    -0.00600000         4.2352       353.3057       363.9511        81.4581
    3528.97440         3.1782     -0.0090217       138.6292    -0.08850000         5.7163    -0.02450000         4.2351       353.3057       363.9511        81.4581
    3529.12680         3.0058     -0.0087650       132.2982    -0.18160000         5.6763    -0.03250000         4.2227       353.3057       363.9511        81.4581
    3529.27920         2.8590     -0.0085917       134.1834     0.09600000         5.6807     0.10990000         4.2263       353.3057       363.9511        81.4581
    3529.43160         2.9116     -0.0089650       133.0561     0.09560000         5.7337    -0.04280000         4.2279       353.3057       363.9511        81.4581
    3529.58400         2.8758     -0.0086950       133.5494    -0.12909999         5.6880    -0.10520000         4.2244       353.3057       363.9511        81.4581
    3529.73640         2.8933     -0.0088517       134.5355    -0.08030000         5.7047     0.01100000         4.2351       353.3057       363.9511        81.4581
    3529.88880         2.9139     -0.0085683       133.8898     0.12540001         5.7532     0.08280000         4.2621       353.3057       363.9511        81.4581
    3530.04120         2.9077     -0.0085900       133.1903     0.11030000         5.6873    -0.00310000         4.2608       353.3057       363.9511        81.4581
    3530.19360         2.9080     -0.0088517       133.9673     0.01660000         5.6405     0.06830000         4.2693       353.3057       363.9511        81.4581
    3530.34600         2.9135     -0.0088750       133.3094    -0.09340000         5.6274    -0.11110000         4.2820       353.3057       363.9511        81.4581
    3530.49840         2.8797     -0.0087917       134.7354     0.05830000         5.6394     0.05060000         4.2642       353.3057       363.9511        81.4581
    3530.65080         2.8962     -0.0086917       133.6246    -0.13959999         5.6949    -0.00030000         4.2579       353.3057       363.9511        81.4581
    3530.80320         2.8883     -0.0084583       134.4826    -0.04120000         5.7116    -0.14600000         4.2296       353.3057       363.9511        81.4581
    3530.95560         2.9035     -0.0087650       133.1656    -0.20640001         5.6849     0.09990000         4.2611       353.3057       363.9511        81.4581
    3531.10800         2.8949     -0.0087367       133.1656 -3593.48339844         5.6849 -3594.27880859         4.2643       353.3057       363.9511        81.4581
    3531.26040         2.8949     -0.0089300       133.1656  -999.25000000         5.6849  -999.25000000         4.2643       353.3057       363.9511        81.4581
    3531.41280         2.8949     -0.0075417       133.1656  -999.25000000         5.6849  -999.25000000         4.2643       353.3057       363.9511        81.4581
    3531.56520         2.8949     -0.0089600       133.1656  -999.25000000         5.6849  -999.25000000         4.2643       353.3057       363.9511        81.4581
    3531.71760         2.8949     -0.0090983       133.1656  -999.25000000         5.6849  -999.25000000         4.2643       353.3057       363.9511        81.4581
    3531.87000         2.8949     -0.0079767       133.1656  -999.25000000         5.6849  -999.25000000         4.2643       353.3057       363.9511        81.4581
    3532.02240         2.8949     -0.0090317       133.1656  -999.25000000         5.6849  -999.25000000         4.2643       353.3057       363.9511        81.4581
    3532.17480         2.8949     -0.0099017       133.1656  -999.25000000         5.6849  -999.25000000         4.2643       353.3057       363.9511        81.4581
    3532.32720         2.8949     -0.0125333       133.1656  -999.25000000         5.6849  -999.25000000         4.2643       353.3057       363.9511        81.4581
    3532.47960         2.8949     -0.0148017       133.1656  -999.25000000         5.6849  -999.25000000         4.2643       353.3057       363.9511        81.4581
    3532.63200         2.8949     -0.0159550       133.1656  -999.25000000         5.6849  -999.25000000         4.2643       353.3057       363.9511        81.4581
    3532.78440         2.8949     -0.0154900       133.1656  -999.25000000         5.6849  -999.25000000         4.2643       353.3057       363.9511        81.4581
    3532.93680         2.8949     -0.0169500       133.1656  -999.25000000         5.6849  -999.25000000         4.2643       353.3057       363.9511        81.4581
    3533.08920         2.8949     -0.0161350       133.1656  -999.25000000         5.6849  -999.25000000         4.2643       353.3057       363.9511        81.4581
    3533.24160         2.8949     -0.0154717       133.1656  -999.25000000         5.6849  -999.25000000         4.2643       353.3057       363.9511        81.4581
    3533.39400         2.8949     -0.0155233       133.1656  -999.25000000         5.6849  -999.25000000         4.2643       353.3057       363.9511        81.4581
    3533.54640         2.8949     -0.0158167       133.1656  -999.25000000         5.6849  -999.25000000         4.2643       353.3057       363.9511        81.4581
    3533.69880         2.8949     -0.0156417       133.1656  -999.25000000         5.6849  -999.25000000         4.2643       353.3057       363.9511        81.4581
    3533.85120         2.8949     -0.0160517       133.1656  -999.25000000         5.6849  -999.25000000         4.2643       353.3057       363.9511        81.4581
    3534.00360         2.8949     -0.0151983       133.1656  -999.25000000         5.6849  -999.25000000         4.2643       353.3057       363.9511        81.4581
    3534.15600         2.8949     -0.0144950       133.1656  -999.25000000         5.6849  -999.25000000         4.2643       353.3057       363.9511        81.4581
    3534.30840         2.8949     -0.0132200       133.1656  -999.25000000         5.6849  -999.25000000         4.2643       353.3057       363.9511        81.4581
    3534.46080         2.8949     -0.0140600       133.1656  -999.25000000         5.6849  -999.25000000         4.2643       353.3057       363.9511        81.4581
    3534.61320         2.8949     -0.0144200       133.1656  -999.25000000         5.6849  -999.25000000         4.2643       353.3057       363.9511        81.4581
    3534.76560         2.8949     -0.0114633       133.1656  -999.25000000         5.6849  -999.25000000         4.2643       353.3057       363.9511        81.4581
    3534.91800         2.8949     -0.0080900       133.1656  -999.25000000         5.6849  -999.25000000         4.2643       353.3057       363.9511        81.4581
    3535.07040         2.8949     -0.0174750       133.1656  -999.25000000         5.6849  -999.25000000         4.2643       353.3057       363.9511        81.4581
