~Version Information Block
VERS .                 2.00:  CWLS LOG ASCII STANDARD - VERSION 2.00
WRAP .                   NO:  One line per depth step
~Well Information Block
#MNEM.UNIT        Data Type   Information
#---------- ----------------  -----------
STRT .M          3454.45080:  START DEPTH
STOP .M          3788.05440:  STOP DEPTH
STEP .M             0.15240:  STEP
NULL .              -999.25:  NULL VALUE
COMP .              Statoil:  COMPANY
WELL .        NO_15/9-F-1_C:  WELL
FLD  .                Volve:  FIELD
LOC  .            North Sea:  LOCATION
CTRY .               Norway:  COUNTRY
STAT .                     :  STATE
CNTY .                     :  COUNTY
SRVC .         Schlumberger:  SERVICE COMPANY
DATE .          27-Nov-2014:  DATE
API  .                     :  API NUMBER
UWI  .           15/9-F-1 C:  UNIQUE WELL ID
LATI .     58° 26' 29.91" N:  LATITUDE
LONG .      1° 53' 14.71" E:  LONGITUDE
~Curve Information Block
#MNEM.UNIT         API CODE   Curve Description
#---------- ----------------  -----------------
DEPTH.M                    :  DEPTH (BOREHOLE)
CRRA .                     :  Near/Far Count Rate Ratio
CVEL .M/SEC                 :  Cable Velocity
DFRB .DEG                  :  Calibrated Relative Bearing
FBEF .UA                   :  RST Far Effective Beam Current
FCOR .                     :  RST Far Carbon/Oxygen Ratio
FERD .                     :  RST Far IC Mode Capture Optimization
FIRD .                     :  RST Far Inelastic Optimization Resolution
GR   .GAPI                 :  Gamma Ray
NCOR .                     :  RST Near Carbon/Oxygen Ratio
NERD .                     :  RST Near IC Mode Capture Optimization
NIRD .                     :  RST Near Inelastic Optimization Resolution
PFC1 .IN                   :  PFCS CaliperX
PFC2 .IN                   :  PFCS CaliperY
TENS .LBF                  :  Cable Tension
~Parameter Information Block
#MNEM.UNIT            Value   Description
#---------- ----------------  -----------
APD  .M           54.900002:  Elevation of Depth Reference (LMF) above Permanent Datum
EPD  .C3                  0:  Elevation of Permanent Datum above Mean Sea Level
LMF  .                   KB:  Logging Measured From (Name of Logging Elevation Reference)
PDAT .                  MSL:  Permanent Datum
RUN  .                Run 1:  RUN NUMBER
TAPE_NAME.     Statoil_Volve_15-9-F-1 C_PLT-RST_28Nov14_ConCu_R1L17Up_IC1.las:  
TOOL_STRING.              UNKNOWN:  
WN   .           15/9-F-1 C:  WELL
PROJECT.     SLEIPNER_OST@st-vlinapp01:  
SET  .        RSTD_1114_IC1:  
~Other Information Block
# 
~A       DEPTH           CRRA           CVEL           DFRB           FBEF           FCOR           FERD           FIRD             GR           NCOR           NERD           NIRD           PFC1           PFC2           TENS 
# ...
    3695.85240         2.8651      -0.155237       356.9830       127.3112        -0.0457         5.4315         5.4315        33.8328        -0.0488         7.1285         7.1285         6.2219         6.0510      4453.9336
    3696.00480         2.8853      -0.155942       356.9830       126.4117        -0.0095         5.3895         5.3895        33.6590         0.0099         7.1376         7.1376         6.2219         6.0510      4440.2144
    3696.15720         2.8840      -0.155627       356.9830       126.6627        -0.0062         5.2336         5.2336        33.4849        -0.0144         7.1228         7.1228         6.2219         6.0488      4305.7334
    3696.30960         2.8987      -0.155733       356.9830       127.3891        -0.0577         5.2152         5.2152        33.1563         0.0034         7.1041         7.1041         6.2219         6.0510      4449.8003
    3696.46200         2.9047      -0.156060       356.9830       127.5383         0.0150         5.2221         5.2221        32.4320        -0.0627         7.1204         7.1204         6.2219         6.0488      4519.1426
    3696.61440         2.8935      -0.155390       356.9830       126.6545         0.0570         5.1628         5.1628        32.2284         0.0552         7.0792         7.0792         6.2219         6.0510      4559.4663
    3696.76680         2.8906      -0.155137       356.9830       126.5614         0.1778         5.0162         5.0162        32.2791         0.0716         7.1411         7.1411         6.2219         6.0424      4591.3330
    3696.91920         2.8796      -0.154893       356.9830       127.1104        -0.0170         5.1079         5.1079        32.1577         0.0664         7.0934         7.0934         6.2219         6.0488      4567.2144
    3697.07160         2.8938      -0.155010       356.9830       127.2063         0.0134         5.0258         5.0258        32.0294         0.0739         7.0326         7.0326         6.2219         6.0488      4534.0664
    3697.22400         2.9094      -0.155342       356.9830       128.5892        -0.0607         5.0258         5.0258        32.0538         0.1296         7.0735         7.0735         6.2219         6.0510      4469.1333
    3697.37640         2.9653      -0.155393       356.9830       128.0332         0.0929         4.8745         4.8745        31.6173        -0.0868         7.0735         7.0735         6.2219         6.0424      4397.0000
    3697.52880         2.9566      -0.154862       356.9830       128.7860         0.0893         4.9575         4.9575        31.8605         0.0084         7.0800         7.0800         6.2219         6.0278      4348.0000
    3697.68120         2.9782      -0.153973       356.9830       130.2474        -0.0343         4.9727         4.9727        31.6926         0.1174         7.1257         7.1257         6.2135         6.0294      4481.3335
    3697.83360         3.0088      -0.154420       356.9830       129.2671         0.0619         5.0171         5.0171        31.4935         0.0321         7.0347         7.0347         6.2198         6.0229      4467.6670
    3697.98600         2.9560      -0.155927       356.9830       128.9256         0.0606         5.0329         5.0329        31.2851         0.1143         6.9931         6.9931         6.2177         6.0229      4567.2666
    3698.13840         2.9354      -0.155638       356.9830       128.9245         0.0581         4.9583         4.9583        32.0301         0.1107         7.1249         7.1249         6.2114         6.0207      4523.8003
    3698.29080         2.9348      -0.154963       356.9830       127.4268        -0.0004         4.8829         4.8829        32.0058         0.0738         7.0662         7.0662         6.2177         6.0272      4523.2861
    3698.44320         2.8875      -0.154930       356.9830       128.4480         0.0246         4.8285         4.8285        32.7279         0.0138         7.0662         7.0662         6.2219         6.0371      4504.4004
    3698.59560         2.9113      -0.155352       356.9830       127.5573        -0.0021         4.7236         4.7236        33.0424         0.0887         7.0928         7.0928         6.2031         6.0207      4469.4004
    3698.74800         2.9101      -0.155048       356.9830       128.3518         0.2261         4.7025         4.7025        33.5608         0.0553         7.0642         7.0642         6.1905         6.0229      4365.4004
    3698.90040         2.9057      -0.154932       356.9830       128.4107         0.0150         4.6573         4.6573        33.4087        -0.0147         7.0952         7.0952         6.2073         6.0402      4351.1431
    3699.05280         2.9142      -0.155057       356.9830       128.5872         0.0481         4.7444         4.7444        33.5295         0.0328         7.0697         7.0697         6.1972         6.0371      4354.7998
    3699.20520         2.9258      -0.155675       356.9830       127.4768         0.1075         4.7366         4.7366        33.8420         0.0331         7.0645         7.0645         6.2010         6.0445      4472.4668
    3699.35760         2.9060      -0.155990       356.9830       127.8278         0.1522         4.7562         4.7562        34.0117        -0.0566         7.1077         7.1077         6.1989         6.0467      4607.0000
    3699.51000         2.9045      -0.155980       356.9830       127.4070         0.0050         4.6467         4.6467        34.3241         0.1321         7.1309         7.1309         6.1968         6.0402      4578.0000
    3699.66240         2.8971      -0.156073       356.9830       128.3026         0.1813         4.4953         4.4953        34.5508         0.0238         7.1776         7.1776         6.1995         6.0510      4579.0664
    3699.81480         2.9294      -0.155822       356.9830       127.5986         0.0129         4.7105         4.7105        34.7496        -0.0193         7.1907         7.1907         6.1905         6.0510      4487.0000
    3699.96720         2.8949      -0.156035       356.9830       127.7436        -0.1198         4.4942         4.4942        34.8131        -0.0136         7.1873         7.1873         6.1944         6.0510      4430.3335
    3700.11960         2.9096      -0.155760       356.9830       127.5690         0.0177         4.5048         4.5048        35.0230        -0.0038         7.1712         7.1712         6.2031         6.0510      4355.2666
    3700.27200         2.9018      -0.153692       356.9830       128.0090        -0.0697         4.4679         4.4679        34.6012        -0.0097         7.1757         7.1757         6.2042         6.0409      4336.7144
    3700.42440         2.9221      -0.149522       356.9830       128.5583         0.0116         4.4918         4.4918        34.5575        -0.0116         7.2318         7.2318         6.2003         6.0490      4444.2002
    3700.57680         2.9250      -0.146450       356.9830       128.3005         0.0671         4.4889         4.4889        34.3132        -0.0217         7.1956         7.1956         6.2016         6.0434      4572.5625
    3700.72920         2.9144      -0.144282       356.9830       127.5979        -0.0353         4.4408         4.4408        33.8081         0.0431         7.1772         7.1772         6.2016         6.0396      4577.1333
    3700.88160         2.9151      -0.140983       356.9830       128.1451         0.1108         4.5471         4.5471        34.8819        -0.0478         7.1608         7.1608         6.2045         6.0348      4600.1250
    3701.03400         2.9154      -0.136060       356.9830       128.1695         0.0773         4.5885         4.5885        35.3374         0.0294         7.1478         7.1478         6.1905         6.0222      4530.7505
    3701.18640         2.9119      -0.132565       356.9830       128.1905        -0.1147         4.5197         4.5197        35.8578         0.0404         7.1801         7.1801         6.2062         6.0276      4461.0591
