~Version Information Block
VERS .                 2.00:  CWLS LOG ASCII STANDARD - VERSION 2.00
WRAP .                  YES:  Multiple lines per depth step
~Well Information Block
#MNEM.UNIT        Data Type   Information
#---------- ----------------  -----------
STRT .M          3450.03120:  START DEPTH
STOP .M          3948.83640:  STOP DEPTH
STEP .M             0.15240:  STEP
NULL .              -999.25:  NULL VALUE
COMP .              Statoil:  COMPANY
WELL .        NO_15/9-F-1_C:  WELL
FLD  .                Volve:  FIELD
LOC  .            North Sea:  LOCATION
CTRY .               Norway:  COUNTRY
STAT .                     :  STATE
CNTY .                     :  COUNTY
SRVC .         Schlumberger:  SERVICE COMPANY
DATE .          27-Nov-2014:  DATE
API  .                     :  API NUMBER
UWI  .           15/9-F-1 C:  UNIQUE WELL ID
LATI .     58° 26' 29.91" N:  LATITUDE
LONG .      1° 53' 14.71" E:  LONGITUDE
~Curve Information Block
#MNEM.UNIT         API CODE   Curve Description
#---------- ----------------  -----------------
DEPTH.M                    :  DEPTH (BOREHOLE)
BSAL .PPM                  :  Borehole Salinity
CCLC .V                    :  CCL
CIRF .                     :  RST Capture to Inelastic Ratio Far
CIRN .                     :  RST Capture to Inelastic Ratio Near
CVEL .M/SEC                 :  Cable Velocity
DFRB .DEG                  :  Calibrated Relative Bearing
DSIG .CU                   :  Sigma Difference
FBEF .UA                   :  RST Far Effective Beam Current
GR   .GAPI                 :  Gamma Ray
IRAT .                     :  RST Inelastic Ratio
PFC1 .IN                   :  PFCS CaliperX
PFC2 .IN                   :  PFCS CaliperY
RSCF .                     :  RST Far Detector Effective Unregulated
RSCN .                     :  RST Near Detector Effective
SFFA .CU                   :  RST Sigma Formation Far Apparent
SIBF .CU                   :  RST Sigma Borehole Fluid
SIGM .CU                   :  Formation Sigma (Neutron Capture Cross
TENS .LBF                  :  Cable Tension
TPHI .V/V                  :  Thermal Decay Porosity
~Parameter Information Block
#MNEM.UNIT            Value   Description
#---------- ----------------  -----------
APD  .M           54.900002:  Elevation of Depth Reference (LMF) above Permanent Datum
BHS  .                 CASE:  Borehole Status (Open or Cased Hole)
BS   .IN                8.5:  Bit Size
BSAL .PPM                 0:  Borehole Salinity
BSALOPT.              UNKNOWN:  Borehole Salinity Option
CSIZ .IN                  7:  Current Casing Size
CWEI .LB/F               29:  Casing Weight
EPD  .C3                  0:  Elevation of Permanent Datum above Mean Sea Level
LMF  .                   KB:  Logging Measured From (Name of Logging Elevation Reference)
MATR .                 SAND:  Rock Matrix for Neutron Porosity Corrections
PDAT .                  MSL:  Permanent Datum
RUN  .                Run 1:  RUN NUMBER
TAPE_NAME.     Statoil_Volve_15-9-F-1 C_PLT-RST_28Nov14_ConCu_R1L16Up_SigmaMain.las:  
TOOL_STRING.              UNKNOWN:  
WN   .           15/9-F-1 C:  WELL
PROJECT.     SLEIPNER_OST@st-vlinapp01:  
SET  .       RSTD_1114_SIG1:  
~Other Information Block
~Ascii Log Data
# ...
    3482.94960 
     6016.3003         0.0113         2.2525         0.8891      -0.166782 
      355.5720        -0.9006        82.8472        32.0232     0.35780001 
        6.1905         6.0186         9.5080        10.4532        20.1685 
       24.2182        18.4800      4249.6157     0.20550001
    3483.10200 
     5683.8003        -0.0079         2.2163         0.8881      -0.167022 
      355.5720        -0.8379        78.6710        28.9397     0.35400000 
        6.1905         6.0186         9.8423        10.5142        20.2638 
       24.1039        18.4845      4186.1426     0.20780000
    3483.25440 
     5337.6001         0.0064         2.2971         0.9013      -0.167192 
      355.5720        -0.7732        83.8709        28.9397     0.35370001 
        6.1905         6.0136         9.2631        10.2434        20.2473 
       23.9849        18.6829      4171.7856     0.20700000
    3483.40680 
     4952.8999         0.0017         2.2534         0.8977      -0.167572 
      355.5720        -0.6108        84.0688        29.6469     0.35179999 
        6.1905         6.0001         8.9906        10.0334        20.7521 
       23.8528        18.2742      4006.6428     0.20919999
    3483.55920 
     3624.5000         0.0523         2.2780         0.8957      -0.168072 
      355.5720        -0.6748        79.2559        31.3018     0.35280001 
        6.1905         6.0140        10.0218        10.9712        19.0226 
       23.3971        18.3804      3999.5386     0.20400000
    3483.71160 
     3325.4001         0.0750         2.2691         0.8996      -0.168057 
      355.5720        -0.6132        82.6123        31.4149     0.35360000 
        6.1905         6.0061         9.3846        10.3948        20.5380 
       23.2946        18.4968      3997.7859     0.20160000
    3483.86400 
     1947.9000        -0.1402         2.2155         0.8707      -0.168368 
      355.5720        -0.6486        81.8585        35.0925     0.35270000 
        6.1905         5.9931         9.5670        10.6606        21.0910 
       22.8231        18.8974      4280.9229     0.19720000
    3484.01640 
     1152.2000        -0.0750         2.2142         0.9022      -0.168243 
      355.5720        -0.3795        80.9348        33.6498     0.35440001 
        6.1905         6.0047         9.4474        10.4785        20.2043 
       22.5512        18.6765      4343.0000     0.20270000
    3484.16880 
     1073.1000         0.0111         2.2061         0.8792      -0.167883 
      355.5720        -0.1755        80.7364        30.9199     0.35479999 
        6.1905         6.0116         9.3165        10.0249        19.8666 
       22.5242        18.9346      4317.4287     0.19890000
    3484.32120 
      406.6000        -0.0040         2.0875         0.8643      -0.166722 
      355.5720        -0.1747        80.7991        30.9199     0.35859999 
        6.1905         6.0061         9.0004        10.4189        21.8555 
       22.2966        19.0806      4216.5386     0.19820000
    3484.47360 
     -335.0000         0.0064         2.1415         0.8794      -0.166448 
      355.5720        -0.2042        80.9061        30.5521     0.35580000 
        6.1905         6.0163         9.3220        10.2627        20.6071 
       22.0437        19.4568      4168.7144     0.19190000
    3484.62600 
      -41.9000         0.0011         2.1172         0.8261      -0.167072 
      355.5720        -0.0537        81.7783        27.7798     0.35260001 
        6.1905         6.0116         9.3486        10.4589        20.9689 
       22.1436        18.9873      4070.6428     0.19509999
    3484.77840 
     -375.0000         0.0159         2.1051         0.8328      -0.167672 
      355.5720         0.1860        81.3724        27.0160     0.34520000 
        6.1784         6.0186         9.3256        10.4367        20.4435 
       22.0300        19.0386      3972.9233     0.18940000
    3484.93080 
     -456.4000        -0.0398         2.1440         0.8120      -0.167663 
      355.5720         0.0791        86.6168        27.5676     0.34380001 
        6.1860         6.0186         8.8024         9.8638        20.7811 
       22.0023        19.4685      4019.0000     0.18580000
    3485.08320 
     -689.8000        -0.1533         2.1774         0.8022      -0.168120 
      355.5720        -0.0509        86.7206        25.9127     0.33849999 
        6.1883         6.0186         8.7633         9.7513        22.2604 
       21.9227        19.7132      4182.8569     0.18520001
    3485.23560 
    -1913.7000        -0.0672         2.1107         0.8489      -0.168050 
      355.5720        -0.0974        82.2992        25.5205     0.34060001 
        6.1857         6.0186         9.1786        10.7297        21.1878 
       21.5061        19.5951      4331.3076     0.18840000
    3485.38800 
    -2229.8000         0.0099         2.0696         0.8180      -0.168570 
      355.5720        -0.2360        77.7664        26.9066     0.34220001 
        6.1905         6.0186         9.7416        10.7036        20.4409 
       21.3985        18.5081      4311.6426     0.19050001
    3485.54040 
    -1368.7001        -0.0000         2.3541         0.8730      -0.168673 
      355.5720        -0.2750        83.9649        28.7454     0.34840000 
        6.1838         6.0186        10.1072        10.8623        19.0181 
       21.6915        18.0012      4240.6431     0.18770000
    3485.69280 
    -1412.0000         0.0010         2.2858         0.9101      -0.167388 
      355.5720        -0.5552        80.8941        29.1415     0.35560000 
        6.1860         6.0186         9.6969        10.3950        19.6762 
       21.6768        17.5282      4170.3848     0.19020000
    3485.84520 
    -1403.0000        -0.0041         2.2302         0.8927      -0.166413 
      355.5720        -0.6866        80.8663        29.1415     0.35820001 
        6.1905         6.0186         9.6930        10.6664        19.0201 
       21.6798        17.9103      4077.9290     0.19200000
    3485.99760 
     -895.8000         0.0000         2.2546         0.9000      -0.167192 
      355.5720        -0.4621        80.6439        31.1886     0.35800001 
        6.1928         6.0209         9.9114        10.9066        20.1758 
       21.8525        17.6903      4039.3848     0.19630000
    3486.15000 
     -210.8000         0.0229         2.3440         0.9347      -0.167237 
      355.5720        -0.4958        84.1435        31.8393     0.35370001 
        6.2197         6.0186         9.4663        10.3425        19.0622 
       22.0860        18.0711      3876.9285     0.18880001
    3486.30240 
     -350.0000        -0.0379         2.3392         0.8810      -0.167860 
      355.5720        -0.6943        82.7907        29.7742     0.35330001 
        6.2219         6.0186         9.9024        10.4766        20.1819 
       22.0386        18.1214      3958.3572     0.18269999
    3486.45480 
      -80.9000         0.0444         2.2956         0.8846      -0.167930 
      354.1610        -0.8246        81.0453        31.4008     0.35839999 
        6.2219         6.0186         9.9216        10.5776        20.3365 
       22.1303        18.2525      4245.7144     0.18080001
    3486.60720 
      612.6000         0.0513         2.1539         0.8964      -0.167365 
      355.5720        -0.7179        77.5348        33.7912     0.35760000 
        6.2219         6.0186         9.9818        11.3949        19.4689 
       22.3669        17.8842      4396.0000     0.18650000
    3486.75960 
      106.3000        -0.0361         2.3899         0.8978      -0.167668 
      355.5720        -0.5486        81.0755        32.9850     0.35670000 
        6.2219         6.0186        10.3039        10.6364        19.0846 
       22.1941        17.6046      4408.4287     0.19140001
    3486.91200 
      930.8000         0.0167         2.3172         0.8941      -0.168440 
      355.5720        -0.4013        84.3179        32.9850     0.35690001 
        6.2219         6.0186         9.6288        10.7345        19.5026 
       22.4755        17.7074      4295.3843     0.19110000
