~Version Information Block
VERS .                 2.00:  CWLS LOG ASCII STANDARD - VERSION 2.00
WRAP .                  YES:  Multiple lines per depth step
~Well Information Block
#MNEM.UNIT        Data Type   Information
#---------- ----------------  -----------
STRT .M          3437.38200:  START DEPTH
STOP .M          3636.11160:  STOP DEPTH
STEP .M             0.15240:  STEP
NULL .              -999.25:  NULL VALUE
COMP .                     :  COMPANY
WELL .          NO_15/9-F-5:  WELL
FLD  .                     :  FIELD
LOC  .                     :  LOCATION
CTRY .                     :  COUNTRY
STAT .                     :  STATE
CNTY .                     :  COUNTY
SRVC .                     :  SERVICE COMPANY
DATE .                     :  DATE
API  .                     :  API NUMBER
UWI  .                     :  UNIQUE WELL ID
~Curve Information Block
#MNEM.UNIT         API CODE   Curve Description
#---------- ----------------  -----------------
DEPTH.M                    :  
BSAL .PPM                  :  (RST-D)                 (6in)                   Borehole Salinity Depths
CCLC .V                    :  (PSTP-B)                (1in)                   CCL Computed Amplitude D
CIRF .                     :  (RST-D)                 (6in)                   Capture to Inelastic Rat
CIRN .                     :  (RST-D)                 (6in)                   Capture to Inelastic Rat
CVEL .M/SEC                 :  (WLWorkflow)            (1in)                   Cable Velocity Depthshif
DSIG .CU                   :  (RST-D)                 (6in)                   Sigma Difference Depthsh
DSIG21.                     :  SIGM_1 -RSTD_0912_OW.SAT201SI_SIGR_1
FBEF .UA                   :  (RST-D)                 (6in)                   Far Effective Beam Curre
GR   .GAPI                 :  (PSTP-B)                (6in)                   Gamma Ray Depthshifted
IRAT .                     :  (RST-D)                 (6in)                   Inelastic Ratio Depthshi
RB_PCMS.DEG                  :  (PCMS-A)                (6in)                   Relative Bearing Depthsh
RSCF .                     :  (RST-D)                 (6in)                   Far Detector Effective U
RSCN .                     :  (RST-D)                 (6in)                   Near Detector Effective
SFFA .CU                   :  (RST-D)                 (6in)                   Sigma Formation Far Appa
SIBF .CU                   :  (RST-D)                 (6in)                   Sigma Borehole Fluid Dep
SIGM .CU                   :  (RST-D)                 (6in)                   Formation Sigma (Neutron
TENS .LBF                  :  (WLWorkflow)            (1in)                   Cable Tension Depthshift
TPHI .V/V                  :  (RST-D)                 (6in)                   Thermal Decay Porosity D
WPRE .BAR                  :  (PSTP-B)                (6in)                   Well Pressure Depthshift
WTEP .DEGC                 :  (PSTP-B)                (6in)                   Well Temperature Depthsh
~Parameter Information Block
#MNEM.UNIT            Value   Description
#---------- ----------------  -----------
PROJECT.     SLEIPNER_OST@st-vlinapp01:  
SET  .     RSTD_1115_SIG1_DS:  
~Other Information Block
~Ascii Log Data
# ...
    3576.06600 
    37555.2148         0.0249         2.0733       0.659542     -0.0778104 
        1.1506         0.9951       115.6430        39.8672       0.303790 
      353.9879         6.4944         7.0616        18.9800        35.2848 
       17.1589      4017.0654       0.253737       367.2245        75.2195
    3576.21840 
    37298.5664         0.0344         2.1055       0.689426     -0.0778148 
        1.1988         0.9482       113.4580        43.0091       0.311221 
      353.9560         6.4588         6.8287        18.3255        35.1930 
       16.7265      3963.8101       0.242730       367.2413        75.1780
    3576.37080 
    37546.3867         0.0186         2.1544       0.695156     -0.0775634 
        1.1777         0.8279       110.0967        45.7614       0.314588 
      354.0714         6.7522         6.8944        18.3024        35.2816 
       16.3875      4013.1926       0.234676       367.2428        75.1311
    3576.52320 
    37405.0742         0.0450         2.2247       0.703302     -0.0779637 
        1.1443         0.6441       110.9155        45.7928       0.314388 
      354.1346         6.9347         7.0058        17.9590        35.2311 
       16.1930      3981.4307       0.229134       367.2554        75.1067
    3576.67560 
    37417.3008         0.0134         2.2624       0.713646     -0.0777488 
        1.0513         0.4135       108.7267        44.0043       0.312950 
      354.1016         7.2799         7.1309        17.7297        35.2355 
       15.9960      3991.5742       0.225156       367.2664        75.0917
    3576.82800 
    37506.0625        -0.0475         2.2815       0.709124     -0.0776395 
        1.0594         0.2136       109.6127        41.4518       0.314239 
      354.1058         7.3355         7.1519        17.6933        35.2672 
       15.8085      3994.1416       0.222984       367.2741        75.0717
    3576.98040 
    37161.6289         0.0251         2.2826       0.720229     -0.0775663 
        0.9590         0.1838       109.1887        39.0872       0.317313 
      354.1696         7.3366         7.2821        17.3883        35.1440 
       15.6648      3990.8108       0.221177       367.2866        75.0257
    3577.13280 
    37128.8750         0.0021         2.2836       0.735620     -0.0776345 
        0.7537         0.0932       107.6459        37.2128       0.318653 
      354.2473         7.2109         7.1641        17.2922        35.1323 
       15.4449      3982.0776       0.218455       367.2932        74.9681
    3577.28520 
    37433.5938        -0.0515         2.3749       0.735479     -0.0775685 
        0.7197         0.2017       108.7017        35.9244       0.319511 
      354.2909         7.5307         7.2793        17.0244        35.2413 
       15.3828      3976.4692       0.213329       367.3058        74.9285
    3577.43760 
    37571.5469        -0.0081         2.3803       0.729697     -0.0773150 
        0.6063         0.1063       109.4334        34.8458       0.316921 
      354.3340         7.5308         7.2100        17.1783        35.2906 
       15.3423      3990.5957       0.210124       367.3112        74.8975
    3577.59000 
    37439.7266         0.0031         2.3512       0.715537     -0.0767934 
        0.4414        -0.0194       109.2518        34.0318       0.314810 
      354.3871         7.6114         7.2884        17.1405        35.2435 
       15.4431      4043.9414       0.210861       367.3238        74.8736
    3577.74240 
    37134.2773         0.0067         2.3208       0.714413     -0.0777249 
        0.3953        -0.1020       109.7861        33.8970       0.312954 
      354.3250         7.4638         7.2293        17.3028        35.1342 
       15.7006      4011.5361       0.215305       367.3344        74.8353
    3577.89480 
    37139.3008         0.0110         2.2722       0.713435     -0.0783341 
        0.2876         0.0364       110.3307        33.8743       0.312933 
      354.1472         7.0271         6.9233        17.9317        35.1360 
       15.9023      4001.2207       0.221174       367.3378        74.7963
    3578.04720 
    37317.0742        -0.0117         2.1981       0.698797     -0.0777769 
        0.2698         0.4113       106.8068        33.4528       0.314476 
      354.0388         7.0734         6.9789        17.7478        35.1996 
       16.1551      4023.3093       0.224877       367.3533        74.7505
    3578.19960 
    37772.8945        -0.0098         2.1880       0.702401     -0.0774719 
        0.2985         0.7367       105.5275        33.8258       0.314836 
      354.0366         7.2611         7.1238        18.0522        35.3627 
       16.2796      3953.0674       0.228086       367.3616        74.6896
    3578.35200 
    37502.5742        -0.0523         2.2164       0.703444     -0.0770191 
        0.2866         0.6938       108.7512        35.7664       0.312172 
      354.2412         7.2492         7.1870        18.3043        35.2660 
       16.3284      3983.6260       0.231454       367.3694        74.6520
    3578.50440 
    37317.6445        -0.0674         2.2144       0.699378     -0.0776143 
        0.2140         0.4582       111.8946        34.6075       0.308619 
      354.3638         7.0144         7.1685        17.9048        35.1998 
       16.1470      3973.4587       0.235185       367.3843        74.6302
    3578.65680 
    37325.7773        -0.0193         2.2292       0.705569     -0.0779373 
        0.2595         0.1577       111.8039        33.7944       0.308517 
      354.2112         6.9874         7.1975        17.5079        35.2027 
       15.7854      3979.7864       0.235727       367.3908        74.6145
    3578.80920 
    37197.0391        -0.0173         2.2656       0.714330     -0.0775807 
        0.4604         0.2832       110.0282        34.4473       0.310638 
      353.9855         7.1841         7.2297        17.2244        35.1567 
       15.6561      4026.6628       0.230143       367.3999        74.5953
    3578.96160 
    36846.2578        -0.0120         2.3106       0.713747     -0.0774751 
        0.4385         0.4274       110.7670        33.8654       0.312246 
      353.8929         7.3039         7.1482        17.5188        35.0313 
       15.7006      3976.4412       0.222637       367.4112        74.5521
    3579.11400 
    36741.3008         0.0091         2.2965       0.708953     -0.0773278 
        0.3554         0.5402       110.9664        31.9426       0.313004 
      353.9457         7.3347         7.1927        17.6479        34.9937 
       15.8053      3987.1465       0.218003       367.4167        74.5081
    3579.26640 
    36505.0820        -0.0220         2.2634       0.708091     -0.0778448 
        0.4431         0.3370       108.1701        31.8850       0.314379 
      354.0165         7.4356         7.3213        17.5458        34.9093 
       15.7910      4014.2932       0.215629       367.4275        74.4612
    3579.41880 
    36396.1797        -0.0257         2.2592       0.711077     -0.0779836 
        0.4802        -0.0462       108.9019        31.0274       0.317238 
      353.9376         7.2171         7.1913        17.4780        34.8704 
       15.6130      4022.5334       0.213154       367.4362        74.3937
    3579.57120 
    36969.3945         0.0303         2.2580       0.700226     -0.0785813 
        0.5008        -0.2616       107.9290        28.6745       0.317313 
      353.7758         7.2707         7.0968        17.1174        35.0753 
       15.6060      3995.6890       0.206940       367.4439        74.3482
    3579.72360 
    37005.6797         0.0383         2.3142       0.696258     -0.0786775 
        0.4877        -0.2610       107.1371        27.2303       0.317416 
      353.6211         7.6120         7.1654        17.5152        35.0883 
       15.6933      4009.5615       0.201880       367.4561        74.3065
    3579.87600 
    36999.0352         0.0420         2.2954       0.698369     -0.0785117 
        0.3835        -0.2140       107.6259        26.6221       0.318451 
      353.3091         7.4850         7.0105        17.7410        35.0859 
       15.7644      4034.6492       0.201409       367.4643        74.2601
