~Version Information Block
VERS .                 2.00:  CWLS LOG ASCII STANDARD - VERSION 2.00
WRAP .                  YES:  Multiple lines per depth step
~Well Information Block
#MNEM.UNIT        Data Type   Information
#---------- ----------------  -----------
STRT .M          3438.44880:  START DEPTH
STOP .M          3636.26400:  STOP DEPTH
STEP .M             0.15240:  STEP
NULL .              -999.25:  NULL VALUE
COMP .              Statoil:  COMPANY
WELL .          NO_15/9-F-5:  WELL
FLD  .                Volve:  FIELD
LOC  .                Volve:  LOCATION
CTRY .               Norway:  COUNTRY
STAT .                     :  STATE
CNTY .                     :  COUNTY
SRVC .         Schlumberger:  SERVICE COMPANY
DATE .           11/03/2015:  DATE
API  .                     :  API NUMBER
UWI  .             15/9-F-5:  UNIQUE WELL ID
LATI .     58° 26' 29.66" N:  LATITUDE
LONG .      1° 53' 14.99" E:  LONGITUDE
~Curve Information Block
#MNEM.UNIT         API CODE   Curve Description
#---------- ----------------  -----------------
DEPTH.M                    :  Depth Index
BSAL .PPM                  :  (RST-D)                 (6in)                   Borehole Salinity
CCLC .V                    :  (PSTP-B)                (1in)                   CCL Computed Amplitude
CIRF .                     :  (RST-D)                 (6in)                   Capture to Inelastic Rat
CIRN .                     :  (RST-D)                 (6in)                   Capture to Inelastic Rat
CVEL .M/SEC                 :  (WLWorkflow)            (1in)                   Cable Velocity
DSIG .CU                   :  (RST-D)                 (6in)                   Sigma Difference
FBEF .UA                   :  (RST-D)                 (6in)                   Far Effective Beam Curre
GR   .GAPI                 :  (PSTP-B)                (6in)                   Gamma Ray
IRAT .                     :  (RST-D)                 (6in)                   Inelastic Ratio
RB_PCMS.DEG                  :  (PCMS-A)                (6in)                   Relative Bearing
RSCF .                     :  (RST-D)                 (6in)                   Far Detector Effective U
RSCN .                     :  (RST-D)                 (6in)                   Near Detector Effective
SFFA .CU                   :  (RST-D)                 (6in)                   Sigma Formation Far Appa
SIBF .CU                   :  (RST-D)                 (6in)                   Sigma Borehole Fluid
SIGM .CU                   :  (RST-D)                 (6in)                   Formation Sigma (Neutron
TENS .LBF                  :  (WLWorkflow)            (1in)                   Cable Tension
TPHI .V/V                  :  (RST-D)                 (6in)                   Thermal Decay Porosity
WPRE .BAR                  :  (PSTP-B)                (6in)                   Well Pressure
WTEP .DEGC                 :  (PSTP-B)                (6in)                   Well Temperature
~Parameter Information Block
#MNEM.UNIT            Value   Description
#---------- ----------------  -----------
APD  .M                  54:  Elevation of Depth Reference (LMF) Above Permanent Datum
CLAB .              Country:  :County Label
ECF  .M             -999.25:  Elevation of Casing Flange above Permanent Datum
EDF  .M                  54:  Elevation of Drill Floor Above Permanent Datum
EGL  .M                 -91:  Elevation of Ground Level Above Permanent Datum
EKB  .M             -999.25:  Elevation of Kelly Bushing Above Permanent Datum
EPD  .M                   0:  Elevation of Permanent Datum (PDAT) above Mean Sea Level
FL1  .            North Sea:  Field Location Line 1
FL2  .     Norwegian Sector:  Field Location Line 2
LMF  .                   DF:  Logging Measured From
LUL  .                 NOBO:  Logging Unit Location
LUN  .          ONCC-A 3837:  Logging Unit Number
PDAT .                  MSL:  Local Permanent Datum
RIGN .      Maersk Inspirer:  Rig Name
RIGTYP.               Jackup:  Rig Type
SON  .           C2TQ-00038:  Service Order Number
TAPE_NAME.     RST_SIGMA__03Nov15_171237.las:  
TOOL_STRING.              UNKNOWN:  
WN   .             15/9-F-5:  WELL NAME
PROJECT.     SLEIPNER_OST@st-vlinapp01:  
SET  .       RSTD_1115_SIG1:  
~Other Information Block
~Ascii Log Data
# ...
    3442.56360 
     -999.2500         0.0008      -999.2500    -999.250000   -999.2500000 
     -999.2500      -999.2500        41.5320    -999.250000       355.4880 
     -999.2500      -999.2500      -999.2500      -999.2500      -999.2500 
     -999.2500    -999.250000       358.4827        83.7324
    3442.71600 
     -999.2500         0.0237      -999.2500    -999.250000   -999.2500000 
     -999.2500      -999.2500        40.7598    -999.250000       355.5807 
     -999.2500      -999.2500      -999.2500      -999.2500      -999.2500 
     -999.2500    -999.250000       358.4959        83.7341
    3442.86840 
     -999.2500         0.0346      -999.2500    -999.250000   -999.2500000 
     -999.2500      -999.2500        43.9153    -999.250000       355.8304 
     -999.2500      -999.2500      -999.2500      -999.2500      -999.2500 
     -999.2500    -999.250000       358.5049        83.7367
    3443.02080 
     -999.2500        -0.0973      -999.2500    -999.250000   -999.2500000 
     -999.2500      -999.2500        43.4863    -999.250000       355.9289 
     -999.2500      -999.2500      -999.2500      -999.2500      -999.2500 
     -999.2500    -999.250000       358.5159        83.7366
    3443.17320 
     -999.2500        -0.0113      -999.2500    -999.250000   -999.2500000 
     -999.2500      -999.2500        43.5389    -999.250000       355.9548 
     -999.2500      -999.2500      -999.2500      -999.2500      -999.2500 
     -999.2500    -999.250000       358.5267        83.7431
    3443.32560 
     -999.2500         0.0235      -999.2500    -999.250000   -999.2500000 
     -999.2500      -999.2500        43.7963    -999.250000       355.9624 
     -999.2500      -999.2500      -999.2500      -999.2500      -999.2500 
     -999.2500    -999.250000       358.5380        83.7449
    3443.47800 
     -999.2500        -0.0136      -999.2500    -999.250000   -999.2500000 
     -999.2500      -999.2500        44.2254    -999.250000       355.9196 
     -999.2500      -999.2500      -999.2500      -999.2500      -999.2500 
     -999.2500    -999.250000       358.5494        83.7471
    3443.63040 
     -999.2500        -0.0788      -999.2500    -999.250000   -999.2500000 
     -999.2500      -999.2500        41.1528    -999.250000       355.7622 
     -999.2500      -999.2500      -999.2500      -999.2500      -999.2500 
     -999.2500    -999.250000       358.5601        83.7513
    3443.78280 
     -999.2500         0.0326      -999.2500    -999.250000   -999.2500000 
     -999.2500      -999.2500        40.7238    -999.250000       355.5779 
     -999.2500      -999.2500      -999.2500      -999.2500      -999.2500 
     -999.2500    -999.250000       358.5690        83.7557
    3443.93520 
     -999.2500         0.1303      -999.2500    -999.250000   -999.2500000 
     -999.2500      -999.2500        40.3916    -999.250000       355.4225 
     -999.2500      -999.2500      -999.2500      -999.2500      -999.2500 
     -999.2500    -999.250000       358.5823        83.7590
    3444.08760 
     -999.2500         0.0051      -999.2500    -999.250000   -999.2500000 
     -999.2500      -999.2500        41.0781    -999.250000       355.1966 
     -999.2500      -999.2500      -999.2500      -999.2500      -999.2500 
     -999.2500    -999.250000       358.5905        83.7616
    3444.24000 
     -999.2500        -0.0341      -999.2500    -999.250000   -999.2500000 
     -999.2500      -999.2500        42.1936    -999.250000       355.1063 
     -999.2500      -999.2500      -999.2500      -999.2500      -999.2500 
     -999.2500    -999.250000       358.6032        83.7629
    3444.39240 
    79128.0703        -0.0094         0.9982       0.398140   -999.2500000 
     -999.2500       109.5568        43.9126       0.301770       354.9671 
        3.0821         4.0062        31.9388        50.5288      -999.2500 
     -999.2500       0.385210       358.6137        83.7641
    3444.54480 
    59408.9883        -0.0193         1.0083       0.416560   -999.2500000 
     -999.2500       108.1831        43.4835       0.308150       354.7420 
        3.2133         4.2452        32.5805        43.2060      -999.2500 
     -999.2500       0.361940       358.6219        83.7660
    3444.69720 
    62648.4297         0.1856         1.0891       0.429490   -999.2500000 
     -999.2500       104.3889        41.9888       0.309670       354.5539 
        3.5348         4.2952        30.3987        44.3975      -999.2500 
     -999.2500       0.341460       358.6361        83.7673
    3444.84960 
    54626.4609         0.0653         1.0881       0.436090   -999.2500000 
     -999.2500       113.5563        39.9293       0.313780       354.3886 
        3.3492         4.4814        31.1339        41.4550      -999.2500 
     -999.2500       0.343720       358.6432        83.7704
    3445.00200 
    56782.8203         0.0327         1.1301       0.452270   -999.2500000 
     -999.2500       105.3267        38.0415       0.312660       354.1145 
        3.5878         4.3318        30.7353        42.2433      -999.2500 
     -999.2500       0.347420       358.6551        83.7671
    3445.15440 
    59394.6406        -0.0525         1.0771       0.464300   -999.2500000 
     -999.2500       106.5281        35.7246       0.311750       354.0550 
        3.4371         4.7451        31.0539        43.2007      -999.2500 
     -999.2500       0.367340       358.6680        83.7676
    3445.30680 
    61636.3125         0.0065         1.0067       0.439150   -999.2500000 
        2.1299       111.3208        35.4672       0.305680       354.3099 
        3.1156         4.4482        35.0293        44.0247        33.4427 
     -999.2500       0.379240       358.6741        83.7685
    3445.45920 
    59575.6914         0.0335         0.9010       0.412560   -999.2500000 
        3.1822       106.4538        34.3240       0.303260       354.2323 
        2.9616         4.3148        34.3401        43.2672        33.1789 
     -999.2500       0.383700       358.6918        83.7673
    3445.61160 
    60193.4805        -0.0586         0.9821       0.422230   -999.2500000 
        4.1811       106.2820        34.1524       0.307680       354.1584 
        3.4084         4.7520        31.9785        43.4941        30.6322 
     -999.2500       0.374050       358.6964        83.7698
    3445.76400 
    59624.5312         0.1549         1.0971       0.447090   -999.2500000 
        4.8178       102.6061        31.8355       0.303990       354.2221 
        3.7184         4.7231        29.4412        43.2851        28.0064 
     -999.2500       0.351350       358.7086        83.7685
    3445.91640 
    57842.5781         0.0562         1.2759       0.448020   -999.2500000 
        4.6945       108.0722        29.7761       0.299590       354.1446 
        4.2245         5.0418        28.2188        42.6314        26.4424 
     -999.2500       0.326290       358.7206        83.7711
    3446.06880 
    57456.1094         0.0103         1.2102       0.401500   -999.2500000 
        4.6896       105.8404        28.1457       0.296730       354.2512 
        4.2640         4.7260        28.4543        42.4898        25.6255 
     -999.2500       0.302160       358.7310        83.7729
    3446.22120 
    57180.4219        -0.3042         1.1064       0.417840   -999.2500000 
        4.6091       103.8895        28.6605       0.308390       354.1803 
        3.9144         4.7411        26.8792        42.3889        24.5803 
     -999.2500       0.287020       358.7448        83.7750
    3446.37360 
    56891.3789        -0.0058         1.4442       0.495790   -999.2500000 
        4.4161       100.3824        27.6308       0.320570       353.9650 
        5.0461         5.1251        25.0457        42.2830        23.3587 
     -999.2500       0.267780       358.7485        83.7762
    3446.52600 
    56482.3594         0.0292         1.5231       0.520510   -999.2500000 
        4.2917       100.0404        27.8883       0.325830       353.8341 
        5.3137         5.4539        24.7228        42.1333        22.1962 
     -999.2500       0.267120       358.7662        83.7784
