~Version Information Block
VERS .                 2.00:  CWLS LOG ASCII STANDARD - VERSION 2.00
WRAP .                   NO:  One line per depth step
~Well Information Block
#MNEM.UNIT        Data Type   Information
#---------- ----------------  -----------
STRT .M          3454.45080:  START DEPTH
STOP .M          3788.05440:  STOP DEPTH
STEP .M             0.15240:  STEP
NULL .              -999.25:  NULL VALUE
COMP .              Statoil:  COMPANY
WELL .        NO_15/9-F-1_C:  WELL
FLD  .                Volve:  FIELD
LOC  .            North Sea:  LOCATION
CTRY .               Norway:  COUNTRY
STAT .                     :  STATE
CNTY .                     :  COUNTY
SRVC .         Schlumberger:  SERVICE COMPANY
DATE .          27-Nov-2014:  DATE
API  .                     :  API NUMBER
UWI  .           15/9-F-1 C:  UNIQUE WELL ID
LATI .     58° 26' 29.91" N:  LATITUDE
LONG .      1° 53' 14.71" E:  LONGITUDE
~Curve Information Block
#MNEM.UNIT         API CODE   Curve Description
#---------- ----------------  -----------------
DEPTH.M                    :  DEPTH (BOREHOLE)
CRRA .                     :  Near/Far Count Rate Ratio
CVEL .M/SEC                 :  Cable Velocity
DFRB .DEG                  :  Calibrated Relative Bearing
FBEF .UA                   :  RST Far Effective Beam Current
FCOR .                     :  RST Far Carbon/Oxygen Ratio
FERD .                     :  RST Far IC Mode Capture Optimization
FIRD .                     :  RST Far Inelastic Optimization Resolution
GR   .GAPI                 :  Gamma Ray
NCOR .                     :  RST Near Carbon/Oxygen Ratio
NERD .                     :  RST Near IC Mode Capture Optimization
NIRD .                     :  RST Near Inelastic Optimization Resolution
PFC1 .IN                   :  PFCS CaliperX
PFC2 .IN                   :  PFCS CaliperY
TENS .LBF                  :  Cable Tension
~Parameter Information Block
#MNEM.UNIT            Value   Description
#---------- ----------------  -----------
APD  .M           54.900002:  Elevation of Depth Reference (LMF) above Permanent Datum
EPD  .C3                  0:  Elevation of Permanent Datum above Mean Sea Level
LMF  .                   KB:  Logging Measured From (Name of Logging Elevation Reference)
PDAT .                  MSL:  Permanent Datum
RUN  .                Run 1:  RUN NUMBER
TAPE_NAME.     Statoil_Volve_15-9-F-1 C_PLT-RST_28Nov14_ConCu_R1L17Up_IC1.las:  
TOOL_STRING.              UNKNOWN:  
WN   .           15/9-F-1 C:  WELL
PROJECT.     SLEIPNER_OST@st-vlinapp01:  
SET  .        RSTD_1114_IC1:  
~Other Information Block
# 
~A       DEPTH           CRRA           CVEL           DFRB           FBEF           FCOR           FERD           FIRD             GR           NCOR           NERD           NIRD           PFC1           PFC2           TENS 
# ...
    3476.39640         2.7846      -0.000952       358.3940       108.3424         0.1816         5.1266         5.1266        33.9773         1.1630         6.9541         6.9541         6.2205         6.0455      4041.7209
    3476.54880         2.7905      -0.000952       358.3940       105.7347         0.2205         5.1038         5.1038        35.1255         1.2828         6.9738         6.9738         6.2205         6.0455      4041.7209
    3476.70120         2.6397      -0.000952       358.3940       104.4390         0.1534         4.9303         4.9303        36.8095         0.7627         6.9992         6.9992         6.2205         6.0455      4041.7209
    3476.85360         2.5581      -0.000952       358.3940       104.9092         0.0591         4.9362         4.9362        38.2338         0.8924         6.9960         6.9960         6.2205         6.0455      4041.7209
    3477.00600         2.5516      -0.000952       358.3940       105.0410         0.0253         4.9443         4.9443        39.7241         0.6747         6.9872         6.9872         6.2205         6.0455      4041.7209
    3477.15840         2.5545      -0.000952       358.3940       103.9169         0.0145         5.0255         5.0255        40.9683         0.7545         6.9859         6.9859         6.2205         6.0455      4041.7209
    3477.31080         2.5282      -0.000952       358.3940       105.1005         0.0458         5.2249         5.2249        41.5911         0.6724         6.9862         6.9862         6.2205         6.0455      4041.7209
    3477.46320         2.5493      -0.000952       358.3940       105.1280         0.2430         5.3405         5.3405        42.2980         0.8193         7.0873         7.0873         6.2205         6.0455      4041.7209
    3477.61560         2.5641      -0.000952       358.3940       104.8177         0.2344         5.3390         5.3390        42.4428         0.7619         7.0710         7.0710         6.2205         6.0455      4041.7209
    3477.76800         2.5532      -0.000952       358.3940       105.5725         0.2086         5.3396         5.3396        42.5291         0.7270         7.0592         7.0592         6.2205         6.0455      4041.7209
    3477.92040         2.5659      -0.000952       358.3940       105.8061         0.1869         5.2827         5.2827        43.0501         0.7440         7.0451         7.0451         6.2205         6.0455      4041.7209
    3478.07280         2.5731      -0.000952       358.3940       105.0913         0.2472         5.2739         5.2739        43.7867         0.9377         6.9514         6.9514         6.2205         6.0455      4041.7209
    3478.22520         2.5506      -0.000952       358.3940       105.2451         0.0455         5.2864         5.2864        44.2509         0.6346         7.0125         7.0125         6.2205         6.0455      4041.7209
    3478.37760         2.5686      -0.000952       358.3940       105.4889         0.2064         5.0996         5.0996        44.8855         0.6587         6.9959         6.9959         6.2205         6.0455      4041.7209
    3478.53000         2.5680      -0.000952       358.3940       105.1663         0.1442         5.1590         5.1590        45.6175         0.6742         6.9558         6.9558         6.2205         6.0455      4041.7209
    3478.68240         2.5705      -0.000952       358.3940       105.3919        -0.0057         5.1252         5.1252        46.6012         0.7741         6.9063         6.9063         6.2212         6.0451      4041.7209
    3478.83480         2.5658      -0.000952       358.3940       105.1851         0.1621         5.1256         5.1256        45.5417         0.6740         6.8513         6.8513         6.2209         6.0453      4041.7209
    3478.98720         2.5559      -0.000952       358.3940       105.3340         0.1237         5.1330         5.1330        44.5814         0.7765         6.8475         6.8475         6.2109         6.0429      4041.7209
    3479.13960         2.5681      -0.008927       358.3940       105.8901         0.1203         5.1495         5.1495        44.0241         0.6412         6.8385         6.8385         6.1905         6.0401      4043.3174
    3479.29200         2.6149      -0.008907       358.3940       106.7226         0.3047         5.1711         5.1711        43.2137         0.6520         6.8611         6.8611         6.1905         6.0391      3998.8760
    3479.44440         2.6528      -0.008952       358.3940       106.5534         0.2448         5.2349         5.2349        42.4933         0.8316         6.8440         6.8440         6.1905         6.0413      3911.7410
    3479.59680         2.6471      -0.008912       358.3940       105.9364         0.2113         5.1611         5.1611        42.5742         0.8045         6.8862         6.8862         6.1905         6.0403      4081.3215
    3479.74920         2.6335      -0.008457       358.3940       105.8482         0.1648         5.1933         5.1933        41.5985         0.8676         6.7735         6.7735         6.1929         6.0408      4205.5059
    3479.90160         2.6261      -0.008610       358.3940       105.9941         0.1530         5.0900         5.0900        40.8496         0.6406         6.7487         6.7487         6.1905         6.0422      4118.7065
    3480.05400         2.6211      -0.008873       358.3940       104.8361         0.2838         5.0500         5.0500        39.8343         0.7771         6.7832         6.7832         6.1905         6.0404      4042.0078
    3480.20640         2.5443      -0.008810       358.3940       105.5225         0.1190         4.8326         4.8326        38.0107         0.8158         6.6962         6.6962         6.2054         6.0382      3989.0498
    3480.35880         2.5580      -0.008585       358.3940       106.4003         0.2281         4.7987         4.7987        35.7672         0.7896         6.6824         6.6824         6.2190         6.0364      4199.6982
    3480.51120         2.5774      -0.008555       358.3940       105.9089         0.1150         4.7667         4.7667        34.5610         0.8296         6.7037         6.7037         6.1905         6.0186      4143.9702
    3480.66360         2.5644      -0.008687       358.3940       106.2171         0.2220         4.8309         4.8309        32.7825         0.6662         6.7298         6.7298         6.1905         6.0186      4050.1360
    3480.81600         2.5817      -0.008685       358.3940       107.6321         0.1934         4.9246         4.9246        31.1369         0.6909         6.7030         6.7030         6.1934         6.0185      4157.6465
    3480.96840         2.5953      -0.008468       358.3940       107.7241         0.1327         5.0575         5.0575        30.1097         0.7023         6.7384         6.7384         6.1931         6.0186      4173.2383
    3481.12080         2.5982      -0.008593       358.3940       107.2910         0.2517         4.8542         4.8542        29.3910         0.6514         6.7620         6.7620         6.1970         6.0181      4131.7681
    3481.27320         2.5839      -0.008713       358.3940       107.3809         0.1044         4.9938         4.9938        28.5893         0.7272         6.8144         6.8144         6.1942         6.0185      4027.6501
    3481.42560         2.5762      -0.008372       358.3940       107.7317         0.0600         5.0162         5.0162        27.6493         0.7717         6.7887         6.7887         6.1943         6.0186      4181.1514
    3481.57800         2.5680      -0.008672       358.3940       108.1616         0.1263         5.1004         5.1004        27.2793         0.5870         6.8045         6.8045         6.1905         6.0186      4085.7295
    3481.73040         2.5632      -0.008808       358.3940       108.9385         0.0446         5.1026         5.1026        27.0658         0.6825         6.8101         6.8101         6.1905         6.0186      4027.8535
