~Version Information Block
VERS .                 2.00:  CWLS LOG ASCII STANDARD - VERSION 2.00
WRAP .                   NO:  One line per depth step
~Well Information Block
#MNEM.UNIT        Data Type   Information
#---------- ----------------  -----------
STRT .M          3451.70760:  START DEPTH
STOP .M          3790.03560:  STOP DEPTH
STEP .M             0.15240:  STEP
NULL .              -999.25:  NULL VALUE
COMP .              Statoil:  COMPANY
WELL .        NO_15/9-F-1_C:  WELL
FLD  .                Volve:  FIELD
LOC  .            North Sea:  LOCATION
CTRY .               Norway:  COUNTRY
STAT .                     :  STATE
CNTY .                     :  COUNTY
SRVC .         Schlumberger:  SERVICE COMPANY
DATE .          27-Nov-2014:  DATE
API  .                     :  API NUMBER
UWI  .           15/9-F-1 C:  UNIQUE WELL ID
LATI .     58° 26' 29.91" N:  LATITUDE
LONG .      1° 53' 14.71" E:  LONGITUDE
~Curve Information Block
#MNEM.UNIT         API CODE   Curve Description
#---------- ----------------  -----------------
DEPTH.M                    :  DEPTH (BOREHOLE)
CVEL .M/SEC                 :  Cable Velocity
DFRB .DEG                  :  Calibrated Relative Bearing
FBEF .UA                   :  RST Far Effective Beam Current
FCOR .                     :  RST Far Carbon/Oxygen Ratio
FERD .                     :  RST Far IC Mode Capture Optimization
FIRD .                     :  RST Far Inelastic Optimization Resolution
GR   .GAPI                 :  Gamma Ray
NCOR .                     :  RST Near Carbon/Oxygen Ratio
NERD .                     :  RST Near IC Mode Capture Optimization
NIRD .                     :  RST Near Inelastic Optimization Resolution
PFC1 .IN                   :  PFCS CaliperX
PFC2 .IN                   :  PFCS CaliperY
TENS .LBF                  :  Cable Tension
~Parameter Information Block
#MNEM.UNIT            Value   Description
#---------- ----------------  -----------
APD  .M           54.900002:  Elevation of Depth Reference (LMF) above Permanent Datum
EPD  .C3                  0:  Elevation of Permanent Datum above Mean Sea Level
LMF  .                   KB:  Logging Measured From (Name of Logging Elevation Reference)
PDAT .                  MSL:  Permanent Datum
RUN  .                Run 1:  RUN NUMBER
TAPE_NAME.     Statoil_Volve_15-9-F-1 C_PLT-RST_28Nov14_ConCu_R1L18Up_IC2.las:  
TOOL_STRING.              UNKNOWN:  
WN   .           15/9-F-1 C:  WELL
PROJECT.     SLEIPNER_OST@st-vlinapp01:  
SET  .        RSTD_1114_IC2:  
~Other Information Block
# 
~A       DEPTH           CVEL           DFRB           FBEF           FCOR           FERD           FIRD             GR           NCOR           NERD           NIRD           PFC1           PFC2           TENS 
    3451.70760     -0.0086700       358.3940       111.6846         0.2434         5.4430         5.4430        26.4778         0.7147         6.8842         6.8842         6.2454         6.0458      4107.8516
    3451.86000     -0.0086700       358.3940       111.6846         0.2434         5.4430         5.4430        26.4778         0.7147         6.8842         6.8842         6.2454         6.0458      4107.8516
    3452.01240     -0.0086700       358.3940       111.6846         0.2434         5.4430         5.4430        26.4778         0.7147         6.8842         6.8842         6.2454         6.0458      4107.8516
    3452.16480     -0.0086700       358.3940       111.6846         0.2434         5.4430         5.4430        26.4778         0.7147         6.8842         6.8842         6.2454         6.0458      4107.8516
    3452.31720     -0.0086700       358.3940       111.6846         0.2434         5.4430         5.4430        26.4778         0.7147         6.8842         6.8842         6.2454         6.0458      4107.8516
    3452.46960     -0.0086700       358.3940       111.6846         0.2434         5.4430         5.4430        26.4778         0.7147         6.8842         6.8842         6.2454         6.0458      4107.8516
    3452.62200     -0.0086700       358.3940       111.6846         0.2434         5.4430         5.4430        26.4778         0.7147         6.8842         6.8842         6.2454         6.0458      4107.8516
    3452.77440     -0.0086700       358.3940       111.6846         0.2434         5.4430         5.4430        26.4778         0.7147         6.8842         6.8842         6.2454         6.0458      4107.8516
    3452.92680     -0.0086700       358.3940       111.6846         0.2434         5.4430         5.4430        26.4778         0.7147         6.8842         6.8842         6.2454         6.0458      4107.8516
    3453.07920     -0.0086700       358.3940       111.6846         0.2434         5.4430         5.4430        26.4778         0.7147         6.8842         6.8842         6.2454         6.0458      4107.8516
    3453.23160     -0.0086700       358.3940       111.6846         0.2434         5.4430         5.4430        26.4778         0.7147         6.8842         6.8842         6.2454         6.0458      4107.8516
    3453.38400     -0.0086700       358.3940       111.6846         0.2434         5.4430         5.4430        26.4778         0.7147         6.8842         6.8842         6.2454         6.0458      4107.8516
    3453.53640     -0.0086700       358.3940       111.6846         0.2434         5.4430         5.4430        26.4778         0.7147         6.8842         6.8842         6.2454         6.0458      4107.8516
    3453.68880     -0.0086700       358.3940       111.6846         0.2434         5.4430         5.4430        26.4778         0.7147         6.8842         6.8842         6.2454         6.0458      4107.8516
    3453.84120     -0.0086700       358.3940       111.6846         0.2434         5.4430         5.4430        26.4778         0.7147         6.8842         6.8842         6.2454         6.0458      4107.8516
    3453.99360     -0.0086700       358.3940       111.6846         0.2434         5.4430         5.4430        26.4778         0.7147         6.8842         6.8842         6.2454         6.0458      4107.8516
    3454.14600     -0.0086700       358.3940       111.6846         0.2434         5.4430         5.4430        26.4778         0.7147         6.8842         6.8842         6.2454         6.0458      4107.8516
    3454.29840     -0.0086700       358.3940       111.6846         0.2434         5.4430         5.4430        26.4778         0.7147         6.8842         6.8842         6.2454         6.0458      4107.8516
    3454.45080     -0.0086700       358.3940       111.6846         0.2434         5.4430         5.4430        26.4778         0.7147         6.8842         6.8842         6.2454         6.0458      4107.8516
    3454.60320     -0.0086700       358.3940       111.6846         0.2434         5.4430         5.4430        26.4778         0.7147         6.8842         6.8842         6.2454         6.0458      4107.8516
    3454.75560     -0.0086700       358.3940       111.6846         0.2434         5.4430         5.4430        26.4778         0.7147         6.8842         6.8842         6.2454         6.0458      4107.8516
    3454.90800     -0.0086700       358.3940       111.6846         0.2434         5.4430         5.4430        26.4778         0.7147         6.8842         6.8842         6.2454         6.0458      4107.8516
    3455.06040     -0.0086700       358.3940       111.6846         0.2434         5.4430         5.4430        26.4778         0.7147         6.8842         6.8842         6.2454         6.0458      4107.8516
    3455.21280     -0.0086700       358.3940       111.6846         0.2434         5.4430         5.4430        26.4778         0.7147         6.8842         6.8842         6.2454         6.0458      4107.8516
    3455.36520     -0.0086700       358.3940       111.6846         0.2434         5.4430         5.4430        26.4778         0.7147         6.8842         6.8842         6.2454         6.0458      4107.8516
    3455.51760     -0.0086700       358.3940       111.6846         0.2434         5.4430         5.4430        26.4778         0.7147         6.8842         6.8842         6.2454         6.0458      4107.8516
    3455.67000     -0.0086700       358.3940       111.6846         0.2434         5.4430         5.4430        26.4778         0.7147         6.8842         6.8842         6.2454         6.0458      4107.8516
    3455.82240     -0.0086700       358.3940       111.6846         0.2434         5.4430         5.4430        26.4778         0.7147         6.8842         6.8842         6.2454         6.0458      4107.8516
    3455.97480     -0.0086700       358.3940       111.6846         0.2434         5.4430         5.4430        26.4778         0.7147         6.8842         6.8842         6.2454         6.0458      4107.8516
    3456.12720     -0.0086700       358.3940       111.6846         0.2434         5.4430         5.4430        26.4778         0.7147         6.8842         6.8842         6.2454         6.0458      4107.8516
    3456.27960     -0.0086700       358.3940       111.6846         0.2434         5.4430         5.4430        26.4778         0.7147         6.8842         6.8842         6.2454         6.0458      4107.8516
    3456.43200     -0.0086700       358.3940       111.6846         0.2434         5.4430         5.4430        26.4778         0.7147         6.8842         6.8842         6.2454         6.0458      4107.8516
    3456.58440     -0.0086700       358.3940       111.6846         0.2434         5.4430         5.4430        26.4778         0.7147         6.8842         6.8842         6.2454         6.0458      4107.8516
    3456.73680     -0.0086700       358.3940       111.6846         0.2434         5.4430         5.4430        26.4778         0.7147         6.8842         6.8842         6.2454         6.0458      4107.8516
    3456.88920     -0.0086700       358.3940       111.6846         0.2434         5.4430         5.4430        26.4778         0.7147         6.8842         6.8842         6.2454         6.0458      4107.8516
    3457.04160     -0.0086700       358.3940       111.6846         0.2434         5.4430         5.4430        26.4778         0.7147         6.8842         6.8842         6.2454         6.0458      4107.8516
    3457.19400     -0.0086700       358.3940       111.6846         0.2434         5.4430         5.4430        26.4778         0.7147         6.8842         6.8842         6.2454         6.0458      4107.8516
    3457.34640     -0.0086700       358.3940       111.6846         0.2434         5.4430         5.4430        26.4778         0.7147         6.8842         6.8842         6.2454         6.0458      4107.8516
    3457.49880     -0.0086700       358.3940       111.6846         0.2434         5.4430         5.4430        26.4778         0.7147         6.8842         6.8842         6.2454         6.0458      4107.8516
