~Version Information Block
VERS .                 2.00:  CWLS LOG ASCII STANDARD - VERSION 2.00
WRAP .                  YES:  Multiple lines per depth step
~Well Information Block
#MNEM.UNIT        Data Type   Information
#---------- ----------------  -----------
STRT .M          3437.38200:  START DEPTH
STOP .M          3636.11160:  STOP DEPTH
STEP .M             0.15240:  STEP
NULL .              -999.25:  NULL VALUE
COMP .                     :  COMPANY
WELL .          NO_15/9-F-5:  WELL
FLD  .                     :  FIELD
LOC  .                     :  LOCATION
CTRY .                     :  COUNTRY
STAT .                     :  STATE
CNTY .                     :  COUNTY
SRVC .                     :  SERVICE COMPANY
DATE .                     :  DATE
API  .                     :  API NUMBER
UWI  .                     :  UNIQUE WELL ID
~Curve Information Block
#MNEM.UNIT         API CODE   Curve Description
#---------- ----------------  -----------------
DEPTH.M                    :  
BSAL .PPM                  :  (RST-D)                 (6in)                   Borehole Salinity Depths
CCLC .V                    :  (PSTP-B)                (1in)                   CCL Computed Amplitude D
CIRF .                     :  (RST-D)                 (6in)                   Capture to Inelastic Rat
CIRN .                     :  (RST-D)                 (6in)                   Capture to Inelastic Rat
CVEL .M/SEC                 :  (WLWorkflow)            (1in)                   Cable Velocity Depthshif
DSIG .CU                   :  (RST-D)                 (6in)                   Sigma Difference Depthsh
DSIG21.                     :  SIGM_1 -RSTD_0912_OW.SAT201SI_SIGR_1
FBEF .UA                   :  (RST-D)                 (6in)                   Far Effective Beam Curre
GR   .GAPI                 :  (PSTP-B)                (6in)                   Gamma Ray Depthshifted
IRAT .                     :  (RST-D)                 (6in)                   Inelastic Ratio Depthshi
RB_PCMS.DEG                  :  (PCMS-A)                (6in)                   Relative Bearing Depthsh
RSCF .                     :  (RST-D)                 (6in)                   Far Detector Effective U
RSCN .                     :  (RST-D)                 (6in)                   Near Detector Effective
SFFA .CU                   :  (RST-D)                 (6in)                   Sigma Formation Far Appa
SIBF .CU                   :  (RST-D)                 (6in)                   Sigma Borehole Fluid Dep
SIGM .CU                   :  (RST-D)                 (6in)                   Formation Sigma (Neutron
TENS .LBF                  :  (WLWorkflow)            (1in)                   Cable Tension Depthshift
TPHI .V/V                  :  (RST-D)                 (6in)                   Thermal Decay Porosity D
WPRE .BAR                  :  (PSTP-B)                (6in)                   Well Pressure Depthshift
WTEP .DEGC                 :  (PSTP-B)                (6in)                   Well Temperature Depthsh
~Parameter Information Block
#MNEM.UNIT            Value   Description
#---------- ----------------  -----------
PROJECT.     SLEIPNER_OST@st-vlinapp01:  
SET  .     RSTD_1115_SIG1_DS:  
~Other Information Block
~Ascii Log Data
# ...
    3504.74280 
    30434.2070        -0.0043         2.6303       0.814303     -0.0787416 
       -0.2299         0.3061       107.2417        17.8375       0.322303 
      353.5106         8.6883         8.3482        14.9847        32.7479 
       13.2654      3893.7212       0.204652       362.7516        82.4258
    3504.89520 
    30050.0469         0.0339         2.6646       0.819073     -0.0782817 
       -0.3382         0.5965       107.8927        18.7444       0.319706 
      353.5066         8.6259         8.1990        15.5427        32.6117 
       13.5189      3900.9736       0.201048       362.7614        82.4224
    3505.04760 
    30140.3066        -0.0057         2.7267       0.830086     -0.0787444 
       -0.5447         0.5626       108.4593        19.2031       0.318178 
      353.5527         8.6828         8.2358        15.5094        32.6437 
       13.5631      3897.7935       0.200800       362.7721        82.4202
    3505.20000 
    30254.0410        -0.0302         2.6444       0.816860     -0.0790982 
       -0.7215         0.4935       106.6204        19.6810       0.318014 
      353.7183         8.6768         8.3195        15.1175        32.6841 
       13.4655      3931.5742       0.202931       362.7817        82.4202
    3505.35240 
    30133.1699        -0.0251         2.6272       0.813109     -0.0785475 
       -0.7884         0.5259       107.0191        20.2122       0.319516 
      353.8257         8.7671         8.4802        15.2392        32.6412 
       13.4501      4020.1030       0.203563       362.7931        82.4058
    3505.50480 
    30276.0293        -0.0079         2.6208       0.813793     -0.0780882 
       -0.8453         0.7790       108.7854        20.1559       0.320699 
      353.7747         8.6163         8.3762        15.4613        32.6918 
       13.4963      4028.5295       0.202871       362.8024        82.3881
    3505.65720 
    30915.3320         0.0185         2.6085       0.807438     -0.0776859 
       -0.8218         0.6907       108.4199        18.9921       0.323057 
      353.8048         8.4963         8.1689        15.2572        32.9187 
       13.4536      4010.0449       0.201047       362.8117        82.3801
    3505.80960 
    31008.8750         0.0195         2.5726       0.801219     -0.0787968 
       -0.7695         0.5186       106.4749        17.7305       0.325054 
      353.8059         8.3477         7.9729        15.1064        32.9519 
       13.3382      4035.4636       0.198618       362.8217        82.3709
    3505.96200 
    31048.1602        -0.0175         2.5612       0.793057     -0.0791760 
       -0.7809         0.3000       103.5481        16.8399       0.325150 
      353.7671         8.6603         8.0387        15.1124        32.9658 
       13.3685      4037.8232       0.195804       362.8322        82.3537
    3506.11440 
    31236.5371        -0.0418         2.5824       0.783700     -0.0790358 
       -0.7556         0.3531       106.3909        16.6226       0.323308 
      353.7675         8.5686         7.8719        15.3477        33.0327 
       13.4944      4019.5754       0.194860       362.8423        82.3327
    3506.26680 
    31157.4258         0.0177         2.5976       0.796433     -0.0791080 
       -0.7527         0.3493       108.6320        16.6356       0.320448 
      353.6888         8.4496         7.9802        15.4840        33.0046 
       13.4952      4004.4414       0.198898       362.8522        82.3182
    3506.41920 
    31463.5938         0.0456         2.6356       0.808468     -0.0788555 
       -0.7721         0.3952       109.3609        16.2233       0.319893 
      353.6249         8.5446         8.2123        15.1144        33.1133 
       13.4485      3933.8057       0.204842       362.8621        82.3141
    3506.57160 
    32351.0215         0.0172         2.6061       0.813095     -0.0787421 
       -0.7477         0.3537       108.0378        17.0261       0.319886 
      353.7407         8.4812         8.2746        15.1925        33.4287 
       13.3891      3913.7192       0.210450       362.8724        82.3037
    3506.72400 
    32971.7852         0.0037         2.6019       0.811460     -0.0783196 
       -0.6574         0.1828       106.4677        17.5348       0.319968 
      353.9684         8.6484         8.3961        15.2966        33.6494 
       13.4193      3905.1731       0.213624       362.8825        82.2901
    3506.87640 
    33486.0430         0.0326         2.5586       0.792936     -0.0783991 
       -0.5868         0.0716       106.4825        17.1255       0.319683 
      354.0167         8.5398         8.1617        15.1981        33.8325 
       13.4542      3880.9211       0.216456       362.8920        82.2805
    3507.02880 
    34043.9297         0.0191         2.4999       0.783497     -0.0791583 
       -0.5047         0.1286       105.7683        16.7664       0.320435 
      354.0079         8.2771         7.7823        15.2825        34.0312 
       13.5990      3924.4900       0.219034       362.9023        82.2687
    3507.18120 
    34431.0547        -0.0031         2.5080       0.798969     -0.0790936 
       -0.3510         0.4485       107.3666        17.7268       0.320685 
      354.0866         8.0692         7.7190        15.7202        34.1691 
       13.8174      3993.5107       0.220618       362.9119        82.2467
    3507.33360 
    34690.4766        -0.0155         2.5104       0.792170     -0.0783325 
       -0.3077         0.4568       108.1749        18.6647       0.318743 
      354.1048         7.9992         7.7799        15.8480        34.2616 
       13.9115      4040.3933       0.222610       362.9214        82.2281
    3507.48600 
    34883.8672        -0.0213         2.5244       0.778558     -0.0782554 
       -0.2046         0.4821       108.7593        18.7242       0.318080 
      354.0334         8.1425         7.9326        15.5550        34.3306 
       13.9246      4050.4375       0.225687       362.9306        82.2225
    3507.63840 
    35067.1562        -0.0152         2.4586       0.787032     -0.0787584 
       -0.0729         0.5085       107.5425        18.9226       0.317705 
      353.8514         8.0874         8.0326        15.7414        34.3959 
       13.9937      4014.4800       0.229950       362.9405        82.2139
    3507.79080 
    35282.6680         0.0090         2.4414       0.786983     -0.0788628 
       -0.0556         0.8333       108.9347        19.3021       0.318715 
      353.7492         7.9617         7.9810        16.0479        34.4728 
       14.2546      4010.2175       0.233187       362.9507        82.1943
    3507.94320 
    35120.5586         0.0144         2.4365       0.778966     -0.0786176 
       -0.0129         1.0507       110.9718        19.0178       0.319147 
      353.6327         7.6835         7.6993        16.3295        34.4150 
       14.5871      4008.5835       0.233623       362.9597        82.1760
    3508.09560 
    35038.7109         0.0261         2.3844       0.783933     -0.0784896 
        0.0272         1.1571       107.8344        18.1583       0.318227 
      353.4175         7.5901         7.6769        16.7286        34.3858 
       14.8244      3966.5017       0.232716       362.9705        82.1680
    3508.24800 
    35501.3828         0.0453         2.4197       0.771227     -0.0782912 
       -0.0142         1.2135       107.9305        17.9860       0.316978 
      353.3843         7.7928         7.7868        16.7568        34.5509 
       14.9770      3951.8044       0.231602       362.9807        82.1607
    3508.40040 
    36014.9258         0.0261         2.3934       0.751896     -0.0784303 
       -0.1199         1.1031       110.0307        17.9231       0.314260 
      353.4405         7.6641         7.6493        16.7782        34.7342 
       14.9610      3928.7000       0.232736       362.9901        82.1463
    3508.55280 
    36762.6758         0.0121         2.3734       0.759355     -0.0784858 
       -0.1833         1.1911       111.1671        18.0826       0.313022 
      353.4482         7.4767         7.5268        16.6752        35.0014 
       15.0831      3920.2646       0.234954       362.9996        82.1307
