~Version Information Block
VERS .                 2.00:  CWLS LOG ASCII STANDARD - VERSION 2.00
WRAP .                   NO:  One line per depth step
~Well Information Block
#MNEM.UNIT        Data Type   Information
#---------- ----------------  -----------
STRT .M          3201.31440:  START DEPTH
STOP .M          3410.40720:  STOP DEPTH
STEP .M             0.15240:  STEP
NULL .              -999.25:  NULL VALUE
COMP .              Statoil:  COMPANY
WELL .          NO_15/9-F-4:  WELL
FLD  .                VOLVE:  FIELD
LOC  .            North Sea:  LOCATION
CTRY .                     :  COUNTRY
STAT .                     :  STATE
CNTY .                     :  COUNTY
SRVC .         Schlumberger:  SERVICE COMPANY
DATE .          13-Sep-2012:  DATE
API  .                     :  API NUMBER
UWI  .             15/9-F-4:  UNIQUE WELL ID
~Curve Information Block
#MNEM.UNIT         API CODE   Curve Description
#---------- ----------------  -----------------
DEPTH.M                    :  DEPTH (BOREHOLE)
CCLC .V                    :  CCL
CCLD .V                    :  CCL Discriminated Amplitude
CRRA .                     :  Near-Far Count Rate Ratio
CVEL .M/MIN                 :  Cable Velocity
DEVI .DEG                  :  Hole Deviation
FBEF .UA                   :  RST Far Effective Beam Current
FCOR .                     :  RST Far Carbon/Oxygen Ratio
FERD .                     :  RST Far IC Mode Capture Optimization Resolution Degradation Factor
FIRD .                     :  RST Far Inelastic Optimization Resolution Degradation Factor
GR   .GAPI                 :  Gamma Ray
NCOR .                     :  RST Near Carbon/Oxygen Ratio
NERD .                     :  RST Near IC Mode Capture Optimization Resolution Degradation Factor
NIRD .                     :  RST Near Inelastic Optimization Resolution Degradation Factor
RB_PCMS.DEG                  :  Relative Bearing
TENS .LBF                  :  Cable Tension
WPRE .PSI                  :  Well Pressure
WTEP .DEGC                 :  Well Temperature
WTPE .MS                   :  Well Temperature Period
~Parameter Information Block
#MNEM.UNIT            Value   Description
#---------- ----------------  -----------
APD  .M                  54:  Elevation of Depth Reference (LMF) above Permanent Datum
RUN  .                    1:  RUN NUMBER
PROJECT.     SLEIPNER_OST@st-vlinapp01:  
SET  .        RSTD_0912_IC2:  
~Other Information Block
# 
~A       DEPTH           CCLC           CCLD           CRRA           CVEL           DEVI           FBEF           FCOR           FERD           FIRD             GR           NCOR           NERD           NIRD        RB_PCMS           TENS           WPRE           WTEP           WTPE 
# ...
    3227.83200        0.07910        0.00000         2.9154       -0.36670        49.6548       112.0938        -0.0261         5.3791         5.3791        39.4329    -0.02460000         2.6829         2.6829       356.9539      2307.0940      4884.5879        94.6059         4.0117
    3227.98440       -0.00600        0.00000         2.9132       -0.36650        49.6825       112.0650         0.1563         5.3193         5.3193        39.4624     0.01130000         2.6407         2.6407       356.9801      2302.2666      4884.7324        94.6169         4.0118
    3228.13680       -0.00250        0.00000         2.8952       -0.36990        49.7169       112.6967        -0.1626         5.3789         5.3789        39.5603     0.03740000         2.6464         2.6464       357.0361      2318.8813      4884.8818        94.6202         4.0118
    3228.28920        0.08840        0.00000         2.9160       -0.36900        49.7328       112.2875        -0.0189         5.5928         5.5928        39.6367     0.05630000         2.6155         2.6155       357.1729      2301.8352      4885.0098        94.6214         4.0118
    3228.44160       -0.00250        0.00000         2.9106       -0.36490        49.7550       112.5679         0.1502         5.3411         5.3411        39.6390    -0.01070000         2.6034         2.6034       357.2588      2313.8833      4885.1650        94.6195         4.0118
    3228.59400       -0.00030        0.00000         2.9307       -0.37290        49.7619       112.7636         0.0435         5.5700         5.5700        40.3744     0.07420000         2.6196         2.6196       357.2796      2313.2009      4885.2725        94.6291         4.0119
    3228.74640        0.00130        0.00000         2.9336       -0.36590        49.7174       113.3865         0.0783         5.5806         5.5806        41.8106     0.02070000         2.6193         2.6193       356.6562      2303.2192      4885.4604        94.6304         4.0119
    3228.89880        0.00320        0.00000         2.9238       -0.37010        49.7153       113.6767         0.0553         5.6645         5.6645        42.7143     0.01290000         2.5586         2.5586       356.3997      2303.9001      4885.5825        94.6322         4.0119
    3229.05120        0.00520        0.00000         2.9180       -0.36840        49.7251       114.9090         0.0946         5.7846         5.7846        44.1955     0.08690000         2.5156         2.5156       356.2999      2305.0967      4885.7344        94.6342         4.0119
    3229.20360        0.00530        0.00000         2.9379       -0.37450        49.7497       115.6647        -0.0860         5.8643         5.8643        46.2340    -0.04930000         2.5065         2.5065       356.2077      2303.2424      4885.8467        94.6402         4.0120
    3229.35600        0.00220        0.00000         3.0012       -0.37420        49.7946       118.8633        -0.0852         5.8674         5.8674        52.8053     0.03530000         2.5006         2.5006       356.2514      2304.7815      4885.9927        94.6448         4.0120
    3229.50840        0.00340        0.00000         3.1447       -0.37260        49.8314       120.8894        -0.0259         5.8502         5.8502        72.9767     0.08860000         2.5163         2.5163       356.3476      2302.7991      4886.1367        94.6437         4.0120
    3229.66080        0.02020        0.00000         3.2368       -0.36360        49.8766       121.5842         0.0692         5.8736         5.8736        93.6924     0.08120000         2.5331         2.5331       356.5023      2306.8674      4886.2944        94.6517         4.0121
    3229.81320        0.02100        0.00000         3.1950       -0.37290        49.8856       118.8524         0.1086         5.9587         5.9587        98.6919     0.12490000         2.5050         2.5050       356.5113      2303.1863      4886.4238        94.6554         4.0121
    3229.96560        0.09920        0.00000         3.0607       -0.38410        49.8914       115.9112         0.0666         5.8634         5.8634        98.8209     0.04540000         2.5160         2.5160       356.5604      2295.3530      4886.5581        94.6590         4.0121
    3230.11800        0.02820        0.00000         2.9666       -0.37910        49.9028       116.3490         0.1293         5.6386         5.6386        92.7692     0.00790000         2.5004         2.5004       356.7087      2292.7073      4886.7144        94.6608         4.0121
    3230.27040        0.03080        0.00000         3.0255       -0.38110        49.9223       119.1840         0.0565         5.6801         5.6801        71.4651    -0.01990000         2.5489         2.5489       356.9071      2297.3584      4886.8472        94.6611         4.0121
    3230.42280        0.03540        0.00000         3.1528       -0.37810        49.9275       118.6669         0.1053         5.7721         5.7721        49.9641    -0.01570000         2.5819         2.5819       356.9738      2304.5813      4886.9995        94.6640         4.0122
    3230.57520        0.03800        0.00000         3.1763       -0.38050        49.9346       116.8889        -0.0638         5.8300         5.8300        44.1791    -0.00660000         2.5760         2.5760       357.0091      2301.5266      4887.1465        94.6660         4.0122
    3230.72760        0.04610        0.00000         3.1025       -0.37990        49.9161       113.5803         0.1204         5.7781         5.7781        42.2748     0.06590000         2.5314         2.5314       357.0698      2303.1692      4887.2842        94.6685         4.0122
    3230.88000        0.02680        0.00000         2.9604       -0.38370        49.9203       111.8214         0.0127         5.8944         5.8944        40.1230     0.02670000         2.4826         2.4826       356.9217      2301.8074      4887.4185        94.6744         4.0123
    3231.03240        0.14060        0.00000         2.8884       -0.38060        49.9259       112.6490         0.0952         6.0092         6.0092        39.6838     0.02710000         2.5159         2.5159       356.7730      2303.0249      4887.5034        94.6806         4.0123
    3231.18480        0.10790        0.00000         2.9035       -0.38440        49.9501       113.8506         0.1261         5.9120         5.9120        38.4684     0.05500000         2.4755         2.4755       356.7528      2300.0811      4887.6504        94.6823         4.0123
    3231.33720        0.05470        0.05470         2.9534       -0.38580        49.9741       115.2957         0.1026         5.7924         5.7924        36.5577    -0.02120000         2.5247         2.5247       356.7674      2303.3398      4887.7734        94.6846         4.0124
    3231.48960        0.12490        0.12490         3.0553       -0.38850        50.0190       117.3973         0.0554         6.0088         6.0088        35.3970    -0.04170000         2.4939         2.4939       356.3509      2311.3552      4887.9565        94.6898         4.0124
    3231.64200        0.10850        0.10850         3.1553       -0.38410        50.0140       118.4360         0.1104         5.9419         5.9419        35.0036     0.04320000         2.5590         2.5590       356.0875      2301.9302      4888.1455        94.6905         4.0124
    3231.79440       -0.00880        0.00000         3.1382       -0.39040        49.9920       115.4730         0.0979         6.1006         6.1006        34.8286     0.02630000         2.5594         2.5594       356.0336      2307.0427      4888.2515        94.6957         4.0125
    3231.94680       -0.00620        0.00000         2.9842       -0.38400        49.9598       111.7661        -0.0522         6.2083         6.2083        34.9964     0.02270000         2.5758         2.5758       355.9516      2301.2598      4888.3872        94.6966         4.0125
    3232.09920       -0.03110        0.00000         2.8913       -0.39230        49.9697       113.2951         0.0531         6.2220         6.2220        35.8672     0.01630000         2.5599         2.5599       355.8812      2297.5830      4888.5327        94.6996         4.0125
