~Version Information Block
VERS .                 2.00:  CWLS LOG ASCII STANDARD - VERSION 2.00
WRAP .                   NO:  One line per depth step
~Well Information Block
#MNEM.UNIT        Data Type   Information
#---------- ----------------  -----------
STRT .M          3460.08960:  START DEPTH
STOP .M          3530.04120:  STOP DEPTH
STEP .M             0.15240:  STEP
NULL .              -999.25:  NULL VALUE
COMP .              Statoil:  COMPANY
WELL .          NO_15/9-F-5:  WELL
FLD  .                Volve:  FIELD
LOC  .                Volve:  LOCATION
CTRY .               Norway:  COUNTRY
STAT .                     :  STATE
CNTY .                     :  COUNTY
SRVC .         Schlumberger:  SERVICE COMPANY
DATE .           11/04/2015:  DATE
API  .                     :  API NUMBER
UWI  .             15/9-F-5:  UNIQUE WELL ID
LATI .     58° 26' 29.66" N:  LATITUDE
LONG .      1° 53' 14.99" E:  LONGITUDE
~Curve Information Block
#MNEM.UNIT         API CODE   Curve Description
#---------- ----------------  -----------------
DEPTH.M                    :  Depth Index
CCLC .V                    :  (PSTP-B)                (1in)                   CCL Computed Amplitude
CVEL .M/SEC                 :  (WLWorkflow)            (1in)                   Cable Velocity
FBEF .UA                   :  (RST-D)                 (6in)                   Far Effective Beam Curre
FCOR .                     :  (RST-D)                 (6in)                   Far Carbon/Oxygen Ratio
FERD .                     :  (RST-D)                 (6in)                   Far IC Mode Capture Opti
FIRD .                     :  (RST-D)                 (6in)                   Far Inelastic Optimizati
GR   .GAPI                 :  (PSTP-B)                (6in)                   Gamma Ray
NCOR .                     :  (RST-D)                 (6in)                   Near Carbon/Oxygen Ratio
NERD .                     :  (RST-D)                 (6in)                   Near IC Mode Capture Opt
NIRD .                     :  (RST-D)                 (6in)                   Near Inelastic Optimizat
RB_PCMS.DEG                  :  (PCMS-A)                (6in)                   Relative Bearing
TENS .LBF                  :  (WLWorkflow)            (1in)                   Cable Tension
WPRE .BAR                  :  (PSTP-B)                (6in)                   Well Pressure
WTEP .DEGC                 :  (PSTP-B)                (6in)                   Well Temperature
~Parameter Information Block
#MNEM.UNIT            Value   Description
#---------- ----------------  -----------
APD  .M                  54:  Elevation of Depth Reference (LMF) Above Permanent Datum
CLAB .              Country:  :County Label
ECF  .M             -999.25:  Elevation of Casing Flange above Permanent Datum
EDF  .M                  54:  Elevation of Drill Floor Above Permanent Datum
EGL  .M                 -91:  Elevation of Ground Level Above Permanent Datum
EKB  .M             -999.25:  Elevation of Kelly Bushing Above Permanent Datum
EPD  .M                   0:  Elevation of Permanent Datum (PDAT) above Mean Sea Level
FL1  .            North Sea:  Field Location Line 1
FL2  .     Norwegian Sector:  Field Location Line 2
LMF  .                   DF:  Logging Measured From
LUL  .                 NOBO:  Logging Unit Location
LUN  .          ONCC-A 3837:  Logging Unit Number
PDAT .                  MSL:  Local Permanent Datum
RIGN .      Maersk Inspirer:  Rig Name
RIGTYP.               Jackup:  Rig Type
SON  .           C2TQ-00038:  Service Order Number
TAPE_NAME.     RST_IC_Pass_4___04Nov15_021221.las:  
TOOL_STRING.              UNKNOWN:  
WN   .             15/9-F-5:  WELL NAME
PROJECT.     SLEIPNER_OST@st-vlinapp01:  
SET  .        RSTD_1115_IC4:  
~Other Information Block
# 
~A       DEPTH           CCLC           CVEL           FBEF           FCOR           FERD           FIRD             GR           NCOR           NERD           NIRD        RB_PCMS           TENS           WPRE           WTEP 
# ...
    3520.44000      -0.018500    -0.00851217       129.5472      -0.042860         5.7404         5.7404      -999.2500       0.097460         4.3224         4.3224       350.5621      3951.8513       361.3624        82.3414
    3520.59240      -0.020760    -0.00787950       128.2126       0.134850         5.7231         5.7231      -999.2500      -0.021850         4.2933         4.2933       350.5616      4002.0398       361.3638        82.3641
    3520.74480      -0.023290    -0.00971533       128.0535      -0.034070         5.6405         5.6405      -999.2500       0.077260         4.2700         4.2700       350.5552      3951.1746       361.3654        82.3953
    3520.89720      -0.026130    -0.00968450       128.5454      -0.022120         5.6486         5.6486      -999.2500      -0.017840         4.2779         4.2779       350.5638      4007.5251       361.3670        82.3909
    3521.04960      -0.029320    -0.00877767       127.7336       0.082220         5.6594         5.6594      -999.2500      -0.001800         4.2464         4.2464       350.5626      3990.6443       361.3697        82.3848
    3521.20200      -0.032890    -0.00858000       128.3575      -0.037350         5.8454         5.8454      -999.2500       0.024480         4.2501         4.2501       350.5602      4076.2446      -999.2500      -999.2500
    3521.35440    -999.250000    -0.00818483       128.1865      -0.073380         5.8819         5.8819      -999.2500      -0.017780         4.2871         4.2871       350.5623      4014.8674      -999.2500      -999.2500
    3521.50680    -999.250000    -0.00980267       128.8747      -0.037130         6.0505         6.0505      -999.2500      -0.015230         4.2560         4.2560       350.5601      3992.7688      -999.2500      -999.2500
    3521.65920    -999.250000    -0.00976983       128.2123       0.079760         5.9950         5.9950      -999.2500      -0.032880         4.2722         4.2722       350.5703      3960.1287      -999.2500      -999.2500
    3521.81160    -999.250000    -0.00831067       128.1218      -0.007840         6.0950         6.0950      -999.2500       0.040910         4.2532         4.2532       350.5615      3978.3044      -999.2500      -999.2500
    3521.96400    -999.250000    -0.00811067       127.8912      -0.000230         6.0022         6.0022      -999.2500       0.015010         4.2122         4.2122       350.5642      3984.5227      -999.2500      -999.2500
    3522.11640    -999.250000    -0.00904933       128.4456       0.075690         6.0444         6.0444      -999.2500       0.048510         4.1915         4.1915       350.5616      3909.0835      -999.2500      -999.2500
    3522.26880    -999.250000    -0.00930333       127.7785      -0.004080         6.0060         6.0060      -999.2500      -0.050800         4.2305         4.2305       350.5598      3960.1758      -999.2500      -999.2500
    3522.42120    -999.250000    -0.00813917       127.9563       0.037130         5.9434         5.9434      -999.2500       0.097920         4.2494         4.2494      -999.2500      3907.9189      -999.2500      -999.2500
    3522.57360    -999.250000    -0.00785850       127.5167      -0.038970         5.9878         5.9878      -999.2500       0.085880         4.2546         4.2546      -999.2500      3975.3123      -999.2500      -999.2500
    3522.72600    -999.250000    -0.01012633       126.7720       0.011470         5.9177         5.9177      -999.2500       0.047020         4.1936         4.1936      -999.2500      3895.8918      -999.2500      -999.2500
    3522.87840    -999.250000    -0.00874950       126.2427       0.096480         5.9754         5.9754      -999.2500      -0.027320         4.1680         4.1680      -999.2500      3988.9785      -999.2500      -999.2500
    3523.03080    -999.250000    -0.00873917       126.0333       0.038700         5.9803         5.9803      -999.2500       0.097700         4.1702         4.1702      -999.2500      3987.6677      -999.2500      -999.2500
    3523.18320    -999.250000    -0.00886217       126.0718       0.036510         6.0266         6.0266      -999.2500      -0.023700         4.1342         4.1342      -999.2500      3968.7546      -999.2500      -999.2500
    3523.33560    -999.250000    -0.01040733       125.8289      -0.089560         5.8352         5.8352      -999.2500       0.057100         4.1223         4.1223      -999.2500      4055.9714      -999.2500      -999.2500
    3523.48800    -999.250000    -0.01012600       126.3553       0.070550         5.7822         5.7822      -999.2500       0.006710         4.1675         4.1675      -999.2500      3994.5132      -999.2500      -999.2500
    3523.64040    -999.250000    -0.00916917       126.2150      -0.091920         5.7756         5.7756      -999.2500       0.002280         4.1742         4.1742      -999.2500      4038.8052      -999.2500      -999.2500
    3523.79280    -999.250000    -0.00894967       126.6403       0.001780         5.8095         5.8095      -999.2500      -0.010150         4.2051         4.2051      -999.2500      4042.6292      -999.2500      -999.2500
    3523.94520    -999.250000    -0.00901117       126.2296       0.035910         5.9203         5.9203      -999.2500       0.090340         4.2194         4.2194      -999.2500      3932.4998      -999.2500      -999.2500
    3524.09760    -999.250000    -0.00891967       126.1495       0.064970         5.9424         5.9424      -999.2500       0.051950         4.2229         4.2229      -999.2500      4007.8174      -999.2500      -999.2500
    3524.25000    -999.250000    -0.00852367       127.0526       0.146520         5.9255         5.9255      -999.2500       0.046690         4.2850         4.2850      -999.2500      4006.7563      -999.2500      -999.2500
    3524.40240    -999.250000    -0.00845783       126.1943       0.048320         5.8767         5.8767      -999.2500      -0.014840         4.3070         4.3070      -999.2500      3964.0225      -999.2500      -999.2500
    3524.55480    -999.250000    -0.00886067       125.8904      -0.002190         5.9351         5.9351      -999.2500       0.036870         4.3181         4.3181      -999.2500      3920.7444      -999.2500      -999.2500
    3524.70720    -999.250000    -0.00977950       126.7915      -0.059450         6.0243         6.0243      -999.2500      -0.024660         4.3095         4.3095      -999.2500      3942.6499      -999.2500      -999.2500
    3524.85960    -999.250000    -0.00886017       126.9626       0.036020         5.9919         5.9919      -999.2500       0.082180         4.3136         4.3136      -999.2500      3931.5959      -999.2500      -999.2500
    3525.01200    -999.250000    -0.00889000       126.7651       0.075380         5.9870         5.9870      -999.2500       0.092440         4.3148         4.3148      -999.2500      3989.0234      -999.2500      -999.2500
    3525.16440    -999.250000    -0.00906367       127.1468      -0.009400         6.0157         6.0157      -999.2500       0.002120         4.3028         4.3028      -999.2500      3976.5239      -999.2500      -999.2500
    3525.31680    -999.250000    -0.00898117       127.0688       0.068180         5.8922         5.8922      -999.2500      -0.031040         4.3671         4.3671      -999.2500      4057.3337      -999.2500      -999.2500
    3525.46920    -999.250000    -0.00865933       126.5475       0.080730         5.6802         5.6802      -999.2500       0.025010         4.3601         4.3601      -999.2500      3984.1135      -999.2500      -999.2500
    3525.62160    -999.250000    -0.00844883       126.6075      -0.082120         5.5375         5.5375      -999.2500       0.018770         4.3320         4.3320      -999.2500      3928.9141      -999.2500      -999.2500
    3525.77400    -999.250000    -0.00754717       126.8635       0.044120         5.4645         5.4645      -999.2500       0.028650         4.3331         4.3331      -999.2500      3972.9810      -999.2500      -999.2500
