~Version Information Block
VERS .                 2.00:  CWLS LOG ASCII STANDARD - VERSION 2.00
WRAP .                  YES:  Multiple lines per depth step
~Well Information Block
#MNEM.UNIT        Data Type   Information
#---------- ----------------  -----------
STRT .M          3450.03120:  START DEPTH
STOP .M          3948.83640:  STOP DEPTH
STEP .M             0.15240:  STEP
NULL .              -999.25:  NULL VALUE
COMP .              Statoil:  COMPANY
WELL .        NO_15/9-F-1_C:  WELL
FLD  .                Volve:  FIELD
LOC  .            North Sea:  LOCATION
CTRY .               Norway:  COUNTRY
STAT .                     :  STATE
CNTY .                     :  COUNTY
SRVC .         Schlumberger:  SERVICE COMPANY
DATE .          27-Nov-2014:  DATE
API  .                     :  API NUMBER
UWI  .           15/9-F-1 C:  UNIQUE WELL ID
LATI .     58° 26' 29.91" N:  LATITUDE
LONG .      1° 53' 14.71" E:  LONGITUDE
~Curve Information Block
#MNEM.UNIT         API CODE   Curve Description
#---------- ----------------  -----------------
DEPTH.M                    :  DEPTH (BOREHOLE)
BSAL .PPM                  :  Borehole Salinity
CCLC .V                    :  CCL
CIRF .                     :  RST Capture to Inelastic Ratio Far
CIRN .                     :  RST Capture to Inelastic Ratio Near
CVEL .M/SEC                 :  Cable Velocity
DFRB .DEG                  :  Calibrated Relative Bearing
DSIG .CU                   :  Sigma Difference
FBEF .UA                   :  RST Far Effective Beam Current
GR   .GAPI                 :  Gamma Ray
IRAT .                     :  RST Inelastic Ratio
PFC1 .IN                   :  PFCS CaliperX
PFC2 .IN                   :  PFCS CaliperY
RSCF .                     :  RST Far Detector Effective Unregulated
RSCN .                     :  RST Near Detector Effective
SFFA .CU                   :  RST Sigma Formation Far Apparent
SIBF .CU                   :  RST Sigma Borehole Fluid
SIGM .CU                   :  Formation Sigma (Neutron Capture Cross
TENS .LBF                  :  Cable Tension
TPHI .V/V                  :  Thermal Decay Porosity
~Parameter Information Block
#MNEM.UNIT            Value   Description
#---------- ----------------  -----------
APD  .M           54.900002:  Elevation of Depth Reference (LMF) above Permanent Datum
BHS  .                 CASE:  Borehole Status (Open or Cased Hole)
BS   .IN                8.5:  Bit Size
BSAL .PPM                 0:  Borehole Salinity
BSALOPT.              UNKNOWN:  Borehole Salinity Option
CSIZ .IN                  7:  Current Casing Size
CWEI .LB/F               29:  Casing Weight
EPD  .C3                  0:  Elevation of Permanent Datum above Mean Sea Level
LMF  .                   KB:  Logging Measured From (Name of Logging Elevation Reference)
MATR .                 SAND:  Rock Matrix for Neutron Porosity Corrections
PDAT .                  MSL:  Permanent Datum
RUN  .                Run 1:  RUN NUMBER
TAPE_NAME.     Statoil_Volve_15-9-F-1 C_PLT-RST_28Nov14_ConCu_R1L16Up_SigmaMain.las:  
TOOL_STRING.              UNKNOWN:  
WN   .           15/9-F-1 C:  WELL
PROJECT.     SLEIPNER_OST@st-vlinapp01:  
SET  .       RSTD_1114_SIG1:  
~Other Information Block
~Ascii Log Data
# ...
    3836.82240 
    74936.3047         0.0153         1.9915         0.5981      -0.162498 
      337.2290        -0.7781        85.3325        27.1895     0.32710001 
        6.1570         6.0834         8.0804         7.1924        20.1060 
       48.9581        18.8837      4627.7144     0.20550001
    3836.97480 
    74809.4062         0.0517         2.0352         0.5848      -0.162600 
      337.2290        -0.9990        85.7933        27.5818     0.32749999 
        6.1457         6.0834         8.0970         6.8807        20.2192 
       48.9107        18.6082      4565.7144     0.19920000
    3837.12720 
    74280.1016        -0.0429         2.1324         0.5897      -0.162498 
      337.2290        -1.1349        88.4473        27.7411     0.32589999 
        6.1546         6.0834         8.2543         6.8953        19.9788 
       48.7129        18.3324      4572.0000     0.19560000
    3837.27960 
    73551.1016        -0.0050         2.0801         0.5692      -0.162583 
      335.8180        -1.1662        88.4038        25.3507     0.32720000 
        6.1569         6.0834         8.1129         6.6694        19.2727 
       48.4407        18.0060      4679.2144     0.19470000
    3837.43200 
    74327.6953        -0.0209         2.0176         0.5993      -0.161592 
      335.8180        -1.1335        89.0256        27.9250     0.33260000 
        6.1570         6.0834         7.6615         6.9169        19.2416 
       48.7307        17.7691      4839.7998     0.20180000
    3837.58440 
    73737.7969        -0.0134         1.9938         0.5998      -0.160438 
      335.8180        -0.8916        83.0983        29.7638     0.33219999 
        6.1546         6.0834         7.7387         6.3131        19.2797 
       48.5104        17.7873      4898.6431     0.20430000
    3837.73680 
    73770.1016        -0.0147         2.0604         0.5953      -0.160447 
      335.8180        -1.0218        88.2004        27.5573     0.32310000 
        6.1591         6.0834         7.8895         6.9950        19.3192 
       48.5225        17.8758      4907.7856     0.20500000
    3837.88920 
    74190.1016        -0.0210         2.1278         0.5657      -0.161255 
      335.8180        -0.8151        91.9885        27.7289     0.32269999 
        6.1479         6.0834         7.8277         6.6574        19.5102 
       48.6793        18.0213      4874.3569     0.20520000
    3838.04160 
    74521.5000         0.1297         2.0085         0.6024      -0.161683 
      335.8180        -0.7769        87.8086        30.8548     0.32110000 
        6.1502         6.0834         7.6246         6.8517        19.7191 
       48.8031        18.0813      4812.2856     0.20590000
    3838.19400 
    74197.6016         0.0107         2.0759         0.6160      -0.162172 
      335.8180        -0.7253        87.9298        30.8548     0.32570001 
        6.1367         6.0672         8.0504         7.2511        19.5184 
       48.6821        17.8569      4759.5332     0.20590000
    3838.34640 
    74335.7969        -0.0464         2.0702         0.5573      -0.162677 
      335.8180        -0.7927        85.8187        28.6483     0.32240000 
        6.1403         6.0813         8.3366         6.7103        18.8475 
       48.7337        17.8330      4617.0000     0.20119999
    3838.49880 
    73890.0000         0.0180         2.0766         0.5798      -0.162480 
      335.8180        -0.7168        91.9185        31.6639     0.31840000 
        6.1457         6.0626         7.5251         6.4268        19.6505 
       48.5673        17.7526      4494.7144     0.20570000
    3838.65120 
    73572.5000        -0.0765         2.0537         0.5803      -0.162383 
      335.8180        -0.3699        90.6557        35.1944     0.31880000 
        6.1390         6.0649         7.7455         6.9035        19.2742 
       48.4487        18.3261      4664.5713     0.20940000
    3838.80360 
    73057.2969         0.0048         1.8711         0.5668      -0.162008 
      335.8180        -0.3372        93.3808        35.0105     0.31750000 
        6.1457         6.0533         6.9424         6.8003        20.5804 
       48.2565        18.5599      4686.0000     0.21120000
    3838.95600 
    72163.5000         0.0054         1.8669         0.5059      -0.162108 
      335.8180        -0.3005        89.3533        34.0911     0.31970000 
        6.1412         6.0533         7.6834         6.8305        20.3652 
       47.9233        18.7711      4945.2856     0.20200001
    3839.10840 
    72693.2969         0.0010         1.9564         0.5419      -0.161752 
      335.8180        -0.3031        86.6478        35.5621     0.32040000 
        6.1445         6.0683         7.9728         6.8509        19.9151 
       48.1208        17.9423      4939.8574     0.19430000
    3839.26080 
    72937.5000         0.0060         1.9212         0.5368      -0.161687 
      335.8180        -0.4318        83.9468        33.6498     0.31569999 
        6.1457         6.0510         8.0154         6.7192        18.0903 
       48.2118        17.7443      4944.7144     0.18880001
    3839.41320 
    73227.7031         0.0065         2.0549         0.5212      -0.161775 
      335.8180        -0.3058        90.0762        29.0528     0.31529999 
        6.1479         6.0510         8.1518         6.8199        19.7656 
       48.3201        17.4063      4853.7856     0.18760000
    3839.56560 
    73292.7031         0.0023         1.9582         0.5465      -0.162587 
      335.8180        -0.4976        83.9250        31.3084     0.31740001 
        6.1479         6.0649         8.3616         7.1628        18.8944 
       48.3443        17.9368      4804.6001     0.18150000
    3839.71800 
    72975.7969        -0.0220         1.9712         0.5494      -0.163052 
      335.8180        -0.4513        85.9413        33.8827     0.32670000 
        6.1390         6.0626         7.9688         6.7834        19.6760 
       48.2261        17.9583      4738.2856     0.17540000
    3839.87040 
    73715.3984        -0.0788         1.9854         0.5166      -0.162132 
      335.8180        -0.6291        89.9078        33.3311     0.32720000 
        6.1390         6.0672         7.7037         6.2645        19.8120 
       48.5021        18.3527      4707.7144     0.16900000
    3840.02280 
    73828.3984         0.1440         2.0293         0.5500      -0.161498 
      335.8180        -0.6734        84.4809        34.4343     0.32690001 
        6.1298         6.0510         8.1137         6.3968        20.0654 
       48.5443        18.3063      4590.6431     0.17070000
    3840.17520 
    72933.7969         1.2063         2.0455         0.5721      -0.162603 
      335.8180        -0.8667        85.8874        37.9280     0.32589999 
        6.1277         6.0510         8.2109         6.9686        19.5271 
       48.2104        18.3810      4536.6426     0.17219999
    3840.32760 
    73388.6016        -0.0210         2.1088         0.5736      -0.162883 
      335.8180        -1.1946        85.6831        35.8686     0.32510000 
        6.1277         6.0510         8.4078         6.7349        20.0240 
       48.3801        18.3949      4500.1431     0.17460001
    3840.48000 
    74164.1016        -0.0083         2.1054         0.5473      -0.162612 
      337.2290        -1.2203        86.0482        35.6847     0.32560000 
        6.1277         6.0510         8.5081         6.7355        20.0843 
       48.6696        18.4112      4797.5713     0.17569999
    3840.63240 
    74436.0000         0.0303         2.0342         0.5759      -0.161873 
      335.8180        -1.1916        87.3630        38.0751     0.32210001 
        6.1277         6.0510         8.1753         7.1603        19.5579 
       48.7712        18.2167      4956.6431     0.18000001
    3840.78480 
    75026.3984        -0.0083         2.1282         0.5669      -0.161853 
      337.2290        -1.3216        95.1527        39.7300     0.32789999 
        6.1277         6.0510         7.5914         6.6687        19.4250 
       48.9918        18.2275      5018.5000     0.17810000
