~Version Information Block
VERS .                 2.00:  CWLS LOG ASCII STANDARD - VERSION 2.00
WRAP .                  YES:  Multiple lines per depth step
~Well Information Block
#MNEM.UNIT        Data Type   Information
#---------- ----------------  -----------
STRT .M          3174.64440:  START DEPTH
STOP .M          3422.90400:  STOP DEPTH
STEP .M             0.15240:  STEP
NULL .              -999.25:  NULL VALUE
COMP .         StatoilHydro:  COMPANY
WELL .          NO_15/9-F-4:  WELL
FLD  .                VOLVE:  FIELD
LOC  .            North Sea:  LOCATION
CTRY .                     :  COUNTRY
STAT .                     :  STATE
CNTY .                     :  COUNTY
SRVC .         Schlumberger:  SERVICE COMPANY
DATE .          13-Sep-2012:  DATE
API  .                     :  API NUMBER
UWI  .             15/9-F-4:  UNIQUE WELL ID
~Curve Information Block
#MNEM.UNIT         API CODE   Curve Description
#---------- ----------------  -----------------
DEPTH.M                    :  DEPTH (BOREHOLE)
BSAL .PPM                  :  Borehole Salinity
CCLC .V                    :  CCL
CCLD .V                    :  CCL Discriminated Amplitude
CIRF .                     :  RST Capture to Inelastic Ratio Far
CIRN .                     :  RST Capture to Inelastic Ratio Near
CVEL .M/MIN                 :  Cable Velocity
DEVI .DEG                  :  Hole Deviation
DSIG .CU                   :  Sigma Difference
FBEF .UA                   :  RST Far Effective Beam Current
GR   .GAPI                 :  Gamma Ray
IRAT .                     :  RST Inelastic Ratio
RB_PCMS.DEG                  :  Relative Bearing
RSCF .                     :  RST Far Detector Effective Unregulated Capture Count Rate
RSCN .                     :  RST Near Detector Effective Unregulated Capture Count Rate
SFFA .CU                   :  RST Sigma Formation Far Apparent
SIBF .CU                   :  RST Sigma Borehole Fluid
SIGM .CU                   :  Formation Sigma (Neutron Capture Cross Section)
TPHI .V/V                  :  Thermal Decay Porosity
WPRE .PSI                  :  Well Pressure
WTEP .DEGC                 :  Well Temperature
~Parameter Information Block
#MNEM.UNIT            Value   Description
#---------- ----------------  -----------
APD  .M                  54:  Elevation of Depth Reference (LMF) above Permanent Datum
BHS  .                 CASE:  Borehole Status (Open or Cased Hole)
BS   .IN                8.5:  Bit Size
BSAL .PPM       34972.17188:  Borehole Salinity
BSALOPT.              UNKNOWN:  Borehole Salinity Option
CSID .IN              6.184:  Casing Inner Diameter
CSIZ .IN                  7:  Current Casing Size
CWEI .LB/F               29:  Casing Weight
MATR .                 SAND:  Rock Matrix for Neutron Porosity Corrections
RUN  .                    4:  RUN NUMBER
PROJECT.     SLEIPNER_OST@st-vlinapp01:  
SET  .       RSTD_0912_SIG1:  
~Other Information Block
~Ascii Log Data
# ...
    3190.49400 
    46387.9023        -0.0853         0.0000         0.9420     0.43590000 
      -4.71340        46.6458         2.4958        79.1620        65.9761 
    0.32100001       356.1318         3.9907         5.6792        34.9387 
       38.4617        32.3101     0.36430001      4848.2173        91.5594
    3190.64640 
    46076.3008        -0.0773         0.0000         0.9318     0.43220001 
      -4.71370        46.5345         2.6514        78.4045        68.1213 
    0.32040000       356.1284         3.9984         5.4724        35.4478 
       38.3491        33.0817     0.36269999      4848.3345        91.5661
    3190.79880 
    46112.0977        -0.0063         0.0000         0.8850     0.43669999 
      -4.74840        46.6231         2.6310        81.9082        67.8550 
    0.32249999       356.1923         3.7744         5.7339        35.3432 
       38.3620        33.1068     0.36700001      4848.5400        91.5668
    3190.95120 
    46062.6992         0.2207         0.0000         0.9034     0.43120000 
      -4.71730        46.6986         2.2923        79.3437        66.3666 
    0.32060000       356.1100         4.0070         5.8030        34.9586 
       38.3442        32.5538     0.36539999      4848.6890        91.5695
    3191.10360 
    45832.9023         0.0992         0.0000         0.9071     0.43020001 
      -4.71260        46.6861         2.5010        80.7016        65.6565 
    0.32080001       356.1306         3.9018         5.7420        33.7463 
       38.2611        31.5508     0.36719999      4848.8213        91.5694
    3191.25600 
    46062.1992        -0.1124         0.0000         0.9668     0.41769999 
      -4.69340        46.7804         2.2384        77.5947        63.7923 
    0.31799999       356.0371         4.3027         5.7067        32.3153 
       38.3440        31.4244     0.36300001      4848.9634        91.5742
    3191.40840 
    46577.0977        -0.1431         0.0000         0.8875     0.41760001 
      -4.64640        46.7023         2.3878        79.6203        61.3038 
    0.32089999       356.1259         3.8736         5.6856        34.5258 
       38.5302        31.7977     0.37239999      4849.1123        91.5779
    3191.56080 
    46221.5977        -0.3529         0.0000         0.8454     0.42399999 
      -4.71880        46.7693         2.3969        78.2197        61.3926 
    0.31930000       356.2091         3.7786         5.7270        34.8527 
       38.4016        32.7907     0.37819999      4849.2676        91.5825
    3191.71320 
    46212.3008         0.4332         0.0000         0.8384     0.42640001 
      -4.69950        46.9053         2.7602        80.6413        64.2539 
    0.31880000       356.2450         3.6264         5.6391        35.2781 
       38.3982        32.1171     0.39399999      4849.4082        91.5898
    3191.86560 
    45817.7969         0.1809         0.0000         0.8922     0.42879999 
      -4.71050        46.8447         2.6835        79.6307        64.8753 
    0.31909999       356.3319         3.9580         5.9105        32.5370 
       38.2557        32.4886     0.38909999      4849.5684        91.5957
    3192.01800 
    46238.1992        -0.1190         0.0000         0.8190     0.42179999 
      -4.69850        46.8852         2.4448        79.8135        65.2304 
    0.32210001       356.5457         3.5495         5.5735        35.9962 
       38.4076        32.4362     0.38920000      4849.7339        91.5953
    3192.17040 
    46526.5000        -0.0587         0.0000         0.8975     0.42530000 
      -4.71440        46.9112         2.1710        79.5572        67.0413 
    0.31920001       356.6835         3.9672         5.5819        35.0655 
       38.5118        33.9428     0.37860000      4849.8428        91.5973
    3192.32280 
    46530.1992        -0.1622         0.0000         0.8140     0.40390000 
      -4.74430        46.8884         2.2972        84.3539        67.4910 
    0.31680000       356.5066         3.4294         5.4027        37.0051 
       38.5132        33.3671     0.39050001      4849.9736        91.6010
    3192.47520 
    46381.5977        -0.0073         0.0000         0.8020     0.41069999 
      -4.72940        46.8759         2.2700        81.2714        68.0029 
    0.31200001       356.5732         3.5985         5.6125        34.2816 
       38.4594        33.5110     0.39660001      4850.1768        91.6036
    3192.62760 
    46410.0977         0.6124         0.0000         0.7933     0.39019999 
      -4.72030        46.9543         2.4552        85.0595        67.0265 
    0.31490001       356.7573         3.3910         5.5598        35.5329 
       38.4698        33.6386     0.40509999      4850.3091        91.6043
    3192.78000 
    46015.0000        -0.0907         0.0000         0.7617     0.40840000 
      -4.70760        46.9832         2.2499        78.3422        66.5826 
    0.31189999       356.5544         3.3282         5.5394        37.4156 
       38.3269        34.6756     0.40529999      4850.4160        91.6058
    3192.93240 
    46017.0000        -0.0355         0.0000         0.7574     0.40920001 
      -4.70320        46.8551         2.5522        82.2283        66.4051 
    0.31690001       356.1867         3.2512         5.6934        37.3548 
       38.3276        34.3192     0.41130000      4850.5894        91.6144
    3193.08480 
    46261.9023         0.0669         0.0000         0.7713     0.41639999 
      -4.70700        46.7150         2.8202        79.7461        65.8666 
    0.32010001       356.3133         3.3700         5.5106        34.5013 
       38.4162        33.6136     0.41260001      4850.7578        91.6172
    3193.23720 
    46182.2031        -0.1631         0.0000         0.7843     0.41630000 
      -4.70570        46.9255         3.1944        82.3075        61.8720 
    0.32190001       356.2578         3.3151         5.3172        35.3170 
       38.3874        33.0233     0.41090000      4850.8853        91.6217
    3193.38960 
    46303.3008        -0.1830         0.0000         0.8180     0.41119999 
      -4.69700        46.9237         2.9726        81.5775        59.5640 
    0.31029999       356.0089         3.4199         5.2570        35.6124 
       38.4312        34.1719     0.39840001      4851.0488        91.6263
    3193.54200 
    46038.8008         0.0340         0.0340         0.8041     0.38550001 
      -4.72670        46.8552         2.8087        82.4637        56.7323 
    0.29949999       355.7087         3.4463         5.4757        37.9255 
       38.3355        34.4467     0.40230000      4851.2036        91.6243
    3193.69440 
    46201.5977        -2.4085        -2.4085         0.7402     0.35170001 
      -4.70430        46.9707         3.0492        82.9882        53.2703 
    0.29440001       355.6439         3.2804         5.1254        36.0681 
       38.3944        35.1190     0.40660000      4851.3584        91.6253
    3193.84680 
    45916.5977         0.9359         0.9359         0.6423     0.36100000 
      -4.70800        46.9137         3.1347        82.4604        54.8385 
    0.30230001       355.6345         2.7436         5.0163        37.6911 
       38.2914        34.5223     0.42109999      4851.4409        91.6286
    3193.99920 
    45691.5000         0.3240         0.0000         0.7052     0.39700001 
      -4.69680        46.7694         3.0613        81.2644        57.0577 
    0.31150001       355.6761         3.0655         5.3119        36.1492 
       38.2100        34.5899     0.41890001      4851.6479        91.6397
    3194.15160 
    45371.1992        -0.2029         0.0000         0.7616     0.41119999 
      -4.73200        46.7447         2.9871        78.5574        60.5197 
    0.31920001       355.8292         3.3658         5.4857        36.2561 
       38.0943        34.7958     0.41010001      4851.8428        91.6422
    3194.30400 
    45314.5000         0.1115         0.0000         0.7992     0.41170001 
      -4.73850        46.9026         2.8662        79.2226        64.6830 
    0.31959999       355.9806         3.4282         5.4013        38.2589 
       38.0739        34.8051     0.39910001      4851.8965        91.6522
