~Version Information Block
VERS .                 2.00:  CWLS LOG ASCII STANDARD - VERSION 2.00
WRAP .                   NO:  One line per depth step
~Well Information Block
#MNEM.UNIT        Data Type   Information
#---------- ----------------  -----------
STRT .M          3451.70760:  START DEPTH
STOP .M          3790.03560:  STOP DEPTH
STEP .M             0.15240:  STEP
NULL .              -999.25:  NULL VALUE
COMP .              Statoil:  COMPANY
WELL .        NO_15/9-F-1_C:  WELL
FLD  .                Volve:  FIELD
LOC  .            North Sea:  LOCATION
CTRY .               Norway:  COUNTRY
STAT .                     :  STATE
CNTY .                     :  COUNTY
SRVC .         Schlumberger:  SERVICE COMPANY
DATE .          27-Nov-2014:  DATE
API  .                     :  API NUMBER
UWI  .           15/9-F-1 C:  UNIQUE WELL ID
LATI .     58° 26' 29.91" N:  LATITUDE
LONG .      1° 53' 14.71" E:  LONGITUDE
~Curve Information Block
#MNEM.UNIT         API CODE   Curve Description
#---------- ----------------  -----------------
DEPTH.M                    :  DEPTH (BOREHOLE)
CVEL .M/SEC                 :  Cable Velocity
DFRB .DEG                  :  Calibrated Relative Bearing
FBEF .UA                   :  RST Far Effective Beam Current
FCOR .                     :  RST Far Carbon/Oxygen Ratio
FERD .                     :  RST Far IC Mode Capture Optimization
FIRD .                     :  RST Far Inelastic Optimization Resolution
GR   .GAPI                 :  Gamma Ray
NCOR .                     :  RST Near Carbon/Oxygen Ratio
NERD .                     :  RST Near IC Mode Capture Optimization
NIRD .                     :  RST Near Inelastic Optimization Resolution
PFC1 .IN                   :  PFCS CaliperX
PFC2 .IN                   :  PFCS CaliperY
TENS .LBF                  :  Cable Tension
~Parameter Information Block
#MNEM.UNIT            Value   Description
#---------- ----------------  -----------
APD  .M           54.900002:  Elevation of Depth Reference (LMF) above Permanent Datum
EPD  .C3                  0:  Elevation of Permanent Datum above Mean Sea Level
LMF  .                   KB:  Logging Measured From (Name of Logging Elevation Reference)
PDAT .                  MSL:  Permanent Datum
RUN  .                Run 1:  RUN NUMBER
TAPE_NAME.     Statoil_Volve_15-9-F-1 C_PLT-RST_28Nov14_ConCu_R1L18Up_IC2.las:  
TOOL_STRING.              UNKNOWN:  
WN   .           15/9-F-1 C:  WELL
PROJECT.     SLEIPNER_OST@st-vlinapp01:  
SET  .        RSTD_1114_IC2:  
~Other Information Block
# 
~A       DEPTH           CVEL           DFRB           FBEF           FCOR           FERD           FIRD             GR           NCOR           NERD           NIRD           PFC1           PFC2           TENS 
# ...
    3653.79000     -0.0095700       356.9830       123.7035        -0.0141         5.3835         5.3835        26.3936         0.0222         7.2487         7.2487         6.2499         6.0511      4313.7061
    3653.94240     -0.0094667       356.9830       122.3761         0.1805         5.4187         5.4187        24.2154         0.0717         7.2083         7.2083         6.2420         6.0510      4330.0415
    3654.09480     -0.0096750       356.9830       123.6275         0.0287         5.3821         5.3821        23.4799         0.0994         7.2693         7.2693         6.2394         6.0509      4271.5229
    3654.24720     -0.0098150       356.9830       121.1197        -0.0675         5.3473         5.3473        23.6779        -0.0337         7.2114         7.2114         6.2375         6.0509      4277.4448
    3654.39960     -0.0095400       356.9830       120.8141        -0.0008         5.2854         5.2854        22.9424         0.0282         7.1964         7.1964         6.2542         6.0510      4281.3418
    3654.55200     -0.0095433       358.3940       120.7579         0.0569         5.3735         5.3735        23.5365         0.0177         7.1950         7.1950         6.2569         6.0510      4210.7109
    3654.70440     -0.0095783       358.3940       122.0042        -0.0794         5.4053         5.4053        23.1404         0.0036         7.1621         7.1621         6.2543         6.0510      4312.4185
    3654.85680     -0.0096333       358.3940       121.6628        -0.0059         5.3434         5.3434        24.6397         0.1009         7.1485         7.1485         6.2535         6.0510      4306.9873
    3655.00920     -0.0093933       358.3940       123.4061         0.1659         5.2681         5.2681        26.9453         0.0079         7.1447         7.1447         6.2605         6.0502      4333.2808
    3655.16160     -0.0095883       358.3940       122.3457         0.1194         5.2657         5.2657        27.6525        -0.0595         7.1689         7.1689         6.2597         6.0507      4383.3892
    3655.31400     -0.0092683       358.3940       122.2607         0.1675         5.0980         5.0980        28.6851        -0.0366         7.1525         7.1525         6.2534         6.0510      4355.6724
    3655.46640     -0.0093817       358.3940       121.5001         0.0680         5.1081         5.1081        28.4870        -0.0109         7.1465         7.1465         6.2383         6.0443      4398.1460
    3655.61880     -0.0091217       358.3940       121.2691        -0.1258         5.2222         5.2222        30.2975         0.0118         7.1203         7.1203         6.2242         6.0460      4405.6108
    3655.77120     -0.0092833       358.3940       121.2067        -0.2348         5.1211         5.1211        30.7643        -0.0527         7.0518         7.0518         6.2225         6.0496      4351.1055
    3655.92360     -0.0093033       358.3940       121.2326        -0.1353         5.1238         5.1238        31.5281        -0.0570         7.0636         7.0636         6.2219         6.0502      4367.8501
    3656.07600     -0.0094817       358.3940       121.7317        -0.0417         5.1871         5.1871        29.3074         0.0567         7.0165         7.0165         6.2220         6.0510      4309.6152
    3656.22840     -0.0093250       358.3940       121.8883         0.0556         5.0867         5.0867        30.7926        -0.0154         7.0444         7.0444         6.2230         6.0510      4336.7046
    3656.38080     -0.0093217       358.3940       122.8334         0.0851         4.9358         4.9358        29.9722        -0.0748         7.1009         7.1009         6.2228         6.0486      4404.7920
    3656.53320     -0.0094017       358.3940       123.3355         0.0042         5.1159         5.1159        30.2410        -0.0384         7.1356         7.1356         6.2224         6.0486      4357.8306
    3656.68560     -0.0090883       358.3940       123.1169        -0.3489         5.0492         5.0492        29.2791         0.0149         7.1177         7.1177         6.2220         6.0493      4416.0913
    3656.83800     -0.0090483       358.3940       124.0823        -0.1033         5.0432         5.0432        30.5804         0.0355         7.0649         7.0649         6.2225         6.0464      4504.4141
    3656.99040     -0.0090983       358.3940       123.6209         0.0730         5.1240         5.1240        30.2834         0.0431         6.9993         6.9993         6.2222         6.0362      4486.5298
    3657.14280     -0.0093350       358.3940       127.1181        -0.1044         5.1240         5.1240        29.2650        -0.0239         6.9562         6.9562         6.2219         6.0324      4444.3647
    3657.29520     -0.0093133       358.3940       124.1049         0.3606         5.1240         5.1240        28.2041         0.1695         6.9562         6.9562         6.2219         6.0346      4364.9312
    3657.44760     -0.0091217       358.3940       125.2023         0.4398         5.1240         5.1240        30.3824         0.0468         6.9562         6.9562         6.2219         6.0448      4271.3481
    3657.60000     -0.0091350       358.3940       126.5818         0.3816         5.1584         5.1584        31.8534        -0.0224         6.9562         6.9562         6.2219         6.0464      4433.9204
    3657.75240     -0.0092217       358.3940       121.6774         0.2617         5.1584         5.1584        33.2396        -0.3476         6.9329         6.9329         6.2220         6.0476      4369.4658
    3657.90480     -0.0093800       358.3940       124.8258        -3.3657         5.1584         5.1584        35.0784         0.4011         6.9329         6.9329         6.2219         6.0485      4300.7100
    3658.05720     -0.0090317       356.9830       124.8258        -3.3657         5.1584         5.1584        35.2764        -0.3574         6.9329         6.9329         6.2235         6.0509      4444.4590
    3658.20960     -0.0091867       356.9830       122.5242        -1.2012         5.1584         5.1584        34.9794        -0.3574         6.9329         6.9329         6.2235         6.0510      4373.8120
    3658.36200     -0.0090850       358.3940       125.3458         0.2812         5.1584         5.1584        33.1972         0.3232         6.9329         6.9329         6.2225         6.0510      4369.9717
    3658.51440     -0.0093633       358.3940       122.4872        -0.0162         5.1584         5.1584        32.2919         0.1919         6.9329         6.9329         6.2357         6.0689      4290.9023
    3658.66680     -0.0088717       356.9830       122.4872        -0.0162         5.1584         5.1584        31.2735        -0.2206         6.9329         6.9329         6.2323         6.0834      4532.0586
    3658.81920     -0.0090683       356.9830       124.3142         0.1757         5.1584         5.1584        30.6794        -0.2206         6.9329         6.9329         6.2384         6.0834      4511.6631
    3658.97160     -0.0091283       356.9830       122.6326         0.1892         5.0314         5.0314        31.2311        -0.0674         6.9329         6.9329         6.2533         6.0834      4418.3374
    3659.12400     -0.0090133       356.9830       129.4609         0.4957         5.0314         5.0314        33.0133        -0.3492         6.8518         6.8518         6.2533         6.0834      4523.2095
    3659.27640     -0.0088967       355.5720       129.4609         0.4957         5.0314         5.0314        31.3584         0.1209         6.8518         6.8518         6.2532         6.0834      4550.9419
    3659.42880     -0.0090733       355.5720       124.4535        -0.3122         5.0314         5.0314        31.2735         0.1209         6.8518         6.8518         6.2548         6.0834      4473.5454
    3659.58120     -0.0091217       355.5720       122.9578        -0.0057         5.0314         5.0314        32.2636        -3.2379         6.8518         6.8518         6.2600         6.0834      4456.4502
