~Version Information Block
VERS .                 2.00:  CWLS LOG ASCII STANDARD - VERSION 2.00
WRAP .                   NO:  One line per depth step
~Well Information Block
#MNEM.UNIT        Data Type   Information
#---------- ----------------  -----------
STRT .M          3454.60320:  START DEPTH
STOP .M          3792.47400:  STOP DEPTH
STEP .M             0.15240:  STEP
NULL .              -999.25:  NULL VALUE
COMP .              Statoil:  COMPANY
WELL .        NO_15/9-F-1_C:  WELL
FLD  .                Volve:  FIELD
LOC  .            North Sea:  LOCATION
CTRY .               Norway:  COUNTRY
STAT .                     :  STATE
CNTY .                     :  COUNTY
SRVC .         Schlumberger:  SERVICE COMPANY
DATE .          27-Nov-2014:  DATE
API  .                     :  API NUMBER
UWI  .           15/9-F-1 C:  UNIQUE WELL ID
LATI .     58° 26' 29.91" N:  LATITUDE
LONG .      1° 53' 14.71" E:  LONGITUDE
~Curve Information Block
#MNEM.UNIT         API CODE   Curve Description
#---------- ----------------  -----------------
DEPTH.M                    :  DEPTH (BOREHOLE)
CVEL .M/SEC                 :  Cable Velocity
DFRB .DEG                  :  Calibrated Relative Bearing
FBEF .UA                   :  RST Far Effective Beam Current
FCOR .                     :  RST Far Carbon/Oxygen Ratio
FERD .                     :  RST Far IC Mode Capture Optimization
FIRD .                     :  RST Far Inelastic Optimization Resolution
GR   .GAPI                 :  Gamma Ray
NCOR .                     :  RST Near Carbon/Oxygen Ratio
NERD .                     :  RST Near IC Mode Capture Optimization
NIRD .                     :  RST Near Inelastic Optimization Resolution
PFC1 .IN                   :  PFCS CaliperX
PFC2 .IN                   :  PFCS CaliperY
TENS .LBF                  :  Cable Tension
~Parameter Information Block
#MNEM.UNIT            Value   Description
#---------- ----------------  -----------
APD  .M           54.900002:  Elevation of Depth Reference (LMF) above Permanent Datum
EPD  .C3                  0:  Elevation of Permanent Datum above Mean Sea Level
LMF  .                   KB:  Logging Measured From (Name of Logging Elevation Reference)
PDAT .                  MSL:  Permanent Datum
RUN  .                Run 1:  RUN NUMBER
TAPE_NAME.     ConCu_R1L19Up_S012_PFCS_PILS_DEFT_RST_PCMS_PSTP.las:  
TOOL_STRING.              UNKNOWN:  
WN   .           15/9-F-1 C:  WELL
PROJECT.     SLEIPNER_OST@st-vlinapp01:  
SET  .        RSTD_1114_IC3:  
~Other Information Block
# 
~A       DEPTH           CVEL           DFRB           FBEF           FCOR           FERD           FIRD             GR           NCOR           NERD           NIRD           PFC1           PFC2           TENS 
# ...
    3698.29080      -0.168937       355.5720       125.4516         0.0848         4.4430         4.4430        44.3014        -0.0350         7.3744         7.3744         6.2195         6.0311      4536.7144
    3698.44320      -0.169330       355.5720       125.8532        -0.0212         4.4596         4.4596        43.8203        -0.0153         7.3340         7.3340         6.2197         6.0325      4494.0000
    3698.59560      -0.168698       355.5720       124.8068        -0.2015         4.5843         4.5843        43.5310         0.0170         7.2997         7.2997         6.2174         6.0278      4454.7861
    3698.74800      -0.168280       355.5720       124.9021         0.0819         4.5654         4.5654        43.7567         0.0339         7.3113         7.3113         6.2085         6.0278      4333.3848
    3698.90040      -0.166773       355.5720       125.6699        -0.0306         4.4735         4.4735        43.6766        -0.0216         7.3315         7.3315         6.2074         6.0186      4330.7144
    3699.05280      -0.164677       355.5720       125.2603         0.0671         4.4740         4.4740        41.9673        -0.0660         7.3312         7.3312         6.2098         6.0186      4422.9287
    3699.20520      -0.167958       355.5720       124.9778         0.0237         4.4865         4.4865        40.5170         0.0511         7.3378         7.3378         6.1984         6.0186      4455.6152
    3699.35760      -0.176918       355.5720       124.4460         0.0988         4.7700         4.7700        39.2139        -0.0524         7.2584         7.2584         6.2017         6.0302      4542.0000
    3699.51000      -0.183087       355.5720       125.8247         0.0900         4.8437         4.8437        39.9990        -0.0424         7.3044         7.3044         6.2062         6.0417      4490.9229
    3699.66240      -0.175375       355.5720       126.0847         0.1284         4.7797         4.7797        41.4665        -0.0099         7.3051         7.3051         6.1968         6.0488      4485.0000
    3699.81480      -0.164920       355.5720       126.4683        -0.0087         4.6370         4.6370        43.2658         0.0861         7.3096         7.3096         6.1928         6.0487      4467.0000
    3699.96720      -0.159530       355.5720       126.2881         0.0640         4.7209         4.7209        43.5340         0.0741         7.2395         7.2395         6.1950         6.0487      4456.5000
    3700.11960      -0.161580       355.5720       126.9694         0.0799         4.6408         4.6408        43.9763         0.0873         7.2663         7.2663         6.1905         6.0487      4479.6670
    3700.27200      -0.164777       355.5720       126.4469         0.0465         4.7402         4.7402        42.6039        -0.0598         7.2022         7.2022         6.1926         6.0467      4537.5713
    3700.42440      -0.163583       355.5720       127.3673         0.1430         4.7215         4.7215        42.2961         0.0083         7.1862         7.1862         6.1926         6.0510      4501.4287
    3700.57680      -0.158402       355.5720       127.4808         0.0864         4.7908         4.7908        42.4230         0.0512         7.1486         7.1486         6.1905         6.0490      4534.0713
    3700.72920      -0.152245       355.5720       126.6472        -0.0217         4.8041         4.8041        45.1575        -0.0457         7.0700         7.0700         6.1923         6.0510      4488.0000
    3700.88160      -0.149400       355.5720       126.6549        -0.1299         4.8490         4.8490        46.4871        -0.1235         7.0798         7.0798         6.1937         6.0494      4466.4668
    3701.03400      -0.143367       355.5720       126.6692         0.1180         4.9864         4.9864        45.4612         0.0204         7.0355         7.0355         6.1918         6.0496      4501.0000
    3701.18640      -0.128188       355.5720       126.2363         0.0185         5.0374         5.0374        43.3936         0.0153         6.9843         6.9843         6.1909         6.0464      4535.4375
    3701.33880      -0.110907       355.5720       126.3036         0.0753         5.0159         5.0159        41.5278         0.0170         6.9350         6.9350         6.1909         6.0454      4605.8892
    3701.49120      -0.095798       355.5720       126.9074        -0.0722         4.9957         4.9957        39.3366         0.0262         6.8941         6.8941         6.2062         6.0378      4616.7275
    3701.64360      -0.047542       355.5720       127.2161         0.0147         5.0743         5.0743        38.9455         0.0931         6.9526         6.9526         6.2077         6.0484      4543.5601
    3701.79600      -0.008392       355.5720       126.8057         0.0730         4.8838         4.8838        41.4984         0.0171         6.9397         6.9397         6.2174         6.0398      4478.1191
    3701.94840      -0.007613       355.5720       127.0053        -0.1224         4.8297         4.8297        41.7424        -0.0332         6.8978         6.8978         6.2186         6.0445      4417.1699
    3702.10080      -0.007530       355.5720       125.9407         0.0347         4.9822         4.9822        42.8335         0.0551         6.8596         6.8596         6.1974         6.0504      4469.0659
    3702.25320      -0.007572       355.5720       126.2620         0.1457         4.9646         4.9646        43.2570         0.0355         6.8840         6.8840         6.1918         6.0509      4432.6479
    3702.40560      -0.007563       354.1610       126.3260         0.1005         4.7482         4.7482        43.0551         0.0624         6.8261         6.8261         6.1981         6.0510      4454.4570
    3702.55800      -0.007448       354.1610       126.9369         0.0841         4.7124         4.7124        41.6881         0.0442         6.8142         6.8142         6.2027         6.0506      4483.4790
    3702.71040      -0.007567       354.1610       128.1973         0.0966         4.7403         4.7403        42.6673         0.0535         6.7985         6.7985         6.1951         6.0484      4478.6846
    3702.86280      -0.007828       354.1610       128.4366         0.0991         4.8152         4.8152        43.5254        -0.0810         6.8883         6.8883         6.1938         6.0480      4413.6714
    3703.01520      -0.007803       354.1610       128.9476        -0.0675         5.0021         5.0021        44.9286         0.0845         6.9445         6.9445         6.1943         6.0494      4502.9282
    3703.16760      -0.008673       355.5720       128.1397        -0.0262         5.0622         5.0622        45.8824         0.0499         6.8005         6.8005         6.1997         6.0497      4425.7559
    3703.32000      -0.007533       355.5720       127.5563         0.0873         5.1622         5.1622        46.6174         0.0293         6.7842         6.7842         6.1942         6.0495      4491.2202
    3703.47240      -0.007475       355.5720       126.9515         0.0695         5.0356         5.0356        47.0183         0.1158         6.8672         6.8672         6.1956         6.0493      4428.2886
    3703.62480      -0.007453       355.5720       126.9177        -0.0989         5.0157         5.0157        47.5518         0.0393         6.8773         6.8773         6.1934         6.0503      4437.1426
    3703.77720      -0.007597       355.5720       126.2836         0.0329         5.0623         5.0623        47.1502        -0.0035         6.8673         6.8673         6.1954         6.0501      4407.8901
    3703.92960      -0.007550       355.5720       126.0768         0.0745         5.1376         5.1376        45.8802        -0.0010         6.8688         6.8688         6.2093         6.0490      4419.9204
    3704.08200      -0.007715       355.5720       125.4676         0.0533         5.1682         5.1682        44.9996         0.0289         6.9435         6.9435         6.1996         6.0492      4352.7988
