~Version Information Block
VERS .                 2.00:  CWLS LOG ASCII STANDARD - VERSION 2.00
WRAP .                   NO:  One line per depth step
~Well Information Block
#MNEM.UNIT        Data Type   Information
#---------- ----------------  -----------
STRT .M          3470.91000:  START DEPTH
STOP .M          3530.04120:  STOP DEPTH
STEP .M             0.15240:  STEP
NULL .              -999.25:  NULL VALUE
COMP .              Statoil:  COMPANY
WELL .          NO_15/9-F-5:  WELL
FLD  .                Volve:  FIELD
LOC  .                Volve:  LOCATION
CTRY .               Norway:  COUNTRY
STAT .                     :  STATE
CNTY .                     :  COUNTY
SRVC .         Schlumberger:  SERVICE COMPANY
DATE .           11/03/2015:  DATE
API  .                     :  API NUMBER
UWI  .             15/9-F-5:  UNIQUE WELL ID
LATI .     58° 26' 29.66" N:  LATITUDE
LONG .      1° 53' 14.99" E:  LONGITUDE
~Curve Information Block
#MNEM.UNIT         API CODE   Curve Description
#---------- ----------------  -----------------
DEPTH.M                    :  Depth Index
CCLC .V                    :  (PSTP-B)                (1in)                   CCL Computed Amplitude
CVEL .M/SEC                 :  (WLWorkflow)            (1in)                   Cable Velocity
FBEF .UA                   :  (RST-D)                 (6in)                   Far Effective Beam Curre
FCOR .                     :  (RST-D)                 (6in)                   Far Carbon/Oxygen Ratio
FERD .                     :  (RST-D)                 (6in)                   Far IC Mode Capture Opti
FIRD .                     :  (RST-D)                 (6in)                   Far Inelastic Optimizati
GR   .GAPI                 :  (PSTP-B)                (6in)                   Gamma Ray
NCOR .                     :  (RST-D)                 (6in)                   Near Carbon/Oxygen Ratio
NERD .                     :  (RST-D)                 (6in)                   Near IC Mode Capture Opt
NIRD .                     :  (RST-D)                 (6in)                   Near Inelastic Optimizat
RB_PCMS.DEG                  :  (PCMS-A)                (6in)                   Relative Bearing
TENS .LBF                  :  (WLWorkflow)            (1in)                   Cable Tension
WPRE .BAR                  :  (PSTP-B)                (6in)                   Well Pressure
WTEP .DEGC                 :  (PSTP-B)                (6in)                   Well Temperature
~Parameter Information Block
#MNEM.UNIT            Value   Description
#---------- ----------------  -----------
APD  .M                  54:  Elevation of Depth Reference (LMF) Above Permanent Datum
CLAB .              Country:  :County Label
ECF  .M             -999.25:  Elevation of Casing Flange above Permanent Datum
EDF  .M                  54:  Elevation of Drill Floor Above Permanent Datum
EGL  .M                 -91:  Elevation of Ground Level Above Permanent Datum
EKB  .M             -999.25:  Elevation of Kelly Bushing Above Permanent Datum
EPD  .M                   0:  Elevation of Permanent Datum (PDAT) above Mean Sea Level
FL1  .            North Sea:  Field Location Line 1
FL2  .     Norwegian Sector:  Field Location Line 2
LMF  .                   DF:  Logging Measured From
LUL  .                 NOBO:  Logging Unit Location
LUN  .          ONCC-A 3837:  Logging Unit Number
PDAT .                  MSL:  Local Permanent Datum
RIGN .      Maersk Inspirer:  Rig Name
RIGTYP.               Jackup:  Rig Type
SON  .           C2TQ-00038:  Service Order Number
TAPE_NAME.     RST_IC_Pass3___03Nov15_234906.las:  
TOOL_STRING.              UNKNOWN:  
WN   .             15/9-F-5:  WELL NAME
PROJECT.     SLEIPNER_OST@st-vlinapp01:  
SET  .        RSTD_1115_IC3:  
~Other Information Block
# 
~A       DEPTH           CCLC           CVEL           FBEF           FCOR           FERD           FIRD             GR           NCOR           NERD           NIRD        RB_PCMS           TENS           WPRE           WTEP 
# ...
    3520.28760      -0.015870    -0.00891983       133.8392       0.115010         5.6608         5.6608      -999.2500      -0.016760         4.3187         4.3187       349.6497      4006.0706       362.0614        82.0950
    3520.44000      -0.017800    -0.00889033       134.4420       0.037090         5.6424         5.6424      -999.2500       0.002270         4.3089         4.3089       349.6525      3906.6287       362.0634        82.0930
    3520.59240      -0.019980    -0.00851517       134.1843      -0.135120         5.4963         5.4963      -999.2500       0.029720         4.3329         4.3329       349.6449      3950.8867       362.0655        82.0883
    3520.74480      -0.022410    -0.00844867       133.0545       0.100650         5.5579         5.5579      -999.2500      -0.055360         4.3297         4.3297       349.6340      3993.3486       362.0677        82.0858
    3520.89720      -0.025150    -0.00845750       133.4981      -0.098920         5.5264         5.5264      -999.2500      -0.013180         4.3265         4.3265       349.6258      3900.4082       362.0702        82.0837
    3521.04960      -0.028210    -0.00832300       133.7559      -0.050090         5.6203         5.6203      -999.2500      -0.015760         4.3055         4.3055       349.6299      4015.0000       362.0723        82.0843
    3521.20200      -0.031660    -0.00840417       133.1940       0.073620         5.6205         5.6205      -999.2500       0.016850         4.2770         4.2770       349.6367      3910.3201       362.0741      -999.2500
    3521.35440    -999.250000    -0.00826883       132.8751      -0.230840         5.6497         5.6497      -999.2500       0.040740         4.3205         4.3205       349.6335      3936.2561      -999.2500      -999.2500
    3521.50680    -999.250000    -0.00843883       133.9777      -0.100510         5.7190         5.7190      -999.2500      -0.040540         4.3180         4.3180       349.6284      3943.7783      -999.2500      -999.2500
    3521.65920    -999.250000    -0.00828300       133.4108       0.074140         5.6337         5.6337      -999.2500      -0.033900         4.2816         4.2816       349.6324      3993.1531      -999.2500      -999.2500
    3521.81160    -999.250000    -0.00832600       133.4316       0.054970         5.6898         5.6898      -999.2500      -0.046010         4.2922         4.2922       349.6349      4006.2888      -999.2500      -999.2500
    3521.96400    -999.250000    -0.00848633       132.9781       0.083550         5.7468         5.7468      -999.2500       0.054500         4.2849         4.2849       349.5999      3926.9536      -999.2500      -999.2500
    3522.11640    -999.250000    -0.00844867       132.4891      -0.030990         5.7020         5.7020      -999.2500       0.020560         4.2945         4.2945       349.6378      3936.7620      -999.2500      -999.2500
    3522.26880    -999.250000    -0.00836133       134.1133       0.111940         5.7173         5.7173      -999.2500       0.004830         4.2861         4.2861       349.6271      3970.8745      -999.2500      -999.2500
    3522.42120    -999.250000    -0.00836567       133.3295       0.068190         5.7154         5.7154      -999.2500       0.041600         4.2649         4.2649      -999.2500      3907.9348      -999.2500      -999.2500
    3522.57360    -999.250000    -0.00837717       131.9640      -0.010520         5.7241         5.7241      -999.2500       0.016800         4.2561         4.2561      -999.2500      3886.5757      -999.2500      -999.2500
    3522.72600    -999.250000    -0.00817250       131.7642       0.085070         5.8531         5.8531      -999.2500      -0.034380         4.2015         4.2015      -999.2500      3965.1958      -999.2500      -999.2500
    3522.87840    -999.250000    -0.00820017       131.3805       0.125380         5.8179         5.8179      -999.2500      -0.007540         4.2225         4.2225      -999.2500      3949.1963      -999.2500      -999.2500
    3523.03080    -999.250000    -0.00826833       130.8294      -0.156280         5.8450         5.8450      -999.2500      -0.003230         4.2363         4.2363      -999.2500      3917.2126      -999.2500      -999.2500
    3523.18320    -999.250000    -0.00824183       130.6488       0.007050         5.9069         5.9069      -999.2500      -0.045810         4.2779         4.2779      -999.2500      4015.2991      -999.2500      -999.2500
    3523.33560    -999.250000    -0.00812300       130.5860       0.105800         5.9248         5.9248      -999.2500       0.018660         4.3105         4.3105      -999.2500      3942.0000      -999.2500      -999.2500
    3523.48800    -999.250000    -0.00799867       130.5923       0.065180         5.9287         5.9287      -999.2500       0.065070         4.3229         4.3229      -999.2500      3923.3611      -999.2500      -999.2500
    3523.64040    -999.250000    -0.00814517       131.1706      -0.089470         5.9496         5.9496      -999.2500      -0.026930         4.2594         4.2594      -999.2500      3963.8269      -999.2500      -999.2500
    3523.79280    -999.250000    -0.00818767       131.3424       0.105980         5.9060         5.9060      -999.2500       0.046380         4.2476         4.2476      -999.2500      3994.9358      -999.2500      -999.2500
    3523.94520    -999.250000    -0.00799083       131.2361       0.006290         5.8739         5.8739      -999.2500       0.026100         4.2461         4.2461      -999.2500      3996.7297      -999.2500      -999.2500
    3524.09760    -999.250000    -0.00789967       131.8787      -0.040650         5.8874         5.8874      -999.2500      -0.057250         4.2828         4.2828      -999.2500      3999.6006      -999.2500      -999.2500
    3524.25000    -999.250000    -0.00794483       130.9044       0.035270         5.8503         5.8503      -999.2500       0.023890         4.2606         4.2606      -999.2500      3990.5117      -999.2500      -999.2500
    3524.40240    -999.250000    -0.00769983       131.5075       0.056570         5.8499         5.8499      -999.2500       0.036820         4.2483         4.2483      -999.2500      3927.8955      -999.2500      -999.2500
    3524.55480    -999.250000    -0.00789700       131.3438       0.106770         5.8396         5.8396      -999.2500       0.015440         4.2471         4.2471      -999.2500      3923.4780      -999.2500      -999.2500
    3524.70720    -999.250000    -0.00775267       130.5101       0.011730         5.9446         5.9446      -999.2500       0.072570         4.2380         4.2380      -999.2500      3922.3967      -999.2500      -999.2500
    3524.85960    -999.250000    -0.00740050       131.0048       0.120220         5.8798         5.8798      -999.2500       0.025730         4.2333         4.2333      -999.2500      3978.9048      -999.2500      -999.2500
    3525.01200    -999.250000    -0.00769817       130.5923      -0.046860         5.9137         5.9137      -999.2500      -0.123270         4.2210         4.2210      -999.2500      3940.9390      -999.2500      -999.2500
    3525.16440    -999.250000    -0.00808983       131.4381      -0.108640         5.8289         5.8289      -999.2500      -0.053990         4.2586         4.2586      -999.2500      3907.6965      -999.2500      -999.2500
    3525.31680    -999.250000    -0.00800917       130.4456       0.108150         5.8599         5.8599      -999.2500      -0.007720         4.2761         4.2761      -999.2500      3958.7551      -999.2500      -999.2500
    3525.46920    -999.250000    -0.00791133       130.0394      -0.185380         5.8336         5.8336      -999.2500      -0.007390         4.2417         4.2417      -999.2500      3972.7720      -999.2500      -999.2500
    3525.62160    -999.250000    -0.00807000       130.4401       0.046670         5.8927         5.8927      -999.2500       0.082850         4.2303         4.2303      -999.2500      4010.2700      -999.2500      -999.2500
