~Version Information Block
VERS .                 2.00:  CWLS LOG ASCII STANDARD - VERSION 2.00
WRAP .                   NO:  One line per depth step
~Well Information Block
#MNEM.UNIT        Data Type   Information
#---------- ----------------  -----------
STRT .M          3445.30680:  START DEPTH
STOP .M          3635.80680:  STOP DEPTH
STEP .M             0.15240:  STEP
NULL .              -999.25:  NULL VALUE
COMP .              Statoil:  COMPANY
WELL .          NO_15/9-F-5:  WELL
FLD  .                VOLVE:  FIELD
LOC  .            North Sea:  LOCATION
CTRY .                     :  COUNTRY
STAT .                     :  STATE
CNTY .                     :  COUNTY
SRVC .         Schlumberger:  SERVICE COMPANY
DATE .          16-Sep-2012:  DATE
API  .                     :  API NUMBER
UWI  .             15/9-F-5:  UNIQUE WELL ID
~Curve Information Block
#MNEM.UNIT         API CODE   Curve Description
#---------- ----------------  -----------------
DEPTH.M                    :  DEPTH (BOREHOLE)
CCLC .V                    :  CCL
CCLD .V                    :  CCL Discriminated Amplitude
CRRA .                     :  Near-Far Count Rate Ratio
CS   .F/MN                 :  Cable Speed
CVEL .M/MIN                 :  Cable Velocity
DEVI .DEG                  :  Hole Deviation
FBEF .UA                   :  RST Far Effective Beam Current
FCOR .                     :  RST Far Carbon/Oxygen Ratio
FERD .                     :  RST Far IC Mode Capture Optimization Resolution Degradation Factor
FIRD .                     :  RST Far Inelastic Optimization Resolution Degradation Factor
GR   .GAPI                 :  Gamma Ray
NCOR .                     :  RST Near Carbon/Oxygen Ratio
NERD .                     :  RST Near IC Mode Capture Optimization Resolution Degradation Factor
NIRD .                     :  RST Near Inelastic Optimization Resolution Degradation Factor
RB_PCMS.DEG                  :  Relative Bearing
TENS .LBF                  :  Cable Tension
WPRE .PSI                  :  Well Pressure
WTEP .DEGC                 :  Well Temperature
~Parameter Information Block
#MNEM.UNIT            Value   Description
#---------- ----------------  -----------
APD  .M           54.900002:  Elevation of Depth Reference (LMF) above Permanent Datum
RUN  .                Run 1:  RUN NUMBER
PROJECT.     SLEIPNER_OST@st-vlinapp01:  
SET  .        RSTD_0912_IC1:  
~Other Information Block
# 
~A       DEPTH           CCLC           CCLD           CRRA             CS           CVEL           DEVI           FBEF           FCOR           FERD           FIRD             GR           NCOR           NERD           NIRD        RB_PCMS           TENS           WPRE           WTEP 
# ...
    3555.79680        -0.0056         0.0000         2.8522         1.2054      -0.369600        53.5243       111.0437    -0.02800000         5.6533         5.6533        26.8409      -0.021300         2.4672         2.4672         7.4628      2723.4287      5084.5806        87.3455
    3555.94920        -0.0032         0.0000         2.8585         1.2411      -0.375700        53.5426       112.2141    -0.03680000         5.6211         5.6211        26.7413      -0.005400         2.4200         2.4200         7.3571      2715.9070      5084.7207        87.3304
    3556.10160        -0.0018         0.0000         2.8827         1.2018      -0.368900        53.5541       111.2466    -0.04870000         5.6491         5.6491        26.7460       0.047800         2.4255         2.4255         7.3087      2724.2124      5084.8413        87.2783
    3556.25400        -0.0018         0.0000         2.8579         1.2293      -0.373700        53.5655       111.3159    -0.04660000         5.7130         5.7130        26.4651       0.033900         2.4529         2.4529         7.2558      2716.4932      5085.0151        87.2725
    3556.40640        -0.0020         0.0000         2.8666         1.2083      -0.369800        53.5883       112.4221    -0.11550000         5.7402         5.7402        25.7897      -0.077900         2.3837         2.3837         7.1172      2725.2722      5085.1187        87.2447
    3556.55880        -0.0030         0.0000         2.8914         1.2503      -0.373000        53.6069       111.0851     0.04030000         5.5568         5.5568        25.7218       0.003600         2.3731         2.3731         7.1905      2720.4265      5085.2368        87.2204
    3556.71120        -0.0001         0.0000         2.8527         1.2051      -0.370700        53.6251       111.7958    -0.00140000         5.6392         5.6392        26.3891      -0.002700         2.3811         2.3811         7.1646      2719.0244      5085.3765        87.1962
    3556.86360        -0.0472         0.0000         2.8824         1.2087      -0.371200        53.6451       111.8026     0.08510000         5.4951         5.4951        27.1178      -0.028300         2.3454         2.3454         7.1216      2727.9080      5085.5005        87.1709
    3557.01600        -0.0037         0.0000         2.8721         1.2329      -0.373900        53.6787       112.0034    -0.00550000         5.5427         5.5427        27.1437       0.015800         2.3410         2.3410         7.1626      2729.8611      5085.6274        87.1519
    3557.16840        -0.0090         0.0000         2.8753         1.2218      -0.371400        53.6966       111.4946    -0.00360000         5.5424         5.5424        26.6111      -0.063700         2.3496         2.3496         7.2446      2720.7615      5085.7407        87.1290
    3557.32080        -0.0045         0.0000         2.8586         1.2290      -0.373200        53.7228       112.0887     0.04050000         5.4863         5.4863        26.0413      -0.025900         2.3500         2.3500         7.3819      2717.6104      5085.8926        87.1107
    3557.47320        -0.0035         0.0000         2.8831         1.2024      -0.365900        53.7303       112.6707    -0.01710000         5.4833         5.4833        26.0300       0.046000         2.3639         2.3639         7.3873      2721.9121      5086.0103        87.0822
    3557.62560        -0.0038         0.0000         2.9159         1.2133      -0.368400        53.7443       112.2117     0.01970000         5.2588         5.2588        26.4820       0.001900         2.3374         2.3374         7.5973      2716.4678      5086.1294        87.0733
    3557.77800         0.0622         0.0000         2.8954         1.2093      -0.368300        53.7401       111.8728     0.02980000         5.1775         5.1775        28.2456      -0.040300         2.2829         2.2829         7.5876      2714.8391      5086.2515        87.0551
    3557.93040        -0.0096         0.0000         2.8919         1.1942      -0.366700        53.7437       110.8609    -0.00860000         5.0603         5.0603        30.1135      -0.047100         2.2872         2.2872         7.6102      2705.2354      5086.3765        87.0285
    3558.08280         0.1090         0.0000         2.8558         1.1939      -0.366200        53.7620       111.1630     0.03250000         5.1270         5.1270        31.0230      -0.052700         2.2312         2.2312         7.3917      2720.1978      5086.5015        86.9985
    3558.23520         0.0367         0.0000         2.8705         1.2136      -0.366500        53.7722       111.6669    -0.01780000         5.0170         5.0170        30.6610       0.021000         2.1735         2.1735         7.0452      2714.0693      5086.6245        86.9869
    3558.38760        -0.0129         0.0000         2.8722         1.1900      -0.363500        53.7812       111.8111    -0.19930001         4.9589         4.9589        29.8948      -0.017100         2.1710         2.1710         6.7451      2720.2654      5086.7690        86.9698
    3558.54000        -0.0129         0.0000         2.8880         1.2215      -0.367300        53.7852       112.1984    -0.02410000         5.0061         5.0061        28.7646       0.009600         2.2517         2.2517         6.6083      2729.7188      5086.9116        86.9390
    3558.69240        -0.0110         0.0000         2.8907         1.2165      -0.368400        53.7902       112.2253     0.07710000         5.0700         5.0700        27.2906      -0.004400         2.2495         2.2495         6.6247      2718.5376      5087.0410        86.9228
    3558.84480         0.0262         0.0000         2.8873         1.2251      -0.373500        53.8096       111.2556    -0.04610000         5.0333         5.0333        26.3142      -0.005200         2.2103         2.2103         6.7245      2713.4294      5087.1592        86.8873
    3558.99720        -0.0035         0.0000         2.8668         1.2096      -0.368800        53.8276       110.9013    -0.05550000         5.1851         5.1851        25.4429       0.092000         2.1750         2.1750         6.9087      2711.5808      5087.2793        86.8721
    3559.14960         0.0616         0.0000         2.8657         1.2136      -0.370900        53.8355       110.0531    -0.04500000         5.3467         5.3467        24.2442       0.083600         2.1892         2.1892         6.9120      2710.0405      5087.4019        86.8515
    3559.30200        -0.0101         0.0000         2.8513         1.2247      -0.372200        53.8370       110.0294     0.00380000         5.4100         5.4100        23.1632      -0.004300         2.1609         2.1609         6.6131      2707.1223      5087.5503        86.8229
    3559.45440        -0.0110         0.0000         2.8454         1.2215      -0.374300        53.8551       111.0827     0.03300000         5.3522         5.3522        22.6648      -0.008200         2.1600         2.1600         6.7263      2714.0000      5087.6704        86.8058
    3559.60680        -0.0115         0.0000         2.8773         1.2297      -0.374900        53.8761       112.9234     0.08330000         5.2979         5.2979        22.4519      -0.051300         2.1775         2.1775         6.8931      2707.6055      5087.8032        86.7830
    3559.75920        -0.0073         0.0000         2.8933         1.2051      -0.371800        53.9051       111.7660     0.02390000         5.3648         5.3648        22.1814      -0.015100         2.2673         2.2673         7.0840      2725.1360      5087.9224        86.7608
    3559.91160        -0.0110         0.0000         2.8712         1.2211      -0.374700        53.9233       110.7395     0.06190000         5.4475         5.4475        21.4347       0.010700         2.3123         2.3123         7.1387      2722.8667      5088.0405        86.7309
    3560.06400        -0.0080         0.0000         2.8385         1.2333      -0.373900        53.9286       111.4285    -0.02220000         5.4454         5.4454        20.9121      -0.000600         2.2870         2.2870         7.1956      2717.6511      5088.1826        86.7135
