~Version Information Block
VERS .                 2.00:  CWLS LOG ASCII STANDARD - VERSION 2.00
WRAP .                   NO:  One line per depth step
~Well Information Block
#MNEM.UNIT        Data Type   Information
#---------- ----------------  -----------
STRT .M          3199.94280:  START DEPTH
STOP .M          3410.40720:  STOP DEPTH
STEP .M             0.15240:  STEP
NULL .              -999.25:  NULL VALUE
COMP .              Statoil:  COMPANY
WELL .          NO_15/9-F-4:  WELL
FLD  .                VOLVE:  FIELD
LOC  .            North Sea:  LOCATION
CTRY .                     :  COUNTRY
STAT .                     :  STATE
CNTY .                     :  COUNTY
SRVC .         Schlumberger:  SERVICE COMPANY
DATE .          13-Sep-2012:  DATE
API  .                     :  API NUMBER
UWI  .             15/9-F-4:  UNIQUE WELL ID
~Curve Information Block
#MNEM.UNIT         API CODE   Curve Description
#---------- ----------------  -----------------
DEPTH.M                    :  DEPTH (BOREHOLE)
CCLC .V                    :  CCL
CRRA .                     :  Near-Far Count Rate Ratio
CVEL .M/MIN                 :  Cable Velocity
FBEF .UA                   :  RST Far Effective Beam Current
FCOR .                     :  RST Far Carbon/Oxygen Ratio
FERD .                     :  RST Far IC Mode Capture Optimization Resolution Degradation Factor
FIRD .                     :  RST Far Inelastic Optimization Resolution Degradation Factor
GR   .GAPI                 :  Gamma Ray
NCOR .                     :  RST Near Carbon/Oxygen Ratio
NERD .                     :  RST Near IC Mode Capture Optimization Resolution Degradation Factor
NIRD .                     :  RST Near Inelastic Optimization Resolution Degradation Factor
RB_PCMS.DEG                  :  Relative Bearing
TENS .LBF                  :  Cable Tension
~Parameter Information Block
#MNEM.UNIT            Value   Description
#---------- ----------------  -----------
APD  .M                  54:  Elevation of Depth Reference (LMF) above Permanent Datum
RUN  .                    4:  RUN NUMBER
PROJECT.     SLEIPNER_OST@st-vlinapp01:  
SET  .        RSTD_0912_IC1:  
~Other Information Block
# 
~A       DEPTH           CCLC           CRRA           CVEL           FBEF           FCOR           FERD           FIRD             GR           NCOR           NERD           NIRD        RB_PCMS           TENS 
# ...
    3283.15320        -0.0062         2.8884      -0.504700       111.9482         0.0126         5.8910         5.8910        19.9712       0.052500         2.7228         2.7228       357.1337      2269.2866
    3283.30560        -0.0061         2.8586      -0.508100       110.9707         0.0675         5.8719         5.8719        20.1970      -0.000400         2.6939         2.6939       357.3206      2264.8699
    3283.45800        -0.1157         2.8468      -0.506300       110.6273        -0.0347         5.8746         5.8746        20.5505       0.022700         2.7072         2.7072       357.3660      2278.5278
    3283.61040         0.1546         2.8192      -0.514200       110.9266         0.0364         5.8274         5.8274        20.4222      -0.104400         2.7089         2.7089       357.1773      2264.1536
    3283.76280         0.0299         2.8228      -0.506300       112.7229        -0.0379         5.7658         5.7658        20.8068       0.035500         2.6685         2.6685       357.2614      2290.8413
    3283.91520        -0.2285         2.8681      -0.507600       112.3193        -0.0199         5.6321         5.6321        20.7789       0.065100         2.6867         2.6867       357.1581      2263.8591
    3284.06760        -0.0106         2.8486      -0.506600       112.4787         0.0746         5.6161         5.6161        21.2463      -0.037200         2.6427         2.6427       357.0531      2275.6865
    3284.22000        -0.0093         2.8548      -0.506800       113.1173         0.0561         5.7974         5.7974        20.7827       0.106200         2.6678         2.6678       356.9938      2276.0518
    3284.37240        -0.0632         2.8754      -0.509300       112.5805        -0.0328         5.7083         5.7083        21.3705       0.002000         2.6634         2.6634       357.1202      2265.2925
    3284.52480         0.0198         2.8448      -0.514400       112.3509         0.0443         5.6831         5.6831        21.1839      -0.001400         2.6757         2.6757       357.3156      2281.7144
    3284.67720         0.0816         2.8614      -0.502900       112.2575         0.1346         5.7552         5.7552        21.5402      -0.025900         2.6478         2.6478       357.5817      2266.7070
    3284.82960        -0.0085         2.8509      -0.504200       112.7646         0.0450         5.6001         5.6001        21.7556       0.060200         2.6846         2.6846       357.5928      2264.7759
    3284.98200        -0.0132         2.8571      -0.503300       112.0791         0.0978         5.5916         5.5916        22.2203       0.020200         2.6414         2.6414       357.5876      2272.7759
    3285.13440         0.0067         2.8523      -0.502600       112.8459         0.0580         5.4251         5.4251        21.6135       0.012400         2.6378         2.6378       357.2852      2263.3555
    3285.28680         0.0304         2.8644      -0.505600       113.3549        -0.0447         5.5776         5.5776        21.7814      -0.051800         2.6256         2.6256       356.9977      2259.3823
    3285.43920         0.1130         2.8702      -0.507000       114.2249        -0.0559         5.6693         5.6693        22.1524       0.037700         2.6308         2.6308       356.8398      2275.2517
    3285.59160        -0.0051         2.8918      -0.506700       113.7616         0.0582         5.4754         5.4754        23.1637       0.078300         2.6442         2.6442       356.8025      2270.9407
    3285.74400        -0.0032         2.8778      -0.502600       114.7528        -0.0382         5.5500         5.5500        24.6186      -0.045300         2.6485         2.6485       356.7538      2271.6704
    3285.89640        -0.0015         2.9191      -0.507900       115.9246         0.1573         5.6987         5.6987        27.0202       0.005000         2.6501         2.6501       356.7234      2263.9482
    3286.04880        -0.0009         2.9603      -0.505000       115.4614        -0.0632         5.6009         5.6009        28.9552       0.034300         2.6317         2.6317       356.7133      2265.8125
    3286.20120        -0.1084         2.9605      -0.507600       112.8399        -0.0033         5.2677         5.2677        30.0983      -0.017900         2.6427         2.6427       356.8009      2276.2222
    3286.35360         0.0031         2.9055      -0.504000       111.3078        -0.0129         5.4259         5.4259        29.7788       0.030300         2.6510         2.6510       356.7785      2277.9048
    3286.50600        -0.0388         2.9037      -0.503000       108.6235         0.0297         5.4701         5.4701        29.5277      -0.059200         2.6722         2.6722       356.7372      2268.1912
    3286.65840        -0.0053         2.8518      -0.504100       106.3436        -0.0234         5.3994         5.3994        28.0486      -0.009800         2.6714         2.6714       356.8334      2268.7573
    3286.81080        -0.0034         2.8151      -0.502300       104.9431        -0.1741         5.3571         5.3571        26.0307       0.056600         2.6679         2.6679       356.7592      2270.1904
    3286.96320         0.0008         2.7974      -0.504500       101.9995         0.0514         5.2471         5.2471        24.6944       0.100700         2.6742         2.6742       356.7306      2273.5884
    3287.11560        -0.0029         2.7467      -0.513600       100.5166         0.0870         5.1915         5.1915        24.5888       0.024300         2.6484         2.6484       356.7251      2270.6704
    3287.26800        -0.0039         2.7118      -0.505700       100.2829        -0.0535         5.2954         5.2954        24.0913       0.072700         2.6396         2.6396       356.7000      2262.8708
    3287.42040        -0.0030         2.6919      -0.507600       101.1937         0.0468         5.1799         5.1799        24.6281      -0.026600         2.6379         2.6379       356.5537      2252.0481
    3287.57280        -0.0033         2.7032      -0.505400       103.9323         0.1597         5.2190         5.2190        25.7302       0.035000         2.6779         2.6779       356.3128      2272.0703
    3287.72520        -0.0063         2.7549      -0.510100       106.3594        -0.0002         5.1878         5.1878        28.2348       0.054200         2.6952         2.6952       356.3283      2262.9294
    3287.87760        -0.0071         2.7899      -0.506500       109.3695         0.0759         5.0866         5.0866        29.6435      -0.036700         2.7011         2.7011       356.3572      2279.2031
    3288.03000         0.1125         2.8262      -0.506900       112.5551        -0.0347         5.3179         5.3179        32.0276       0.015100         2.7000         2.7000       356.5229      2269.7158
    3288.18240         0.0401         2.8941      -0.502700       115.8313         0.1218         5.5875         5.5875        33.6900       0.030300         2.6801         2.6801       356.4629      2264.0149
    3288.33480         0.1084         2.9732      -0.506100       118.0144         0.1247         5.8135         5.8135        35.0121       0.024200         2.6742         2.6742       356.3244      2268.2280
    3288.48720        -0.0074         3.0144      -0.501800       117.3973         0.0391         5.7412         5.7412        34.6095      -0.029200         2.7166         2.7166       356.2897      2262.9194
    3288.63960        -0.0043         3.0225      -0.510300       115.7408         0.0607         5.8631         5.8631        34.3511       0.023000         2.7177         2.7177       356.1902      2272.1531
    3288.79200        -0.0042         2.9622      -0.503600       114.3255        -0.0210         5.8681         5.8681        33.1367      -0.001200         2.7265         2.7265       356.0974      2269.0037
    3288.94440         0.1218         2.9666      -0.498200       114.2149        -0.2423         5.7978         5.7978        31.9752       0.005600         2.6770         2.6770       356.1128      2261.9709
