~Version Information Block
VERS .                 2.00:  CWLS LOG ASCII STANDARD - VERSION 2.00
WRAP .                   NO:  One line per depth step
~Well Information Block
#MNEM.UNIT        Data Type   Information
#---------- ----------------  -----------
STRT .M          3230.11800:  START DEPTH
STOP .M          3389.98560:  STOP DEPTH
STEP .M             0.15240:  STEP
NULL .              -999.25:  NULL VALUE
COMP .              Statoil:  COMPANY
WELL .          NO_15/9-F-4:  WELL
FLD  .                VOLVE:  FIELD
LOC  .            North Sea:  LOCATION
CTRY .                     :  COUNTRY
STAT .                     :  STATE
CNTY .                     :  COUNTY
SRVC .         Schlumberger:  SERVICE COMPANY
DATE .          13-Sep-2012:  DATE
API  .                     :  API NUMBER
UWI  .             15/9-F-4:  UNIQUE WELL ID
~Curve Information Block
#MNEM.UNIT         API CODE   Curve Description
#---------- ----------------  -----------------
DEPTH.M                    :  DEPTH (BOREHOLE)
CCLC .V                    :  CCL
CCLD .V                    :  CCL Discriminated Amplitude
CRRA .                     :  Near-Far Count Rate Ratio
CS   .F/MN                 :  Cable Speed
CVEL .M/MIN                 :  Cable Velocity
FBEF .UA                   :  RST Far Effective Beam Current
FCOR .                     :  RST Far Carbon/Oxygen Ratio
FERD .                     :  RST Far IC Mode Capture Optimization Resolution Degradation Factor
FIRD .                     :  RST Far Inelastic Optimization Resolution Degradation Factor
GR   .GAPI                 :  Gamma Ray
NCOR .                     :  RST Near Carbon/Oxygen Ratio
NERD .                     :  RST Near IC Mode Capture Optimization Resolution Degradation Factor
NIRD .                     :  RST Near Inelastic Optimization Resolution Degradation Factor
RB_PCMS.DEG                  :  Relative Bearing
TENS .LBF                  :  Cable Tension
WTEP .DEGC                 :  Well Temperature
WTPE .MS                   :  Well Temperature Period
~Parameter Information Block
#MNEM.UNIT            Value   Description
#---------- ----------------  -----------
APD  .M                  54:  Elevation of Depth Reference (LMF) above Permanent Datum
RUN  .                    1:  RUN NUMBER
PROJECT.     SLEIPNER_OST@st-vlinapp01:  
SET  .        RSTD_0912_IC3:  
~Other Information Block
# 
~A       DEPTH           CCLC           CCLD           CRRA             CS           CVEL           FBEF           FCOR           FERD           FIRD             GR           NCOR           NERD           NIRD        RB_PCMS           TENS           WTEP           WTPE 
# ...
    3280.41000         0.0689         0.0000         2.8417         1.5719       -0.47910       110.7551        -0.0108         5.0415         5.0415        42.4226       0.005100         2.7059         2.7059       356.9357      2313.3008        96.3245         4.0268
    3280.56240        -0.0064         0.0000         2.8670         1.5689       -0.47820       111.0286         0.0445         5.0293         5.0293        42.4462       0.012900         2.7106         2.7106       356.9682      2312.9722        96.3267         4.0268
    3280.71480        -0.0058         0.0000         2.8586         1.5515       -0.47290       110.5750         0.0029         5.1149         5.1149        42.0479      -0.012200         2.7118         2.7118       357.0777      2307.7449        96.3296         4.0269
    3280.86720        -0.0060         0.0000         2.8530         1.5505       -0.47260       110.7674        -0.0473         5.1878         5.1878        42.8439      -0.036400         2.7542         2.7542       357.1429      2313.1863        96.3317         4.0269
    3281.01960        -0.0064         0.0000         2.8459         1.5551       -0.47400       111.1173         0.0492         5.1621         5.1621        42.3874       0.017800         2.7256         2.7256       357.1068      2302.9377        96.3366         4.0269
    3281.17200         0.1550         0.0000         2.8675         1.5240       -0.46450       111.5071        -0.0750         5.2942         5.2942        42.4873       0.022100         2.6709         2.6709       356.9772      2304.2781        96.3395         4.0269
    3281.32440        -0.0006         0.0000         2.8748         1.4659       -0.44680       110.8906         0.1146         5.4503         5.4503        41.4785       0.027500         2.7269         2.7269       356.8842      2300.4934        96.3432         4.0270
    3281.47680        -0.0047         0.0000         2.8622         1.2077       -0.35830       110.7641        -0.0371         5.5581         5.5581        41.7663      -0.020100         2.7241         2.7241       356.8629      2296.9331        96.3486         4.0270
    3281.62920         0.0921         0.0000         2.8582         1.9068       -0.58120       110.6067         0.0325         5.5064         5.5064        41.2985      -0.057200         2.6922         2.6922       356.8393      2317.7173        96.3533         4.0271
    3281.78160        -0.0301         0.0000         2.8549         1.9800       -0.60350       111.2702         0.0397         5.5018         5.5018        40.6392       0.016300         2.6837         2.6837       356.8637      2306.5720        96.3540         4.0271
    3281.93400         0.1641         0.0000         2.8736         1.9587       -0.59700       110.5158         0.0515         5.6557         5.6557        39.7501      -0.010600         2.6829         2.6829       356.9105      2305.1702        96.3555         4.0271
    3282.08640        -0.0040         0.0000         2.8612         1.9662       -0.59930       110.8560        -0.0292         5.6975         5.6975        39.2582      -0.064600         2.6644         2.6644       356.9750      2308.5110        96.3574         4.0271
    3282.23880        -0.0064         0.0000         2.8608         1.9843       -0.60480       110.7975        -0.0858         5.7321         5.7321        39.0615       0.076900         2.6783         2.6783       357.0981      2304.8545        96.3598         4.0271
    3282.39120        -0.0055         0.0000         2.8690         1.9843       -0.60480       110.5879         0.0105         5.7502         5.7502        39.6408       0.011800         2.6892         2.6892       357.2033      2306.3362        96.3653         4.0272
    3282.54360        -0.0064         0.0000         2.8572         1.9918       -0.60710       110.6669         0.0785         5.7124         5.7124        40.0019      -0.003000         2.6881         2.6881       357.3071      2311.3584        96.3709         4.0272
    3282.69600        -0.0077         0.0000         2.8527         1.9846       -0.60490       111.0985        -0.0572         5.7048         5.7048        40.8769       0.008500         2.7024         2.7024       357.1037      2300.9824        96.3750         4.0273
    3282.84840        -0.0461         0.0000         2.8568         1.9606       -0.59760       110.4408        -0.0569         5.7066         5.7066        42.1941      -0.008000         2.7185         2.7185       357.1246      2304.7607        96.3801         4.0273
    3283.00080         0.0007         0.0000         2.8698         1.9767       -0.60250       110.0789         0.0185         5.6342         5.6342        42.8806       0.034000         2.7257         2.7257       356.9754      2316.9294        96.3833         4.0273
    3283.15320        -0.0117         0.0000         2.8624         1.9797       -0.60340       108.9168        -0.1617         5.6875         5.6875        42.8848       0.023300         2.7145         2.7145       357.2144      2312.0310        96.3860         4.0274
    3283.30560         0.0754         0.0000         2.8464         2.0075       -0.61190       108.7532        -0.1097         5.7349         5.7349        42.7805       0.080600         2.7236         2.7236       357.3069      2286.8838        96.3874         4.0274
    3283.45800         0.0746         0.0000         2.8297         1.9724       -0.60120       109.7575         0.1389         5.7746         5.7746        42.9098      -0.035500         2.6932         2.6932       357.2299      2330.2236        96.3920         4.0274
    3283.61040        -0.0092         0.0000         2.8576         1.9669       -0.59950       110.4699         0.0336         5.8445         5.8445        42.8394      -0.031600         2.7141         2.7141       357.1110      2314.3142        96.3952         4.0274
    3283.76280        -0.0137         0.0000         2.8464         1.9774       -0.60270       110.9317         0.1235         5.8354         5.8354        42.6164      -0.005600         2.7126         2.7126       357.1160      2309.9648        96.3965         4.0274
    3283.91520         0.1739         0.0000         2.8612         1.9777       -0.60280       111.0252         0.0301         5.8139         5.8139        42.7042       0.055600         2.7201         2.7201       357.0589      2294.3057        96.4047         4.0275
    3284.06760        -0.0134         0.0000         2.8647         1.9505       -0.59450       111.6916        -0.0361         5.8638         5.8638        43.2014      -0.040500         2.7181         2.7181       356.9672      2328.9126        96.4093         4.0276
    3284.22000        -0.0130         0.0000         2.8662         1.8783       -0.57250       110.9281         0.0418         5.8879         5.8879        43.4525      -0.106200         2.6864         2.6864       357.0966      2308.5664        96.4098         4.0276
    3284.37240        -0.0118         0.0000         2.8761         1.7090       -0.52090       110.8872         0.0809         5.8606         5.8606        43.0873       0.054200         2.6927         2.6927       357.1718      2287.8379        96.4165         4.0276
    3284.52480         0.0753         0.0000         2.8558         2.7900       -0.85040       110.9059        -0.0616         6.0003         6.0003        43.2699      -0.001300         2.6729         2.6729       357.2288      2318.8376        96.4202         4.0277
    3284.67720         0.1003         0.0000         2.8539         1.1939       -0.36390       111.4729         0.0994         6.1248         6.1248        43.0517      -0.031400         2.6608         2.6608       357.1966      2299.0586        96.4283         4.0277
    3284.82960        -0.0108         0.0000         2.8695         1.1339       -0.34560       111.0297        -0.0270         6.0396         6.0396        43.3504      -0.048100         2.6930         2.6930       357.1769      2317.5781        96.4310         4.0277
