~Version Information Block
VERS .                 2.00:  CWLS LOG ASCII STANDARD - VERSION 2.00
WRAP .                   NO:  One line per depth step
~Well Information Block
#MNEM.UNIT        Data Type   Information
#---------- ----------------  -----------
STRT .M          3445.30680:  START DEPTH
STOP .M          3635.80680:  STOP DEPTH
STEP .M             0.15240:  STEP
NULL .              -999.25:  NULL VALUE
COMP .              Statoil:  COMPANY
WELL .          NO_15/9-F-5:  WELL
FLD  .                VOLVE:  FIELD
LOC  .            North Sea:  LOCATION
CTRY .                     :  COUNTRY
STAT .                     :  STATE
CNTY .                     :  COUNTY
SRVC .         Schlumberger:  SERVICE COMPANY
DATE .          16-Sep-2012:  DATE
API  .                     :  API NUMBER
UWI  .             15/9-F-5:  UNIQUE WELL ID
~Curve Information Block
#MNEM.UNIT         API CODE   Curve Description
#---------- ----------------  -----------------
DEPTH.M                    :  DEPTH (BOREHOLE)
CCLC .V                    :  CCL
CCLD .V                    :  CCL Discriminated Amplitude
CRRA .                     :  Near-Far Count Rate Ratio
CS   .F/MN                 :  Cable Speed
CVEL .M/MIN                 :  Cable Velocity
DEVI .DEG                  :  Hole Deviation
FBEF .UA                   :  RST Far Effective Beam Current
FCOR .                     :  RST Far Carbon/Oxygen Ratio
FERD .                     :  RST Far IC Mode Capture Optimization Resolution Degradation Factor
FIRD .                     :  RST Far Inelastic Optimization Resolution Degradation Factor
GR   .GAPI                 :  Gamma Ray
NCOR .                     :  RST Near Carbon/Oxygen Ratio
NERD .                     :  RST Near IC Mode Capture Optimization Resolution Degradation Factor
NIRD .                     :  RST Near Inelastic Optimization Resolution Degradation Factor
RB_PCMS.DEG                  :  Relative Bearing
TENS .LBF                  :  Cable Tension
WPRE .PSI                  :  Well Pressure
WTEP .DEGC                 :  Well Temperature
~Parameter Information Block
#MNEM.UNIT            Value   Description
#---------- ----------------  -----------
APD  .M           54.900002:  Elevation of Depth Reference (LMF) above Permanent Datum
RUN  .                Run 1:  RUN NUMBER
PROJECT.     SLEIPNER_OST@st-vlinapp01:  
SET  .        RSTD_0912_IC1:  
~Other Information Block
# 
~A       DEPTH           CCLC           CCLD           CRRA             CS           CVEL           DEVI           FBEF           FCOR           FERD           FIRD             GR           NCOR           NERD           NIRD        RB_PCMS           TENS           WPRE           WTEP 
    3445.30680      -999.2500      -999.2500         3.1999         1.5892      -0.215600        45.8192       120.6207    -0.04130000         6.2408         6.2408        31.3533       0.028300         2.7527         2.7527         8.5004      2686.2061      4989.7300        96.0902
    3445.45920      -999.2500      -999.2500         3.1999         1.5892      -0.215600        45.8192       120.6207    -0.04130000         6.2408         6.2408        31.3533       0.028300         2.7527         2.7527         8.5004      2686.2061      4989.7300        96.0902
    3445.61160      -999.2500      -999.2500         3.1999         1.5892      -0.215600        45.8192       120.6207    -0.04130000         6.2408         6.2408        31.3533       0.028300         2.7527         2.7527         8.5004      2686.2061      4989.7300        96.0902
    3445.76400      -999.2500      -999.2500         3.1999         1.5892      -0.215600        45.8192       120.6207    -0.04130000         6.2408         6.2408        31.3533       0.028300         2.7527         2.7527         8.5004      2686.2061      4989.7300        96.0902
    3445.91640      -999.2500      -999.2500         3.1999         1.5892      -0.215600        45.8192       120.6207    -0.04130000         6.2408         6.2408        31.3533       0.028300         2.7527         2.7527         8.5004      2686.2061      4989.7300        96.0902
    3446.06880      -999.2500      -999.2500         3.1999         1.5892      -0.215600        45.8192       120.6207    -0.04130000         6.2408         6.2408        31.3533       0.028300         2.7527         2.7527         8.5004      2686.2061      4989.7300        96.0902
    3446.22120      -999.2500      -999.2500         3.1999         1.5892      -0.215600        45.8192       120.6207    -0.04130000         6.2408         6.2408        31.3533       0.028300         2.7527         2.7527         8.5004      2686.2061      4989.7300        96.0902
    3446.37360      -999.2500      -999.2500         3.1999         1.5892      -0.215600        45.8192       120.6207    -0.04130000         6.2408         6.2408        31.3533       0.028300         2.7527         2.7527         8.5004      2686.2061      4989.7300        96.0902
    3446.52600      -999.2500      -999.2500         3.1999         1.5892      -0.215600        45.8192       120.6207    -0.04130000         6.2408         6.2408        31.3533       0.028300         2.7527         2.7527         8.5004      2686.2061      4989.7300        96.0902
    3446.67840      -999.2500      -999.2500         3.1999         1.5892      -0.215600        45.8192       120.6207    -0.04130000         6.2408         6.2408        31.3533       0.028300         2.7527         2.7527         8.5004      2686.2061      4989.7300        96.0902
    3446.83080      -999.2500      -999.2500         3.1999         1.5892      -0.215600        45.8192       120.6207    -0.04130000         6.2408         6.2408        31.3533       0.028300         2.7527         2.7527         8.5004      2686.2061      4989.7300        96.0902
    3446.98320      -999.2500      -999.2500         3.1999         1.5892      -0.215600        45.8192       120.6207    -0.04130000         6.2408         6.2408        31.3533       0.028300         2.7527         2.7527         8.5004      2686.2061      4989.7300        96.0902
    3447.13560      -999.2500      -999.2500         3.1999         1.5892      -0.215600        45.8192       120.6207    -0.04130000         6.2408         6.2408        31.3533       0.028300         2.7527         2.7527         8.5004      2686.2061      4989.7300        96.0902
    3447.28800      -999.2500      -999.2500         3.1999         1.5892      -0.215600        45.8192       120.6207    -0.04130000         6.2408         6.2408        31.3533       0.028300         2.7527         2.7527         8.5004      2686.2061      4989.7300        96.0902
    3447.44040      -999.2500      -999.2500         3.1999         1.5892      -0.215600        45.8192       120.6207    -0.04130000         6.2408         6.2408        31.3533       0.028300         2.7527         2.7527         8.5004      2686.2061      4989.7300        96.0902
    3447.59280      -999.2500      -999.2500         3.1999         1.5892      -0.215600        45.8192       120.6207    -0.04130000         6.2408         6.2408        31.3533       0.028300         2.7527         2.7527         8.5004      2686.2061      4989.7300        96.0902
    3447.74520      -999.2500      -999.2500         3.1999         1.5892      -0.215600        45.8192       120.6207    -0.04130000         6.2408         6.2408        31.3533       0.028300         2.7527         2.7527         8.5004      2686.2061      4989.7300        96.0902
    3447.89760      -999.2500      -999.2500         3.1999         1.5892      -0.215600        45.8192       120.6207    -0.04130000         6.2408         6.2408        31.3533       0.028300         2.7527         2.7527         8.5004      2686.2061      4989.7300        96.0902
    3448.05000      -999.2500      -999.2500         3.1999         1.5892      -0.215600        45.8192       120.6207    -0.04130000         6.2408         6.2408        31.3533       0.028300         2.7527         2.7527         8.5004      2686.2061      4989.7300        96.0902
    3448.20240      -999.2500      -999.2500         3.1999         1.5892      -0.215600        45.8192       120.6207    -0.04130000         6.2408         6.2408        31.3533       0.028300         2.7527         2.7527         8.5004      2686.2061      4989.7300        96.0902
    3448.35480      -999.2500      -999.2500         3.1999         1.5892      -0.215600        45.8192       120.6207    -0.04130000         6.2408         6.2408        31.3533       0.028300         2.7527         2.7527         8.5004      2686.2061      4989.7300        96.0902
    3448.50720      -999.2500      -999.2500         3.1999         1.5892      -0.215600        45.8192       120.6207    -0.04130000         6.2408         6.2408        31.3533       0.028300         2.7527         2.7527         8.5004      2686.2061      4989.7300        96.0902
    3448.65960      -999.2500      -999.2500         3.1999         1.5892      -0.215600        45.8192       120.6207    -0.04130000         6.2408         6.2408        31.3533       0.028300         2.7527         2.7527         8.5004      2686.2061      4989.7300        96.0902
    3448.81200      -999.2500      -999.2500         3.1999         1.5892      -0.215600        45.8192       120.6207    -0.04130000         6.2408         6.2408        31.3533       0.028300         2.7527         2.7527         8.5004      2686.2061      4989.7300        96.0902
    3448.96440      -999.2500      -999.2500         3.1999         1.5892      -0.215600        45.8192       120.6207    -0.04130000         6.2408         6.2408        31.3533       0.028300         2.7527         2.7527         8.5004      2686.2061      4989.7300        96.0902
    3449.11680      -999.2500      -999.2500         3.1999         1.5892      -0.215600        45.8192       120.6207    -0.04130000         6.2408         6.2408        31.3533       0.028300         2.7527         2.7527         8.5004      2686.2061      4989.7300        96.0902
    3449.26920      -999.2500      -999.2500         3.1999         1.5892      -0.215600        45.8192       120.6207    -0.04130000         6.2408         6.2408        31.3533       0.028300         2.7527         2.7527         8.5004      2686.2061      4989.7300        96.0902
    3449.42160      -999.2500      -999.2500         3.1999         1.5892      -0.215600        45.8192       120.6207    -0.04130000         6.2408         6.2408        31.3533       0.028300         2.7527         2.7527         8.5004      2686.2061      4989.7300        96.0902
    3449.57400      -999.2500      -999.2500         3.1999         1.5892      -0.215600        45.8192       120.6207    -0.04130000         6.2408         6.2408        31.3533       0.028300         2.7527         2.7527         8.5004      2686.2061      4989.7300        96.0902
