~Version Information Block
VERS .                 2.00:  CWLS LOG ASCII STANDARD - VERSION 2.00
WRAP .                   NO:  One line per depth step
~Well Information Block
#MNEM.UNIT        Data Type   Information
#---------- ----------------  -----------
STRT .M          3199.94280:  START DEPTH
STOP .M          3410.40720:  STOP DEPTH
STEP .M             0.15240:  STEP
NULL .              -999.25:  NULL VALUE
COMP .              Statoil:  COMPANY
WELL .          NO_15/9-F-4:  WELL
FLD  .                VOLVE:  FIELD
LOC  .            North Sea:  LOCATION
CTRY .                     :  COUNTRY
STAT .                     :  STATE
CNTY .                     :  COUNTY
SRVC .         Schlumberger:  SERVICE COMPANY
DATE .          13-Sep-2012:  DATE
API  .                     :  API NUMBER
UWI  .             15/9-F-4:  UNIQUE WELL ID
~Curve Information Block
#MNEM.UNIT         API CODE   Curve Description
#---------- ----------------  -----------------
DEPTH.M                    :  DEPTH (BOREHOLE)
CCLC .V                    :  CCL
CRRA .                     :  Near-Far Count Rate Ratio
CVEL .M/MIN                 :  Cable Velocity
FBEF .UA                   :  RST Far Effective Beam Current
FCOR .                     :  RST Far Carbon/Oxygen Ratio
FERD .                     :  RST Far IC Mode Capture Optimization Resolution Degradation Factor
FIRD .                     :  RST Far Inelastic Optimization Resolution Degradation Factor
GR   .GAPI                 :  Gamma Ray
NCOR .                     :  RST Near Carbon/Oxygen Ratio
NERD .                     :  RST Near IC Mode Capture Optimization Resolution Degradation Factor
NIRD .                     :  RST Near Inelastic Optimization Resolution Degradation Factor
RB_PCMS.DEG                  :  Relative Bearing
TENS .LBF                  :  Cable Tension
~Parameter Information Block
#MNEM.UNIT            Value   Description
#---------- ----------------  -----------
APD  .M                  54:  Elevation of Depth Reference (LMF) above Permanent Datum
RUN  .                    4:  RUN NUMBER
PROJECT.     SLEIPNER_OST@st-vlinapp01:  
SET  .        RSTD_0912_IC1:  
~Other Information Block
# 
~A       DEPTH           CCLC           CRRA           CVEL           FBEF           FCOR           FERD           FIRD             GR           NCOR           NERD           NIRD        RB_PCMS           TENS 
# ...
    3348.53280        -0.0146         2.8458      -0.481800       114.2773         0.0842         4.6858         4.6858        13.8955       0.030800         2.4604         2.4604       356.2082      2292.7334
    3348.68520        -0.0168         2.8499      -0.480800       113.8470         0.1124         4.7158         4.7158        14.1867       0.018000         2.4489         2.4489       356.1786      2297.2771
    3348.83760        -0.0176         2.8492      -0.482600       113.3566        -0.0518         4.7749         4.7749        13.8239      -0.032400         2.4649         2.4649       356.2146      2271.2676
    3348.99000        -0.0200         2.8352      -0.483600       113.1590        -0.1256         4.7908         4.7908        13.7686       0.008600         2.5036         2.5036       356.2158      2294.6409
    3349.14240        -0.0203         2.8371      -0.480600       114.3364        -0.0717         4.7311         4.7311        14.1131      -0.040200         2.4814         2.4814       356.2397      2288.5195
    3349.29480         0.0414         2.8402      -0.487400       115.9931        -0.0157         4.6661         4.6661        13.9960      -0.017400         2.5326         2.5326       356.2892      2283.5657
    3349.44720         0.3086         2.8862      -0.485300       116.6709        -0.0397         4.5807         4.5807        13.5550       0.101800         2.4888         2.4888       356.3495      2283.3782
    3349.59960         0.0073         2.9130      -0.484000       115.8146        -0.0158         4.5030         4.5030        14.1100       0.050900         2.4605         2.4605       356.4844      2289.1726
    3349.75200         0.4096         2.8757      -0.488000       117.0466         0.0456         4.5827         4.5827        14.2031      -0.040400         2.4038         2.4038       356.4111      2285.4912
    3349.90440        -0.1452         2.9003      -0.483800       116.5648         0.1821         4.5513         4.5513        14.2512      -0.118000         2.3597         2.3597       356.1942      2280.5142
    3350.05680        -0.0182         2.9120      -0.489400       115.2760        -0.0537         4.5596         4.5596        14.4088      -0.049600         2.3390         2.3390       356.0720      2283.8726
    3350.20920        -0.0151         2.8636      -0.492700       114.3185        -0.1151         4.6114         4.6114        14.3002       0.020300         2.3082         2.3082       355.8811      2283.0542
    3350.36160        -0.0146         2.8324      -0.483800       112.9254        -0.0117         4.5856         4.5856        13.5528       0.008600         2.3609         2.3609       355.7503      2288.2935
    3350.51400        -0.0240         2.8377      -0.487700       116.8631        -0.2000         4.8002         4.8002        12.9833      -0.039300         2.3562         2.3562       355.7929      2273.9717
    3350.66640        -0.0244         3.0328      -0.484100       117.3028        -0.1455         4.8178         4.8178        12.7104      -0.092700         2.3756         2.3756       355.8986      2288.1880
    3350.81880        -0.0180         3.0335      -0.488900       118.3314        -0.1464         4.7376         4.7376        12.4781       0.024900         2.3951         2.3951       355.9707      2280.5425
    3350.97120        -0.0117         3.0142      -0.492500       114.1272        -0.1491         4.7416         4.7416        12.2022      -0.006100         2.4066         2.4066       355.8976      2282.7842
    3351.12360        -0.0131         2.8537      -0.490000       115.0287         0.0779         4.6995         4.6995        12.5416      -0.031400         2.3835         2.3835       356.0015      2295.7251
    3351.27600        -0.0127         2.8341      -0.491100       120.5961        -0.0618         4.7184         4.7184        13.1817      -0.018600         2.3818         2.3818       355.9492      2285.6609
    3351.42840        -0.0127         2.8295      -0.490100       112.1601         0.0245         4.6974         4.6974        13.2735      -0.006500         2.3956         2.3956       355.9195      2287.8997
    3351.58080        -0.0099         2.8044      -0.495700       113.4643        -0.0302         4.7049         4.7049        13.2740      -0.042400         2.4042         2.4042       355.9134      2296.2490
    3351.73320        -0.0096         2.8133      -0.489200       109.2645         0.0059         4.6235         4.6235        14.0371       0.054500         2.3395         2.3395       355.9424      2288.5681
    3351.88560        -0.0499         2.8027      -0.490100       111.5569         0.0303         4.6853         4.6853        14.3528      -0.004000         2.3490         2.3490       355.9814      2292.3586
    3352.03800         0.0175         2.8062      -0.489300       111.4860         0.0455         4.7153         4.7153        14.6021      -0.020500         2.3048         2.3048       355.9733      2280.6072
    3352.19040         0.0713         2.8274      -0.483300       111.0211        -0.0507         4.6949         4.6949        14.6117      -0.001600         2.2964         2.2964       355.8660      2279.2561
    3352.34280         0.1741         2.8077      -0.488600       111.6556         0.0203         4.6412         4.6412        15.0322      -0.047900         2.3046         2.3046       355.7488      2293.1672
    3352.49520        -0.0127         2.8048      -0.486200       110.5754        -0.1118         4.6557         4.6557        14.9389       0.056500         2.2930         2.2930       355.8011      2297.0820
    3352.64760        -0.0106         2.7984      -0.488800       104.7053        -0.0571         4.6927         4.6927        14.7311       0.099700         2.2620         2.2620       355.9487      2294.6550
    3352.80000        -0.0112         2.8123      -0.491700       109.0519         0.0491         4.6857         4.6857        14.8231      -0.004600         2.2745         2.2745       356.0307      2298.2644
    3352.95240        -0.0082         2.8124      -0.485700       110.8957         0.0424         4.6444         4.6444        15.0596      -0.016500         2.2556         2.2556       356.0413      2289.3049
    3353.10480        -0.0072         2.8155      -0.493300       110.9729         0.0825         4.6473         4.6473        14.6955       0.022700         2.2743         2.2743       356.1009      2284.3167
    3353.25720        -0.0081         2.8089      -0.495700       110.7953        -0.1633         4.6578         4.6578        14.4568      -0.029700         2.2526         2.2526       356.2025      2288.3550
    3353.40960        -0.0134         2.8349      -0.489100       111.0625        -0.0552         4.7476         4.7476        14.2204      -0.018500         2.2610         2.2610       356.2222      2291.2598
    3353.56200        -0.0143         2.8356      -0.494000       110.4865         0.0855         4.7306         4.7306        13.7066      -0.061300         2.2305         2.2305       356.1978      2289.4006
    3353.71440        -0.0070         2.8032      -0.487300       111.0328        -0.2160         4.7027         4.7027        13.6595      -0.034600         2.2305         2.2305       356.1031      2284.5461
    3353.86680         0.0600         2.8128      -0.484100       111.9642         0.1211         4.6488         4.6488        13.7610       0.024400         2.2556         2.2556       356.0292      2281.8901
    3354.01920        -0.0461         2.8285      -0.486200       113.2981        -0.1276         4.5992         4.5992        13.9151      -0.141600         2.2761         2.2761       355.9840      2283.7952
    3354.17160        -0.0190         2.8319      -0.484700       113.3616        -0.1181         4.6053         4.6053        14.3089       0.056400         2.2708         2.2708       355.9505      2282.9612
    3354.32400        -0.0987         2.8566      -0.518100       113.0387         0.0128         4.7388         4.7388        14.6593      -0.155800         2.2967         2.2967       355.9627      2292.0151
