~Version Information Block
VERS .                 2.00:  CWLS LOG ASCII STANDARD - VERSION 2.00
WRAP .                  YES:  Multiple lines per depth step
~Well Information Block
#MNEM.UNIT        Data Type   Information
#---------- ----------------  -----------
STRT .M          3513.58200:  START DEPTH
STOP .M          3649.06560:  STOP DEPTH
STEP .M             0.15240:  STEP
NULL .              -999.25:  NULL VALUE
COMP .              Statoil:  COMPANY
WELL .        NO_15/9-F-1_C:  WELL
FLD  .                Volve:  FIELD
LOC  .            North Sea:  LOCATION
CTRY .               Norway:  COUNTRY
STAT .                     :  STATE
CNTY .                     :  COUNTY
SRVC .         Schlumberger:  SERVICE COMPANY
DATE .          27-Nov-2014:  DATE
API  .                     :  API NUMBER
UWI  .           15/9-F-1 C:  UNIQUE WELL ID
LATI .     58° 26' 29.91" N:  LATITUDE
LONG .      1° 53' 14.71" E:  LONGITUDE
~Curve Information Block
#MNEM.UNIT         API CODE   Curve Description
#---------- ----------------  -----------------
DEPTH.M                    :  DEPTH (BOREHOLE)
BSAL .PPM                  :  Borehole Salinity
CCLC .V                    :  CCL
CIRF .                     :  RST Capture to Inelastic Ratio Far
CIRN .                     :  RST Capture to Inelastic Ratio Near
CVEL .M/SEC                 :  Cable Velocity
DFRB .DEG                  :  Calibrated Relative Bearing
DSIG .CU                   :  Sigma Difference
FBEF .UA                   :  RST Far Effective Beam Current
GR   .GAPI                 :  Gamma Ray
IRAT .                     :  RST Inelastic Ratio
PFC1 .IN                   :  PFCS CaliperX
PFC2 .IN                   :  PFCS CaliperY
RSCF .                     :  RST Far Detector Effective Unregulated
RSCN .                     :  RST Near Detector Effective
SFFA .CU                   :  RST Sigma Formation Far Apparent
SIBF .CU                   :  RST Sigma Borehole Fluid
SIGM .CU                   :  Formation Sigma (Neutron Capture Cross
TENS .LBF                  :  Cable Tension
TPHI .V/V                  :  Thermal Decay Porosity
~Parameter Information Block
#MNEM.UNIT            Value   Description
#---------- ----------------  -----------
APD  .M           54.900002:  Elevation of Depth Reference (LMF) above Permanent Datum
BHS  .                 CASE:  Borehole Status (Open or Cased Hole)
BS   .IN                8.5:  Bit Size
BSAL .PPM                 0:  Borehole Salinity
BSALOPT.              UNKNOWN:  Borehole Salinity Option
CSIZ .IN                  7:  Current Casing Size
CWEI .LB/F               29:  Casing Weight
EPD  .C3                  0:  Elevation of Permanent Datum above Mean Sea Level
LMF  .                   KB:  Logging Measured From (Name of Logging Elevation Reference)
MATR .                 SAND:  Rock Matrix for Neutron Porosity Corrections
PDAT .                  MSL:  Permanent Datum
RUN  .                Run 1:  RUN NUMBER
TAPE_NAME.     Statoil_Volve_15-9-F-1 C_PLT-RST_28Nov14_ConCu_R1L15Up_SigmaRepeat.las:  
TOOL_STRING.              UNKNOWN:  
WN   .           15/9-F-1 C:  WELL
PROJECT.     SLEIPNER_OST@st-vlinapp01:  
SET  .       RSTD_1114_SIG2:  
~Other Information Block
~Ascii Log Data
# ...
    3608.22240 
    62684.1016         0.0058         1.5064       0.489900      -0.158888 
        5.6440        -2.2048        85.5538        33.5640         0.3184 
        6.2198         6.0834         6.1057         5.9513        23.9140 
       44.4106        22.6191      4458.0000       0.241000
    3608.37480 
    62727.4023         0.0519         1.4776       0.514700      -0.158895 
        5.6440        -2.3422        85.1946        34.7040         0.3240 
        6.2197         6.0672         5.9347         6.1864        23.9679 
       44.4266        22.4370      4422.6670       0.247500
    3608.52720 
    63886.8008         0.0533         1.5171       0.483700      -0.158888 
        5.6440        -1.9263        82.6352        32.6446         0.3212 
        6.2219         6.0834         6.6746         6.6448        24.5998 
       44.8542        22.8165      4535.5000       0.242100
    3608.67960 
    64049.5977         0.0163         1.5055       0.479700      -0.157578 
        5.6440        -1.8688        88.2835        32.6446         0.3172 
        6.2219         6.0579         6.0438         6.1219        25.1445 
       44.9143        23.4767      4557.5000       0.230200
    3608.83200 
    64491.8984         0.0432         1.4284       0.447000      -0.158868 
        4.2330        -1.4624        85.0117        32.3013         0.3191 
        6.2219         6.0683         5.8056         5.4403        26.0151 
       45.0776        23.8719      4737.3335       0.217500
    3608.98440 
    65426.8047         0.0551         1.4362       0.446600      -0.160140 
        2.8220        -0.8118        84.7756        36.5305         0.3195 
        6.2040         6.0834         6.0491         5.7770        25.8319 
       45.4230        24.8207      4623.0000       0.213000
    3609.13680 
    66590.5000        -0.0379         1.3865       0.429100      -0.160127 
        2.8220        -0.7587        83.8097        38.3693         0.3183 
        6.1926         6.0834         5.8812         5.5110        28.0207 
       45.8535        26.0988      4585.6670       0.225800
    3609.28920 
    67046.6016        -0.0001         1.1547       0.391100      -0.158213 
        2.8220        -0.6399        85.5985        40.9436         0.3148 
        6.1905         6.0695         4.7208         4.8652        29.8706 
       46.0224        27.8113      4533.0000       0.241900
    3609.44160 
    67798.6016         0.0267         1.0618       0.357400      -0.158868 
        2.8220        -0.0115        86.9985        44.6089         0.3172 
        6.1905         6.0510         4.2323         4.3408        31.0401 
       46.3011        29.0289      4487.5000       0.251000
    3609.59400 
    67895.3984         0.0291         0.9916       0.358800      -0.158895 
        2.8220         0.6143        82.9977        50.0150         0.3247 
        6.1905         6.0510         4.3391         4.6804        31.6810 
       46.3370        28.0524      4489.3330       0.255900
    3609.74640 
    67673.7969        -0.0120         1.0413       0.348800      -0.158273 
        2.8220         1.4338        82.2943        48.1762         0.3308 
        6.1612         6.0510         4.3606         4.1320        26.9343 
       46.2548        27.7167      4520.0005       0.253400
    3609.89880 
    68587.7031        -0.0176         0.9817       0.361700      -0.158882 
        2.8220         1.9519        81.2811        49.3162         0.3235 
        6.1591         6.0510         4.2280         4.4747        30.0570 
       46.5937        27.2193      4506.3335       0.241400
    3610.05120 
    68379.6016         0.0054         1.1474       0.382500      -0.158868 
        2.8220         2.4058        89.8447        51.3266         0.3224 
        6.1612         6.0510         4.5464         4.9563        30.1975 
       46.5165        26.7758      4500.5005       0.213000
    3610.20360 
    67968.5000         0.0217         1.3013       0.372800      -0.158233 
        2.8220         2.5693        84.3076        51.3266         0.3227 
        6.1591         6.0510         5.4639         4.8591        25.5368 
       46.3641        25.2449      4485.0000       0.174300
    3610.35600 
    67987.0000        -0.0065         1.4438       0.392300      -0.157598 
        2.8220         2.8248        85.0000        49.5246         0.3299 
        6.1591         6.0510         5.8135         4.7339        25.3748 
       46.3709        23.5031      4296.0000       0.152200
    3610.50840 
    66688.3047         0.0013         1.4394       0.394100      -0.158850 
        2.8220         3.0766        83.4943        50.0763         0.3239 
        6.1614         6.0487         6.0815         4.9799        24.9129 
       45.8897        23.6382      4562.0000       0.137000
    3610.66080 
    67641.0000         0.0261         1.3813       0.384300      -0.160113 
        2.8220         2.7559        85.6919        49.6717         0.3215 
        6.1591         6.0510         5.6152         4.6871        25.8883 
       46.2427        23.8707      4411.6670       0.143400
    3610.81320 
    67898.0000         0.0113         1.4349       0.387800      -0.160100 
        2.8220         2.8366        87.9311        48.6910         0.3182 
        6.1612         6.0510         5.5114         4.4689        26.0391 
       46.3379        24.4854      4599.5000       0.150300
    3610.96560 
    67559.7969        -0.0042         1.3225       0.378100      -0.158830 
        2.8220         2.6596        87.5276        48.5194         0.3183 
        6.1614         6.0510         5.4469         4.9349        26.7070 
       46.2126        24.5086      4561.0000       0.157900
    3611.11800 
    68005.0000        -0.0076         1.3365       0.383700      -0.158432 
        2.8220         2.1773        82.0674        49.7208         0.3220 
        6.1717         6.0510         5.7864         4.9045        25.8581 
       46.3776        24.1499      4585.3330       0.159400
    3611.27040 
    67462.0938        -0.0025         1.4249       0.398400      -0.158888 
        1.4110         1.7611        84.3169        49.7208         0.3316 
        6.1726         6.0510         6.2058         5.3907        24.8780 
       46.1763        23.3883      4620.0000       0.162800
    3611.42280 
    68563.6016         0.0019         1.3924       0.427100      -0.158062 
        1.4110         1.1177        82.2071        50.6402         0.3312 
        6.1633         6.0510         5.7833         5.0117        24.3770 
       46.5848        23.5549      4577.0000       0.163100
    3611.57520 
    67817.8047        -0.0371         1.4894       0.419700      -0.158908 
        1.4110         0.5826        84.6561        51.6208         0.3337 
        6.1703         6.0510         6.1994         5.2212        26.2772 
       46.3082        23.7636      4582.5000       0.159100
    3611.72760 
    67627.2969         0.0213         1.4040       0.405700      -0.159730 
        1.4110         0.2167        83.7814        51.6208         0.3278 
        6.1675         6.0510         5.7987         4.9602        25.4503 
       46.2376        23.6881      4525.6665       0.157000
    3611.88000 
    67422.7969        -0.0248         1.6148       0.422000      -0.158868 
        1.4110        -0.1534        84.4316        50.5666         0.3274 
        6.1681         6.0510         6.6623         5.2780        24.1529 
       46.1618        23.8027      4552.5000       0.151000
    3612.03240 
    68107.0000        -0.0037         1.4611       0.425700      -0.160140 
        1.4110        -0.5299        84.3151        48.8381         0.3268 
        6.1793         6.0510         6.1999         5.4412        26.6473 
       46.4154        23.8680      4451.0000       0.158100
    3612.18480 
    67599.8984         0.1499         1.3985       0.407000      -0.159280 
        1.4110        -1.2886        83.4164        45.1606         0.3255 
        6.1801         6.0510         5.9854         5.1779        25.6796 
       46.2274        25.1418      4588.0000       0.164300
