~Version Information Block
VERS .                 2.00:  CWLS LOG ASCII STANDARD - VERSION 2.00
WRAP .                   NO:  One line per depth step
~Well Information Block
#MNEM.UNIT        Data Type   Information
#---------- ----------------  -----------
STRT .M          3445.61160:  START DEPTH
STOP .M          3638.55000:  STOP DEPTH
STEP .M             0.15240:  STEP
NULL .              -999.25:  NULL VALUE
COMP .              Statoil:  COMPANY
WELL .          NO_15/9-F-5:  WELL
FLD  .                VOLVE:  FIELD
LOC  .            North Sea:  LOCATION
CTRY .                     :  COUNTRY
STAT .                     :  STATE
CNTY .                     :  COUNTY
SRVC .         Schlumberger:  SERVICE COMPANY
DATE .          16-Sep-2012:  DATE
API  .                     :  API NUMBER
UWI  .             15/9-F-5:  UNIQUE WELL ID
~Curve Information Block
#MNEM.UNIT         API CODE   Curve Description
#---------- ----------------  -----------------
DEPTH.M                    :  DEPTH (BOREHOLE)
CCLC .V                    :  CCL
CCLD .V                    :  CCL Discriminated Amplitude
CRRA .                     :  Near-Far Count Rate Ratio
CS   .F/MN                 :  Cable Speed
CVEL .M/MIN                 :  Cable Velocity
DEVI .DEG                  :  Hole Deviation
FBEF .UA                   :  RST Far Effective Beam Current
FCOR .                     :  RST Far Carbon/Oxygen Ratio
FERD .                     :  RST Far IC Mode Capture Optimization Resolution Degradation Factor
FIRD .                     :  RST Far Inelastic Optimization Resolution Degradation Factor
GR   .GAPI                 :  Gamma Ray
NCOR .                     :  RST Near Carbon/Oxygen Ratio
NERD .                     :  RST Near IC Mode Capture Optimization Resolution Degradation Factor
NIRD .                     :  RST Near Inelastic Optimization Resolution Degradation Factor
RB_PCMS.DEG                  :  Relative Bearing
TENS .LBF                  :  Cable Tension
WPRE .PSI                  :  Well Pressure
WTEP .DEGC                 :  Well Temperature
~Parameter Information Block
#MNEM.UNIT            Value   Description
#---------- ----------------  -----------
APD  .M           54.900002:  Elevation of Depth Reference (LMF) above Permanent Datum
RUN  .                Run 1:  RUN NUMBER
PROJECT.     SLEIPNER_OST@st-vlinapp01:  
SET  .        RSTD_0912_IC2:  
~Other Information Block
# 
~A       DEPTH           CCLC           CCLD           CRRA             CS           CVEL           DEVI           FBEF           FCOR           FERD           FIRD             GR           NCOR           NERD           NIRD        RB_PCMS           TENS           WPRE           WTEP 
# ...
    3534.00360        -0.0082         0.0000         2.7967         1.4518      -0.443800        51.8132       108.2166     0.06380000         5.0913         5.0913        33.1261    -0.02740000         2.5816         2.5816         8.2765      2783.6570      5065.1270        91.0724
    3534.15600         0.0361         0.0000         2.8213         1.4386      -0.440300        51.8251       107.8841     0.07130000         5.1316         5.1316        33.5680    -0.00840000         2.5913         2.5913         8.3144      2794.8975      5065.2676        91.0506
    3534.30840         0.0401         0.0000         2.8041         1.4606      -0.444500        51.8419       108.7039     0.16949999         5.2405         5.2405        34.3685    -0.03920000         2.6526         2.6526         8.1737      2787.2825      5065.3818        91.0300
    3534.46080        -0.0082         0.0000         2.8301         1.4560      -0.444300        51.8588       108.6209    -0.04510000         5.2725         5.2725        34.7906     0.08540000         2.6580         2.6580         8.0748      2798.3638      5065.5068        91.0170
    3534.61320         0.0593         0.0000         2.8194         1.4511      -0.440500        51.8750       107.5932    -0.23720001         5.2625         5.2625        35.1659    -0.03670000         2.6597         2.6597         8.1816      2800.1384      5065.6304        91.0040
    3534.76560        -0.0586         0.0000         2.8123         1.4806      -0.460400        51.8848       107.8602     0.17190000         5.2468         5.2468        35.3356     0.00450000         2.6671         2.6671         8.1686      2803.7324      5065.7793        90.9829
    3534.91800        -0.0104         0.0000         2.8065         1.4613      -0.445400        51.9028       107.3050     0.02480000         5.0361         5.0361        34.0051    -0.12770000         2.6440         2.6440         8.1613      2797.4402      5065.9238        90.9620
    3535.07040        -0.0863         0.0000         2.7865         1.4564      -0.441400        51.9176       107.9013    -0.01060000         5.0192         5.0192        33.4458    -0.03010000         2.6241         2.6241         8.1489      2797.0774      5066.0620        90.9473
    3535.22280        -0.0158         0.0000         2.8197         1.4600      -0.446500        51.9459       107.2665    -0.05440000         5.1152         5.1152        32.4809    -0.03990000         2.5958         2.5958         8.0791      2786.9644      5066.1807        90.9211
    3535.37520         0.0048         0.0000         2.8018         1.4652      -0.444100        51.9870       106.8222     0.02480000         5.0378         5.0378        31.7825    -0.00930000         2.6253         2.6253         8.0731      2791.8474      5066.3247        90.9033
    3535.52760        -0.0420         0.0000         2.7851         1.4652      -0.443300        51.9978       107.4661    -0.02060000         5.0482         5.0482        31.4616     0.00740000         2.5688         2.5688         8.0922      2796.7119      5066.4565        90.8845
    3535.68000         0.1031         0.0000         2.8007         1.4652      -0.441600        52.0221       106.3371    -0.04110000         5.0698         5.0698        31.6780     0.00810000         2.5918         2.5918         8.1379      2787.1968      5066.5845        90.8684
    3535.83240        -0.0130         0.0000         2.7746         1.4600      -0.441400        52.0313       107.3739    -0.08960000         5.0068         5.0068        31.5094    -0.13290000         2.5666         2.5666         8.1531      2796.1162      5066.7075        90.8496
    3535.98480        -0.0136         0.0000         2.8072         1.4610      -0.442900        52.0410       106.8988     0.12560000         5.0904         5.0904        31.9212    -0.03260000         2.5034         2.5034         8.1116      2805.0034      5066.8481        90.8178
    3536.13720        -0.0103         0.0000         2.7816         1.4419      -0.442100        52.0442       107.0410     0.07120000         5.0680         5.0680        32.2525    -0.00640000         2.5454         2.5454         8.0811      2792.7290      5066.9702        90.8019
    3536.28960         0.0478         0.0000         2.7998         1.4377      -0.440300        52.0215       106.6489    -0.04350000         5.0980         5.0980        32.0864     0.07760000         2.5355         2.5355         8.1817      2803.3037      5067.1055        90.7728
    3536.44200        -0.0099         0.0000         2.7975         1.4327      -0.437100        51.9888       106.1452     0.17780000         5.0060         5.0060        32.7087     0.02940000         2.5600         2.5600         7.9949      2802.5559      5067.2524        90.7402
    3536.59440        -0.0095         0.0000         2.7831         1.4423      -0.436900        51.9986       107.6054     0.08350000         4.9658         4.9658        33.0546     0.05920000         2.5789         2.5789         8.1398      2801.3579      5067.3853        90.7274
    3536.74680         0.0717         0.0000         2.8097         1.4423      -0.439600        52.0074       106.9780     0.03030000         4.8050         4.8050        32.8476    -0.01110000         2.5685         2.5685         8.2440      2798.0994      5067.5063        90.7105
    3536.89920        -0.0084         0.0000         2.7928         1.4419      -0.439100        52.0096       108.3142     0.08010000         4.8503         4.8503        33.0414     0.01900000         2.5798         2.5798         8.1054      2778.8525      5067.6431        90.6850
    3537.05160         0.1214         0.0000         2.8206         1.4419      -0.443300        52.0185       108.3889     0.00830000         4.8965         4.8965        33.5449     0.07260000         2.5572         2.5572         7.8669      2786.1748      5067.7593        90.6712
    3537.20400        -0.0074         0.0000         2.8239         1.4459      -0.442100        52.0125       110.4046     0.11980000         4.9099         4.9099        33.6011     0.00790000         2.6033         2.6033         7.7929      2788.6924      5067.9014        90.6456
    3537.35640        -0.0158         0.0000         2.8559         1.4370      -0.442300        52.0088       111.2378    -0.00680000         4.8993         4.8993        34.4287    -0.07210000         2.6245         2.6245         7.7120      2792.7290      5068.0269        90.6175
    3537.50880         0.0179         0.0000         2.8904         1.4554      -0.445500        52.0300       111.3444     0.05370000         4.8514         4.8514        35.9485     0.05160000         2.6165         2.6165         7.7331      2792.2639      5068.1685        90.5954
    3537.66120        -0.0042         0.0000         2.8955         1.4751      -0.445000        52.0503       111.7629    -0.31410000         4.7489         4.7489        36.3766    -0.00100000         2.6110         2.6110         7.6347      2792.5034      5068.3149        90.5823
    3537.81360        -0.0055         0.0000         2.9171         1.4652      -0.442200        52.0710       111.8828     0.01230000         4.7879         4.7879        36.9083     0.03690000         2.6219         2.6219         7.5578      2793.8843      5068.4243        90.5722
    3537.96600         0.0969         0.0000         2.9399         1.4603      -0.439700        52.0839       111.2143     0.12300000         4.8093         4.8093        37.0938    -0.09870000         2.6173         2.6173         7.6225      2806.1155      5068.5347        90.5562
    3538.11840        -0.0021         0.0000         2.9015         1.4334      -0.437900        52.1043       110.8268    -0.06540000         4.7350         4.7350        37.3255     0.00260000         2.6158         2.6158         7.8096      2788.1853      5068.6758        90.5342
    3538.27080         0.0655         0.0000         2.8854         1.4416      -0.436500        52.1333       108.8750    -0.20190001         4.7014         4.7014        36.2068    -0.02610000         2.5837         2.5837         7.7271      2796.5781      5068.8057        90.5116
