~Version Information Block
VERS .                 2.00:  CWLS LOG ASCII STANDARD - VERSION 2.00
WRAP .                   NO:  One line per depth step
~Well Information Block
#MNEM.UNIT        Data Type   Information
#---------- ----------------  -----------
STRT .M          3460.08960:  START DEPTH
STOP .M          3530.04120:  STOP DEPTH
STEP .M             0.15240:  STEP
NULL .              -999.25:  NULL VALUE
COMP .              Statoil:  COMPANY
WELL .          NO_15/9-F-5:  WELL
FLD  .                Volve:  FIELD
LOC  .                Volve:  LOCATION
CTRY .               Norway:  COUNTRY
STAT .                     :  STATE
CNTY .                     :  COUNTY
SRVC .         Schlumberger:  SERVICE COMPANY
DATE .           11/04/2015:  DATE
API  .                     :  API NUMBER
UWI  .             15/9-F-5:  UNIQUE WELL ID
LATI .     58° 26' 29.66" N:  LATITUDE
LONG .      1° 53' 14.99" E:  LONGITUDE
~Curve Information Block
#MNEM.UNIT         API CODE   Curve Description
#---------- ----------------  -----------------
DEPTH.M                    :  Depth Index
CCLC .V                    :  (PSTP-B)                (1in)                   CCL Computed Amplitude
CVEL .M/SEC                 :  (WLWorkflow)            (1in)                   Cable Velocity
FBEF .UA                   :  (RST-D)                 (6in)                   Far Effective Beam Curre
FCOR .                     :  (RST-D)                 (6in)                   Far Carbon/Oxygen Ratio
FERD .                     :  (RST-D)                 (6in)                   Far IC Mode Capture Opti
FIRD .                     :  (RST-D)                 (6in)                   Far Inelastic Optimizati
GR   .GAPI                 :  (PSTP-B)                (6in)                   Gamma Ray
NCOR .                     :  (RST-D)                 (6in)                   Near Carbon/Oxygen Ratio
NERD .                     :  (RST-D)                 (6in)                   Near IC Mode Capture Opt
NIRD .                     :  (RST-D)                 (6in)                   Near Inelastic Optimizat
RB_PCMS.DEG                  :  (PCMS-A)                (6in)                   Relative Bearing
TENS .LBF                  :  (WLWorkflow)            (1in)                   Cable Tension
WPRE .BAR                  :  (PSTP-B)                (6in)                   Well Pressure
WTEP .DEGC                 :  (PSTP-B)                (6in)                   Well Temperature
~Parameter Information Block
#MNEM.UNIT            Value   Description
#---------- ----------------  -----------
APD  .M                  54:  Elevation of Depth Reference (LMF) Above Permanent Datum
CLAB .              Country:  :County Label
ECF  .M             -999.25:  Elevation of Casing Flange above Permanent Datum
EDF  .M                  54:  Elevation of Drill Floor Above Permanent Datum
EGL  .M                 -91:  Elevation of Ground Level Above Permanent Datum
EKB  .M             -999.25:  Elevation of Kelly Bushing Above Permanent Datum
EPD  .M                   0:  Elevation of Permanent Datum (PDAT) above Mean Sea Level
FL1  .            North Sea:  Field Location Line 1
FL2  .     Norwegian Sector:  Field Location Line 2
LMF  .                   DF:  Logging Measured From
LUL  .                 NOBO:  Logging Unit Location
LUN  .          ONCC-A 3837:  Logging Unit Number
PDAT .                  MSL:  Local Permanent Datum
RIGN .      Maersk Inspirer:  Rig Name
RIGTYP.               Jackup:  Rig Type
SON  .           C2TQ-00038:  Service Order Number
TAPE_NAME.     RST_IC_Pass_4___04Nov15_021221.las:  
TOOL_STRING.              UNKNOWN:  
WN   .             15/9-F-5:  WELL NAME
PROJECT.     SLEIPNER_OST@st-vlinapp01:  
SET  .        RSTD_1115_IC4:  
~Other Information Block
# 
~A       DEPTH           CCLC           CVEL           FBEF           FCOR           FERD           FIRD             GR           NCOR           NERD           NIRD        RB_PCMS           TENS           WPRE           WTEP 
# ...
    3514.95360       0.003040    -0.00824183       137.7758       0.005800         5.9601         5.9601       173.9827       0.094230         4.1842         4.1842       352.9446      3921.7021       361.0476        82.6296
    3515.10600       0.003910    -0.00862017       136.5175       0.149210         5.9633         5.9633       174.6310       0.018740         4.1611         4.1611       352.8976      4063.5542       361.0594        82.6295
    3515.25840       0.004680    -0.00897900       135.7861       0.093850         5.8258         5.8258       169.3630       0.129130         4.1747         4.1747       352.8599      4077.5352       361.0650        82.6179
    3515.41080       0.005360    -0.00845750       136.8385       0.242010         5.9264         5.9264       168.4906       0.020110         4.1310         4.1310       352.8210      4014.4314       361.0780        82.6182
    3515.56320       0.006120    -0.00892217       136.4633      -0.071940         5.9736         5.9736       170.9127      -0.048400         4.1124         4.1124       353.0230      4057.0012       361.0854        82.6097
    3515.71560       0.007770    -0.00866450       136.6734       0.038990         5.8608         5.8608       169.8965       0.058440         4.1165         4.1165       353.0373      3996.9771       361.0994        82.5912
    3515.86800       0.010000    -0.00865950       132.5000      -0.010590         5.9933         5.9933       169.4042       0.023550         4.0979         4.0979       353.0877      3909.8638       361.1120        82.5848
    3516.02040       0.011590    -0.00821317       130.2785       0.000330         6.1097         6.1097       176.0654      -0.001120         4.1190         4.1190       352.7614      3981.1326       361.1226        82.5727
    3516.17280       0.022770    -0.00829600       131.4397       0.119840         5.9800         5.9800       262.8514       0.042140         4.1385         4.1385       352.5480      3938.5110       361.1354        82.5649
    3516.32520       0.014890    -0.00833833       133.3283      -0.202250         6.0132         6.0132       358.9238       0.115650         4.1227         4.1227       352.4543      4007.9568       361.1474        82.5564
    3516.47760       0.197360    -0.00626967       136.0842       0.078400         6.0434         6.0434       462.5896       0.006600         4.1695         4.1695       352.5470      3967.3337       361.1567        82.5331
    3516.63000       0.006460    -0.00802583       133.3784      -0.002250         6.0308         6.0308       568.7375       0.041080         4.1838         4.1838       352.5375      3899.7224       361.1687        82.5199
    3516.78240      -0.007160    -0.00801717       129.3009       0.060530         5.9304         5.9304       652.9197       0.109450         4.2109         4.2109       352.6544      3981.7913       361.1793        82.5134
    3516.93480      -0.007560    -0.00786367       127.1938       0.052480         5.9422         5.9422       649.0236       0.033480         4.2226         4.2226       352.8163      3944.7878       361.1886        82.4965
    3517.08720      -0.008080    -0.00770333       127.7725       0.060430         5.8814         5.8814       613.1249       0.105920         4.2055         4.2055       353.0305      4029.0215       361.2011        82.4829
    3517.23960      -0.007490    -0.00831067       127.6778      -0.092100         5.8361         5.8361       580.6774       0.087170         4.2341         4.2341       353.1517      4026.4563       361.2142        82.4813
    3517.39200      -0.007610    -0.00908583       129.3333       0.074050         5.9611         5.9611       554.1614       0.024730         4.2291         4.2291       353.1499      4028.8459       361.2223        82.4505
    3517.54440       0.001330    -0.00849533       128.9274      -0.011210         5.9783         5.9783       551.0602       0.004030         4.2552         4.2552       353.0290      3965.8657       361.2364        82.4423
    3517.69680      -0.008540    -0.00855900       128.0284      -0.164450         5.9574         5.9574       561.7589       0.010600         4.2512         4.2512       352.8065      3979.7388       361.2469        82.4171
    3517.84920       0.005050    -0.00841067       127.1461      -0.007000         6.0336         6.0336       600.3434       0.072910         4.2541         4.2541       352.6907      3957.7344       361.2582        82.4190
    3518.00160      -0.024500    -0.00800683       127.0476      -0.040970         5.9486         5.9486       637.8248       0.058640         4.2261         4.2261       352.8654      3965.9131       361.2661        82.3916
    3518.15400      -0.011370    -0.00804400       127.1706      -0.349830         5.8811         5.8811       673.8247       0.102540         4.2666         4.2666       353.1045      3923.1453       361.2952        82.3849
    3518.30640      -0.008830    -0.00772200       126.9707       0.033600         5.8735         5.8735       713.8292       0.048250         4.3420         4.3420       353.0421      3975.3394       361.3045        82.3696
    3518.45880       0.008870    -0.00835417       126.8742       0.038160         5.7635         5.7635       754.3398      -0.065570         4.3204         4.3204       353.0019      4014.5999       361.3146        82.3717
    3518.61120      -0.011440    -0.00813883       126.8865      -0.134610         5.8625         5.8625       799.7603      -0.059100         4.3352         4.3352       352.9285      3881.7153       361.3251        82.3613
    3518.76360       0.109230    -0.00846700       126.7753       0.067410         5.8634         5.8634       852.9808       0.052410         4.3871         4.3871       352.8856      3954.9041       361.3438        82.3623
    3518.91600      -0.005880    -0.00751883       127.7671      -0.051010         5.9424         5.9424       909.4747       0.066040         4.3208         4.3208       352.8000      4013.8401       361.3456        82.3593
    3519.06840      -0.006600    -0.00749317       127.7710      -0.000750         5.9586         5.9586       973.5724      -0.031090         4.3176         4.3176       352.8126      3940.1409       361.3473        82.3573
    3519.22080      -0.007410    -0.00787967       129.0119      -0.075800         5.8905         5.8905      1042.7729      -0.011470         4.2586         4.2586       352.6737      3978.0415       361.3491        82.3539
    3519.37320      -0.008310    -0.00777283       128.0174      -0.224880         5.8268         5.8268      1119.8929       0.015440         4.2696         4.2696       352.4586      3946.7795       361.3509        82.3536
    3519.52560      -0.009320    -0.00977933       127.7495       0.057980         5.7204         5.7204      1195.2080      -0.067780         4.3230         4.3230       351.6900      3953.2249       361.3523        82.3558
    3519.67800      -0.010460    -0.00960300       129.2238      -0.119180         5.7161         5.7161      1279.4760       0.008960         4.3376         4.3376       351.5771      4033.4390       361.3539        82.3562
    3519.83040      -0.011740    -0.00874933       128.5681      -0.049720         5.6886         5.6886      1354.2480      -0.028170         4.3215         4.3215       350.5600      3954.6230       361.3555        82.3603
    3519.98280      -0.013170    -0.00898117       129.5525      -0.000570         5.8019         5.8019      1395.3890       0.062900         4.2783         4.2783       350.5569      3947.9531       361.3574        82.3588
    3520.13520      -0.014770    -0.00934417       129.0851       0.069780         5.6368         5.6368      -999.2500      -0.072540         4.2889         4.2889       350.5656      3924.6672       361.3591        82.3484
    3520.28760      -0.016570    -0.00874617       129.7215       0.017240         5.6256         5.6256      -999.2500       0.063810         4.3005         4.3005       350.5592      3961.3877       361.3608        82.3494
