~Version Information Block
VERS .                 2.00:  CWLS LOG ASCII STANDARD - VERSION 2.00
WRAP .                   NO:  One line per depth step
~Well Information Block
#MNEM.UNIT        Data Type   Information
#---------- ----------------  -----------
STRT .M          3451.70760:  START DEPTH
STOP .M          3790.03560:  STOP DEPTH
STEP .M             0.15240:  STEP
NULL .              -999.25:  NULL VALUE
COMP .              Statoil:  COMPANY
WELL .        NO_15/9-F-1_C:  WELL
FLD  .                Volve:  FIELD
LOC  .            North Sea:  LOCATION
CTRY .               Norway:  COUNTRY
STAT .                     :  STATE
CNTY .                     :  COUNTY
SRVC .         Schlumberger:  SERVICE COMPANY
DATE .          27-Nov-2014:  DATE
API  .                     :  API NUMBER
UWI  .           15/9-F-1 C:  UNIQUE WELL ID
LATI .     58° 26' 29.91" N:  LATITUDE
LONG .      1° 53' 14.71" E:  LONGITUDE
~Curve Information Block
#MNEM.UNIT         API CODE   Curve Description
#---------- ----------------  -----------------
DEPTH.M                    :  DEPTH (BOREHOLE)
CVEL .M/SEC                 :  Cable Velocity
DFRB .DEG                  :  Calibrated Relative Bearing
FBEF .UA                   :  RST Far Effective Beam Current
FCOR .                     :  RST Far Carbon/Oxygen Ratio
FERD .                     :  RST Far IC Mode Capture Optimization
FIRD .                     :  RST Far Inelastic Optimization Resolution
GR   .GAPI                 :  Gamma Ray
NCOR .                     :  RST Near Carbon/Oxygen Ratio
NERD .                     :  RST Near IC Mode Capture Optimization
NIRD .                     :  RST Near Inelastic Optimization Resolution
PFC1 .IN                   :  PFCS CaliperX
PFC2 .IN                   :  PFCS CaliperY
TENS .LBF                  :  Cable Tension
~Parameter Information Block
#MNEM.UNIT            Value   Description
#---------- ----------------  -----------
APD  .M           54.900002:  Elevation of Depth Reference (LMF) above Permanent Datum
EPD  .C3                  0:  Elevation of Permanent Datum above Mean Sea Level
LMF  .                   KB:  Logging Measured From (Name of Logging Elevation Reference)
PDAT .                  MSL:  Permanent Datum
RUN  .                Run 1:  RUN NUMBER
TAPE_NAME.     Statoil_Volve_15-9-F-1 C_PLT-RST_28Nov14_ConCu_R1L18Up_IC2.las:  
TOOL_STRING.              UNKNOWN:  
WN   .           15/9-F-1 C:  WELL
PROJECT.     SLEIPNER_OST@st-vlinapp01:  
SET  .        RSTD_1114_IC2:  
~Other Information Block
# 
~A       DEPTH           CVEL           DFRB           FBEF           FCOR           FERD           FIRD             GR           NCOR           NERD           NIRD           PFC1           PFC2           TENS 
# ...
    3695.39520     -0.1700600       355.5720       126.6063         0.0368         4.5758         4.5758        37.2771         0.0275         6.8082         6.8082         6.2219         6.0510      4426.4287
    3695.54760     -0.1699200       355.5720       126.5324        -0.0608         4.6087         4.6087        35.3726        -0.0222         6.8865         6.8865         6.2219         6.0510      4461.4619
    3695.70000     -0.1696483       355.5720       126.9789         0.0515         4.5596         4.5596        35.0809         0.0989         7.0565         7.0565         6.2219         6.0510      4524.3574
    3695.85240     -0.1686417       355.5720       127.2055         0.0839         4.5353         4.5353        35.8225         0.1142         7.0528         7.0528         6.2085         6.0510      4609.5386
    3696.00480     -0.1680750       355.5720       128.2036         0.0384         4.5869         4.5869        36.4084         0.0248         7.0309         7.0309         6.1995         6.0417      4619.7861
    3696.15720     -0.1674483       355.5720       125.6563         0.0290         4.6200         4.6200        38.3621        -0.0020         6.9807         6.9807         6.2197         6.0533      4532.9287
    3696.30960     -0.1679967       355.5720       127.2531         0.0679         4.5657         4.5657        41.3253        -0.0292         7.0458         7.0458         6.2219         6.0560      4541.3081
    3696.46200     -0.1676783       355.5720       127.0887         0.0828         4.6298         4.6298        41.5347         0.0009         7.0115         7.0115         6.2219         6.0510      4396.9287
    3696.61440     -0.1674667       355.5720       126.5734        -0.0030         4.6611         4.6611        41.2908         0.1041         6.9237         6.9237         6.2219         6.0510      4496.6152
    3696.76680     -0.1689433       355.5720       126.3511         0.1311         4.6034         4.6034        41.7933         0.1036         6.9233         6.9233         6.2219         6.0510      4583.4282
    3696.91920     -0.1690367       355.5720       127.1140         0.0384         4.8537         4.8537        41.9137         0.0860         7.0075         7.0075         6.2219         6.0510      4656.3574
    3697.07160     -0.1695183       355.5720       127.0105         0.0617         4.8361         4.8361        39.5448         0.0380         6.9549         6.9549         6.2219         6.0510      4645.1538
    3697.22400     -0.1695783       355.5720       126.7429         0.0546         4.7845         4.7845        37.9126         0.1331         6.9193         6.9193         6.2219         6.0510      4599.4287
    3697.37640     -0.1698183       355.5720       126.4150        -0.0625         4.8183         4.8183        36.9374         0.0864         6.8418         6.8418         6.2219         6.0510      4509.3848
    3697.52880     -0.1702267       355.5720       127.2579         0.0222         4.9148         4.9148        36.5828        -0.0161         6.8216         6.8216         6.2219         6.0510      4439.6431
    3697.68120     -0.1698450       355.5720       127.0465         0.0373         4.8701         4.8701        36.2231        -0.0745         6.7964         6.7964         6.2219         6.0510      4365.4619
    3697.83360     -0.1698450       355.5720       127.8517         0.0116         4.8348         4.8348        38.1162        -0.0165         6.7841         6.7841         6.2219         6.0510      4385.1538
    3697.98600     -0.1684067       355.5720       129.9926         0.0612         4.9055         4.9055        39.3457        -0.0359         6.8005         6.8005         6.2219         6.0510      4639.7856
    3698.13840     -0.1680750       355.5720       130.4000         0.0369         4.8140         4.8140        40.6370         0.0211         6.8076         6.8076         6.2219         6.0487      4692.4614
    3698.29080     -0.1689917       355.5720       128.8977        -0.2672         4.7927         4.7927        40.9124        -0.1094         6.8497         6.8497         6.2219         6.0510      4747.4287
    3698.44320     -0.1688033       355.5720       127.4978         0.0581         4.7848         4.7848        40.4377         0.0026         6.9122         6.9122         6.2219         6.0460      4724.2144
    3698.59560     -0.1688350       355.5720       127.8246        -0.0194         4.7749         4.7749        39.9468        -0.0858         6.9453         6.9453         6.2219         6.0255      4659.4619
    3698.74800     -0.1685617       355.5720       127.0168         0.1578         4.7461         4.7461        40.8004         0.0545         6.9173         6.9173         6.2219         6.0211      4633.7139
    3698.90040     -0.1693067       355.5720       128.2635        -0.1089         4.5428         4.5428        41.2245        -0.0190         6.9116         6.9116         6.2219         6.0394      4589.8462
    3699.05280     -0.1691483       355.5720       126.9298        -0.1708         4.5052         4.5052        41.6457        -0.0527         6.9668         6.9668         6.2219         6.0348      4514.2856
    3699.20520     -0.1691700       355.5720       127.6428        -0.0093         4.5185         4.5185        42.8350         0.0828         6.9319         6.9319         6.2219         6.0261      4501.0767
    3699.35760     -0.1690667       355.5720       126.7018         0.0290         4.4136         4.4136        43.5665         0.1076         6.9056         6.9056         6.2219         6.0255      4414.4287
    3699.51000     -0.1684567       355.5720       128.1730         0.1217         4.4765         4.4765        43.8398        -0.0120         6.9019         6.9019         6.2171         6.0485      4387.2310
    3699.66240     -0.1690517       355.5720       127.3866        -0.0910         4.5317         4.5317        42.7448        -0.0395         6.9258         6.9258         6.2062         6.0510      4508.0000
    3699.81480     -0.1678867       355.5720       127.5092        -0.0247         4.5872         4.5872        41.7123        -0.0132         7.0428         7.0428         6.2107         6.0510      4530.8574
    3699.96720     -0.1672150       355.5720       127.3589        -0.1660         4.5890         4.5890        40.4303         0.1708         7.0393         7.0393         6.2219         6.0510      4709.1538
    3700.11960     -0.1674333       355.5720       127.0994         0.1338         4.5511         4.5511        38.9025         0.0110         7.0814         7.0814         6.2195         6.0510      4705.0000
    3700.27200     -0.1678567       355.5720       127.5674        -0.0680         4.6133         4.6133        37.7208         0.0664         7.0709         7.0709         6.2107         6.0510      4692.7690
    3700.42440     -0.1682867       355.5720       127.8742         0.0200         4.6004         4.6004        37.9304         0.0621         7.1556         7.1556         6.2062         6.0510      4637.8574
    3700.57680     -0.1677500       355.5720       126.7080         0.1611         4.6330         4.6330        38.2890         0.0125         7.1587         7.1587         6.2127         6.0510      4584.1431
    3700.72920     -0.1645483       355.5720       127.8826         0.0570         4.6419         4.6419        38.5752        -0.0523         7.1708         7.1708         6.2182         6.0491      4494.9229
    3700.88160     -0.1541767       355.5720       127.3643        -0.1303         4.6868         4.6868        38.4623         0.0206         7.1225         7.1225         6.2141         6.0449      4538.3574
    3701.03400     -0.1404983       355.5720       126.9538         0.0629         4.6547         4.6547        37.9482        -0.0122         7.1187         7.1187         6.2122         6.0435      4551.3335
    3701.18640     -0.1373517       355.5720       126.9395         0.0899         4.5654         4.5654        38.0752        -0.0223         7.1276         7.1276         6.1972         6.0510      4671.6875
