~Version Information Block
VERS .                 2.00:  CWLS LOG ASCII STANDARD - VERSION 2.00
WRAP .                  YES:  Multiple lines per depth step
~Well Information Block
#MNEM.UNIT        Data Type   Information
#---------- ----------------  -----------
STRT .M          3450.03120:  START DEPTH
STOP .M          3948.83640:  STOP DEPTH
STEP .M             0.15240:  STEP
NULL .              -999.25:  NULL VALUE
COMP .              Statoil:  COMPANY
WELL .        NO_15/9-F-1_C:  WELL
FLD  .                Volve:  FIELD
LOC  .            North Sea:  LOCATION
CTRY .               Norway:  COUNTRY
STAT .                     :  STATE
CNTY .                     :  COUNTY
SRVC .         Schlumberger:  SERVICE COMPANY
DATE .          27-Nov-2014:  DATE
API  .                     :  API NUMBER
UWI  .           15/9-F-1 C:  UNIQUE WELL ID
LATI .     58° 26' 29.91" N:  LATITUDE
LONG .      1° 53' 14.71" E:  LONGITUDE
~Curve Information Block
#MNEM.UNIT         API CODE   Curve Description
#---------- ----------------  -----------------
DEPTH.M                    :  DEPTH (BOREHOLE)
BSAL .PPM                  :  Borehole Salinity
CCLC .V                    :  CCL
CIRF .                     :  RST Capture to Inelastic Ratio Far
CIRN .                     :  RST Capture to Inelastic Ratio Near
CVEL .M/SEC                 :  Cable Velocity
DFRB .DEG                  :  Calibrated Relative Bearing
DSIG .CU                   :  Sigma Difference
FBEF .UA                   :  RST Far Effective Beam Current
GR   .GAPI                 :  Gamma Ray
IRAT .                     :  RST Inelastic Ratio
PFC1 .IN                   :  PFCS CaliperX
PFC2 .IN                   :  PFCS CaliperY
RSCF .                     :  RST Far Detector Effective Unregulated
RSCN .                     :  RST Near Detector Effective
SFFA .CU                   :  RST Sigma Formation Far Apparent
SIBF .CU                   :  RST Sigma Borehole Fluid
SIGM .CU                   :  Formation Sigma (Neutron Capture Cross
TENS .LBF                  :  Cable Tension
TPHI .V/V                  :  Thermal Decay Porosity
~Parameter Information Block
#MNEM.UNIT            Value   Description
#---------- ----------------  -----------
APD  .M           54.900002:  Elevation of Depth Reference (LMF) above Permanent Datum
BHS  .                 CASE:  Borehole Status (Open or Cased Hole)
BS   .IN                8.5:  Bit Size
BSAL .PPM                 0:  Borehole Salinity
BSALOPT.              UNKNOWN:  Borehole Salinity Option
CSIZ .IN                  7:  Current Casing Size
CWEI .LB/F               29:  Casing Weight
EPD  .C3                  0:  Elevation of Permanent Datum above Mean Sea Level
LMF  .                   KB:  Logging Measured From (Name of Logging Elevation Reference)
MATR .                 SAND:  Rock Matrix for Neutron Porosity Corrections
PDAT .                  MSL:  Permanent Datum
RUN  .                Run 1:  RUN NUMBER
TAPE_NAME.     Statoil_Volve_15-9-F-1 C_PLT-RST_28Nov14_ConCu_R1L16Up_SigmaMain.las:  
TOOL_STRING.              UNKNOWN:  
WN   .           15/9-F-1 C:  WELL
PROJECT.     SLEIPNER_OST@st-vlinapp01:  
SET  .       RSTD_1114_SIG1:  
~Other Information Block
~Ascii Log Data
# ...
    3610.50840 
    83763.7031         0.0035         1.2486         0.3805      -0.166710 
      351.3390         2.2952        83.9424        51.9669     0.32879999 
        6.2219         6.0510         5.3848         4.8925        26.5968 
       52.2746        25.3561      4415.1431     0.22930001
    3610.66080 
    83111.1953         0.0235         1.4135         0.3781      -0.167070 
      351.3390         2.8848        88.2891        50.8636     0.32440001 
        6.2219         6.0510         5.7456         4.8100        26.4531 
       52.0283        24.2157      4365.6431     0.20420000
    3610.81320 
    81204.8047        -0.0496         1.3083         0.3724      -0.166507 
      351.3390         2.8618        87.3087        48.1762     0.32510000 
        6.2219         6.0510         5.2828         4.4816        25.2026 
       51.3098        24.5408      4272.0000     0.19560000
    3610.96560 
    81319.6016        -0.0872         1.2066         0.3747      -0.166672 
      351.3390         2.9466        86.9602        48.9117     0.32570001 
        6.2219         6.0556         4.8540         4.5251        27.4766 
       51.3530        24.5409      4211.3848     0.20310000
    3611.11800 
    81685.3984        -0.0589         1.3037         0.3803      -0.166442 
      351.3390         3.0390        83.6854        44.9937     0.33080000 
        6.2219         6.0510         5.4888         4.6684        26.3305 
       51.4907        24.7606      4075.9290     0.21240000
    3611.27040 
    81992.6016        -0.0153         1.2461         0.3856      -0.166155 
      351.3390         3.1143        86.0118        43.5226     0.32769999 
        6.2219         6.0510         5.1336         4.9000        25.7617 
       51.6065        23.9576      4190.3569     0.21770000
    3611.42280 
    81314.6953         0.0158         1.2122         0.3781      -0.165563 
      351.3390         3.0253        85.3065        43.1549     0.33170000 
        6.2219         6.0510         5.0636         4.8818        24.9405 
       51.3511        23.8466      4302.7695     0.21259999
    3611.57520 
    80310.0000         0.0014         1.3513         0.4032      -0.165373 
      351.3390         2.5239        83.7088        43.5226     0.33000001 
        6.2219         6.0510         5.4243         4.5651        25.9066 
       50.9730        23.5961      4476.7856     0.20600000
    3611.72760 
    79542.2969        -0.0036         1.4492         0.4364      -0.166120 
      351.3390         1.9871        85.0164        41.7404     0.33510000 
        6.2219         6.0510         6.0126         5.4184        24.9084 
       50.6844        23.7651      4433.0000     0.20190001
    3611.88000 
    79634.1016         0.0059         1.4022         0.4228      -0.166673 
      351.3390         1.5603        85.0708        42.1893     0.32910001 
        6.2219         6.0510         5.6939         5.0090        25.3729 
       50.7189        23.4367      4402.6431     0.20400000
    3612.03240 
    78984.0000         0.0237         1.4144         0.4132      -0.166878 
      351.3390         0.6467        83.8724        41.3265     0.32539999 
        6.2241         6.0510         6.0277         5.1985        24.8070 
       50.4747        23.3824      4295.2144     0.20460001
    3612.18480 
    78829.1016        -0.0676         1.5304         0.4484      -0.167225 
      351.3390         0.4700        87.8653        42.4297     0.32470000 
        6.2219         6.0510         6.0958         5.3669        24.7199 
       50.4165        23.5824      4230.4619     0.20400000
    3612.33720 
    77811.0000        -0.0306         1.4115         0.4199      -0.166445 
      351.3390         0.1218        82.9536        40.2232     0.32980001 
        6.2219         6.0510         5.9914         5.0838        26.0002 
       50.0345        23.7373      4134.6431     0.20670000
    3612.48960 
    76656.7969        -0.0054         1.3293         0.4327      -0.165877 
      351.3390        -0.0723        84.0039        40.9021     0.33790001 
        6.2219         6.0510         5.5311         5.2358        25.3456 
       49.6019        24.0647      4230.1431     0.22920001
    3612.64200 
    75930.5000        -0.0282         1.3289         0.4287      -0.165860 
      351.3390        -0.5204        84.5667        42.9003     0.33379999 
        6.2219         6.0510         5.5272         5.2999        25.7186 
       49.3300        26.0030      4387.8574     0.25819999
    3612.79440 
    75996.5000        -0.0063         1.1293         0.4296      -0.165597 
      351.3390        -1.2978        89.0354        40.8210     0.32260001 
        6.2219         6.0510         4.2054         4.7411        31.8977 
       49.3546        28.5606      4374.2310     0.29060000
    3612.94680 
    75842.6953        -0.0177         0.8146         0.3498      -0.165370 
      351.3390        -1.3306        88.2754        41.2737     0.31270000 
        6.2219         6.0510         3.3661         4.7254        33.0969 
       49.2971        30.4043      4389.8574     0.29269999
    3613.09920 
    75302.5938        -0.0099         1.1068         0.3453      -0.165567 
      351.3390        -1.1394        89.9930        41.2737     0.31119999 
        6.1857         6.0211         4.3655         4.3441        31.3118 
       49.0950        27.9147      4237.6431     0.31760001
    3613.25160 
    74996.6953         0.0653         1.2145         0.4062      -0.166128 
      351.3390        -1.0901        88.9625        42.5608     0.31560001 
        6.1928         6.0487         4.8954         5.1333        24.4143 
       48.9807        25.0931      4218.2144     0.35049999
    3613.40400 
    74016.6016        -0.2089         1.1647         0.5335      -0.167140 
      351.3390        -0.8690        88.2074        44.7674     0.32020000 
        6.2017         6.0510         4.5868         6.4090        24.5950 
       48.6145        22.7397      4156.1431     0.39170000
    3613.55640 
    73443.0000         0.0439         1.1921         0.5366      -0.167307 
      351.3390        -0.7193        86.5186        42.9286     0.32630000 
        6.2062         6.0510         4.8055         6.5054        24.1979 
       48.4004        21.4984      4211.2310     0.34760001
    3613.70880 
    73634.2969        -0.0219         1.3987         0.5391      -0.166255 
      351.3390        -0.3537        86.9339        37.6951     0.33050001 
        6.2017         6.0510         5.6975         6.5879        20.6348 
       48.4718        17.7569      4311.9287     0.26609999
    3613.86120 
    71485.7031        -0.0129         2.9652         0.5957      -0.165172 
      351.3390        -0.4858        84.7728        33.4659     0.33090001 
        6.2040         6.0510        11.8848         6.9013        13.3203 
       47.6709        13.7656      4384.7861     0.16220000
    3614.01360 
    71082.7031         0.0029         3.0866         0.7314      -0.164975 
      351.3390        -0.8044        80.0395        25.9552     0.33800000 
        6.1995         6.0510        14.3118         9.9264        12.2267 
       47.5209        10.8843      4300.2144     0.12800001
    3614.16600 
    70762.3984         0.0332         3.0321         0.7520      -0.164725 
      351.3390        -1.1125        82.9619        17.1290     0.33980000 
        6.2062         6.0510        12.7401         8.9793        12.1358 
       47.4017        10.5105      4258.2310     0.11680000
    3614.31840 
    70407.7031         0.0001         3.1390         0.7875      -0.165192 
      351.3390        -0.8998        79.7532        14.7386     0.34310001 
        6.2085         6.0510        13.6519         9.4727        12.3010 
       47.2698        10.4571      4174.8574     0.13349999
    3614.47080 
    69468.5000        -0.0480         3.1115         0.7717      -0.165918 
      351.3390        -0.6595        83.1017        14.9225     0.33800000 
        6.2122         6.0510        13.2817         9.8512        12.1050 
       46.9207        10.3181      4109.6426     0.13830000
