~Version Information Block
VERS .                 2.00:  CWLS LOG ASCII STANDARD - VERSION 2.00
WRAP .                   NO:  One line per depth step
~Well Information Block
#MNEM.UNIT        Data Type   Information
#---------- ----------------  -----------
STRT .M          3199.94280:  START DEPTH
STOP .M          3410.40720:  STOP DEPTH
STEP .M             0.15240:  STEP
NULL .              -999.25:  NULL VALUE
COMP .              Statoil:  COMPANY
WELL .          NO_15/9-F-4:  WELL
FLD  .                VOLVE:  FIELD
LOC  .            North Sea:  LOCATION
CTRY .                     :  COUNTRY
STAT .                     :  STATE
CNTY .                     :  COUNTY
SRVC .         Schlumberger:  SERVICE COMPANY
DATE .          13-Sep-2012:  DATE
API  .                     :  API NUMBER
UWI  .             15/9-F-4:  UNIQUE WELL ID
~Curve Information Block
#MNEM.UNIT         API CODE   Curve Description
#---------- ----------------  -----------------
DEPTH.M                    :  DEPTH (BOREHOLE)
CCLC .V                    :  CCL
CRRA .                     :  Near-Far Count Rate Ratio
CVEL .M/MIN                 :  Cable Velocity
FBEF .UA                   :  RST Far Effective Beam Current
FCOR .                     :  RST Far Carbon/Oxygen Ratio
FERD .                     :  RST Far IC Mode Capture Optimization Resolution Degradation Factor
FIRD .                     :  RST Far Inelastic Optimization Resolution Degradation Factor
GR   .GAPI                 :  Gamma Ray
NCOR .                     :  RST Near Carbon/Oxygen Ratio
NERD .                     :  RST Near IC Mode Capture Optimization Resolution Degradation Factor
NIRD .                     :  RST Near Inelastic Optimization Resolution Degradation Factor
RB_PCMS.DEG                  :  Relative Bearing
TENS .LBF                  :  Cable Tension
~Parameter Information Block
#MNEM.UNIT            Value   Description
#---------- ----------------  -----------
APD  .M                  54:  Elevation of Depth Reference (LMF) above Permanent Datum
RUN  .                    4:  RUN NUMBER
PROJECT.     SLEIPNER_OST@st-vlinapp01:  
SET  .        RSTD_0912_IC1:  
~Other Information Block
# 
~A       DEPTH           CCLC           CRRA           CVEL           FBEF           FCOR           FERD           FIRD             GR           NCOR           NERD           NIRD        RB_PCMS           TENS 
# ...
    3306.92760        -0.0030         2.7361      -0.498200       107.3897        -0.0009         5.2473         5.2473        18.4594      -0.064300         2.8233         2.8233       356.2953      2266.2249
    3307.08000        -0.0030         2.7486      -0.496200       107.5049         0.0219         5.3642         5.3642        18.6462      -0.013500         2.7800         2.7800       356.3121      2275.2744
    3307.23240        -0.0034         2.7550      -0.494400       108.0851        -0.0994         5.3237         5.3237        19.4361      -0.000700         2.8019         2.8019       356.4908      2272.8733
    3307.38480        -0.0078         2.7648      -0.494300       107.7561        -0.1830         5.2765         5.2765        19.8473       0.087400         2.7921         2.7921       356.6015      2276.9531
    3307.53720        -0.0136         2.7608      -0.495800       107.9535        -0.0703         5.3367         5.3367        20.1419       0.009400         2.7491         2.7491       356.6322      2280.8521
    3307.68960         0.1532         2.7888      -0.503300       108.5095        -0.1515         5.2863         5.2863        20.5436       0.037100         2.7646         2.7646       356.5379      2277.8789
    3307.84200         0.1315         2.7830      -0.492000       108.8193         0.0037         5.3099         5.3099        20.9913      -0.036500         2.7348         2.7348       356.4789      2271.4231
    3307.99440        -0.1401         2.8000      -0.490200       107.7920        -0.1773         5.2578         5.2578        20.3548      -0.032700         2.7115         2.7115       356.5052      2278.9714
    3308.14680        -0.0107         2.7648      -0.494200       108.8023        -0.0653         5.3576         5.3576        19.9815      -0.069100         2.6997         2.6997       356.5297      2267.9607
    3308.29920        -0.0098         2.7998      -0.499100       108.2157        -0.0051         5.2799         5.2799        19.7007      -0.093500         2.7038         2.7038       356.4470      2270.1057
    3308.45160        -0.0119         2.7800      -0.495500       108.3967         0.0443         5.3142         5.3142        20.3717       0.041900         2.6825         2.6825       356.4086      2268.2283
    3308.60400        -0.0081         2.7744      -0.502000       108.5565        -0.1941         5.4494         5.4494        19.9378       0.020800         2.6916         2.6916       356.3103      2275.4980
    3308.75640        -0.0090         2.7986      -0.498200       109.0877        -0.0924         5.4882         5.4882        20.6897      -0.022100         2.6379         2.6379       356.2339      2264.2993
    3308.90880        -0.0088         2.7996      -0.494000       109.2089        -0.1075         5.4533         5.4533        21.3093      -0.009100         2.6431         2.6431       356.1259      2268.0144
    3309.06120        -0.0053         2.8024      -0.494100       109.2753         0.0736         5.5247         5.5247        22.0108      -0.011800         2.6664         2.6664       356.0081      2279.1260
    3309.21360        -0.1134         2.7801      -0.491800       109.8793        -0.0020         5.5647         5.5647        22.0034      -0.021500         2.6552         2.6552       355.9921      2272.6094
    3309.36600        -0.0069         2.8153      -0.495200       109.3320        -0.0397         5.5258         5.5258        22.9792       0.062000         2.6371         2.6371       356.0590      2277.9602
    3309.51840        -0.0087         2.8114      -0.493100       109.6199        -0.0999         5.6526         5.6526        22.7827      -0.230300         2.6339         2.6339       356.1684      2252.6130
    3309.67080        -0.0093         2.7932      -0.496600       110.0026         0.0867         5.6597         5.6597        22.9192       0.024600         2.6116         2.6116       356.2747      2282.1160
    3309.82320        -0.0087         2.8055      -0.494100       108.8404        -0.0071         5.5575         5.5575        22.8046       0.045300         2.6406         2.6406       356.2038      2267.2986
    3309.97560         0.0147         2.7839      -0.493600       109.6816        -0.0029         5.5347         5.5347        22.9972      -0.056000         2.5697         2.5697       356.1890      2268.1294
    3310.12800        -0.0068         2.8062      -0.494500       108.8484        -0.0003         5.3462         5.3462        23.1953       0.013000         2.6230         2.6230       356.1615      2282.2817
    3310.28040        -0.0063         2.7841      -0.494500       108.0574        -0.0086         5.3896         5.3896        23.5274      -0.069400         2.6196         2.6196       356.1568      2266.1118
    3310.43280         0.2363         2.7787      -0.496900       107.9585        -0.1118         5.4084         5.4084        24.3703       0.058500         2.6043         2.6043       356.2265      2267.3442
    3310.58520        -0.0036         2.7625      -0.496800       108.3233         0.0550         5.3575         5.3575        25.2773      -0.041200         2.5879         2.5879       356.2716      2276.2754
    3310.73760        -0.0059         2.7764      -0.495000       109.4542        -0.1545         5.2605         5.2605        26.7007      -0.056700         2.5795         2.5795       356.2697      2264.0576
    3310.89000        -0.0083         2.7938      -0.491200       109.1845        -0.1103         5.2474         5.2474        27.5675      -0.000900         2.5793         2.5793       356.2969      2278.6379
    3311.04240        -0.0101         2.7958      -0.496400       109.4230         0.0061         5.3102         5.3102        28.8063      -0.103400         2.5965         2.5965       356.3882      2277.4658
    3311.19480        -0.0074         2.8081      -0.492900       109.3966        -0.0232         5.3130         5.3130        29.8085       0.018500         2.5837         2.5837       356.3151      2268.3718
    3311.34720         0.0453         2.7980      -0.494900       110.5800        -0.0738         4.9832         4.9832        31.2978       0.009200         2.5885         2.5885       356.2143      2273.8130
    3311.49960         0.1678         2.8249      -0.494500       109.7032         0.0252         4.9847         4.9847        31.9116       0.029500         2.5423         2.5423       356.0461      2268.6060
    3311.65200         0.0243         2.7944      -0.493900       109.2043        -0.0740         5.0125         5.0125        32.9225      -0.016800         2.4559         2.4559       356.0042      2268.8655
    3311.80440        -0.0047         2.8014      -0.498400       110.6313         0.0435         5.0727         5.0727        33.6734       0.077400         2.4976         2.4976       355.9680      2263.6738
    3311.95680        -0.0030         2.8456      -0.494200       111.8018         0.0562         5.1769         5.1769        34.0796       0.005100         2.5089         2.5089       355.9242      2270.6787
    3312.10920        -0.0025         2.8566      -0.498500       112.4434         0.0052         5.3317         5.3317        33.3919      -0.120400         2.4888         2.4888       355.9330      2262.9275
    3312.26160        -0.0002         2.8674      -0.494400       112.2456        -0.0888         5.1371         5.1371        32.1002       0.069700         2.4751         2.4751       356.0698      2276.8950
    3312.41400         0.1946         2.8959      -0.491700       112.8300         0.0924         5.1139         5.1139        30.8757       0.083800         2.4455         2.4455       356.0862      2262.5251
    3312.56640        -0.2701         2.9130      -0.493100       114.2127        -0.0972         5.0892         5.0892        29.6135       0.007300         2.4570         2.4570       356.2139      2277.5886
    3312.71880         0.0018         2.9523      -0.493100       110.5398         0.1051         5.1596         5.1596        28.3276       0.034600         2.5018         2.5018       356.2763      2277.2437
