~Version Information Block
VERS .                 2.00:  CWLS LOG ASCII STANDARD - VERSION 2.00
WRAP .                   NO:  One line per depth step
~Well Information Block
#MNEM.UNIT        Data Type   Information
#---------- ----------------  -----------
STRT .M          3439.51560:  START DEPTH
STOP .M          3642.36000:  STOP DEPTH
STEP .M             0.15240:  STEP
NULL .              -999.25:  NULL VALUE
COMP .              Statoil:  COMPANY
WELL .          NO_15/9-F-5:  WELL
FLD  .                VOLVE:  FIELD
LOC  .            North Sea:  LOCATION
CTRY .                     :  COUNTRY
STAT .                     :  STATE
CNTY .                     :  COUNTY
SRVC .         Schlumberger:  SERVICE COMPANY
DATE .          16-Sep-2012:  DATE
API  .                     :  API NUMBER
UWI  .             15/9-F-5:  UNIQUE WELL ID
~Curve Information Block
#MNEM.UNIT         API CODE   Curve Description
#---------- ----------------  -----------------
DEPTH.M                    :  DEPTH (BOREHOLE)
BSAL .PPM                  :  Borehole Salinity
CCLC .V                    :  CCL
CIRF .                     :  RST Capture to Inelastic Ratio Far
CIRN .                     :  RST Capture to Inelastic Ratio Near
CVEL .M/MIN                 :  Cable Velocity
DSIG .CU                   :  Sigma Difference
FBEF .UA                   :  RST Far Effective Beam Current
GR   .GAPI                 :  Gamma Ray
IRAT .                     :  RST Inelastic Ratio
RSCF .                     :  RST Far Detector Effective Unregulated Capture Count Rate
RSCN .                     :  RST Near Detector Effective Unregulated Capture Count Rate
SFFA .CU                   :  RST Sigma Formation Far Apparent
SIBF .CU                   :  RST Sigma Borehole Fluid
SIGM .CU                   :  Formation Sigma (Neutron Capture Cross Section)
TENS .LBF                  :  Cable Tension
TPHI .V/V                  :  Thermal Decay Porosity
~Parameter Information Block
#MNEM.UNIT            Value   Description
#---------- ----------------  -----------
APD  .M           54.900002:  Elevation of Depth Reference (LMF) above Permanent Datum
BHS  .                 CASE:  Borehole Status (Open or Cased Hole)
BS   .IN                8.5:  Bit Size
BSAL .PPM       34972.17188:  Borehole Salinity
BSALOPT.              UNKNOWN:  Borehole Salinity Option
CSID .IN              6.184:  Casing Inner Diameter
CSIZ .IN                  7:  Current Casing Size
CWEI .LB/F               29:  Casing Weight
MATR .                 SAND:  Rock Matrix for Neutron Porosity Corrections
RUN  .                Run 1:  RUN NUMBER
PROJECT.     SLEIPNER_OST@st-vlinapp01:  
SET  .       RSTD_0912_SIG1:  
~Other Information Block
# 
~A       DEPTH           BSAL           CCLC           CIRF           CIRN           CVEL           DSIG           FBEF             GR           IRAT           RSCF           RSCN           SFFA           SIBF           SIGM           TENS           TPHI 
# ...
    3532.17480     24559.6992         0.1638         2.6090     0.81809998       -4.40170        -0.8075        82.1054        11.7816     0.32679999        10.9870        10.7511        15.7810        30.6718        14.1497      2659.9355     0.19090000
    3532.32720     24322.0996         0.1445         2.5734     0.80320001       -4.42830        -0.7572        78.7881        12.3629     0.32589999        11.1240        10.4110        16.1587        30.5881        14.0121      2653.2905     0.18480000
    3532.47960     24402.3984         0.0146         2.5816     0.81559998       -4.44130        -0.6762        80.6669        11.8750     0.32890001        10.9918        10.4927        15.6829        30.6164        13.9857      2647.3872     0.17910001
    3532.63200     25165.8008        -0.1322         2.5953     0.80470002       -4.41580        -0.7484        78.4977        12.2253     0.32940000        11.4838        10.4518        15.7234        30.8853        13.9585      2656.9678     0.17129999
    3532.78440     24920.6016        -0.1727         2.6316     0.80199999       -4.41330        -0.8470        82.4759        12.8897     0.32539999        11.1225        10.5544        16.0968        30.7989        13.7598      2649.0967     0.16540000
    3532.93680     24670.0000         0.3033         2.7303     0.78729999       -4.42150        -0.7587        82.6724        12.1423     0.32449999        11.4352        10.4172        15.1294        30.7106        13.5242      2636.4194     0.15979999
    3533.08920     24898.1992        -0.0122         2.6944     0.80739999       -4.42510        -0.7931        77.8463        12.0592     0.32740000        11.8785        10.5158        15.0582        30.7910        12.8919      2641.5806     0.16100000
    3533.24160     24931.4004        -0.2403         2.6438     0.80739999       -4.43860        -0.7207        78.2424        12.3058     0.33190000        11.8280        10.7868        14.2451        30.8027        12.6487      2656.3550     0.16010000
    3533.39400     25435.8008         0.0288         2.7193     0.81889999       -4.43860        -0.7144        77.3221        12.7859     0.33379999        12.2979        10.7315        14.4342        30.9804        12.5058      2677.6130     0.15750000
    3533.54640     25895.7012        -0.0119         2.7390     0.81610000       -4.43070        -0.7783        79.8096        12.5367     0.33440000        11.7220        10.3373        14.6661        31.1426        12.5196      2655.9355     0.15279999
    3533.69880     26396.6016         0.1139         2.7501     0.81120002       -4.42120        -0.7791        76.2764        13.4502     0.33539999        12.5094        10.7784        14.3375        31.3193        12.3835      2641.1289     0.15300000
    3533.85120     27212.6992        -0.0667         2.7098     0.80760002       -4.43170        -0.8494        76.0918        13.4502     0.33210000        12.3138        10.7833        14.0844        31.6075        12.2277      2659.5483     0.15950000
    3534.00360     27064.5000        -0.0417         2.7365     0.81260002       -4.44050        -0.9584        77.9271        13.7019     0.32929999        12.5760        11.3884        14.2340        31.5551        12.4672      2645.1614     0.16640000
    3534.15600     26900.2988         0.0648         2.6629     0.81480002       -4.45030        -1.0392        80.5444        14.5323     0.32310000        11.5547        10.6397        15.0706        31.4972        12.8334      2655.6130     0.16900000
    3534.30840     27444.2012         0.0118         2.7620     0.80659997       -4.44060        -1.0073        80.9115        16.0271     0.32679999        11.4612        10.1958        15.1874        31.6893        13.0200      2643.0002     0.16620000
    3534.46080     27521.6992        -0.0132         2.6151     0.78680003       -4.41340        -0.9236        75.6470        15.3679     0.32769999        12.0397        10.7001        14.8031        31.7167        12.9290      2648.5000     0.16159999
    3534.61320     27229.7988        -0.1335         2.7384     0.81250000       -4.45070        -1.0838        80.6663        16.3645     0.32810000        11.7932        10.6665        14.7971        31.6136        12.7833      2650.3335     0.15740000
    3534.76560     27389.0000        -0.0463         2.8457     0.81550002       -4.41750        -1.1031        80.4807        16.6966     0.32470000        12.6384        11.2517        14.7566        31.6698        12.7259      2642.8389     0.15390000
    3534.91800     27512.4004         0.1750         2.8469     0.81419998       -4.40950        -1.2426        80.7257        16.1268     0.32420000        12.4562        10.8534        14.6323        31.7134        12.5995      2652.1562     0.15220000
    3535.07040     26811.4004        -0.0897         2.7704     0.80180001       -4.42980        -1.3745        77.2330        14.5490     0.32609999        12.5427        10.8391        14.4407        31.4658        12.5058      2644.6453     0.15050000
    3535.22280     26313.1992        -0.1182         2.7394     0.80440003       -4.40050        -1.3934        77.3206        14.7929     0.32640001        12.4945        11.0513        14.4892        31.2899        12.4635      2662.1335     0.15040000
    3535.37520     26271.5000        -0.0082         2.7979     0.80000001       -4.41430        -1.3411        78.0519        12.6338     0.32850000        12.9870        11.4074        14.5188        31.2752        12.5606      2660.2190     0.14770000
    3535.52760     26193.5996         0.2190         2.7564     0.81669998       -4.41490        -1.5062        77.7385        12.5508     0.32890001        12.6116        11.0769        14.7372        31.2477        12.5426      2658.1614     0.14470001
    3535.68000     26070.4004         0.0392         2.8355     0.81500000       -4.43680        -1.5642        80.3621        11.9580     0.33419999        12.4074        10.9355        14.4649        31.2042        12.7049      2650.5483     0.13970000
    3535.83240     25842.8008        -0.1050         2.8091     0.82290000       -4.44020        -1.6458        76.3722        11.9580     0.33750001        12.2951        10.3121        15.0546        31.1239        12.5270      2654.0000     0.14010000
    3535.98480     25910.8008        -0.1746         2.7063     0.82349998       -4.41350        -1.7032        75.1439        11.2937     0.33939999        12.4256        11.0100        14.2643        31.1479        12.5482      2654.5806     0.14380001
    3536.13720     25793.0996         0.2249         2.7161     0.80980003       -4.42610        -1.7683        74.8689        12.8715     0.33860001        13.1172        11.3769        14.5592        31.1064        12.4212      2647.2581     0.15160000
    3536.28960     26583.2012         0.0437         2.6708     0.81209999       -4.41180        -1.6825        77.0229        12.9545     0.33700001        12.2961        10.9413        14.6827        31.3852        12.6952      2644.9678     0.15500000
    3536.44200     26540.8984         0.0168         2.6443     0.81919998       -4.40350        -1.7437        77.3176        13.8680     0.33410001        11.6112        10.3873        15.0729        31.3703        12.8658      2649.6775     0.15760000
    3536.59440     26351.2988        -0.0778         2.6529     0.77060002       -4.41680        -1.8212        76.0853        13.7019     0.33410001        12.0406        10.4206        15.0479        31.3033        13.0226      2682.4194     0.16040000
    3536.74680     26908.1992        -0.3579         2.5558     0.79519999       -4.41440        -1.7684        77.0147        14.3637     0.33350000        11.6310        10.7351        15.1062        31.5000        13.0454      2666.9033     0.17039999
    3536.89920     27451.2988         0.2145         2.4974     0.79170001       -4.36960        -1.6155        76.7238        14.0315     0.33280000        11.4193        10.6612        15.0972        31.6918        13.1961      2643.9033     0.18130000
