~Version Information Block
VERS .                 2.00:  CWLS LOG ASCII STANDARD - VERSION 2.00
WRAP .                   NO:  One line per depth step
~Well Information Block
#MNEM.UNIT        Data Type   Information
#---------- ----------------  -----------
STRT .M          3470.91000:  START DEPTH
STOP .M          3530.04120:  STOP DEPTH
STEP .M             0.15240:  STEP
NULL .              -999.25:  NULL VALUE
COMP .              Statoil:  COMPANY
WELL .          NO_15/9-F-5:  WELL
FLD  .                Volve:  FIELD
LOC  .                Volve:  LOCATION
CTRY .               Norway:  COUNTRY
STAT .                     :  STATE
CNTY .                     :  COUNTY
SRVC .         Schlumberger:  SERVICE COMPANY
DATE .           11/03/2015:  DATE
API  .                     :  API NUMBER
UWI  .             15/9-F-5:  UNIQUE WELL ID
LATI .     58° 26' 29.66" N:  LATITUDE
LONG .      1° 53' 14.99" E:  LONGITUDE
~Curve Information Block
#MNEM.UNIT         API CODE   Curve Description
#---------- ----------------  -----------------
DEPTH.M                    :  Depth Index
CCLC .V                    :  (PSTP-B)                (1in)                   CCL Computed Amplitude
CVEL .M/SEC                 :  (WLWorkflow)            (1in)                   Cable Velocity
FBEF .UA                   :  (RST-D)                 (6in)                   Far Effective Beam Curre
FCOR .                     :  (RST-D)                 (6in)                   Far Carbon/Oxygen Ratio
FERD .                     :  (RST-D)                 (6in)                   Far IC Mode Capture Opti
FIRD .                     :  (RST-D)                 (6in)                   Far Inelastic Optimizati
GR   .GAPI                 :  (PSTP-B)                (6in)                   Gamma Ray
NCOR .                     :  (RST-D)                 (6in)                   Near Carbon/Oxygen Ratio
NERD .                     :  (RST-D)                 (6in)                   Near IC Mode Capture Opt
NIRD .                     :  (RST-D)                 (6in)                   Near Inelastic Optimizat
RB_PCMS.DEG                  :  (PCMS-A)                (6in)                   Relative Bearing
TENS .LBF                  :  (WLWorkflow)            (1in)                   Cable Tension
WPRE .BAR                  :  (PSTP-B)                (6in)                   Well Pressure
WTEP .DEGC                 :  (PSTP-B)                (6in)                   Well Temperature
~Parameter Information Block
#MNEM.UNIT            Value   Description
#---------- ----------------  -----------
APD  .M                  54:  Elevation of Depth Reference (LMF) Above Permanent Datum
CLAB .              Country:  :County Label
ECF  .M             -999.25:  Elevation of Casing Flange above Permanent Datum
EDF  .M                  54:  Elevation of Drill Floor Above Permanent Datum
EGL  .M                 -91:  Elevation of Ground Level Above Permanent Datum
EKB  .M             -999.25:  Elevation of Kelly Bushing Above Permanent Datum
EPD  .M                   0:  Elevation of Permanent Datum (PDAT) above Mean Sea Level
FL1  .            North Sea:  Field Location Line 1
FL2  .     Norwegian Sector:  Field Location Line 2
LMF  .                   DF:  Logging Measured From
LUL  .                 NOBO:  Logging Unit Location
LUN  .          ONCC-A 3837:  Logging Unit Number
PDAT .                  MSL:  Local Permanent Datum
RIGN .      Maersk Inspirer:  Rig Name
RIGTYP.               Jackup:  Rig Type
SON  .           C2TQ-00038:  Service Order Number
TAPE_NAME.     RST_IC_Pass3___03Nov15_234906.las:  
TOOL_STRING.              UNKNOWN:  
WN   .             15/9-F-5:  WELL NAME
PROJECT.     SLEIPNER_OST@st-vlinapp01:  
SET  .        RSTD_1115_IC3:  
~Other Information Block
# 
~A       DEPTH           CCLC           CVEL           FBEF           FCOR           FERD           FIRD             GR           NCOR           NERD           NIRD        RB_PCMS           TENS           WPRE           WTEP 
# ...
    3514.80120       0.001910    -0.00907183       141.4582       0.071790         6.5023         6.5023       158.5677      -0.003760         4.0866         4.0866       353.9123      3848.5718       361.7218        82.4057
    3514.95360       0.002340    -0.00874617       141.3373       0.053700         6.5946         6.5946       162.6562      -0.037790         4.1272         4.1272       353.8664      3948.1125       361.7348        82.4036
    3515.10600       0.027530    -0.00889067       140.9592       0.104710         6.5563         6.5563       164.4410      -0.006780         4.0998         4.0998       353.8970      3918.8606       361.7461        82.4018
    3515.25840       0.013490    -0.00894967       141.6489       0.092870         6.6115         6.6115       163.5622       0.052520         4.0841         4.0841       353.8447      3998.6519       361.7575        82.3977
    3515.41080       0.019130    -0.00901450       140.4072       0.019780         6.5851         6.5851       161.9432       0.051140         4.0964         4.0964       353.6267      3929.7322       361.7674        82.3930
    3515.56320       0.005850    -0.00895083       142.0286       0.120930         6.6068         6.6068       158.4069       0.018580         4.0819         4.0819       353.6234      3947.3101       361.7805        82.3846
    3515.71560       0.006280    -0.00892000       141.4019      -0.144920         6.5974         6.5974       156.3230      -0.051020         4.0577         4.0577       354.1366      3936.6519       361.7909        82.3751
    3515.86800       0.007430    -0.00919300       139.9981       0.068000         6.5349         6.5349       153.6367      -0.042640         4.0680         4.0680       354.2440      3977.2861       361.8035        82.3674
    3516.02040       0.013990    -0.00892200       136.1575      -0.082430         6.5156         6.5156       149.4832       0.069800         4.0583         4.0583       354.1091      4004.4746       361.8143        82.3538
    3516.17280       0.024970    -0.00923117       134.6447       0.173540         6.6795         6.6795       141.9823       0.057260         4.0621         4.0621       354.1185      3967.3899       361.8245        82.3458
    3516.32520       0.012080    -0.00915667       137.1451       0.115730         6.5092         6.5092       138.2447       0.034980         4.0549         4.0549       354.1032      4018.3250       361.8378        82.3366
    3516.47760       0.015230    -0.00900567       140.2855       0.082350         6.4582         6.4582       136.1701       0.102680         4.0945         4.0945       353.9785      4024.5454       361.8505        82.3290
    3516.63000       0.002610    -0.00925333       140.9899       0.149920         6.5168         6.5168       130.7480       0.099030         4.1453         4.1453       354.0302      3990.7139       361.8622        82.3101
    3516.78240      -0.534140    -0.00897717       140.6535       0.028790         6.4428         6.4428       130.5042       0.134150         4.1695         4.1695       354.0889      3862.0693       361.8741        82.3014
    3516.93480       0.041500    -0.00897900       134.6556       0.124230         6.3330         6.3330       136.8151      -0.080770         4.1612         4.1612       354.1136      3895.0239       361.8863        82.3024
    3517.08720      -0.035880    -0.00880183       133.0418      -0.009020         6.3213         6.3213       139.0624       0.052420         4.1659         4.1659       354.1080      3958.9304       361.8955        82.2827
    3517.23960      -0.003660    -0.00889067       131.9533      -0.200990         6.2539         6.2539       136.0667      -0.006340         4.1773         4.1773       354.2441      3919.6182       361.9106        82.2574
    3517.39200       0.000560    -0.00877233       133.4385       0.148540         6.2061         6.2061       137.5945      -0.009370         4.1980         4.1980       354.0844      4032.4880       361.9216        82.2313
    3517.54440      -0.000140    -0.00895100       133.9213       0.126390         6.0515         6.0515       137.0322      -0.027610         4.1415         4.1415       353.9880      3941.5483       361.9310        82.2046
    3517.69680      -0.005230    -0.00901117       133.1400       0.070210         6.0027         6.0027       132.9339       0.018620         4.2034         4.2034       353.9194      4015.9758       361.9480        82.1751
    3517.84920      -0.005000    -0.00925350       133.4658       0.081870         5.9592         5.9592       128.2496       0.005460         4.1911         4.1911       353.7303      3997.8809       361.9582        82.1583
    3518.00160      -0.005800    -0.00913250       132.0831      -0.190670         5.9401         5.9401       127.7430       0.081510         4.2333         4.2333       353.5363      3981.0000       361.9677        82.1387
    3518.15400      -0.006510    -0.00925317       130.9025       0.118360         5.9066         5.9066       127.3370       0.027070         4.2397         4.2397       353.3717      4080.0486       361.9952        82.1172
    3518.30640      -0.000700    -0.00915633       131.3934      -0.099810         5.9145         5.9145       127.0740       0.021070         4.2772         4.2772       353.2565      3986.9529       362.0043        82.1216
    3518.45880      -0.006160    -0.00907183       131.5438       0.045740         5.7056         5.7056       127.7792       0.057900         4.3067         4.3067       353.1438      3965.6658       362.0145        82.0948
    3518.61120      -0.050860    -0.00894567       132.1226      -0.043580         5.6964         5.6964       128.0924       0.015370         4.3363         4.3363       353.2002      4009.0652       362.0384        82.0952
    3518.76360      -0.005020    -0.00886167       132.3067      -0.073840         5.7640         5.7640       128.7393      -0.047890         4.3100         4.3100       352.9708      3935.5459       362.0407        82.0990
    3518.91600      -0.005630    -0.00901133       132.8116      -0.075810         5.6788         5.6788       130.3421       0.007380         4.3058         4.3058       352.7914      3856.0242       362.0427        82.0962
    3519.06840      -0.006320    -0.00880183       132.5389      -0.051820         5.6016         5.6016       130.4470       0.017020         4.3033         4.3033       352.6083      3962.1160       362.0449        82.0884
    3519.22080      -0.007090    -0.00892067       133.3275      -0.046280         5.5797         5.5797       129.8115       0.033820         4.2818         4.2818       352.0147      3975.5708       362.0468        82.0859
    3519.37320      -0.007950    -0.00891983       132.7206      -0.045930         5.4681         5.4681       130.6745      -0.056860         4.2625         4.2625       351.2917      3940.9524       362.0489        82.0867
    3519.52560      -0.008920    -0.00894950       133.1813       0.094430         5.4659         5.4659       130.8863       0.018250         4.2942         4.2942       351.2772      4022.2793       362.0510        82.0872
    3519.67800      -0.010010    -0.00898117       133.4259      -0.025160         5.5273         5.5273       129.6738      -0.013700         4.3242         4.3242       349.7188      3951.5005       362.0532        82.0885
    3519.83040      -0.011230    -0.00910200       133.1285       0.006820         5.5690         5.5690       129.6048       0.055610         4.3114         4.3114       349.6538      3991.9526       362.0553        82.0915
    3519.98280      -0.012610    -0.00909717       133.7691       0.043230         5.5051         5.5051       129.6540      -0.107420         4.3231         4.3231       349.6426      4018.3250       362.0574        82.0927
    3520.13520      -0.014140    -0.00900850       133.4684       0.070480         5.5591         5.5591       129.4941       0.020860         4.3241         4.3241       349.6492      3983.0232       362.0594        82.0941
