~Version Information Block
VERS .                 2.00:  CWLS LOG ASCII STANDARD - VERSION 2.00
WRAP .                  YES:  Multiple lines per depth step
~Well Information Block
#MNEM.UNIT        Data Type   Information
#---------- ----------------  -----------
STRT .M          3174.64440:  START DEPTH
STOP .M          3422.90400:  STOP DEPTH
STEP .M             0.15240:  STEP
NULL .              -999.25:  NULL VALUE
COMP .         StatoilHydro:  COMPANY
WELL .          NO_15/9-F-4:  WELL
FLD  .                VOLVE:  FIELD
LOC  .            North Sea:  LOCATION
CTRY .                     :  COUNTRY
STAT .                     :  STATE
CNTY .                     :  COUNTY
SRVC .         Schlumberger:  SERVICE COMPANY
DATE .          13-Sep-2012:  DATE
API  .                     :  API NUMBER
UWI  .             15/9-F-4:  UNIQUE WELL ID
~Curve Information Block
#MNEM.UNIT         API CODE   Curve Description
#---------- ----------------  -----------------
DEPTH.M                    :  DEPTH (BOREHOLE)
BSAL .PPM                  :  Borehole Salinity
CCLC .V                    :  CCL
CCLD .V                    :  CCL Discriminated Amplitude
CIRF .                     :  RST Capture to Inelastic Ratio Far
CIRN .                     :  RST Capture to Inelastic Ratio Near
CVEL .M/MIN                 :  Cable Velocity
DEVI .DEG                  :  Hole Deviation
DSIG .CU                   :  Sigma Difference
FBEF .UA                   :  RST Far Effective Beam Current
GR   .GAPI                 :  Gamma Ray
IRAT .                     :  RST Inelastic Ratio
RB_PCMS.DEG                  :  Relative Bearing
RSCF .                     :  RST Far Detector Effective Unregulated Capture Count Rate
RSCN .                     :  RST Near Detector Effective Unregulated Capture Count Rate
SFFA .CU                   :  RST Sigma Formation Far Apparent
SIBF .CU                   :  RST Sigma Borehole Fluid
SIGM .CU                   :  Formation Sigma (Neutron Capture Cross Section)
TPHI .V/V                  :  Thermal Decay Porosity
WPRE .PSI                  :  Well Pressure
WTEP .DEGC                 :  Well Temperature
~Parameter Information Block
#MNEM.UNIT            Value   Description
#---------- ----------------  -----------
APD  .M                  54:  Elevation of Depth Reference (LMF) above Permanent Datum
BHS  .                 CASE:  Borehole Status (Open or Cased Hole)
BS   .IN                8.5:  Bit Size
BSAL .PPM       34972.17188:  Borehole Salinity
BSALOPT.              UNKNOWN:  Borehole Salinity Option
CSID .IN              6.184:  Casing Inner Diameter
CSIZ .IN                  7:  Current Casing Size
CWEI .LB/F               29:  Casing Weight
MATR .                 SAND:  Rock Matrix for Neutron Porosity Corrections
RUN  .                    4:  RUN NUMBER
PROJECT.     SLEIPNER_OST@st-vlinapp01:  
SET  .       RSTD_0912_SIG1:  
~Other Information Block
~Ascii Log Data
# ...
    3253.89240 
    20070.1016         0.2377         0.0000         2.8204     0.87230003 
      -4.67610        52.0477        -1.6397        76.9317        16.8336 
    0.34090000       356.3970        13.0683        11.4709        13.7381 
       29.0952        11.5623     0.14920001      4906.2539        94.1070
    3254.04480 
    19848.5000         0.3365         0.0000         2.9503     0.88099998 
      -4.70670        51.9993        -1.6081        78.8940        15.5020 
    0.33770001       356.3821        13.1331        11.4286        13.6378 
       29.0176        11.6523     0.15019999      4906.4272        94.1133
    3254.19720 
    19430.5996         0.0853         0.0000         2.8800     0.86170000 
      -4.73480        51.9676        -1.6991        77.7876        16.6235 
    0.33379999       356.3643        13.2635        11.5044        13.9553 
       28.8714        11.8895     0.15070000      4906.5342        94.1270
    3254.34960 
    19137.1992        -0.0667         0.0000         2.7968     0.86559999 
      -4.73580        51.9631        -1.7320        76.4265        17.1620 
    0.33210000       356.2790        13.1131        11.8202        14.4470 
       28.7687        11.8813     0.15440001      4906.6577        94.1354
    3254.50200 
    19540.0996        -0.4126         0.0000         2.8899     0.85960001 
      -4.71820        51.9896        -1.5962        78.7923        16.2536 
    0.33059999       356.2784        13.0512        11.8398        13.6046 
       28.9097        11.9709     0.15369999      4906.8135        94.1346
    3254.65440 
    19413.6992         0.2326         0.0000         2.9805     0.88120002 
      -4.68120        51.9901        -1.5398        80.0008        15.3894 
    0.32780001       356.3309        12.6284        11.4839        14.1921 
       28.8654        11.8474     0.15369999      4906.9419        94.1414
    3254.80680 
    19485.5000         0.7505         0.0000         2.8730     0.84480000 
      -4.69540        51.9730        -1.5104        77.0591        15.8332 
    0.33030000       356.0471        12.7728        11.3386        14.0854 
       28.8906        11.8564     0.14800000      4907.0767        94.1550
    3254.95920 
    18852.0000         0.6384         0.0000         2.8357     0.85900003 
      -4.68780        51.9792        -1.4410        78.0959        14.9781 
    0.33629999       355.7777        12.1476        10.9269        13.6397 
       28.6690        11.7794     0.14450000      4907.1802        94.1648
    3255.11160 
    18963.0000         0.0596         0.0000         2.8111     0.84450001 
      -4.68090        51.8638        -1.4265        76.4319        14.4395 
    0.34130001       355.5775        12.7466        10.9354        13.9840 
       28.7078        11.8802     0.13820000      4907.3193        94.1700
    3255.26400 
    18881.2012        -0.0528         0.0000         2.7829     0.85390002 
      -4.66130        51.9091        -1.4593        79.9397        14.4603 
    0.34240001       355.5263        12.3216        10.9754        14.3944 
       28.6792        12.1772     0.13440000      4907.4761        94.1718
    3255.41640 
    18551.5000         0.0071         0.0000         2.8751     0.85799998 
      -4.72550        51.8425        -1.5606        82.7995        14.1083 
    0.33230001       355.5724        12.0358        10.7211        14.5580 
       28.5639        12.4319     0.12960000      4907.5405        94.1832
    3255.56880 
    18012.0000         0.1802         0.1802         2.8371     0.78780001 
      -4.70660        51.8087        -1.5675        81.6760        12.6880 
    0.31900001       355.5734        12.5878        10.9870        14.7549 
       28.3755        12.6102     0.13150001      4907.7275        94.1910
    3255.72120 
    17773.5996         1.4941         1.4941         2.4405     0.66479999 
      -4.69610        51.8874        -1.6432        78.0685        12.5993 
    0.31169999       355.5962        11.8969        10.1070        14.9497 
       28.2922        12.7783     0.13990000      4907.8984        94.1921
    3255.87360 
    17492.5996         0.2520         0.0000         2.3701     0.70700002 
      -4.69180        51.9466        -1.5832        75.7705        12.6940 
    0.31500000       355.5356        11.3898        10.3654        15.0555 
       28.1941        13.1478     0.15390000      4907.9575        94.1973
    3256.02600 
    17744.1992         0.1502         0.0000         2.5976     0.80100000 
      -4.72710        51.8568        -1.5193        83.2179        13.0165 
    0.32200000       355.5869        10.8710        10.7729        15.8200 
       28.2819        13.5182     0.16230001      4908.1021        94.2027
    3256.17840 
    17746.2988         0.1730         0.0000         2.5316     0.80379999 
      -4.74000        51.7206        -1.5153        77.0827        13.9042 
    0.33070001       355.5754        10.9791        10.4589        16.0042 
       28.2827        13.9732     0.16050000      4908.2383        94.2119
    3256.33080 
    17922.8008        -0.0926         0.0000         2.5066     0.79100001 
      -4.69410        51.7257        -1.5704        76.7087        14.9694 
    0.33770001       355.5480        11.1563        10.2439        16.3964 
       28.3443        14.2063     0.15560000      4908.3599        94.2190
    3256.48320 
    17846.3984        -0.1381         0.0000         2.3974     0.76099998 
      -4.71580        51.9710        -1.6144        76.7135        16.3424 
    0.33550000       355.6535        10.8595         9.8678        16.4989 
       28.3176        14.4451     0.15109999      4908.4785        94.2271
    3256.63560 
    18174.6016         0.0114         0.0000         2.4063     0.75629997 
      -4.68640        51.7119        -1.6899        78.5864        17.2301 
    0.33480000       355.6854        11.2375        10.6222        16.7080 
       28.4322        14.4793     0.15220000      4908.6084        94.2321
    3256.78800 
    18707.8984         0.3824         0.0000         2.4297     0.75099999 
      -4.67050        51.6580        -1.6990        79.7662        17.5289 
    0.32949999       355.5958        10.8066         9.8113        16.4866 
       28.6186        14.3784     0.15360001      4908.7417        94.2364
    3256.94040 
    19086.9004         0.1938         0.0000         2.4533     0.75050002 
      -4.72770        51.9292        -1.6497        79.0440        19.2155 
    0.33149999       355.5490        11.2875        10.6846        16.1708 
       28.7511        14.1816     0.15770000      4908.8682        94.2419
    3257.09280 
    19771.2988        -0.0603         0.0000         2.4886     0.79589999 
      -4.72880        51.8070        -1.5222        77.1081        19.9730 
    0.32659999       355.5407        11.0072        10.2800        16.0789 
       28.9906        13.7804     0.16069999      4908.9858        94.2535
    3257.24520 
    20217.1992        -0.1692         0.0000         2.7124     0.79659998 
      -4.69110        51.6776        -1.4425        82.6632        19.1327 
    0.32910001       355.6102        11.6273        10.7132        15.2466 
       29.1467        13.3022     0.15960000      4909.1650        94.2564
    3257.39760 
    20897.0996        -0.0544         0.0000         2.7472     0.85630000 
      -4.67540        51.7867        -1.2746        79.7002        19.0439 
    0.32800001       355.6081        11.9689        11.0579        14.6903 
       29.3849        12.8044     0.15770000      4909.2783        94.2559
    3257.55000 
    20716.0000        -0.0603         0.0000         2.8285     0.83810002 
      -4.72010        51.8816        -1.3018        77.6093        19.9316 
    0.33039999       355.6751        12.8596        11.0009        14.5791 
       29.3215        12.6094     0.15160000      4909.3745        94.2632
    3257.70240 
    21067.0000         0.3916         0.0000         2.8657     0.85560000 
      -4.72220        51.8882        -1.3195        79.9545        19.0025 
    0.32879999       355.7391        12.4469        11.0558        14.6844 
       29.4445        12.3625     0.15210000      4909.5410        94.2666
