~Version Information Block
VERS .                 2.00:  CWLS LOG ASCII STANDARD - VERSION 2.00
WRAP .                  YES:  Multiple lines per depth step
~Well Information Block
#MNEM.UNIT        Data Type   Information
#---------- ----------------  -----------
STRT .M          3438.44880:  START DEPTH
STOP .M          3636.26400:  STOP DEPTH
STEP .M             0.15240:  STEP
NULL .              -999.25:  NULL VALUE
COMP .              Statoil:  COMPANY
WELL .          NO_15/9-F-5:  WELL
FLD  .                Volve:  FIELD
LOC  .                Volve:  LOCATION
CTRY .               Norway:  COUNTRY
STAT .                     :  STATE
CNTY .                     :  COUNTY
SRVC .         Schlumberger:  SERVICE COMPANY
DATE .           11/03/2015:  DATE
API  .                     :  API NUMBER
UWI  .             15/9-F-5:  UNIQUE WELL ID
LATI .     58° 26' 29.66" N:  LATITUDE
LONG .      1° 53' 14.99" E:  LONGITUDE
~Curve Information Block
#MNEM.UNIT         API CODE   Curve Description
#---------- ----------------  -----------------
DEPTH.M                    :  Depth Index
BSAL .PPM                  :  (RST-D)                 (6in)                   Borehole Salinity
CCLC .V                    :  (PSTP-B)                (1in)                   CCL Computed Amplitude
CIRF .                     :  (RST-D)                 (6in)                   Capture to Inelastic Rat
CIRN .                     :  (RST-D)                 (6in)                   Capture to Inelastic Rat
CVEL .M/SEC                 :  (WLWorkflow)            (1in)                   Cable Velocity
DSIG .CU                   :  (RST-D)                 (6in)                   Sigma Difference
FBEF .UA                   :  (RST-D)                 (6in)                   Far Effective Beam Curre
GR   .GAPI                 :  (PSTP-B)                (6in)                   Gamma Ray
IRAT .                     :  (RST-D)                 (6in)                   Inelastic Ratio
RB_PCMS.DEG                  :  (PCMS-A)                (6in)                   Relative Bearing
RSCF .                     :  (RST-D)                 (6in)                   Far Detector Effective U
RSCN .                     :  (RST-D)                 (6in)                   Near Detector Effective
SFFA .CU                   :  (RST-D)                 (6in)                   Sigma Formation Far Appa
SIBF .CU                   :  (RST-D)                 (6in)                   Sigma Borehole Fluid
SIGM .CU                   :  (RST-D)                 (6in)                   Formation Sigma (Neutron
TENS .LBF                  :  (WLWorkflow)            (1in)                   Cable Tension
TPHI .V/V                  :  (RST-D)                 (6in)                   Thermal Decay Porosity
WPRE .BAR                  :  (PSTP-B)                (6in)                   Well Pressure
WTEP .DEGC                 :  (PSTP-B)                (6in)                   Well Temperature
~Parameter Information Block
#MNEM.UNIT            Value   Description
#---------- ----------------  -----------
APD  .M                  54:  Elevation of Depth Reference (LMF) Above Permanent Datum
CLAB .              Country:  :County Label
ECF  .M             -999.25:  Elevation of Casing Flange above Permanent Datum
EDF  .M                  54:  Elevation of Drill Floor Above Permanent Datum
EGL  .M                 -91:  Elevation of Ground Level Above Permanent Datum
EKB  .M             -999.25:  Elevation of Kelly Bushing Above Permanent Datum
EPD  .M                   0:  Elevation of Permanent Datum (PDAT) above Mean Sea Level
FL1  .            North Sea:  Field Location Line 1
FL2  .     Norwegian Sector:  Field Location Line 2
LMF  .                   DF:  Logging Measured From
LUL  .                 NOBO:  Logging Unit Location
LUN  .          ONCC-A 3837:  Logging Unit Number
PDAT .                  MSL:  Local Permanent Datum
RIGN .      Maersk Inspirer:  Rig Name
RIGTYP.               Jackup:  Rig Type
SON  .           C2TQ-00038:  Service Order Number
TAPE_NAME.     RST_SIGMA__03Nov15_171237.las:  
TOOL_STRING.              UNKNOWN:  
WN   .             15/9-F-5:  WELL NAME
PROJECT.     SLEIPNER_OST@st-vlinapp01:  
SET  .       RSTD_1115_SIG1:  
~Other Information Block
~Ascii Log Data
# ...
    3454.90800 
    54428.6602         0.0182         1.3398       0.487350     -0.0757798 
        2.5736       102.4764        30.4406       0.312170       353.8089 
        4.4318         4.9488        27.6988        41.3828        25.5392 
     3876.0007       0.297800       359.3529        83.7647
    3455.06040 
    55154.4180         0.0463         1.4090       0.482540     -0.0759498 
        2.5523       113.8282        30.2567       0.309050       353.8220 
        4.4157         5.1207        27.0505        41.6479        24.3487 
     3954.8008       0.287960       359.3633        83.7600
    3455.21280 
    55570.7109         0.0041         1.4995       0.524930     -0.0772238 
        2.7144       110.8586        28.6441       0.309260       354.1165 
        4.6877         5.2146        24.4152        41.8000        23.2421 
     3960.2007       0.285390       359.3753        83.7588
    3455.36520 
    55516.7070        -0.0073         1.5622       0.538420     -0.0767118 
        2.6151       104.4243        29.1441       0.310490       354.5494 
        5.2730         5.6648        24.3953        41.7802        22.3845 
     3951.5994       0.286880       359.3837        83.7602
    3455.51760 
    55535.5664        -0.0804         1.5278       0.531090     -0.0762000 
        3.0486       109.4121        27.9489       0.307280       354.6198 
        4.9077         5.6513        24.4865        41.7871        21.9335 
     3949.8010       0.292090       359.3909        83.7516
    3455.67000 
    55174.0000         0.0263         1.5434       0.522910     -0.0774738 
        2.9918       108.2564        29.1502       0.306510       354.4153 
        5.1023         5.8139        23.0384        41.6550        21.9661 
     3871.9990       0.294650       359.4097        83.7434
    3455.82240 
    55531.2305         0.0041         1.4938       0.527690     -0.0764617 
        3.0284       105.9265        28.9600       0.308190       354.4731 
        5.0783         5.7009        24.4699        41.7855        21.9568 
     3993.2004       0.300290       359.4114        83.7272
    3455.97480 
    55259.5273        -0.0266         1.5451       0.549330     -0.0774748 
        2.7245       110.0555        28.3355       0.312930       354.5386 
        4.9435         5.6725        24.4256        41.6863        22.8798 
     3970.2495       0.299590       359.4272        83.7207
    3456.12720 
    55199.7500         0.0755         1.4339       0.530450     -0.0766233 
        2.5022       107.0842        27.6490       0.312310       354.4179 
        4.6851         5.4918        25.7841        41.6644        23.0200 
     3865.8325       0.295890       359.4369        83.7168
    3456.27960 
    54629.6602         0.0098         1.4925       0.535490     -0.0764617 
        2.3528       104.3971        27.1069       0.317370       354.3685 
        4.8404         5.4314        24.8671        41.4562        22.7104 
     3958.1997       0.282650       359.4440        83.7173
    3456.43200 
    54181.6602        -0.0052         1.6370       0.558000     -0.0779780 
        2.0888       103.7659        26.7962       0.319140       354.1682 
        5.4625         5.7669        23.4652        41.2927        21.5712 
     3910.4009       0.267230       359.4604        83.7131
    3456.58440 
    54472.3203         0.0552         1.6668       0.549850     -0.0765270 
        1.7807       101.7327        26.9737       0.325470       354.0530 
        5.6747         5.6343        22.3104        41.3988        21.0329 
     3956.7498       0.254000       359.4659        83.6987
    3456.73680 
    53937.7773         0.0100         1.6460       0.571180     -0.0764502 
        1.7238        99.6654        27.6870       0.325870       354.1579 
        5.7443         5.7799        23.2260        41.2037        20.9527 
     3964.0000       0.249650       359.4760        83.6869
    3456.88920 
    53406.5000         0.0076         1.6729       0.565840     -0.0762095 
        1.6628       106.5914        28.2285       0.326830       354.2230 
        5.3480         5.6182        23.2027        41.0100        21.3860 
     3879.6672       0.246210       359.4906        83.6781
    3457.04160 
    52663.9102        -0.0039         1.6157       0.557580     -0.0767195 
        1.3240       102.4817        30.0927       0.325620       354.3048 
        5.4530         5.7497        23.5953        40.7394        21.2959 
     3929.9998       0.253590       359.4964        83.6691
    3457.19400 
    52251.0898        -0.0096         1.6861       0.569520     -0.0774622 
        1.0192       100.2552        29.2082       0.320810       354.3202 
        5.7070         5.7119        22.8969        40.5890        22.0282 
     3865.2009       0.262730       359.5109        83.6608
    3457.34640 
    51377.6289         0.0434         1.5583       0.554220     -0.0758873 
        0.9003       106.9904        29.9686       0.310330       354.3881 
        5.0874         5.7958        25.3697        40.2712        23.3498 
     3938.0007       0.291750       359.5196        83.6451
    3457.49880 
    51175.1406        -0.0325         1.3168       0.478840     -0.0764148 
        1.0175       109.5674        30.2349       0.295290       354.2610 
        4.4435         5.5073        27.5369        40.1976        25.4927 
     3947.5012       0.330700       359.5277        83.6289
    3457.65120 
    50799.8398         0.0269         1.0510       0.426400     -0.0764578 
        1.2827       111.2595        29.1697       0.293610       353.8754 
        3.4348         4.8071        29.3450        40.0611        28.2694 
     3853.0005       0.368320       359.5418        83.6208
    3457.80360 
    50211.3594         0.0600         0.9400       0.450890     -0.0768398 
        1.8813       109.5755        26.8617       0.297080       353.7244 
        2.9014         4.5174        33.7490        39.8473        30.1286 
     3911.0012       0.392460       359.5513        83.6094
    3457.95600 
    49289.7305        -0.0455         0.9586       0.443350     -0.0774738 
        2.2291       108.8034        26.9473       0.302900       353.9259 
        3.0016         4.4421        33.2076        39.5127        31.3459 
     3991.9998       0.398060       359.5589        83.6000
    3458.10840 
    48851.9102         0.0079         0.9555       0.438930     -0.0762000 
        2.5997       113.1248        26.2756       0.301480       354.0784 
        2.9309         4.5065        33.1046        39.3539        31.4373 
     3930.8000       0.397520       359.5738        83.5899
    3458.26080 
    48217.3867        -0.0002         0.9222       0.428860     -0.0762032 
        2.9240       110.0236        26.4531       0.302490       354.2304 
        2.9601         4.5003        34.1407        39.1239        31.7783 
     3917.1677       0.386230       359.5824        83.5829
    3458.41320 
    46921.9570        -0.0794         0.8856       0.406420     -0.0772238 
        3.2673       109.2322        28.3173       0.305230       354.2404 
        2.8586         4.2901        34.3513        38.6549        31.3386 
     3981.6001       0.376040       359.5920        83.5720
    3458.56560 
    46909.1914        -0.0784         0.9833       0.418710     -0.0762077 
        3.2996       106.8909        30.4478       0.306720       354.1548 
        3.1465         4.3352        31.8868        38.6503        30.8084 
     3871.2009       0.362910       359.6018        83.5695
    3458.71800 
    46730.7266        -0.0278         0.9570       0.412090     -0.0764117 
        3.5201       103.8858        31.9568       0.305660       354.3389 
        3.2067         4.2896        32.5812        38.5857        30.3881 
     3927.5000       0.353440       359.6151        83.5659
    3458.87040 
    46349.3125        -0.0542         1.0323       0.431300     -0.0759537 
        3.3976       105.7771        34.0015       0.308470       354.4125 
        3.4534         4.6034        33.0859        38.4478        30.3632 
     4008.3997       0.346640       359.6224        83.5545
