~Version Information Block
VERS .                 2.00:  CWLS LOG ASCII STANDARD - VERSION 2.00
WRAP .                   NO:  One line per depth step
~Well Information Block
#MNEM.UNIT        Data Type   Information
#---------- ----------------  -----------
STRT .M          3454.45080:  START DEPTH
STOP .M          3788.05440:  STOP DEPTH
STEP .M             0.15240:  STEP
NULL .              -999.25:  NULL VALUE
COMP .              Statoil:  COMPANY
WELL .        NO_15/9-F-1_C:  WELL
FLD  .                Volve:  FIELD
LOC  .            North Sea:  LOCATION
CTRY .               Norway:  COUNTRY
STAT .                     :  STATE
CNTY .                     :  COUNTY
SRVC .         Schlumberger:  SERVICE COMPANY
DATE .          27-Nov-2014:  DATE
API  .                     :  API NUMBER
UWI  .           15/9-F-1 C:  UNIQUE WELL ID
LATI .     58° 26' 29.91" N:  LATITUDE
LONG .      1° 53' 14.71" E:  LONGITUDE
~Curve Information Block
#MNEM.UNIT         API CODE   Curve Description
#---------- ----------------  -----------------
DEPTH.M                    :  DEPTH (BOREHOLE)
CRRA .                     :  Near/Far Count Rate Ratio
CVEL .M/SEC                 :  Cable Velocity
DFRB .DEG                  :  Calibrated Relative Bearing
FBEF .UA                   :  RST Far Effective Beam Current
FCOR .                     :  RST Far Carbon/Oxygen Ratio
FERD .                     :  RST Far IC Mode Capture Optimization
FIRD .                     :  RST Far Inelastic Optimization Resolution
GR   .GAPI                 :  Gamma Ray
NCOR .                     :  RST Near Carbon/Oxygen Ratio
NERD .                     :  RST Near IC Mode Capture Optimization
NIRD .                     :  RST Near Inelastic Optimization Resolution
PFC1 .IN                   :  PFCS CaliperX
PFC2 .IN                   :  PFCS CaliperY
TENS .LBF                  :  Cable Tension
~Parameter Information Block
#MNEM.UNIT            Value   Description
#---------- ----------------  -----------
APD  .M           54.900002:  Elevation of Depth Reference (LMF) above Permanent Datum
EPD  .C3                  0:  Elevation of Permanent Datum above Mean Sea Level
LMF  .                   KB:  Logging Measured From (Name of Logging Elevation Reference)
PDAT .                  MSL:  Permanent Datum
RUN  .                Run 1:  RUN NUMBER
TAPE_NAME.     Statoil_Volve_15-9-F-1 C_PLT-RST_28Nov14_ConCu_R1L17Up_IC1.las:  
TOOL_STRING.              UNKNOWN:  
WN   .           15/9-F-1 C:  WELL
PROJECT.     SLEIPNER_OST@st-vlinapp01:  
SET  .        RSTD_1114_IC1:  
~Other Information Block
# 
~A       DEPTH           CRRA           CVEL           DFRB           FBEF           FCOR           FERD           FIRD             GR           NCOR           NERD           NIRD           PFC1           PFC2           TENS 
# ...
    3630.01560         2.8278      -0.006210       359.8050       123.3009        -0.1134         4.9948         4.9948        14.8052         0.0180         7.0164         7.0164         6.2219         6.0510      4238.8018
    3630.16800         2.8214      -0.007223       359.8050       123.9346        -0.0033         5.0821         5.0821        14.9604         0.0332         7.1146         7.1146         6.2219         6.0508      4240.7393
    3630.32040         2.8463      -0.005895       359.8050       122.5108        -0.0189         4.9042         4.9042        16.0566         0.0403         7.1588         7.1588         6.2219         6.0497      4157.8569
    3630.47280         2.8395      -0.005960       359.8050       122.5694        -0.0135         5.0521         5.0521        17.2558        -0.0259         7.1138         7.1138         6.2219         6.0466      4120.9404
    3630.62520         2.8940      -0.006172       359.8050       121.2179         0.0035         5.0935         5.0935        17.8488         0.0590         7.1804         7.1804         6.2219         6.0465      4276.3452
    3630.77760         2.8558      -0.005855       359.8050       119.4131        -0.0636         5.1071         5.1071        18.1410         0.0384         7.1950         7.1950         6.2185         6.0408      4241.0674
    3630.93000         2.7698      -0.007957       359.8050       121.5091         0.0153         4.9102         4.9102        18.3426         0.0380         7.2340         7.2340         6.2201         6.0424      4242.9204
    3631.08240         2.7951      -0.011420       359.8050       122.6160        -0.0666         5.0858         5.0858        17.5956         0.0418         7.2600         7.2600         6.2179         6.0406      4216.8745
    3631.23480         2.8077      -0.010575       359.8050       122.9456        -0.0216         4.9903         4.9903        16.9076         0.0201         7.2454         7.2454         6.2143         6.0390      4202.8843
    3631.38720         2.8170      -0.010802         1.4110       122.6981         0.0975         5.1549         5.1549        16.4907         0.0351         7.2548         7.2548         6.2129         6.0354      4276.9292
    3631.53960         2.8219      -0.011477         1.4110       122.5215         0.0128         4.9234         4.9234        16.3619        -0.0047         7.2120         7.2120         6.1941         6.0200      4193.0151
    3631.69200         2.8037      -0.011820         1.4110       122.7430        -0.0866         5.0417         5.0417        15.9599        -0.0381         7.2482         7.2482         6.1981         6.0212      4209.1030
    3631.84440         2.8125      -0.011038         1.4110       123.5138         0.1275         5.0759         5.0759        15.8192         0.0155         7.2765         7.2765         6.2045         6.0239      4160.9077
    3631.99680         2.8488      -0.010735         1.4110       122.9266         0.0521         5.0792         5.0792        15.5912         0.0165         7.2453         7.2453         6.1957         6.0256      4183.2207
    3632.14920         2.8218      -0.010852         1.4110       122.6679        -0.1130         5.0851         5.0851        15.3625         0.0713         7.2476         7.2476         6.2034         6.0409      4269.6558
    3632.30160         2.8146      -0.011852         1.4110       122.5177        -0.0014         5.1177         5.1177        15.2006        -0.0473         7.2298         7.2298         6.2086         6.0385      4276.8174
    3632.45400         2.8163      -0.011703         1.4110       122.4628         0.0434         5.0460         5.0460        15.0832         0.0323         7.1853         7.1853         6.2123         6.0194      4248.5381
    3632.60640         2.8008      -0.010877         1.4110       122.1602         0.0543         5.0792         5.0792        14.8948         0.0130         7.1837         7.1837         6.2159         6.0235      4264.5674
    3632.75880         2.8080      -0.010740         1.4110       122.6529        -0.1352         5.0702         5.0702        14.7360         0.0569         7.1471         7.1471         6.2107         6.0256      4262.9443
    3632.91120         2.8246      -0.011835         1.4110       123.0710        -0.1563         5.1453         5.1453        14.7039        -0.0315         7.1020         7.1020         6.2033         6.0221      4249.4717
    3633.06360         2.8500      -0.011525         1.4110       123.5951         0.0296         5.1593         5.1593        14.7596         0.0605         7.1389         7.1389         6.2004         6.0458      4221.6021
    3633.21600         2.8761      -0.010537         1.4110       124.1644         0.0725         5.1267         5.1267        15.1240        -0.0367         7.1767         7.1767         6.1989         6.0464      4166.5024
    3633.36840         2.8833      -0.010903         1.4110       123.6969         0.1333         5.1203         5.1203        15.5747         0.0411         7.0007         7.0007         6.1976         6.0504      4207.5356
    3633.52080         2.8586      -0.011528         1.4110       121.7111        -0.1923         5.1425         5.1425        15.7320         0.0037         7.0825         7.0825         6.2018         6.0469      4218.0347
    3633.67320         2.7998      -0.010967         1.4110       122.6980        -0.0101         5.2072         5.2072        15.9510         0.1245         7.0691         7.0691         6.1942         6.0402      4149.2930
    3633.82560         2.8214      -0.010528         1.4110       121.2744        -0.0850         5.1353         5.1353        16.2441         0.1139         7.0425         7.0425         6.2197         6.0491      4213.1050
    3633.97800         2.7962      -0.011568       359.8050       122.4154        -0.0135         5.1776         5.1776        16.4739        -0.0738         7.0773         7.0773         6.2216         6.0427      4222.0708
    3634.13040         2.8188      -0.010897       358.3940       121.8340        -0.0350         5.1190         5.1190        16.7652        -0.0379         7.0914         7.0914         6.2216         6.0387      4195.1753
    3634.28280         2.8088      -0.010817         1.4110       122.4335         0.0972         5.1058         5.1058        17.0713        -0.0103         7.0860         7.0860         6.2218         6.0450      4237.6841
    3634.43520         2.8081      -0.011510         1.4110       121.8082        -0.0142         5.1454         5.1454        17.4222         0.0834         7.0869         7.0869         6.2219         6.0502      4322.6616
    3634.58760         2.8015      -0.010850         1.4110       122.1997         0.0791         5.2533         5.2533        17.7927         0.0798         7.1554         7.1554         6.2219         6.0498      4301.2393
    3634.74000         2.7954      -0.010628         1.4110       122.8092         0.0659         5.2488         5.2488        17.9081         0.0329         7.1767         7.1767         6.2287         6.0460      4250.5977
    3634.89240         2.8183      -0.011138         1.4110       121.7906         0.0171         5.1579         5.1579        17.9457         0.0055         7.1473         7.1473         6.2266         6.0458      4289.4014
    3635.04480         2.7975      -0.010785         1.4110       120.7142         0.1945         5.2358         5.2358        18.4972         0.0288         7.1336         7.1336         6.2248         6.0501      4294.0718
    3635.19720         2.7812      -0.011082         1.4110       122.6981        -0.0562         5.3202         5.3202        18.7805         0.0891         7.1504         7.1504         6.2233         6.0503      4189.0776
    3635.34960         2.8241      -0.010512       359.8050       121.6949        -0.0163         5.2797         5.2797        18.9641         0.0941         7.1516         7.1516         6.2219         6.0507      4315.4336
