~Version Information Block
VERS .                 2.00:  CWLS LOG ASCII STANDARD - VERSION 2.00
WRAP .                   NO:  One line per depth step
~Well Information Block
#MNEM.UNIT        Data Type   Information
#---------- ----------------  -----------
STRT .M          3470.91000:  START DEPTH
STOP .M          3530.04120:  STOP DEPTH
STEP .M             0.15240:  STEP
NULL .              -999.25:  NULL VALUE
COMP .              Statoil:  COMPANY
WELL .          NO_15/9-F-5:  WELL
FLD  .                Volve:  FIELD
LOC  .                Volve:  LOCATION
CTRY .               Norway:  COUNTRY
STAT .                     :  STATE
CNTY .                     :  COUNTY
SRVC .         Schlumberger:  SERVICE COMPANY
DATE .           11/03/2015:  DATE
API  .                     :  API NUMBER
UWI  .             15/9-F-5:  UNIQUE WELL ID
LATI .     58° 26' 29.66" N:  LATITUDE
LONG .      1° 53' 14.99" E:  LONGITUDE
~Curve Information Block
#MNEM.UNIT         API CODE   Curve Description
#---------- ----------------  -----------------
DEPTH.M                    :  Depth Index
CCLC .V                    :  (PSTP-B)                (1in)                   CCL Computed Amplitude
CVEL .M/SEC                 :  (WLWorkflow)            (1in)                   Cable Velocity
FBEF .UA                   :  (RST-D)                 (6in)                   Far Effective Beam Curre
FCOR .                     :  (RST-D)                 (6in)                   Far Carbon/Oxygen Ratio
FERD .                     :  (RST-D)                 (6in)                   Far IC Mode Capture Opti
FIRD .                     :  (RST-D)                 (6in)                   Far Inelastic Optimizati
GR   .GAPI                 :  (PSTP-B)                (6in)                   Gamma Ray
NCOR .                     :  (RST-D)                 (6in)                   Near Carbon/Oxygen Ratio
NERD .                     :  (RST-D)                 (6in)                   Near IC Mode Capture Opt
NIRD .                     :  (RST-D)                 (6in)                   Near Inelastic Optimizat
RB_PCMS.DEG                  :  (PCMS-A)                (6in)                   Relative Bearing
TENS .LBF                  :  (WLWorkflow)            (1in)                   Cable Tension
WPRE .BAR                  :  (PSTP-B)                (6in)                   Well Pressure
WTEP .DEGC                 :  (PSTP-B)                (6in)                   Well Temperature
~Parameter Information Block
#MNEM.UNIT            Value   Description
#---------- ----------------  -----------
APD  .M                  54:  Elevation of Depth Reference (LMF) Above Permanent Datum
CLAB .              Country:  :County Label
ECF  .M             -999.25:  Elevation of Casing Flange above Permanent Datum
EDF  .M                  54:  Elevation of Drill Floor Above Permanent Datum
EGL  .M                 -91:  Elevation of Ground Level Above Permanent Datum
EKB  .M             -999.25:  Elevation of Kelly Bushing Above Permanent Datum
EPD  .M                   0:  Elevation of Permanent Datum (PDAT) above Mean Sea Level
FL1  .            North Sea:  Field Location Line 1
FL2  .     Norwegian Sector:  Field Location Line 2
LMF  .                   DF:  Logging Measured From
LUL  .                 NOBO:  Logging Unit Location
LUN  .          ONCC-A 3837:  Logging Unit Number
PDAT .                  MSL:  Local Permanent Datum
RIGN .      Maersk Inspirer:  Rig Name
RIGTYP.               Jackup:  Rig Type
SON  .           C2TQ-00038:  Service Order Number
TAPE_NAME.     RST_IC_Pass3___03Nov15_234906.las:  
TOOL_STRING.              UNKNOWN:  
WN   .             15/9-F-5:  WELL NAME
PROJECT.     SLEIPNER_OST@st-vlinapp01:  
SET  .        RSTD_1115_IC3:  
~Other Information Block
# 
~A       DEPTH           CCLC           CVEL           FBEF           FCOR           FERD           FIRD             GR           NCOR           NERD           NIRD        RB_PCMS           TENS           WPRE           WTEP 
# ...
    3487.36920      -0.008760    -0.00904533       127.5939       0.107710         6.5225         6.5225       115.5734       0.018810         4.2795         4.2795       351.7986      4028.9988       359.6843        84.3966
    3487.52160      -0.007690    -0.00911250       127.4982       0.126850         6.4486         6.4486       111.8214       0.042650         4.2536         4.2536       351.9842      3938.7493       359.6975        84.3908
    3487.67400       0.002990    -0.00907183       127.5911       0.042770         6.4285         6.4285       108.3366       0.106830         4.2458         4.2458       351.9624      3980.1187       359.7050        84.3700
    3487.82640      -0.007290    -0.00895567       127.8145       0.094140         6.4647         6.4647       108.8922       0.041770         4.2605         4.2605       352.0099      4066.5645       359.7237        84.3534
    3487.97880      -0.052780    -0.00895100       127.9145       0.181570         6.3752         6.3752       108.0576       0.049890         4.2727         4.2727       351.9493      4087.7617       359.7324        84.3350
    3488.13120      -0.005070    -0.00949383       128.2417       0.065570         6.3778         6.3778       106.9415       0.079550         4.2688         4.2688       351.8987      4085.9993       359.7450        84.3195
    3488.28360       0.011110    -0.00957217       127.2378       0.106460         6.4422         6.4422       107.7593       0.058670         4.2770         4.2770       351.7736      4121.6089       359.7536        84.3054
    3488.43600      -0.018310    -0.00931383       127.2777      -0.006830         6.4238         6.4238       107.8403       0.062870         4.2571         4.2571       351.6381      4067.3333       359.7663        84.2941
    3488.58840      -0.003510    -0.00894950       127.2759       0.194240         6.2590         6.2590       105.0238       0.066680         4.3212         4.3212       351.6598      4062.4189       359.7770        84.2722
    3488.74080      -0.003750    -0.00920750       126.5238       0.077450         6.2356         6.2356       105.4663       0.050050         4.3147         4.3147       351.6838      3905.3743       359.7898        84.2566
    3488.89320       0.014620    -0.00882850       127.0031       0.009720         6.2655         6.2655       106.7509       0.042630         4.3432         4.3432       351.7935      3958.3662       359.8005        84.2358
    3489.04560       0.081860    -0.00913217       126.1710       0.090880         6.2380         6.2380       106.4622       0.069530         4.3262         4.3262       351.6796      3933.0010       359.8102        84.2119
    3489.19800      -0.004600    -0.00877233       127.9650      -0.072240         6.2699         6.2699       106.9423       0.052870         4.3086         4.3086       351.3897      3974.1636       359.8243        84.2068
    3489.35040      -0.010560    -0.00868833       127.3405      -0.094270         6.2699         6.2699       108.5428       0.157720         4.2728         4.2728       351.3576      3939.5452       359.8330        84.1773
    3489.50280      -0.005470    -0.00874267       127.6832      -0.132550         6.1789         6.1789       108.3401       0.050250         4.3109         4.3109       351.4698      3904.7200       359.8465        84.1657
    3489.65520      -0.005470    -0.00856550       127.8771       0.008300         6.2299         6.2299       106.2182       0.030470         4.2734         4.2734       352.0880      3894.6035       359.8559        84.1472
    3489.80760      -0.005630    -0.00857283       127.2530       0.103250         6.1858         6.1858       105.3564       0.006570         4.2762         4.2762       352.0669      3994.1130       359.8693        84.1373
    3489.96000       0.029340    -0.00867850       127.5686       0.173760         6.2787         6.2787       108.7869       0.063660         4.3022         4.3022       352.0854      3955.4751       359.8796        84.1213
    3490.11240      -0.005370    -0.00880183       127.0893       0.082310         6.2081         6.2081       110.9197       0.030170         4.2598         4.2598       352.1108      4036.1636       359.8896        84.1103
    3490.26480      -0.006030    -0.00895067       127.6565       0.018070         6.1139         6.1139       112.5205       0.032350         4.3023         4.3023       352.0925      4145.3330       359.9042        84.1050
    3490.41720       0.008980    -0.00917633       127.6372       0.139410         6.0018         6.0018       115.3161       0.029410         4.3014         4.3014       352.1025      4054.6743       359.9111        84.0845
    3490.56960      -0.040230    -0.00916267       127.4151       0.101890         5.9520         5.9520       119.4893       0.063250         4.3369         4.3369       352.1597      4132.4517       359.9285        84.0837
    3490.72200      -0.016470    -0.00922333       128.4579       0.022790         5.9591         5.9591       121.3582       0.070890         4.2599         4.2599       352.2285      4197.5942       359.9384        84.0857
    3490.87440       0.021990    -0.00913233       128.2896       0.113120         5.9172         5.9172       119.7557       0.062110         4.2588         4.2588       352.5584      4081.0466       359.9461        84.0653
    3491.02680      -0.007270    -0.00919283       127.8842       0.078300         5.9349         5.9349       119.7050       0.042200         4.2716         4.2716       352.7289      3985.2151       359.9613        84.0574
    3491.17920       0.006520    -0.00906767       126.9471       0.057180         5.8682         5.8682       119.8444       0.031210         4.2537         4.2537       352.9036      3941.6270       359.9708        84.0493
    3491.33160      -0.007630    -0.00912417       128.1098       0.159150         5.8415         5.8415       117.1495       0.052430         4.2650         4.2650       352.4297      3903.8679       359.9819        84.0383
    3491.48400      -0.015940    -0.00907633       128.5817      -0.053330         5.7567         5.7567       112.0723       0.012820         4.2555         4.2555       352.3766      3971.2927       359.9927        84.0029
    3491.63640      -0.040900    -0.00889050       127.0699       0.021540         5.7893         5.7893       110.4932       0.046500         4.2484         4.2484       352.1558      3919.1775       360.0061        83.9838
    3491.78880      -0.007370    -0.00900083       127.9503       0.032710         5.7710         5.7710       110.3726       0.108520         4.2492         4.2492       352.2240      3786.8257       360.0176        83.9628
    3491.94120      -0.007160    -0.00868833       128.3087       0.006970         5.7761         5.7761       110.1422       0.031420         4.2559         4.2559       352.1195      3914.5217       360.0291        83.9480
    3492.09360       0.016960    -0.00844733       127.7339      -0.038250         5.8292         5.8292       112.5806      -0.009350         4.2551         4.2551       352.0001      3893.5808       360.0417        83.9365
    3492.24600      -0.030660    -0.00879983       128.4721       0.006000         5.9032         5.9032       117.3085      -0.016520         4.2639         4.2639       351.9332      3865.5964       360.0520        83.9254
    3492.39840       0.009010    -0.00879750       127.5430       0.050310         5.8536         5.8536       122.8947      -0.106450         4.2341         4.2341       352.1596      3993.0498       360.0620        83.9061
    3492.55080      -0.000570    -0.00880183       132.8156       0.166890         5.8603         5.8603       130.0069       0.074290         4.2243         4.2243       352.4654      3853.5354       360.0748        83.8984
    3492.70320      -0.005230    -0.00907183       138.1013       0.032610         5.8370         5.8370       135.6964      -0.092300         4.2149         4.2149       352.5094      4041.4287       360.0819        83.8778
