~Version Information Block
VERS .                 2.00:  CWLS LOG ASCII STANDARD - VERSION 2.00
WRAP .                   NO:  One line per depth step
~Well Information Block
#MNEM.UNIT        Data Type   Information
#---------- ----------------  -----------
STRT .M          3454.60320:  START DEPTH
STOP .M          3792.47400:  STOP DEPTH
STEP .M             0.15240:  STEP
NULL .              -999.25:  NULL VALUE
COMP .              Statoil:  COMPANY
WELL .        NO_15/9-F-1_C:  WELL
FLD  .                Volve:  FIELD
LOC  .            North Sea:  LOCATION
CTRY .               Norway:  COUNTRY
STAT .                     :  STATE
CNTY .                     :  COUNTY
SRVC .         Schlumberger:  SERVICE COMPANY
DATE .          27-Nov-2014:  DATE
API  .                     :  API NUMBER
UWI  .           15/9-F-1 C:  UNIQUE WELL ID
LATI .     58° 26' 29.91" N:  LATITUDE
LONG .      1° 53' 14.71" E:  LONGITUDE
~Curve Information Block
#MNEM.UNIT         API CODE   Curve Description
#---------- ----------------  -----------------
DEPTH.M                    :  DEPTH (BOREHOLE)
CVEL .M/SEC                 :  Cable Velocity
DFRB .DEG                  :  Calibrated Relative Bearing
FBEF .UA                   :  RST Far Effective Beam Current
FCOR .                     :  RST Far Carbon/Oxygen Ratio
FERD .                     :  RST Far IC Mode Capture Optimization
FIRD .                     :  RST Far Inelastic Optimization Resolution
GR   .GAPI                 :  Gamma Ray
NCOR .                     :  RST Near Carbon/Oxygen Ratio
NERD .                     :  RST Near IC Mode Capture Optimization
NIRD .                     :  RST Near Inelastic Optimization Resolution
PFC1 .IN                   :  PFCS CaliperX
PFC2 .IN                   :  PFCS CaliperY
TENS .LBF                  :  Cable Tension
~Parameter Information Block
#MNEM.UNIT            Value   Description
#---------- ----------------  -----------
APD  .M           54.900002:  Elevation of Depth Reference (LMF) above Permanent Datum
EPD  .C3                  0:  Elevation of Permanent Datum above Mean Sea Level
LMF  .                   KB:  Logging Measured From (Name of Logging Elevation Reference)
PDAT .                  MSL:  Permanent Datum
RUN  .                Run 1:  RUN NUMBER
TAPE_NAME.     ConCu_R1L19Up_S012_PFCS_PILS_DEFT_RST_PCMS_PSTP.las:  
TOOL_STRING.              UNKNOWN:  
WN   .           15/9-F-1 C:  WELL
PROJECT.     SLEIPNER_OST@st-vlinapp01:  
SET  .        RSTD_1114_IC3:  
~Other Information Block
# 
~A       DEPTH           CVEL           DFRB           FBEF           FCOR           FERD           FIRD             GR           NCOR           NERD           NIRD           PFC1           PFC2           TENS 
# ...
    3543.75720      -0.007473       356.9830       107.0597        -0.0120         5.1349         5.1349        34.9737         0.8656         6.6069         6.6069         6.1905         5.9860      4316.9707
    3543.90960      -0.007685       356.9830       106.8338         0.1669         4.9981         4.9981        30.3400         0.8030         6.6312         6.6312         6.1905         5.9857      4311.7139
    3544.06200      -0.007588       356.9830       106.2486         0.2393         5.1371         5.1371        28.5012         0.9019         6.6833         6.6833         6.1905         5.9861      4294.2817
    3544.21440      -0.007673       356.9830       107.3793         0.2968         5.2012         5.2012        27.6431         0.8576         6.6785         6.6785         6.1905         5.9859      4216.9668
    3544.36680      -0.007760       356.9830       106.3820         0.3052         4.9543         4.9543        27.2753         0.8226         6.6583         6.6583         6.1916         5.9861      4163.5933
    3544.51920      -0.007857       356.9830       104.6028         0.1922         5.0173         5.0173        28.0108         0.7429         6.6683         6.6683         6.1979         5.9862      4116.4248
    3544.67160      -0.008068       356.9830       101.9496         0.0709         5.1237         5.1237        26.9811         0.7396         6.7375         6.7375         6.2036         5.9862      4016.4185
    3544.82400      -0.008097       356.9830       102.1226         0.2912         5.1822         5.1822        27.5450         0.8398         6.7391         6.7391         6.1993         5.9863      3948.8428
    3544.97640      -0.007647       356.9830       100.6705         0.1716         5.4035         5.4035        25.5959         0.7371         6.7151         6.7151         6.1905         5.9862      4249.8716
    3545.12880      -0.007455       358.3940        99.9959         0.1759         5.3106         5.3106        25.3017         0.6743         6.7111         6.7111         6.1924         5.9923      4323.7422
    3545.28120      -0.007563       358.3940       100.7336        -0.0322         5.2139         5.2139        22.3596         0.7555         6.7177         6.7177         6.1905         5.9993      4262.8447
    3545.43360      -0.007380       358.3940       100.9582         0.2746         5.3380         5.3380        23.2177         0.6962         6.7029         6.7029         6.1905         6.0024      4315.4385
    3545.58600      -0.007368       358.3940       103.2532         0.0268         5.4878         5.4878        21.1828         0.7140         6.7156         6.7156         6.1905         6.0051      4309.0708
    3545.73840      -0.007505       358.3940       104.2977        -0.2118         5.4745         5.4745        21.7590         0.8168         6.6882         6.6882         6.1905         5.9978      4320.7690
    3545.89080      -0.007530       358.3940       104.2339         0.0868         5.4956         5.4956        22.6048         0.8774         6.7068         6.7068         6.2159         6.0392      4296.6011
    3546.04320      -0.007477       358.3940       104.4570         0.2008         5.6007         5.6007        21.8693         0.7829         6.7095         6.7095         6.2219         6.0461      4259.0459
    3546.19560      -0.007695       358.3940       104.2851         0.1539         5.4345         5.4345        20.1531         0.7160         6.7061         6.7061         6.2219         6.0459      4175.4814
    3546.34800      -0.007888       358.3940       104.8569         0.2525         5.5371         5.5371        24.0145         0.8483         6.7179         6.7179         6.2219         6.0464      4075.8726
    3546.50040      -0.007267       358.3940       103.6650         0.2203         5.5371         5.5371        23.8429         0.4521         6.7041         6.7041         6.2219         6.0510      4417.1719
    3546.65280      -0.007485       358.3940       104.4536         0.4343         5.5371         5.5371        23.2913         3.2046         6.7041         6.7041         6.2225         6.0509      4327.0034
    3546.80520      -0.007538       358.3940       107.9185         0.4845         5.5371         5.5371        23.5732         0.5046         6.7041         6.7041         6.2221         6.0510      4244.7437
    3546.95760      -0.007600       358.3940       107.9185         0.4845         5.5371         5.5371        22.9358         0.6916         6.7041         6.7041         6.2224         6.0510      4222.7280
    3547.11000      -0.007355       356.9830       105.3343         0.1023         5.5118         5.5118        19.4421         0.6916         6.7041         6.7041         6.2221         6.0510      4283.5322
    3547.26240      -0.007392       356.9830       104.2758        -4.4152         5.5118         5.5118        16.6962         0.9394         6.7195         6.7195         6.2220         6.0510      4345.7500
    3547.41480      -0.007630       356.9830       105.8813        -0.2007         5.5118         5.5118        15.4090         0.6042         6.7195         6.7195         6.2220         6.0510      4303.8037
    3547.56720      -0.007533       356.9830        99.6906         0.1084         5.5118         5.5118        14.0361         5.1227         6.7195         6.7195         6.2220         6.0510      4226.0596
    3547.71960      -0.007763       356.9830        99.6906         0.1084         5.5118         5.5118        15.5071         1.0406         6.7195         6.7195         6.2747         6.0494      4193.9360
    3547.87200      -0.007830       356.9830       103.7931         0.3816         5.5118         5.5118        15.4581         1.0406         6.7195         6.7195         6.2754         6.0510      4101.7441
    3548.02440      -0.007990       356.9830       104.3916         0.2484         5.5118         5.5118        17.6156         0.4205         6.7195         6.7195         6.2741         6.0510      4027.7412
    3548.17680      -0.007997       356.9830       103.4868         0.4504         5.5118         5.5118        17.2478         0.6042         6.7195         6.7195         6.2746         6.0510      4014.3594
    3548.32920      -0.007397       358.3940       105.6967         0.2880         5.6139         5.6139        18.1059         0.7096         6.7195         6.7195         6.2729         6.0550      4334.4546
    3548.48160      -0.007493       358.3940       105.6967         0.2888         5.6139         5.6139        18.1059         1.1214         6.6777         6.6777         6.2797         6.0558      4295.0264
    3548.63400      -0.007725       358.3940       104.6500         0.2273         5.6139         5.6139        20.8518         1.1214         6.6777         6.6777         6.2810         6.0597      4220.7944
    3548.78640      -0.007777       358.3940       104.8066         0.6483         5.6139         5.6139        20.5821         0.8019         6.6777         6.6777         6.2845         6.0519      4042.8542
    3548.93880      -0.007333       358.3940       111.9653         0.1159         5.6139         5.6139        22.0532         0.5150         6.6777         6.6777         6.2847         6.0514      4391.7339
    3549.09120      -0.007362       356.9830       110.6804         0.0541         5.6139         5.6139        23.5978         0.2199         6.6777         6.6777         6.2847         6.0510      4326.8467
    3549.24360      -0.007558       356.9830       110.6804         0.0541         5.6139         5.6139        21.9428         0.5777         6.6777         6.6777         6.2841         6.0510      4267.8057
    3549.39600      -0.007597       356.9830       112.7645         0.2803         5.6139         5.6139        19.7976         0.5777         6.6777         6.6777         6.2847         6.0510      4322.8066
    3549.54840      -0.007677       356.9830       113.2045         0.1088         5.6139         5.6139        22.3719         0.4835         6.6777         6.6777         6.2834         6.0510      4217.2788
