~Version Information Block
VERS .                 2.00:  CWLS LOG ASCII STANDARD - VERSION 2.00
WRAP .                   NO:  One line per depth step
~Well Information Block
#MNEM.UNIT        Data Type   Information
#---------- ----------------  -----------
STRT .M          3470.91000:  START DEPTH
STOP .M          3530.04120:  STOP DEPTH
STEP .M             0.15240:  STEP
NULL .              -999.25:  NULL VALUE
COMP .              Statoil:  COMPANY
WELL .          NO_15/9-F-5:  WELL
FLD  .                Volve:  FIELD
LOC  .                Volve:  LOCATION
CTRY .               Norway:  COUNTRY
STAT .                     :  STATE
CNTY .                     :  COUNTY
SRVC .         Schlumberger:  SERVICE COMPANY
DATE .           11/03/2015:  DATE
API  .                     :  API NUMBER
UWI  .             15/9-F-5:  UNIQUE WELL ID
LATI .     58° 26' 29.66" N:  LATITUDE
LONG .      1° 53' 14.99" E:  LONGITUDE
~Curve Information Block
#MNEM.UNIT         API CODE   Curve Description
#---------- ----------------  -----------------
DEPTH.M                    :  Depth Index
CCLC .V                    :  (PSTP-B)                (1in)                   CCL Computed Amplitude
CVEL .M/SEC                 :  (WLWorkflow)            (1in)                   Cable Velocity
FBEF .UA                   :  (RST-D)                 (6in)                   Far Effective Beam Curre
FCOR .                     :  (RST-D)                 (6in)                   Far Carbon/Oxygen Ratio
FERD .                     :  (RST-D)                 (6in)                   Far IC Mode Capture Opti
FIRD .                     :  (RST-D)                 (6in)                   Far Inelastic Optimizati
GR   .GAPI                 :  (PSTP-B)                (6in)                   Gamma Ray
NCOR .                     :  (RST-D)                 (6in)                   Near Carbon/Oxygen Ratio
NERD .                     :  (RST-D)                 (6in)                   Near IC Mode Capture Opt
NIRD .                     :  (RST-D)                 (6in)                   Near Inelastic Optimizat
RB_PCMS.DEG                  :  (PCMS-A)                (6in)                   Relative Bearing
TENS .LBF                  :  (WLWorkflow)            (1in)                   Cable Tension
WPRE .BAR                  :  (PSTP-B)                (6in)                   Well Pressure
WTEP .DEGC                 :  (PSTP-B)                (6in)                   Well Temperature
~Parameter Information Block
#MNEM.UNIT            Value   Description
#---------- ----------------  -----------
APD  .M                  54:  Elevation of Depth Reference (LMF) Above Permanent Datum
CLAB .              Country:  :County Label
ECF  .M             -999.25:  Elevation of Casing Flange above Permanent Datum
EDF  .M                  54:  Elevation of Drill Floor Above Permanent Datum
EGL  .M                 -91:  Elevation of Ground Level Above Permanent Datum
EKB  .M             -999.25:  Elevation of Kelly Bushing Above Permanent Datum
EPD  .M                   0:  Elevation of Permanent Datum (PDAT) above Mean Sea Level
FL1  .            North Sea:  Field Location Line 1
FL2  .     Norwegian Sector:  Field Location Line 2
LMF  .                   DF:  Logging Measured From
LUL  .                 NOBO:  Logging Unit Location
LUN  .          ONCC-A 3837:  Logging Unit Number
PDAT .                  MSL:  Local Permanent Datum
RIGN .      Maersk Inspirer:  Rig Name
RIGTYP.               Jackup:  Rig Type
SON  .           C2TQ-00038:  Service Order Number
TAPE_NAME.     RST_IC_Pass3___03Nov15_234906.las:  
TOOL_STRING.              UNKNOWN:  
WN   .             15/9-F-5:  WELL NAME
PROJECT.     SLEIPNER_OST@st-vlinapp01:  
SET  .        RSTD_1115_IC3:  
~Other Information Block
# 
~A       DEPTH           CCLC           CVEL           FBEF           FCOR           FERD           FIRD             GR           NCOR           NERD           NIRD        RB_PCMS           TENS           WPRE           WTEP 
# ...
    3481.88280      -0.025850    -0.00901117       124.5691       0.094870         6.1728         6.1728       103.8054       0.007040         4.2827         4.2827       352.7288      3933.4058       359.2796        84.8631
    3482.03520       0.018500    -0.00895100       123.8436       0.087600         6.2534         6.2534       106.8598       0.023400         4.2864         4.2864       352.5483      3978.8823       359.2884        84.8642
    3482.18760       0.010180    -0.00901133       124.3150       0.198160         6.1677         6.1677       106.8598       0.076450         4.2504         4.2504       352.5690      3864.7378       359.2994        84.8620
    3482.34000      -0.004120    -0.00901133       124.1196       0.065610         6.1038         6.1038       107.7967       0.069560         4.2047         4.2047       352.5557      3967.8328       359.3105        84.8578
    3482.49240       0.030370    -0.00880383       124.4520       0.018720         6.2159         6.2159       110.4941       0.032630         4.2124         4.2124       352.4356      4076.9326       359.3209        84.8552
    3482.64480      -0.004020    -0.00934400       124.2297       0.244190         6.2970         6.2970       109.7351       0.061830         4.2660         4.2660       352.5069      3926.7625       359.3307        84.8572
    3482.79720      -0.004110    -0.00886067       123.1048      -0.116050         6.3643         6.3643       107.5668       0.047980         4.2598         4.2598       352.5573      3977.7671       359.3411        84.8457
    3482.94960      -0.004520    -0.00919300       124.0627      -0.018470         6.4028         6.4028       107.0002       0.058000         4.2550         4.2550       351.6535      4057.2620       359.3563        84.8409
    3483.10200      -0.004300    -0.00901433       122.9558       0.011180         6.3364         6.3364       105.2119       0.083870         4.2466         4.2466       351.5931      3942.3171       359.3664        84.8376
    3483.25440       0.063170    -0.00889050       122.9577       0.212860         6.3991         6.3991       101.5446      -0.018490         4.2238         4.2238       351.6769      4032.3577       359.3763        84.8309
    3483.40680      -0.004870    -0.00907183       123.2312       0.009550         6.4904         6.4904       101.4321       0.125210         4.2180         4.2180       351.8368      3955.5718       359.3884        84.8281
    3483.55920       0.009890    -0.00922317       122.5075       0.031090         6.4739         6.4739       103.4219       0.022830         4.2161         4.2161       351.9258      3873.6919       359.3979        84.8056
    3483.71160      -0.004720    -0.00894567       122.1410       0.109170         6.3957         6.3957       104.1887       0.049010         4.2479         4.2479       352.0170      3951.2825       359.4139        84.8063
    3483.86400      -0.005880    -0.00897900       121.5970       0.081420         6.4657         6.4657       105.0950      -0.050010         4.2097         4.2097       352.0246      3949.8369       359.4224        84.7984
    3484.01640      -0.006110    -0.00883133       122.1585       0.060970         6.2964         6.2964       107.1892       0.081080         4.1848         4.1848       352.0142      3987.6970       359.4335        84.7942
    3484.16880       0.007500    -0.00907633       121.7099       0.028310         6.4680         6.4680       108.4529       0.076530         4.1940         4.1940       352.0166      4021.5127       359.4442        84.7781
    3484.32120      -0.007500    -0.00882683       122.0506       0.028550         6.3806         6.3806       107.4108       0.001470         4.1979         4.1979       352.1672      3914.8748       359.4556        84.7582
    3484.47360      -0.004700    -0.00901133       123.0149       0.102550         6.3612         6.3612       107.2187       0.034430         4.2280         4.2280       352.1920      3964.4292       359.4688        84.7488
    3484.62600      -0.001000    -0.00897900       121.9879       0.073820         6.4184         6.4184       107.6161       0.073480         4.2492         4.2492       352.2295      4012.5586       359.4763        84.7128
    3484.77840      -0.006490    -0.00901433       122.3571       0.004850         6.5204         6.5204       107.7795       0.004290         4.2617         4.2617       352.2184      3993.7803       359.4951        84.7025
    3484.93080       0.008050    -0.00901133       121.2901       0.175450         6.4381         6.4381       105.2017       0.035910         4.2604         4.2604       352.2065      4034.4753       359.5032        84.6832
    3485.08320      -0.006080    -0.00924833       122.1119       0.141280         6.3844         6.3844       104.5208       0.034670         4.2610         4.2610       352.1657      4007.2058       359.5145        84.6630
    3485.23560      -0.007100    -0.00926183       121.5903       0.024660         6.3938         6.3938       103.6858       0.012320         4.2435         4.2435       352.0192      3920.3174       359.5261        84.6581
    3485.38800      -0.007880    -0.00886083       121.7350      -0.105450         6.3826         6.3826       100.0820       0.062690         4.2297         4.2297       351.7630      4038.1868       359.5352        84.6227
    3485.54040      -0.008840    -0.00908600       122.8890       0.126850         6.3942         6.3942        97.9610       0.023650         4.2056         4.2056       351.6631      3996.3342       359.5538        84.6052
    3485.69280      -0.028750    -0.00894967       122.9478       0.033440         6.4494         6.4494        98.9300      -0.065320         4.2304         4.2304       351.5930      4041.9546       359.5638        84.5779
    3485.84520       0.116600    -0.00904167       122.8868       0.024640         6.4586         6.4586       100.0013       0.033610         4.2436         4.2436       351.4941      3980.7864       359.5751        84.5667
    3485.99760      -0.007430    -0.00927150       121.5247      -0.013730         6.4225         6.4225       103.8669       0.096230         4.2757         4.2757       351.3560      3996.3005       359.5838        84.5475
    3486.15000      -0.002040    -0.00925333       120.2556      -0.045380         6.4490         6.4490       109.3574       0.043880         4.2608         4.2608       351.3325      3976.7622       359.5955        84.5340
    3486.30240      -0.001520    -0.00898100       122.2060       0.041020         6.4478         6.4478       115.0334      -0.078690         4.2860         4.2860       351.3693      3998.5237       359.6058        84.5163
    3486.45480      -0.012530    -0.00912133       127.6596       0.075450         6.3614         6.3614       115.1894       0.083560         4.3182         4.3182       351.3266      3903.6140       359.6188        84.4973
    3486.60720      -0.003220    -0.00882983       126.9630      -0.180250         6.3953         6.3953       118.5942       0.027180         4.2999         4.2999       351.7203      3975.5708       359.6307        84.4897
    3486.75960      -0.008620    -0.00882983       128.0857       0.066730         6.4149         6.4149       119.3075      -0.025400         4.3674         4.3674       351.7571      3953.5237       359.6385        84.4701
    3486.91200      -0.008750    -0.00892067       128.0228       0.134510         6.4830         6.4830       118.9127      -0.014400         4.3568         4.3568       351.7952      3914.3328       359.6513        84.4335
    3487.06440      -0.008850    -0.00904533       129.0980       0.072990         6.6025         6.6025       116.7368      -0.026560         4.3759         4.3759       352.0071      3879.2446       359.6648        84.4219
    3487.21680      -0.007990    -0.00886267       128.6201       0.033010         6.6031         6.6031       117.7572       0.079010         4.3431         4.3431       351.7997      3891.5867       359.6734        84.4120
