~Version Information Block
VERS .                 2.00:  CWLS LOG ASCII STANDARD - VERSION 2.00
WRAP .                   NO:  One line per depth step
~Well Information Block
#MNEM.UNIT        Data Type   Information
#---------- ----------------  -----------
STRT .M          3230.11800:  START DEPTH
STOP .M          3389.98560:  STOP DEPTH
STEP .M             0.15240:  STEP
NULL .              -999.25:  NULL VALUE
COMP .              Statoil:  COMPANY
WELL .          NO_15/9-F-4:  WELL
FLD  .                VOLVE:  FIELD
LOC  .            North Sea:  LOCATION
CTRY .                     :  COUNTRY
STAT .                     :  STATE
CNTY .                     :  COUNTY
SRVC .         Schlumberger:  SERVICE COMPANY
DATE .          13-Sep-2012:  DATE
API  .                     :  API NUMBER
UWI  .             15/9-F-4:  UNIQUE WELL ID
~Curve Information Block
#MNEM.UNIT         API CODE   Curve Description
#---------- ----------------  -----------------
DEPTH.M                    :  DEPTH (BOREHOLE)
CCLC .V                    :  CCL
CCLD .V                    :  CCL Discriminated Amplitude
CRRA .                     :  Near-Far Count Rate Ratio
CS   .F/MN                 :  Cable Speed
CVEL .M/MIN                 :  Cable Velocity
FBEF .UA                   :  RST Far Effective Beam Current
FCOR .                     :  RST Far Carbon/Oxygen Ratio
FERD .                     :  RST Far IC Mode Capture Optimization Resolution Degradation Factor
FIRD .                     :  RST Far Inelastic Optimization Resolution Degradation Factor
GR   .GAPI                 :  Gamma Ray
NCOR .                     :  RST Near Carbon/Oxygen Ratio
NERD .                     :  RST Near IC Mode Capture Optimization Resolution Degradation Factor
NIRD .                     :  RST Near Inelastic Optimization Resolution Degradation Factor
RB_PCMS.DEG                  :  Relative Bearing
TENS .LBF                  :  Cable Tension
WTEP .DEGC                 :  Well Temperature
WTPE .MS                   :  Well Temperature Period
~Parameter Information Block
#MNEM.UNIT            Value   Description
#---------- ----------------  -----------
APD  .M                  54:  Elevation of Depth Reference (LMF) above Permanent Datum
RUN  .                    1:  RUN NUMBER
PROJECT.     SLEIPNER_OST@st-vlinapp01:  
SET  .        RSTD_0912_IC3:  
~Other Information Block
# 
~A       DEPTH           CCLC           CCLD           CRRA             CS           CVEL           FBEF           FCOR           FERD           FIRD             GR           NCOR           NERD           NIRD        RB_PCMS           TENS           WTEP           WTPE 
# ...
    3362.70600         0.0254         0.0254         3.0231         1.6706       -0.50920       110.1763        -0.0116         5.0833         5.0833        25.7341       0.035900         2.4085         2.4085       356.5352      2327.2864        83.6292         3.9148
    3362.85840        -0.0030         0.0000         2.8805         1.6532       -0.50390       107.4325        -0.1801         5.1029         5.1029        26.7878       0.093500         2.3912         2.3912       356.5906      2315.2979        83.6175         3.9147
    3363.01080        -0.1302         0.0000         2.7903         1.6132       -0.49170       107.2863         0.0018         5.1540         5.1540        27.2519       0.032000         2.3688         2.3688       356.6186      2321.0718        83.6007         3.9146
    3363.16320         0.0132         0.0000         2.7904         1.5928       -0.48550       107.0255         0.0765         5.0919         5.0919        26.2115       0.024400         2.3787         2.3787       356.6702      2314.6702        83.5847         3.9144
    3363.31560        -0.1374         0.0000         2.8022         1.5820       -0.48220       104.9589        -0.0963         5.0527         5.0527        25.6646      -0.069400         2.3303         2.3303       356.6086      2315.6267        83.5834         3.9144
    3363.46800        -0.0052         0.0000         2.7554         1.6568       -0.50500       104.7956         0.0030         5.2816         5.2816        25.5415       0.028000         2.3301         2.3301       356.5841      2317.4761        83.5746         3.9143
    3363.62040        -0.0096         0.0000         2.7263         1.7664       -0.53840       105.3905        -0.0843         5.1420         5.1420        25.1088      -0.080900         2.3126         2.3126       356.6676      2318.4961        83.5440         3.9141
    3363.77280        -0.1692         0.0000         2.7415         1.7457       -0.53210       105.8736        -0.1392         5.2520         5.2520        24.5049      -0.046800         2.2572         2.2572       356.7184      2317.8594        83.5459         3.9141
    3363.92520        -0.0613         0.0000         2.7314         2.0883       -0.61470       107.1504        -0.0695         5.4085         5.4085        24.8384       0.011700         2.3064         2.3064       356.7571      2295.3550        83.5410         3.9140
    3364.07760         0.2019         0.0000         2.7845         1.9088       -0.44940       107.8139        -0.2903         5.3826         5.3826        25.2952       0.015200         2.3033         2.3033       356.8172      2254.2375        83.5451         3.9141
    3364.23000         0.0182         0.0000         2.7955         3.1312       -0.95440       107.8530         0.0215         5.4107         5.4107        25.3089       0.022500         2.3212         2.3212       356.9138      2330.7170        83.5218         3.9139
    3364.38240        -0.0118         0.0000         2.8029         1.6732       -0.51000       107.8386        -0.0880         5.5141         5.5141        25.7273       0.021000         2.2753         2.2753       356.9000      2325.1343        83.4891         3.9136
    3364.53480        -0.0134         0.0000         2.8125         1.6391       -0.49960       108.0710         0.0854         5.5770         5.5770        26.9867       0.043200         2.2554         2.2554       356.8003      2317.9307        83.4843         3.9135
    3364.68720         0.2005         0.0000         2.7907         1.6421       -0.50050       108.2262        -0.0474         5.4951         5.4951        27.3880       0.019300         2.2411         2.2411       356.7799      2322.3345        83.4807         3.9135
    3364.83960        -0.0734         0.0000         2.7968         1.6424       -0.50060       109.7847         0.0336         5.3800         5.3800        27.9052      -0.108400         2.2745         2.2745       356.8470      2318.8323        83.4657         3.9134
    3364.99200        -0.1116         0.0000         2.8237         1.6368       -0.49890       109.8528        -0.0121         5.3877         5.3877        27.8684       0.069700         2.3128         2.3128       356.8049      2313.7346        83.4589         3.9133
    3365.14440        -0.0163         0.0000         2.8256         1.6486       -0.50250       110.7106        -0.1425         5.3727         5.3727        28.0054       0.079600         2.2673         2.2673       356.7128      2324.9705        83.3965         3.9128
    3365.29680        -0.1552         0.0000         2.8209         1.6444       -0.50120       110.5760         0.0090         5.3166         5.3166        27.5685       0.115500         2.2981         2.2981       356.8039      2317.0808        83.4067         3.9128
    3365.44920        -0.0192         0.0000         2.8374         1.6325       -0.49760       110.8859        -0.1444         5.2597         5.2597        27.2620      -0.023000         2.2386         2.2386       356.8901      2317.3430        83.3745         3.9126
    3365.60160        -0.1341         0.0000         2.8286         1.6381       -0.49930       112.1083        -0.0254         5.0820         5.0820        27.2074      -0.030600         2.2319         2.2319       356.7438      2317.1243        83.3519         3.9124
    3365.75400        -0.0180         0.0000         2.8710         1.6362       -0.49870       111.4175         0.0432         5.1617         5.1617        27.4172       0.016900         2.2311         2.2311       356.5646      2327.2437        83.3333         3.9122
    3365.90640        -0.0145         0.0000         2.8542         1.6319       -0.49740       112.4425         0.0117         4.9816         4.9816        27.4676      -0.037900         2.2122         2.2122       356.5936      2322.4128        83.2982         3.9119
    3366.05880         0.0006         0.0000         2.8737         1.6345       -0.49820       111.2035        -0.0523         4.9717         4.9717        27.6882      -0.000400         2.2454         2.2454       356.4809      2335.8184        83.2839         3.9118
    3366.21120        -0.0155         0.0000         2.8380         1.6293       -0.49660       111.4012        -0.0209         4.9288         4.9288        28.8803      -0.110600         2.1984         2.1984       356.4577      2324.6992        83.2615         3.9116
    3366.36360        -0.0166         0.0000         2.8452         1.6430       -0.50080       110.7570         0.0122         4.7953         4.7953        29.2213      -0.053500         2.2399         2.2399       356.6996      2334.5457        83.2334         3.9113
    3366.51600        -0.0115         0.0000         2.8513         1.6473       -0.50210       110.1274        -0.0589         4.7924         4.7924        29.0326      -0.028400         2.2551         2.2551       356.7080      2325.8604        83.2112         3.9111
    3366.66840        -0.0960         0.0000         2.8305         1.6437       -0.50100       109.2353         0.0243         4.8781         4.8781        29.8447       0.021500         2.2431         2.2431       356.7212      2326.1833        83.1925         3.9109
    3366.82080        -0.0107         0.0000         2.7958         1.6499       -0.50290       109.6693        -0.1234         4.7566         4.7566        30.3405       0.042400         2.1798         2.1798       356.5598      2327.2417        83.1806         3.9108
    3366.97320        -0.0137         0.0000         2.8241         1.6499       -0.50290       110.6791        -0.0849         4.6892         4.6892        30.6187      -0.067700         2.1628         2.1628       356.4387      2314.4307        83.1638         3.9107
    3367.12560        -0.0135         0.0000         2.8414         1.6804       -0.51220       109.8760        -0.0374         4.5897         4.5897        30.7774       0.014000         2.2010         2.2010       356.3156      2332.6704        83.1149         3.9103
