~Version Information Block
VERS .                 2.00:  CWLS LOG ASCII STANDARD - VERSION 2.00
WRAP .                  YES:  Multiple lines per depth step
~Well Information Block
#MNEM.UNIT        Data Type   Information
#---------- ----------------  -----------
STRT .M          3450.03120:  START DEPTH
STOP .M          3948.83640:  STOP DEPTH
STEP .M             0.15240:  STEP
NULL .              -999.25:  NULL VALUE
COMP .              Statoil:  COMPANY
WELL .        NO_15/9-F-1_C:  WELL
FLD  .                Volve:  FIELD
LOC  .            North Sea:  LOCATION
CTRY .               Norway:  COUNTRY
STAT .                     :  STATE
CNTY .                     :  COUNTY
SRVC .         Schlumberger:  SERVICE COMPANY
DATE .          27-Nov-2014:  DATE
API  .                     :  API NUMBER
UWI  .           15/9-F-1 C:  UNIQUE WELL ID
LATI .     58° 26' 29.91" N:  LATITUDE
LONG .      1° 53' 14.71" E:  LONGITUDE
~Curve Information Block
#MNEM.UNIT         API CODE   Curve Description
#---------- ----------------  -----------------
DEPTH.M                    :  DEPTH (BOREHOLE)
BSAL .PPM                  :  Borehole Salinity
CCLC .V                    :  CCL
CIRF .                     :  RST Capture to Inelastic Ratio Far
CIRN .                     :  RST Capture to Inelastic Ratio Near
CVEL .M/SEC                 :  Cable Velocity
DFRB .DEG                  :  Calibrated Relative Bearing
DSIG .CU                   :  Sigma Difference
FBEF .UA                   :  RST Far Effective Beam Current
GR   .GAPI                 :  Gamma Ray
IRAT .                     :  RST Inelastic Ratio
PFC1 .IN                   :  PFCS CaliperX
PFC2 .IN                   :  PFCS CaliperY
RSCF .                     :  RST Far Detector Effective Unregulated
RSCN .                     :  RST Near Detector Effective
SFFA .CU                   :  RST Sigma Formation Far Apparent
SIBF .CU                   :  RST Sigma Borehole Fluid
SIGM .CU                   :  Formation Sigma (Neutron Capture Cross
TENS .LBF                  :  Cable Tension
TPHI .V/V                  :  Thermal Decay Porosity
~Parameter Information Block
#MNEM.UNIT            Value   Description
#---------- ----------------  -----------
APD  .M           54.900002:  Elevation of Depth Reference (LMF) above Permanent Datum
BHS  .                 CASE:  Borehole Status (Open or Cased Hole)
BS   .IN                8.5:  Bit Size
BSAL .PPM                 0:  Borehole Salinity
BSALOPT.              UNKNOWN:  Borehole Salinity Option
CSIZ .IN                  7:  Current Casing Size
CWEI .LB/F               29:  Casing Weight
EPD  .C3                  0:  Elevation of Permanent Datum above Mean Sea Level
LMF  .                   KB:  Logging Measured From (Name of Logging Elevation Reference)
MATR .                 SAND:  Rock Matrix for Neutron Porosity Corrections
PDAT .                  MSL:  Permanent Datum
RUN  .                Run 1:  RUN NUMBER
TAPE_NAME.     Statoil_Volve_15-9-F-1 C_PLT-RST_28Nov14_ConCu_R1L16Up_SigmaMain.las:  
TOOL_STRING.              UNKNOWN:  
WN   .           15/9-F-1 C:  WELL
PROJECT.     SLEIPNER_OST@st-vlinapp01:  
SET  .       RSTD_1114_SIG1:  
~Other Information Block
~Ascii Log Data
# ...
    3902.65920 
    79349.7031        -0.2142         2.6066         0.5924      -0.161578 
      320.2970        -1.7368        79.6027        13.9606     0.34110001 
        6.1210         4.8795        11.5593         7.9128        14.4804 
       50.6120        12.2298      5019.0713     0.11330000
    3902.81160 
    79930.8047         0.3852         2.6723         0.6394      -0.161412 
      320.2970        -1.7309        76.4560        14.8659     0.34160000 
        6.1277         4.8795        12.2076         8.3310        14.3758 
       50.8304        12.4640      4999.1426     0.10850000
    3902.96400 
    79907.2031         0.0284         2.6152         0.5947      -0.161227 
      320.2970        -1.8399        73.7234        14.5123     0.34250000 
        6.1277         4.8842        12.3756         7.7169        14.3675 
       50.8216        12.4192      4987.4287     0.09900000
    3903.11640 
    79626.8984         0.0749         2.6641         0.5976      -0.161168 
      321.7080        -1.8181        76.8055        14.3142     0.33950001 
        6.1298         4.8842        12.6279         8.6441        14.3787 
       50.7162        12.4861      5033.1333     0.09480000
    3903.26880 
    79358.3984        -0.0056         2.5910         0.5843      -0.161807 
      321.7080        -1.8551        74.0187        13.9040     0.33710000 
        6.1233         4.8842        12.5884         8.3061        14.5862 
       50.6153        12.6657      4963.3574     0.09250000
    3903.42120 
    79501.2969        -0.0136         2.3737         0.5547      -0.161908 
      321.7080        -1.8905        73.5096        15.7428     0.34290001 
        6.0672         4.8772        11.5680         7.9291        14.8967 
       50.6690        12.9724      4952.6431     0.09720000
    3903.57360 
    79009.6953        -0.0341         2.3333         0.5634      -0.161905 
      321.7080        -1.9732        73.9865        13.9606     0.34720001 
        6.0336         4.8425        10.9726         7.4706        15.2895 
       50.4843        13.2051      4847.7856     0.10370000
    3903.72600 
    79298.3047        -0.3314         2.3740         0.5947      -0.161982 
      321.7080        -2.1707        73.9335        14.8800     0.35150000 
        6.0629         4.8518        11.3768         8.0696        15.2830 
       50.5927        13.2719      4789.1431     0.10910000
    3903.87840 
    78918.1953         0.0239         2.3808         0.5981      -0.162137 
      321.7080        -2.2338        74.4093        15.6721     0.35060000 
        6.0650         4.8518        11.4009         8.2485        15.0922 
       50.4500        12.9206      4704.5713     0.11150000
    3904.03080 
    79765.4062        -0.0440         2.5942         0.6291      -0.161025 
      321.7080        -2.3143        76.1025        17.4543     0.35139999 
        6.0717         4.8518        11.6734         8.0390        14.2300 
       50.7682        12.5474      4880.2856     0.11280000
    3904.18320 
    80093.2969        -0.1402         2.7247         0.6453      -0.160838 
      323.1190        -2.3656        78.0772        14.8800     0.35560000 
        6.0650         4.8518        11.8919         8.2413        14.1717 
       50.8915        12.3671      4854.9287     0.11520000
    3904.33560 
    80314.7969         0.0634         2.5726         0.6885      -0.161138 
      324.5300        -2.3491        72.2174        14.8800     0.35879999 
        6.0650         4.8518        12.4309         8.9650        14.5375 
       50.9748        12.6492      5015.3999     0.12150000
    3904.48800 
    80451.8984         0.0974         2.5467         0.6473      -0.161057 
      324.5300        -2.4075        72.6587        14.9083     0.35670000 
        6.0672         4.8518        12.0071         8.2205        15.0817 
       51.0264        12.6898      4894.0000     0.12750000
    3904.64040 
    81446.7031        -0.3503         2.6635         0.6808      -0.161242 
      324.5300        -2.2344        75.5726        17.0724     0.35260001 
        6.0672         4.8518        11.7115         8.2971        14.2266 
       51.4009        12.4509      4993.5000     0.13519999
    3904.79280 
    81348.7031        -0.0431         2.6911         0.6845      -0.161783 
      324.5300        -2.1867        77.4620        18.4586     0.34360000 
        6.0672         4.8518        11.3774         8.1989        13.7290 
       51.3639        12.5206      4902.3574     0.13530000
    3904.94520 
    80880.7969        -0.0906         2.7357         0.6502      -0.162362 
      324.5300        -2.3741        78.5117        22.1362     0.33739999 
        6.0762         4.8934        12.2006         8.8340        15.1447 
       51.1878        12.5395      4936.3335     0.13670000
    3905.09760 
    81452.1016        -0.0230         2.6435         0.6157      -0.162050 
      324.5300        -2.2736        76.3435        23.3243     0.34020001 
        6.1143         4.9583        11.8746         8.1383        14.1388 
       51.4029        13.5029      4821.9287     0.13320000
    3905.25000 
    82720.7031        -0.0388         2.2977         0.6176      -0.162232 
      324.5300        -2.3682        71.9576        26.2381     0.34320000 
        6.1277         4.9425        10.5689         7.5974        16.4680 
       51.8810        14.1449      4840.7856     0.14020000
    3905.40240 
    82639.1016        -0.0268         2.1903         0.5375      -0.161870 
      324.5300        -1.9966        78.2525        27.0443     0.34970000 
        6.1255         4.9490         9.5820         6.9829        16.9502 
       51.8502        15.7582      4762.2144     0.14720000
    3905.55480 
    83001.4062         1.7872         1.8688         0.5443      -0.161582 
      323.1190        -1.6140        74.5934        26.2522     0.34450001 
        6.1255         4.9490         8.4132         6.7782        18.8628 
       51.9869        17.3244      4928.5000     0.16779999
    3905.70720 
    82980.3984         0.2550         1.8448         0.5345      -0.161570 
      323.1190        -1.4445        80.9959        26.2522     0.34900001 
        6.1277         4.9559         7.5566         6.5234        21.0311 
       51.9790        18.6080      4858.0000     0.18089999
    3905.85960 
    82308.1016         0.6288         1.7489         0.5228      -0.161572 
      324.5300        -0.7691        73.5336        27.0443     0.34619999 
        6.1277         4.9490         8.1444         6.7211        20.6611 
       51.7254        19.5449      4972.7856     0.18340001
    3906.01200 
    82632.6016         0.2465         1.7781         0.5049      -0.161672 
      325.9410        -0.6673        78.3102        26.1249     0.34470001 
        6.1277         4.9490         7.6948         6.3574        21.5596 
       51.8478        19.4024      4910.2856     0.17000000
    3906.16440 
    83531.6016        -0.0123         1.8858         0.4937      -0.162267 
      325.9410        -0.6638        80.4516        23.7486     0.34330001 
        6.1277         4.9490         7.8859         6.0562        20.4788 
       52.1870        19.2516      4943.4663     0.15200000
    3906.31680 
    83629.5000        -0.5256         1.9758         0.4981      -0.162433 
      325.9410        -0.7113        78.1403        22.5605     0.32839999 
        6.1277         4.9490         8.6930         6.3555        20.1485 
       52.2240        19.2356      4882.3569     0.13470000
    3906.46920 
    83261.8047        -0.2028         1.8665         0.4078      -0.162257 
      325.9410        -0.6633        80.8196        20.1701     0.33090001 
        6.1277         4.9490         8.2051         5.9280        21.4870 
       52.0852        19.3311      4896.4282     0.11840000
    3906.62160 
    82379.7031        -0.0039         1.4703         0.3518      -0.161985 
      327.3520        -0.2190        70.8035        17.7938     0.33180001 
        6.1277         4.9490         7.5302         5.1812        20.8044 
       51.7524        19.2163      4859.1431     0.10970000
