~Version Information Block
VERS .                 2.00:  CWLS LOG ASCII STANDARD - VERSION 2.00
WRAP .                  YES:  Multiple lines per depth step
~Well Information Block
#MNEM.UNIT        Data Type   Information
#---------- ----------------  -----------
STRT .M          3174.64440:  START DEPTH
STOP .M          3422.90400:  STOP DEPTH
STEP .M             0.15240:  STEP
NULL .              -999.25:  NULL VALUE
COMP .         StatoilHydro:  COMPANY
WELL .          NO_15/9-F-4:  WELL
FLD  .                VOLVE:  FIELD
LOC  .            North Sea:  LOCATION
CTRY .                     :  COUNTRY
STAT .                     :  STATE
CNTY .                     :  COUNTY
SRVC .         Schlumberger:  SERVICE COMPANY
DATE .          13-Sep-2012:  DATE
API  .                     :  API NUMBER
UWI  .             15/9-F-4:  UNIQUE WELL ID
~Curve Information Block
#MNEM.UNIT         API CODE   Curve Description
#---------- ----------------  -----------------
DEPTH.M                    :  DEPTH (BOREHOLE)
BSAL .PPM                  :  Borehole Salinity
CCLC .V                    :  CCL
CCLD .V                    :  CCL Discriminated Amplitude
CIRF .                     :  RST Capture to Inelastic Ratio Far
CIRN .                     :  RST Capture to Inelastic Ratio Near
CVEL .M/MIN                 :  Cable Velocity
DEVI .DEG                  :  Hole Deviation
DSIG .CU                   :  Sigma Difference
FBEF .UA                   :  RST Far Effective Beam Current
GR   .GAPI                 :  Gamma Ray
IRAT .                     :  RST Inelastic Ratio
RB_PCMS.DEG                  :  Relative Bearing
RSCF .                     :  RST Far Detector Effective Unregulated Capture Count Rate
RSCN .                     :  RST Near Detector Effective Unregulated Capture Count Rate
SFFA .CU                   :  RST Sigma Formation Far Apparent
SIBF .CU                   :  RST Sigma Borehole Fluid
SIGM .CU                   :  Formation Sigma (Neutron Capture Cross Section)
TPHI .V/V                  :  Thermal Decay Porosity
WPRE .PSI                  :  Well Pressure
WTEP .DEGC                 :  Well Temperature
~Parameter Information Block
#MNEM.UNIT            Value   Description
#---------- ----------------  -----------
APD  .M                  54:  Elevation of Depth Reference (LMF) above Permanent Datum
BHS  .                 CASE:  Borehole Status (Open or Cased Hole)
BS   .IN                8.5:  Bit Size
BSAL .PPM       34972.17188:  Borehole Salinity
BSALOPT.              UNKNOWN:  Borehole Salinity Option
CSID .IN              6.184:  Casing Inner Diameter
CSIZ .IN                  7:  Current Casing Size
CWEI .LB/F               29:  Casing Weight
MATR .                 SAND:  Rock Matrix for Neutron Porosity Corrections
RUN  .                    4:  RUN NUMBER
PROJECT.     SLEIPNER_OST@st-vlinapp01:  
SET  .       RSTD_0912_SIG1:  
~Other Information Block
~Ascii Log Data
# ...
    3400.50120 
    29153.4004         0.1038         0.0000         2.5272     0.80750000 
      -4.40960        55.7497        -0.2208        84.1328        15.4199 
    0.32330000       355.7366        10.4884        10.1693        14.7156 
       32.2940        12.8172     0.21760000      5032.6382        66.5862
    3400.65360 
    29249.9004        -0.5849         0.0000         2.5475     0.79979998 
      -4.19790        55.8102        -0.2173        87.0721        13.4398 
    0.32510000       355.6371         9.9543         9.7564        14.5862 
       32.3282        12.9726     0.21269999      5032.7788        66.7213
    3400.80600 
    29597.9004         0.0079         0.0000         2.5404     0.80159998 
      -4.12060        55.4765        -0.1771        82.0246        13.0532 
    0.32280001       355.4422        10.4421         9.8625        15.1133 
       32.4514        13.1789     0.20790000      5032.7788        66.7060
    3400.95840 
    29385.0996        -0.2361         0.0000         2.5942     0.81279999 
      -4.12990        55.7632        -0.0962        83.5342        14.0133 
    0.32310000       355.4532        10.5351         9.9542        15.3243 
       32.3761        13.4526     0.20940000      5032.9688        66.7778
    3401.11080 
    29755.0000         0.3181         0.0000         2.5083     0.78570002 
      -4.40910        55.8052         0.0037        82.5638        14.7581 
    0.32190001       355.3814        10.5830        10.2299        15.4014 
       32.5071        13.6146     0.21330000      5033.1304        66.9882
    3401.26320 
    30274.5000        -0.0038         0.0000         2.3619     0.78210002 
      -4.41640        55.5515         0.2128        81.0112        16.0868 
    0.32130000       355.4077        10.1274        10.3253        15.5972 
       32.6913        14.0159     0.22020000      5033.1289        67.0797
    3401.41560 
    30416.4004         0.1955         0.0000         2.3994     0.75129998 
      -4.42780        55.8932         0.1574        84.5469        18.6611 
    0.31959999       355.4239         9.6452         9.6189        16.5240 
       32.7416        14.3100     0.22139999      5033.3306        67.1375
    3401.56800 
    30435.8008         0.0194         0.0000         2.3090     0.75459999 
      -4.41340        55.6692         0.1777        84.3284        18.9102 
    0.31380001       355.6031         9.3205         9.6140        16.2754 
       32.7485        14.4072     0.21840000      5033.4580        67.2943
    3401.72040 
    30061.8008        -0.0028         0.0000         2.5490     0.78140002 
      -4.39910        55.6159         0.2160        85.9423        19.2320 
    0.31900001       355.7328        10.2403        10.0382        15.8773 
       32.6159        13.9337     0.20970000      5033.4839        67.3201
    3401.87280 
    30034.5000        -0.3001         0.0000         2.6035     0.80479997 
      -4.39500        56.1314         0.2338        82.1657        20.0961 
    0.31959999       355.7738        10.5045         9.6082        15.1032 
       32.6062        13.3239     0.19970000      5033.6616        67.3685
    3402.02520 
    30298.4004         0.1738         0.0000         2.6979     0.80980003 
      -4.39340        55.5964         0.2614        83.8678        20.0131 
    0.32769999       355.8390        11.1806        10.5196        14.4495 
       32.6998        12.8501     0.19419999      5033.7563        67.4840
    3402.17760 
    31291.4004         0.0222         0.0000         2.6503     0.82279998 
      -4.41010        55.6524         0.2772        82.0598        19.8340 
    0.32490000       355.8320        10.9967        10.5053        14.4657 
       33.0521        12.6582     0.19220001      5033.8159        67.4816
    3402.33000 
    31754.8008        -0.1385         0.0000         2.6803     0.81650001 
      -4.38380        56.1295         0.3413        80.3287        21.3392 
    0.32769999       355.8537        11.5334        10.4742        14.5373 
       33.2167        12.6351     0.19370000      5034.0366        67.5655
    3402.48240 
    31339.8008         0.0153         0.0000         2.6667     0.81610000 
      -4.40390        55.6567         0.2723        81.2778        22.2994 
    0.32510000       355.8613        11.3812        10.3562        14.3999 
       33.0694        12.6643     0.19380000      5034.0957        67.4919
    3402.63480 
    30956.6992        -0.5255         0.0000         2.6466     0.80620003 
      -4.38840        55.7697         0.2093        83.0603        21.5753 
    0.32650000       355.7907        11.2048        10.4757        14.5697 
       32.9333        12.6127     0.19159999      5034.2129        67.5586
    3402.78720 
    30614.7012        -0.1555         0.0000         2.6084     0.81099999 
      -4.38880        56.0706         0.1491        78.7431        21.9905 
    0.32640001       355.8350        11.6357        10.7582        14.3998 
       32.8120        12.5496     0.18529999      5034.3887        67.7424
    3402.93960 
    30922.3008        -0.0570         0.0000         2.7836     0.82499999 
      -4.42670        55.6272        -0.0316        80.7513        21.8245 
    0.32580000       355.9564        11.5505         9.9657        14.2326 
       32.9211        12.1596     0.17550001      5034.4688        67.7803
    3403.09200 
    31332.1992         0.2856         0.0000         2.8675     0.81269997 
      -4.44670        55.8703        -0.0256        79.4733        20.9395 
    0.32310000       355.9656        12.8690        11.0968        13.4276 
       33.0666        11.8839     0.16370000      5034.6128        67.8919
    3403.24440 
    31325.3008        -0.1593         0.0000         2.9028     0.80100000 
      -4.40250        56.0958        -0.1230        79.7844        20.8565 
    0.32350001       355.8034        13.0531        11.2616        13.6270 
       33.0642        11.5378     0.15570000      5034.6963        68.0090
    3403.39680 
    31231.0996         0.1018         0.0000         2.8852     0.80870003 
      -4.35660        55.4629        -0.2691        77.4982        22.9481 
    0.33010000       355.4055        12.9076        10.7427        13.2786 
       33.0307        11.4160     0.15050000      5034.7920        68.0742
    3403.54920 
    30993.9004         0.3576         0.0000         2.7865     0.83200002 
      -4.24850        56.0148        -0.3474        73.7736        23.3633 
    0.33280000       355.3853        13.0580        10.9187        13.1421 
       32.9466        11.3389     0.14780000      5034.9346        68.2666
    3403.70160 
    30997.6992        -0.1762         0.0000         2.8819     0.80510002 
      -4.40980        55.7961        -0.4624        80.2365        22.0995 
    0.33370000       355.1449        12.4565        10.2188        13.4771 
       32.9479        11.2182     0.14229999      5035.0410        68.3709
    3403.85400 
    30656.2012         0.2314         0.0000         2.8374     0.79110003 
      -4.40040        55.5738        -0.5877        80.0810        22.2267 
    0.33080000       354.9686        12.6677        10.6152        12.9985 
       32.8267        11.0469     0.13360000      5035.1963        68.4445
    3404.00640 
    29592.5000         0.4599         0.0000         2.9273     0.80220002 
      -4.38170        55.8868        -0.8968        80.4242        20.2233 
    0.33770001       354.8933        13.2129        11.0257        12.7159 
       32.4495        10.8076     0.12710001      5035.3018        68.5571
    3404.15880 
    29516.3984        -0.1851         0.0000         2.9510     0.82849997 
      -4.38010        55.5371        -1.2161        77.4517        18.8220 
    0.33629999       354.7156        13.5216        10.9421        12.8567 
       32.4226        10.7249     0.12760000      5035.4009        68.6695
    3404.31120 
    29426.3984         0.0118         0.0000         2.9366     0.81089997 
      -4.38460        55.6864        -1.3489        78.3829        17.7917 
    0.33379999       354.7628        13.3881        10.9066        12.8116 
       32.3907        10.9077     0.13640000      5035.5283        68.7745
