~Version Information Block
VERS .                 2.00:  CWLS LOG ASCII STANDARD - VERSION 2.00
WRAP .                   NO:  One line per depth step
~Well Information Block
#MNEM.UNIT        Data Type   Information
#---------- ----------------  -----------
STRT .M          3445.30680:  START DEPTH
STOP .M          3635.80680:  STOP DEPTH
STEP .M             0.15240:  STEP
NULL .              -999.25:  NULL VALUE
COMP .              Statoil:  COMPANY
WELL .          NO_15/9-F-5:  WELL
FLD  .                VOLVE:  FIELD
LOC  .            North Sea:  LOCATION
CTRY .                     :  COUNTRY
STAT .                     :  STATE
CNTY .                     :  COUNTY
SRVC .         Schlumberger:  SERVICE COMPANY
DATE .          16-Sep-2012:  DATE
API  .                     :  API NUMBER
UWI  .             15/9-F-5:  UNIQUE WELL ID
~Curve Information Block
#MNEM.UNIT         API CODE   Curve Description
#---------- ----------------  -----------------
DEPTH.M                    :  DEPTH (BOREHOLE)
CCLC .V                    :  CCL
CCLD .V                    :  CCL Discriminated Amplitude
CRRA .                     :  Near-Far Count Rate Ratio
CS   .F/MN                 :  Cable Speed
CVEL .M/MIN                 :  Cable Velocity
DEVI .DEG                  :  Hole Deviation
FBEF .UA                   :  RST Far Effective Beam Current
FCOR .                     :  RST Far Carbon/Oxygen Ratio
FERD .                     :  RST Far IC Mode Capture Optimization Resolution Degradation Factor
FIRD .                     :  RST Far Inelastic Optimization Resolution Degradation Factor
GR   .GAPI                 :  Gamma Ray
NCOR .                     :  RST Near Carbon/Oxygen Ratio
NERD .                     :  RST Near IC Mode Capture Optimization Resolution Degradation Factor
NIRD .                     :  RST Near Inelastic Optimization Resolution Degradation Factor
RB_PCMS.DEG                  :  Relative Bearing
TENS .LBF                  :  Cable Tension
WPRE .PSI                  :  Well Pressure
WTEP .DEGC                 :  Well Temperature
~Parameter Information Block
#MNEM.UNIT            Value   Description
#---------- ----------------  -----------
APD  .M           54.900002:  Elevation of Depth Reference (LMF) above Permanent Datum
RUN  .                Run 1:  RUN NUMBER
PROJECT.     SLEIPNER_OST@st-vlinapp01:  
SET  .        RSTD_0912_IC1:  
~Other Information Block
# 
~A       DEPTH           CCLC           CCLD           CRRA             CS           CVEL           DEVI           FBEF           FCOR           FERD           FIRD             GR           NCOR           NERD           NIRD        RB_PCMS           TENS           WPRE           WTEP 
# ...
    3630.93000        -0.0240        -0.0240         2.9114         2.0194      -0.611900        54.6785       115.1464    -0.07540000         4.2223         4.2223        13.2200      -0.011700         2.0609         2.0609         6.6626      2729.2991      5145.7827        72.9711
    3631.08240        -0.0240        -0.0240         2.8787         2.0056      -0.604300        54.6785       116.4085     0.04300000         4.2528         4.2528        13.2200      -0.043100         2.0680         2.0680         6.6626      2741.0310      5145.7827        72.9711
    3631.23480        -0.0240        -0.0240         2.8750         1.9731      -0.598200        54.6785       115.7618    -0.00390000         4.2437         4.2437        13.2200       0.037100         2.0869         2.0869         6.6626      2751.1694      5145.7827        72.9711
    3631.38720        -0.0240        -0.0240         2.8628         1.9672      -0.591400        54.6785       113.8573    -0.08790000         4.3443         4.3443        13.2200      -0.125600         2.0546         2.0546         6.6626      2742.1897      5145.7827        72.9711
    3631.53960        -0.0240        -0.0240         2.9133         1.9554      -0.592000        54.6785       114.3715     0.03930000         4.2629         4.2629        13.2200       0.056700         1.9799         1.9799         6.6626      2762.9480      5145.7827        72.9711
    3631.69200        -0.0240        -0.0240         2.8832         1.9121      -0.582000        54.6785       117.6462 -3494.57275391     -3505.1194     -3505.1194        13.2200       0.039900         2.0019         2.0019         6.6626      2746.2119      5145.7827        72.9711
    3631.84440        -0.0240        -0.0240         2.8986         1.8780      -0.567200        54.6785       117.6462  -999.25000000      -999.2500      -999.2500        13.2200       0.039900     -3499.3267     -3499.3267         6.6626      2737.2158      5145.7827        72.9711
    3631.99680        -0.0240        -0.0240         2.8986         1.9035      -0.579000        54.6785       117.6462  -999.25000000      -999.2500      -999.2500        13.2200       0.039900      -999.2500      -999.2500         6.6626      2751.6201      5145.7827        72.9711
    3632.14920        -0.0240        -0.0240         2.8986         1.9101      -0.583200        54.6785       117.6462  -999.25000000      -999.2500      -999.2500        13.2200       0.039900      -999.2500      -999.2500         6.6626      2741.4126      5145.7827        72.9711
    3632.30160        -0.0240        -0.0240         2.8986         1.9386      -0.584900        54.6785       117.6462  -999.25000000      -999.2500      -999.2500        13.2200       0.039900      -999.2500      -999.2500         6.6626      2735.6255      5145.7827        72.9711
    3632.45400        -0.0240        -0.0240         2.8986         1.8871      -0.583900        54.6785       117.6462  -999.25000000      -999.2500      -999.2500        13.2200       0.039900      -999.2500      -999.2500         6.6626      2732.5276      5145.7827        72.9711
    3632.60640        -0.0240        -0.0240         2.8986         1.9173      -0.586200        54.6785       117.6462  -999.25000000      -999.2500      -999.2500        13.2200       0.039900      -999.2500      -999.2500         6.6626      2742.4250      5145.7827        72.9711
    3632.75880        -0.0240        -0.0240         2.8986         1.9167      -0.578300        54.6785       117.6462  -999.25000000      -999.2500      -999.2500        13.2200       0.039900      -999.2500      -999.2500         6.6626      2752.5190      5145.7827        72.9711
    3632.91120        -0.0240        -0.0240         2.8986         1.8497      -0.564100        54.6785       117.6462  -999.25000000      -999.2500      -999.2500        13.2200       0.039900      -999.2500      -999.2500         6.6626      2752.8396      5145.7827        72.9711
    3633.06360        -0.0240        -0.0240         2.8986         1.8412      -0.557500        54.6785       117.6462  -999.25000000      -999.2500      -999.2500        13.2200       0.039900      -999.2500      -999.2500         6.6626      2749.6951      5145.7827        72.9711
    3633.21600        -0.0240        -0.0240         2.8986         1.8153      -0.546700        54.6785       117.6462  -999.25000000      -999.2500      -999.2500        13.2200       0.039900      -999.2500      -999.2500         6.6626      2768.9321      5145.7827        72.9711
    3633.36840        -0.0240        -0.0240         2.8986         1.8373      -0.555200        54.6785       117.6462  -999.25000000      -999.2500      -999.2500        13.2200       0.039900      -999.2500      -999.2500         6.6626      2758.2268      5145.7827        72.9711
    3633.52080        -0.0240        -0.0240         2.8986         1.8432      -0.555000        54.6785       117.6462  -999.25000000      -999.2500      -999.2500        13.2200       0.039900      -999.2500      -999.2500         6.6626      2762.4170      5145.7827        72.9711
    3633.67320        -0.0240        -0.0240         2.8986         1.8166      -0.554200        54.6785       117.6462  -999.25000000      -999.2500      -999.2500        13.2200       0.039900      -999.2500      -999.2500         6.6626      2756.8140      5145.7827        72.9711
    3633.82560        -0.0240        -0.0240         2.8986         1.8228      -0.557100        54.6785       117.6462  -999.25000000      -999.2500      -999.2500        13.2200       0.039900      -999.2500      -999.2500         6.6626      2738.7612      5145.7827        72.9711
    3633.97800        -0.0240        -0.0240         2.8986         1.8373      -0.557200        54.6785       117.6462  -999.25000000      -999.2500      -999.2500        13.2200       0.039900      -999.2500      -999.2500         6.6626      2738.9836      5145.7827        72.9711
    3634.13040        -0.0240        -0.0240         2.8986         1.8291      -0.554800        54.6785       117.6462  -999.25000000      -999.2500      -999.2500        13.2200       0.039900      -999.2500      -999.2500         6.6626      2742.8459      5145.7827        72.9711
    3634.28280        -0.0240        -0.0240         2.8986         1.8153      -0.549800        54.6785       117.6462  -999.25000000      -999.2500      -999.2500        13.2200       0.039900      -999.2500      -999.2500         6.6626      2740.3694      5145.7827        72.9711
    3634.43520        -0.0240        -0.0240         2.8986         1.8107      -0.552600        54.6785       117.6462  -999.25000000      -999.2500      -999.2500        13.2200       0.039900      -999.2500      -999.2500         6.6626      2767.2170      5145.7827        72.9711
    3634.58760        -0.0240        -0.0240         2.8986         1.8087      -0.547000        54.6785       117.6462  -999.25000000      -999.2500      -999.2500        13.2200       0.039900      -999.2500      -999.2500         6.6626      2753.7800      5145.7827        72.9711
    3634.74000        -0.0240        -0.0240         2.8986         1.8287      -0.552500        54.6785       117.6462  -999.25000000      -999.2500      -999.2500        13.2200       0.039900      -999.2500      -999.2500         6.6626      2754.0039      5145.7827        72.9711
    3634.89240        -0.0240        -0.0240         2.8986         1.7972      -0.547700        54.6785       117.6462  -999.25000000      -999.2500      -999.2500        13.2200       0.039900      -999.2500      -999.2500         6.6626      2755.5903      5145.7827        72.9711
    3635.04480        -0.0240        -0.0240         2.8986         1.7917      -0.545700        54.6785       117.6462  -999.25000000      -999.2500      -999.2500        13.2200       0.039900      -999.2500      -999.2500         6.6626      2769.2817      5145.7827        72.9711
    3635.19720        -0.0240        -0.0240         2.8986         1.3593      -0.502800        54.6785       117.6462  -999.25000000      -999.2500      -999.2500        13.2200       0.039900      -999.2500      -999.2500         6.6626      2765.2942      5145.7827        72.9711
