~Version Information Block
VERS .                 2.00:  CWLS LOG ASCII STANDARD - VERSION 2.00
WRAP .                  YES:  Multiple lines per depth step
~Well Information Block
#MNEM.UNIT        Data Type   Information
#---------- ----------------  -----------
STRT .M          3450.03120:  START DEPTH
STOP .M          3948.83640:  STOP DEPTH
STEP .M             0.15240:  STEP
NULL .              -999.25:  NULL VALUE
COMP .              Statoil:  COMPANY
WELL .        NO_15/9-F-1_C:  WELL
FLD  .                Volve:  FIELD
LOC  .            North Sea:  LOCATION
CTRY .               Norway:  COUNTRY
STAT .                     :  STATE
CNTY .                     :  COUNTY
SRVC .         Schlumberger:  SERVICE COMPANY
DATE .          27-Nov-2014:  DATE
API  .                     :  API NUMBER
UWI  .           15/9-F-1 C:  UNIQUE WELL ID
LATI .     58° 26' 29.91" N:  LATITUDE
LONG .      1° 53' 14.71" E:  LONGITUDE
~Curve Information Block
#MNEM.UNIT         API CODE   Curve Description
#---------- ----------------  -----------------
DEPTH.M                    :  DEPTH (BOREHOLE)
BSAL .PPM                  :  Borehole Salinity
CCLC .V                    :  CCL
CIRF .                     :  RST Capture to Inelastic Ratio Far
CIRN .                     :  RST Capture to Inelastic Ratio Near
CVEL .M/SEC                 :  Cable Velocity
DFRB .DEG                  :  Calibrated Relative Bearing
DSIG .CU                   :  Sigma Difference
FBEF .UA                   :  RST Far Effective Beam Current
GR   .GAPI                 :  Gamma Ray
IRAT .                     :  RST Inelastic Ratio
PFC1 .IN                   :  PFCS CaliperX
PFC2 .IN                   :  PFCS CaliperY
RSCF .                     :  RST Far Detector Effective Unregulated
RSCN .                     :  RST Near Detector Effective
SFFA .CU                   :  RST Sigma Formation Far Apparent
SIBF .CU                   :  RST Sigma Borehole Fluid
SIGM .CU                   :  Formation Sigma (Neutron Capture Cross
TENS .LBF                  :  Cable Tension
TPHI .V/V                  :  Thermal Decay Porosity
~Parameter Information Block
#MNEM.UNIT            Value   Description
#---------- ----------------  -----------
APD  .M           54.900002:  Elevation of Depth Reference (LMF) above Permanent Datum
BHS  .                 CASE:  Borehole Status (Open or Cased Hole)
BS   .IN                8.5:  Bit Size
BSAL .PPM                 0:  Borehole Salinity
BSALOPT.              UNKNOWN:  Borehole Salinity Option
CSIZ .IN                  7:  Current Casing Size
CWEI .LB/F               29:  Casing Weight
EPD  .C3                  0:  Elevation of Permanent Datum above Mean Sea Level
LMF  .                   KB:  Logging Measured From (Name of Logging Elevation Reference)
MATR .                 SAND:  Rock Matrix for Neutron Porosity Corrections
PDAT .                  MSL:  Permanent Datum
RUN  .                Run 1:  RUN NUMBER
TAPE_NAME.     Statoil_Volve_15-9-F-1 C_PLT-RST_28Nov14_ConCu_R1L16Up_SigmaMain.las:  
TOOL_STRING.              UNKNOWN:  
WN   .           15/9-F-1 C:  WELL
PROJECT.     SLEIPNER_OST@st-vlinapp01:  
SET  .       RSTD_1114_SIG1:  
~Other Information Block
~Ascii Log Data
# ...
    3515.86800 
    -3307.8999         0.0104         2.2246         0.8648      -0.168377 
      354.1610        -0.7393        84.5988        21.9240     0.35110000 
        6.2219         6.0441         9.6178        11.0088        19.1044 
       21.0323        17.3237      4286.8569     0.18629999
    3516.02040 
    -4713.3003         0.2528         2.4367         0.9095      -0.168725 
      354.1610        -0.7715        85.0040        23.8618     0.34840000 
        6.2219         6.0417        10.1311        11.0218        19.2449 
       20.5555        17.3875      4334.7856     0.17890000
    3516.17280 
    -4475.9004         0.0590         2.3168         0.9137      -0.167822 
      354.1610        -0.6652        83.1470        24.5973     0.35580000 
        6.2219         6.0348         9.4221        10.2727        19.1506 
       20.6360        17.3364      4214.7695     0.17520000
    3516.32520 
    -4897.0000         0.0519         2.2793         0.8890      -0.166728 
      354.1610        -0.6418        78.6935        25.3894     0.35929999 
        6.2219         6.0186         9.9786        10.3917        18.9648 
       20.4933        17.1373      4199.7144     0.17470001
    3516.47760 
    -5399.8999         0.0087         2.3652         0.9241      -0.167337 
      354.1610        -0.7216        81.2025        28.9255     0.36260000 
        6.2219         6.0186        10.3610        11.4861        18.6594 
       20.3230        17.3954      4111.3848     0.17649999
    3516.63000 
    -5758.6997         0.0182         2.3209         0.9372      -0.167463 
      354.1610        -0.7564        82.6865        40.8776     0.35879999 
        6.2219         6.0232         9.9333        11.1759        19.9240 
       20.2016        17.0852      4022.6431     0.18020000
    3516.78240 
    -5975.5996         0.0176         2.3502         0.9340      -0.166755 
      354.1610        -0.7509        79.2847        51.8113     0.36420000 
        6.2219         6.0255        10.5465        11.3153        18.0490 
       20.1282        17.0874      3972.7859     0.18179999
    3516.93480 
    -6278.3999         0.0043         2.3463         0.9297      -0.166667 
      354.1610        -0.7907        80.9220        65.2345     0.36080000 
        6.2219         6.0186         9.9937        10.8716        18.6834 
       20.0258        16.6300      4228.9282     0.18380000
    3517.08720 
    -5987.5000         0.0094         2.3803         0.9427      -0.166863 
      355.5720        -0.8283        82.4415        71.9814     0.36480001 
        6.2219         6.0186        10.0373        11.0284        18.5542 
       20.1242        17.0225      4251.7695     0.17919999
    3517.23960 
    -5920.7002         0.0197         2.2695         0.9262      -0.167663 
      354.1610        -1.0134        75.9886        79.1385     0.36129999 
        6.2219         6.0186        10.7006        11.2658        19.2396 
       20.1468        16.8913      4391.7144     0.17900001
    3517.39200 
    -5269.7002         0.0108         2.4196         0.9181      -0.168765 
      354.1610        -0.9138        81.1403        81.1612     0.36300001 
        6.2219         6.0186        10.2455        10.4476        18.3040 
       20.3671        16.7425      4283.6431     0.17829999
    3517.54440 
    -5547.5996         0.0739         2.3776         0.9396      -0.168552 
      354.1610        -0.7812        82.5231        81.6279     0.35630000 
        6.2219         6.0186         9.7599        10.4979        18.1194 
       20.2730        16.7086      4258.4619     0.17970000
    3517.69680 
    -5422.5000        -0.0708         2.3097         0.8910      -0.167403 
      354.1610        -0.8218        83.4572        76.6632     0.35499999 
        6.2219         6.0232         9.8919        10.9975        19.1524 
       20.3154        16.7182      4173.9282     0.18440001
    3517.84920 
    -4999.5000        -0.0354         2.4534         0.9388      -0.166693 
      354.1610        -0.8288        83.2863        89.9166     0.35049999 
        6.2197         6.0209        10.1592        10.9755        18.3250 
       20.4586        16.8825      4110.0771     0.18560000
    3518.00160 
    -5465.4004         0.0107         2.3844         0.9400      -0.166855 
      354.1610        -0.7818        83.7787        80.9207     0.35389999 
        6.2171         6.0111         9.7505        11.0020        18.6044 
       20.3008        16.5300      4036.3572     0.19069999
    3518.15400 
    -5702.7002         0.0060         2.3330         0.9027      -0.167485 
      354.1610        -0.7211        76.4240        67.4976     0.35460001 
        6.2197         6.0093        10.4353        10.5121        18.0977 
       20.2205        16.7299      3895.7856     0.18539999
    3518.30640 
    -5266.1001         0.0016         2.3684         0.9301      -0.167842 
      354.1610        -0.7749        82.3970        54.9514     0.35810000 
        6.2219         6.0186        10.3314        11.8037        18.9236 
       20.3683        16.6854      3964.3076     0.18600000
    3518.45880 
    -5034.8003         0.0353         2.3224         0.9167      -0.167312 
      354.1610        -1.0069        78.2486        47.2285     0.35490000 
        6.2219         6.0186        10.2786        10.8039        18.4583 
       20.4466        16.8272      4210.7856     0.18250000
    3518.61120 
    -4964.3999         0.0026         2.3651         0.9051      -0.167520 
      355.5720        -1.1669        81.0462        28.0910     0.35699999 
        6.2219         6.0186        10.3070        11.0990        18.4953 
       20.4705        16.5422      4418.8574     0.18430001
    3518.76360 
    -5727.3999        -0.0017         2.3034         0.8968      -0.167977 
      355.5720        -1.2414        81.0402        29.7459     0.35290000 
        6.2219         6.0186         9.8126        10.3962        18.0765 
       20.2122        16.7350      4380.7861     0.18060000
    3518.91600 
    -6369.0000         0.0135         2.4181         0.9284      -0.168395 
      355.5720        -1.1288        85.1173        31.2169     0.35330001 
        6.2219         6.0186         9.7219        10.5701        19.0335 
       19.9952        16.9068      4364.6157     0.17919999
    3519.06840 
    -6963.6997         0.0048         2.3932         0.9226      -0.168283 
      355.5720        -1.3918        88.7954        33.3952     0.35220000 
        6.2219         6.0186         9.4194        10.8049        19.0179 
       19.7942        17.5512      4230.0000     0.17470001
    3519.22080 
    -6347.0000         0.0211         2.4111         0.9530      -0.167420 
      355.5720        -1.3299        82.1426        33.7629     0.36370000 
        6.2195         6.0186         9.9339        10.6256        19.9973 
       20.0026        17.4301      4226.4619     0.17730001
    3519.37320 
    -6450.5000         0.0389         2.3101         0.9704      -0.166788 
      355.5720        -1.1250        79.9764        33.2113     0.36579999 
        6.2219         6.0186         9.8861        11.0652        18.6915 
       19.9676        17.2809      4112.5713     0.18130000
    3519.52560 
    -6128.7998         0.0506         2.4178         0.9482      -0.167307 
      355.5720        -1.1330        80.4422        29.4630     0.36719999 
        6.2219         6.0186        10.2087        10.9176        18.5635 
       20.0764        16.6412      4025.7144     0.19170000
    3519.67800 
    -6060.0000        -0.0272         2.2975         0.9476      -0.168242 
      355.5720        -1.2880        82.7533        28.3597     0.35920000 
        6.2219         6.0186         9.6945        11.4752        18.0759 
       20.0997        16.7241      4078.3079     0.19419999
    3519.83040 
    -5746.7998         0.0029         2.3597         0.9636      -0.167930 
      356.9830        -1.1264        80.2315        27.5111     0.35859999 
        6.2219         6.0186        10.2592        11.5386        18.9147 
       20.2056        16.6397      4311.7144     0.19320001
