~Version Information Block
VERS .                 2.00:  CWLS LOG ASCII STANDARD - VERSION 2.00
WRAP .                   NO:  One line per depth step
~Well Information Block
#MNEM.UNIT        Data Type   Information
#---------- ----------------  -----------
STRT .M          3457.23500:  START DEPTH
STOP .M          3635.08580:  STOP DEPTH
STEP .M             0.15240:  STEP
NULL .              -999.25:  NULL VALUE
COMP .                     :  COMPANY
WELL .          NO_15/9-F-5:  WELL
FLD  .                     :  FIELD
LOC  .                     :  LOCATION
CTRY .                     :  COUNTRY
STAT .                     :  STATE
CNTY .                     :  COUNTY
SRVC .                     :  SERVICE COMPANY
DATE .                     :  DATE
API  .                     :  API NUMBER
UWI  .                     :  UNIQUE WELL ID
~Curve Information Block
#MNEM.UNIT         API CODE   Curve Description
#---------- ----------------  -----------------
DEPTH.M                    :  
SAT201IC_BHOF.                     :  
SAT201IC_BVW.                     :  
SAT201IC_CRRA.                     :  Near-Far Count Rate Ratio
SAT201IC_FBEF.UA                   :  RST Far Effective Beam Current
SAT201IC_FCOR.                     :  
SAT201IC_GR.GAPI                 :  Gamma Ray
SAT201IC_NCOR.                     :  
SAT201IC_SO.                     :  
SAT201IC_SW.                     :  
SAT201IC_WPRE.PSI                  :  Well Pressure
SAT201IC_WTEP.DEGC                 :  Well Temperature
SAT201SI_BSAL.PPM                  :  Borehole Salinity
SAT201SI_GR.GAPI                 :  Gamma Ray
SAT201SI_IRAT.                     :  RST Inelastic Ratio
SAT201SI_RSCF.                     :  RST Far Detector Effective Unregulated Capture Count Rate
SAT201SI_RSCN.                     :  RST Near Detector Effective Unregulated Capture Count Rate
SAT201SI_SIGR.CU                   :  Formation Sigma (Neutron Capture Cross Section)
SAT201SI_TPHI.V/V                  :  Thermal Decay Porosity
~Parameter Information Block
#MNEM.UNIT            Value   Description
#---------- ----------------  -----------
CUR_INT_BOT.M           3635.2382:  
PROJECT.     SLEIPNER_OST@st-vlinapp01:  
SET  .            RSTD_0912:  
~Other Information Block
# 
~A       DEPTH  SAT201IC_BHOF   SAT201IC_BVW  SAT201IC_CRRA  SAT201IC_FBEF  SAT201IC_FCOR    SAT201IC_GR  SAT201IC_NCOR    SAT201IC_SO    SAT201IC_SW  SAT201IC_WPRE  SAT201IC_WTEP  SAT201SI_BSAL    SAT201SI_GR  SAT201SI_IRAT  SAT201SI_RSCF  SAT201SI_RSCN  SAT201SI_SIGR  SAT201SI_TPHI 
# ...
    3572.14460      0.0093300       0.212750         2.9083       113.7958     -0.0131100        51.5583      0.0022000       0.009800         0.8240      5097.6230        85.2919     28368.6016        29.8911       0.321200         9.7300         9.6117        16.1469       0.212000
    3572.29700      0.0107100       0.215250         2.9074       113.5647      0.0064100        50.7198      0.0054000       0.060100         0.8233      5097.7217        85.2786     28504.5000        32.8197       0.318600         9.7256        10.0762        16.1210       0.216900
    3572.44940      0.0112700       0.211410         2.9092       113.4096      0.0138200        51.2592      0.0051100       0.078600         0.8075      5097.8193        85.2546     28390.6992        33.3829       0.316600         9.3908         9.4827        15.8290       0.221600
    3572.60180      0.0109600       0.209170         2.8949       113.1767      0.0231300        52.3635      0.0010000       0.101500         0.7962      5097.9492        85.2313     28566.7988        34.8721       0.318900         9.8130         9.9068        15.8607       0.225300
    3572.75420      0.0103700       0.204870         2.8868       114.1544      0.0297500        53.6433      0.0009400       0.118000         0.7953      5098.0776        85.2079     28943.4004        35.3210       0.318600         9.5864         9.6140        15.7962       0.227300
    3572.90660      0.0091100       0.203270         2.9165       114.8890      0.0242400        53.2749     -0.0008100       0.105400         0.8005      5098.2085        85.1992     28273.0000        35.9023       0.318600         9.3969        10.0490        15.7546       0.231600
    3573.05900      0.0069700       0.206530         2.9457       114.6700      0.0072300        53.1774     -0.0052500       0.063700         0.8091      5098.3315        85.1751     28811.1992        36.8158       0.318300         9.2499         9.7909        15.6549       0.235400
    3573.21140      0.0046000       0.209620         2.9383       114.7321      0.0002500        52.9972     -0.0075600       0.046600         0.8213      5098.4497        85.1603     29089.1992        35.9854       0.320600         9.2562         9.8133        15.7032       0.235300
    3573.36380      0.0029300       0.209050         2.9366       114.0764     -0.0038000        51.1870      0.0009000       0.036600         0.8192      5098.5845        85.1339     28915.8008        34.4408       0.317900         9.6683         9.7770        15.8048       0.229700
    3573.51620      0.0012100       0.207570         2.9214       115.5620     -0.0061900        49.8079      0.0088800       0.030700         0.7852      5098.7261        85.1161     29134.3008        34.5212       0.313500         9.5879         9.6299        16.0009       0.226000
    3573.66860     -0.0007000       0.197780         2.9891       116.6633     -0.0051800        49.5858      0.0062000       0.033800         0.7308      5098.8345        85.0983     28859.3008        34.0230       0.307900         9.3232         9.2249        15.8049       0.231700
    3573.82100     -0.0023000       0.182790         3.0119       115.3547      0.0012800        49.6614      0.0065700       0.051100         0.6858      5098.9521        85.0722     29481.0996        31.7808       0.307000         9.2569         9.6281        15.7129       0.239900
    3573.97340     -0.0038300       0.179430         2.9868       117.1358      0.0021200        49.6022      0.0122100       0.053800         0.6814      5099.0894        85.0516     28971.0996        31.7532       0.309600         9.3756         9.7782        15.8366       0.239700
    3574.12580     -0.0051800       0.175590         3.0004       115.5649      0.0157000        50.5437      0.0078200       0.088900         0.6871      5099.1968        85.0327     28954.7988        32.2627       0.313400         9.1979         9.1992        15.9590       0.233700
    3574.27820     -0.0053300       0.182170         2.9622       115.1864      0.0176100        50.7425      0.0038600       0.093900         0.7210      5099.3047        85.0049     28468.5000        33.8093       0.314100         9.4469         9.6404        16.0283       0.227300
    3574.43060     -0.0044200       0.190890         2.9353       114.8632      0.0089400        50.6448      0.0114900       0.071900         0.7561      5099.4492        84.9924     28382.7988        35.0801       0.316200         9.0275         9.4859        15.6692       0.227600
    3574.58300     -0.0033300       0.202880         2.9266       114.8577      0.0106900        51.3782      0.0166200       0.075700         0.7876      5099.5591        84.9741     28038.6016        36.6714       0.319000         9.2497         9.7999        15.4265       0.228100
    3574.73540     -0.0016500       0.211600         2.9335       115.0253      0.0132000        52.1923      0.0154700       0.081100         0.8043      5099.6675        84.9522     28281.0996        36.1979       0.323000         9.2055         9.1565        15.4491       0.225500
    3574.88780      0.0003700       0.208890         2.9382       115.8054      0.0063400        51.9583      0.0097900       0.063600         0.8201      5099.8311        84.9244     28360.0000        37.4046       0.324100         9.2567         9.5602        15.6191       0.223600
    3575.04020      0.0017700       0.218400         2.9570       115.5767      0.0091000        52.1119      0.0050800       0.070100         0.8512      5099.9370        84.9064     28276.4004        35.2144       0.322200         9.0809         9.3091        16.0301       0.220400
    3575.19260      0.0025500       0.221690         2.9455       115.7473      0.0094900        52.9251     -0.0024900       0.070700         0.8575      5100.0571        84.8935     28545.9004        34.2003       0.316200         9.3932         9.7657        16.2537       0.222300
    3575.34500      0.0027800       0.207410         2.9814       117.7597     -0.0077100        52.2288     -0.0092000       0.026300         0.8059      5100.1665        84.8663     28461.0996        32.2416       0.305300         9.3736         9.7544        16.6484       0.221400
    3575.49740      0.0026500       0.189490         3.0904       119.4526     -0.0108500        51.0103     -0.0091900       0.018000         0.7326      5100.2822        84.8504     28048.7988        31.3017       0.299600         8.6824         8.9080        17.1691       0.222800
    3575.64980      0.0023200       0.163810         3.1983       119.6777     -0.0104300        50.7893     -0.0073000       0.019400         0.6465      5100.4048        84.8256     28015.3008        30.3656       0.302900         8.2536         8.8484        17.2438       0.225900
    3575.80220      0.0013500       0.147940         3.1353       116.8698     -0.0107800        51.3955     -0.0093700       0.018900         0.5982      5100.5269        84.8135     27825.7012        32.1217       0.312300         8.1287         8.7419        17.0568       0.227400
    3575.95460      0.0000500       0.144930         3.0043       114.1705     -0.0040100        51.7872     -0.0014800       0.037500         0.5977      5100.6396        84.7829     28384.4004        34.3349       0.314600         9.0230         8.9310        16.4414       0.224800
    3576.10700     -0.0009700       0.160010         2.9362       114.2602      0.0146600        53.2072      0.0049700       0.085800         0.6575      5100.7896        84.7673     28417.0000        36.5838       0.317300         9.1400         9.4264        16.0617       0.217100
    3576.25940     -0.0016800       0.185710         2.9260       114.2542      0.0134200        54.8549      0.0000900       0.082300         0.7351      5100.8867        84.7477     29211.5996        38.6346       0.313200         9.2905         9.2158        15.6740       0.214400
    3576.41180     -0.0017900       0.198330         2.9292       114.3727      0.0126700        55.8864     -0.0042600       0.080300         0.7781      5100.9873        84.7270     29411.5000        39.1164       0.319700         9.8510         9.5699        15.5176       0.214900
