#------------------------------------------------------------------------------
#
#   Created by   : las_export
#   Created on   : 2009-06-18 13:07:55
#   Project      : VOLVE
#   User         : TONYG
#   Interpreters : *
#
#------------------------------------------------------------------------------
~VERSION INFORMATION
VERS. 2.0 : CWLS Log ASCII Standard - version 2.0
WRAP.  NO : One line per depth step

~WELL INFORMATION
#MNEMONIC   .UNIT                                           VALUE :DESCRIPTION
#------------------------------------------------------------------------------
STRT        .M                                       2560.0412 :START DEPTH
STOP        .M                                       3222.0668 :STOP DEPTH
STEP        .M                                          0.1524 :STEP
NULL        .                                        -999.2500 :NULL VALUE
COMP        .                                                  :COMPANY
WELL        .                                      15/9-F-15 C :WELL
FLD         .                                            VOLVE :FIELD
LOC         .                                          UNKNOWN :LOCATION
CNTY        .                                          UNKNOWN :COUNTY
STAT        .                                          UNKNOWN :STATE
CTRY        .                                           Norway :COUNTRY
SRVC        .                                          UNKNOWN :SERVICE COMPANY
DATE        .                                          UNKNOWN :LOG DATE
UWI         .                                   NO 15/9-F-15 C :UNIQUE WELL ID
XCOORD      .M                                   435053.550000 :SURFACE X
YCOORD      .M                                  6478560.360000 :SURFACE Y
LAT         .                                        58.441585 :LATITUDE
LON         .                                         1.887541 :LONGITUDE
ELEV        .M                                         54.9000 :SURFACE ELEV
ELEV_TYPE   .                                               KB :ELEV TYPE

~CURVE INFORMATION
#MNEMONIC   .UNIT          API CODE       : CURVE DESCRIPTION
#------------------------------------------------------------------------------
DEPTH       .M                            : Measured Depth
DT          .us/ft         UNKNOWN        : DT:UNKNOWN:rC:NONE:v1
GR          .API           UNKNOWN        : GR:UNKNOWN:rC:NONE:v1
~A     DEPTH           DT           GR 
# ...
  3108.68120   121.014503   209.799291 
  3108.83360   121.306099   207.331063 
  3108.98600   122.673599   202.289532 
  3109.13840   123.261002   199.611118 
  3109.29080   121.960503   203.210143 
  3109.44320   122.603302   210.488369 
  3109.59560   123.077202   219.876902 
  3109.74800   123.787201   232.318134 
  3109.90040   124.070099   243.896425 
  3110.05280   123.384201   250.398229 
  3110.20520   124.504402   245.866608 
  3110.35760   125.567802   237.705782 
  3110.51000   124.924500   230.564911 
  3110.66240   122.115700   225.929923 
  3110.81480   117.887299   221.334017 
  3110.96720   114.757004   221.760598 
  3111.11960   113.737999   225.903742 
  3111.27200   112.045403   231.484098 
  3111.42440   111.085297   229.907513 
  3111.57680   112.564400   229.729347 
  3111.72920   114.167900   233.704684 
  3111.88160   116.982498   243.082739 
  3112.03400   121.487900   244.024795 
  3112.18640   124.110603   240.441579 
  3112.33880   123.566399   235.099884 
  3112.49120   122.452599   231.288541 
  3112.64360   120.858200   231.547726 
  3112.79600   119.527603   236.969285 
  3112.94840   121.391296   248.048237 
  3113.10080   124.983498   262.942053 
  3113.25320   124.785698   269.243059 
  3113.40560   124.932098   273.786337 
  3113.55800   124.284698   275.369833 
  3113.71040   123.811401   291.846268 
  3113.86280   122.804901   316.831007 
  3114.01520   120.640999   345.003357 
  3114.16760   117.636703   383.199234 
  3114.32000   114.389099   452.418685 
  3114.47240   110.870697   572.390529 
  3114.62480   108.106796   751.341469 
  3114.77720   107.147797   957.209775 
  3114.92960   106.327301  1051.812771 
  3115.08200   106.739502   931.230691 
  3115.23440   107.110497   661.229066 
  3115.38680   107.486603   414.129940 
  3115.53920   108.162598   289.761175 
  3115.69160   108.211998   245.765824 
  3115.84400   105.687599   230.295508 
  3115.99640   100.613998   225.970584 
  3116.14880    97.443336   216.342186 
  3116.30120    95.917664   196.975857 
  3116.45360    96.187767   176.352863 
  3116.60600    97.731354   159.937161 
  3116.75840   100.222900   151.775805 
  3116.91080    98.297318   144.485641 
  3117.06320    96.017662   141.152730 
  3117.21560    95.198883   139.609092 
  3117.36800    95.070892   135.905478 
  3117.52040    94.999977   132.984572 
  3117.67280    96.156387   129.891334 
  3117.82520    97.787811   129.216902 
  3117.97760    98.458794   128.664059 
  3118.13000    98.856102   131.535134 
  3118.28240    98.977432   134.933006 
  3118.43480    98.694221   134.432514 
  3118.58720    96.571800   132.392026 
  3118.73960    95.218323   132.581276 
  3118.89200    94.989838   132.688944 
  3119.04440    95.760559   131.889478 
  3119.19680    95.715569   126.487750 
  3119.34920    94.566559   122.453813 
  3119.50160    93.795776   119.502094 
  3119.65400    92.756393   120.209530 
  3119.80640    91.780113   123.064667 
  3119.95880    91.093941   124.212272 
  3120.11120    90.360977   124.551584 
  3120.26360    89.931236   123.136787 
  3120.41600    91.084358   121.241677 
  3120.56840    91.470543   119.099268 
  3120.72080    91.270844   115.548620 
  3120.87320    89.884491   115.305693 
  3121.02560    88.973953   113.007583 
  3121.17800    88.869789   114.224163 
  3121.33040    89.121033   112.034632 
  3121.48280    90.146500   112.969131 
  3121.63520    90.534843   113.108544 
  3121.78760    91.107224   113.889067 
  3121.94000    91.177773   114.690355 
  3122.09240    90.186234   114.153296 
  3122.24480    89.879372   116.292354 
  3122.39720    88.322594   116.486104 
  3122.54960    87.326134   113.394892 
  3122.70200    87.976059   105.278251 
  3122.85440    88.872780    96.612337 
  3123.00680    88.657593    93.026181 
  3123.15920    88.608223    92.633964 
  3123.31160    89.237572    95.177438 
  3123.46400    90.445168   100.476884 
  3123.61640    91.193962   106.241319 
  3123.76880    90.935417   113.855289 
  3123.92120    90.128548   114.129778 
  3124.07360    89.224030   112.148873 
  3124.22600    88.866547   106.238744 
  3124.37840    86.876183   104.213466 
  3124.53080    84.683907   105.048851 
  3124.68320    82.212173   107.292285 
  3124.83560    79.494972   105.127395 
  3124.98800    77.127167    96.287952 
  3125.14040    78.038422    76.412092 
  3125.29280    81.868736    56.058784 
  3125.44520    85.524117    38.026569 
  3125.59760    87.433739    28.036974 
  3125.75000    88.797684    22.487245 
  3125.90240    89.936943    21.496201 
  3126.05480    90.003967    21.374031 
  3126.20720    89.976868    20.476169 
  3126.35960    89.246727    19.002285 
  3126.51200    87.085136    19.153715 
  3126.66440    86.130768    19.795054 
  3126.81680    86.785019    19.524578 
  3126.96920    87.364937    18.318334 
  3127.12160    86.767021    17.994896 
  3127.27400    84.504967    18.523764 
  3127.42640    80.958862    20.280314 
  3127.57880    77.202728    20.846574 
  3127.73120    75.744972    21.655408 
  3127.88360    77.586067    22.171388 
  3128.03600    82.505272    23.122177 
  3128.18840    87.607674    25.652445 
  3128.34080    91.545303    28.200523 
  3128.49320    93.928047    30.063601 
  3128.64560    94.358551    29.008861 
  3128.79800    94.468018    27.102740 
  3128.95040    94.719109    25.373789 
  3129.10280    94.614807    24.543977 
  3129.25520    93.705040    23.535103 
  3129.40760    91.952950    23.355403 
  3129.56000    89.924393    25.845617 
  3129.71240    87.798882    30.933265 
  3129.86480    85.103157    37.583835 
  3130.01720    84.096497    40.708147 
  3130.16960    84.519234    41.416530 
  3130.32200    85.510269    38.590408 
  3130.47440    86.175827    36.415344 
  3130.62680    84.519218    32.656136 
  3130.77920    81.983223    28.942994 
  3130.93160    81.201012    25.753500 
  3131.08400    82.228683    24.960607 
  3131.23640    85.025841    25.496891 
  3131.38880    88.397163    25.154334 
  3131.54120    90.965599    26.215978 
  3131.69360    91.341217    29.074739 
  3131.84600    89.832367    33.211347 
  3131.99840    87.897873    34.997766 
  3132.15080    87.575127    34.298644 
  3132.30320    87.916153    33.414476 
  3132.45560    87.972153    33.969111 
  3132.60800    87.488289    37.532549 
  3132.76040    87.818466    45.326615 
  3132.91280    90.531143    49.565281 
  3133.06520    93.999222    45.604489 
  3133.21760    97.369499    35.211943 
  3133.37000    99.470673    27.585089 
  3133.52240    99.573181    25.481091 
  3133.67480    99.122711    24.884052 
  3133.82720    97.661583    23.428715 
  3133.97960    96.985184    23.878910 
  3134.13200    96.393806    24.624431 
  3134.28440    94.759712    25.813483 
  3134.43680    92.332199    25.882029 
  3134.58920    90.565727    26.649821 
  3134.74160    88.376518    29.312630 
  3134.89400    87.976067    33.487104 
  3135.04640    89.027748    40.178220 
  3135.19880    89.469727    47.681698 
  3135.35120    88.765938    52.909412 
  3135.50360    85.973732    56.339924 
  3135.65600    81.889236    60.417353 
  3135.80840    80.913857    64.095350 
  3135.96080    83.010033    59.941516 
  3136.11320    87.307167    47.183046 
  3136.26560    90.275383    31.666988 
  3136.41800    91.588493    22.226148 
  3136.57040    91.543083    18.089202 
  3136.72280    89.912827    16.512287 
  3136.87520    87.514664    16.103927 
  3137.02760    85.964844    15.906445 
  3137.18000    84.970673    16.399632 
  3137.33240    84.949951    16.461297 
  3137.48480    87.074623    16.949073 
  3137.63720    89.948967    17.454623 
  3137.78960    90.000183    18.033631 
  3137.94200    87.770844    18.534964 
  3138.09440    87.863991    17.955092 
  3138.24680    89.302254    17.679059 
  3138.39920    90.232529    17.981492 
  3138.55160    90.515488    18.332770 
  3138.70400    89.982208    18.236860 
  3138.85640    88.487221    16.926828 
  3139.00880    86.656883    16.612491 
