~Version Information Block
VERS .                 2.00:  CWLS LOG ASCII STANDARD - VERSION 2.00
WRAP .                  YES:  Multiple lines per depth step
~Well Information Block
#MNEM.UNIT        Data Type   Information
#---------- ----------------  -----------
STRT .M          3513.58200:  START DEPTH
STOP .M          3649.06560:  STOP DEPTH
STEP .M             0.15240:  STEP
NULL .              -999.25:  NULL VALUE
COMP .              Statoil:  COMPANY
WELL .        NO_15/9-F-1_C:  WELL
FLD  .                Volve:  FIELD
LOC  .            North Sea:  LOCATION
CTRY .               Norway:  COUNTRY
STAT .                     :  STATE
CNTY .                     :  COUNTY
SRVC .         Schlumberger:  SERVICE COMPANY
DATE .          27-Nov-2014:  DATE
API  .                     :  API NUMBER
UWI  .           15/9-F-1 C:  UNIQUE WELL ID
LATI .     58° 26' 29.91" N:  LATITUDE
LONG .      1° 53' 14.71" E:  LONGITUDE
~Curve Information Block
#MNEM.UNIT         API CODE   Curve Description
#---------- ----------------  -----------------
DEPTH.M                    :  DEPTH (BOREHOLE)
BSAL .PPM                  :  Borehole Salinity
CCLC .V                    :  CCL
CIRF .                     :  RST Capture to Inelastic Ratio Far
CIRN .                     :  RST Capture to Inelastic Ratio Near
CVEL .M/SEC                 :  Cable Velocity
DFRB .DEG                  :  Calibrated Relative Bearing
DSIG .CU                   :  Sigma Difference
FBEF .UA                   :  RST Far Effective Beam Current
GR   .GAPI                 :  Gamma Ray
IRAT .                     :  RST Inelastic Ratio
PFC1 .IN                   :  PFCS CaliperX
PFC2 .IN                   :  PFCS CaliperY
RSCF .                     :  RST Far Detector Effective Unregulated
RSCN .                     :  RST Near Detector Effective
SFFA .CU                   :  RST Sigma Formation Far Apparent
SIBF .CU                   :  RST Sigma Borehole Fluid
SIGM .CU                   :  Formation Sigma (Neutron Capture Cross
TENS .LBF                  :  Cable Tension
TPHI .V/V                  :  Thermal Decay Porosity
~Parameter Information Block
#MNEM.UNIT            Value   Description
#---------- ----------------  -----------
APD  .M           54.900002:  Elevation of Depth Reference (LMF) above Permanent Datum
BHS  .                 CASE:  Borehole Status (Open or Cased Hole)
BS   .IN                8.5:  Bit Size
BSAL .PPM                 0:  Borehole Salinity
BSALOPT.              UNKNOWN:  Borehole Salinity Option
CSIZ .IN                  7:  Current Casing Size
CWEI .LB/F               29:  Casing Weight
EPD  .C3                  0:  Elevation of Permanent Datum above Mean Sea Level
LMF  .                   KB:  Logging Measured From (Name of Logging Elevation Reference)
MATR .                 SAND:  Rock Matrix for Neutron Porosity Corrections
PDAT .                  MSL:  Permanent Datum
RUN  .                Run 1:  RUN NUMBER
TAPE_NAME.     Statoil_Volve_15-9-F-1 C_PLT-RST_28Nov14_ConCu_R1L15Up_SigmaRepeat.las:  
TOOL_STRING.              UNKNOWN:  
WN   .           15/9-F-1 C:  WELL
PROJECT.     SLEIPNER_OST@st-vlinapp01:  
SET  .       RSTD_1114_SIG2:  
~Other Information Block
~Ascii Log Data
# ...
    3637.02600 
    70258.6953        -0.0335         2.3341       0.614900      -0.160153 
        1.4110        -1.5308        86.4581        15.4368         0.3394 
        6.2152         5.9862         9.5242         7.5778        17.3908 
       47.2144        15.5366      4730.6670       0.145200
    3637.17840 
    69524.6953        -0.0335         2.3198       0.615700      -0.159485 
        1.4110        -1.5468        82.8214        15.4368         0.3367 
        6.2219         5.9862         9.7160         7.3361        16.8038 
       46.9416        15.5113      4781.0000       0.144500
    3637.33080 
    70628.1953        -0.0335         2.3177       0.613300      -0.158830 
        1.4110        -1.6721        83.0183        15.4368         0.3413 
        6.2219         5.9862         9.7247         7.4089        17.1903 
       47.3518        15.3372      4630.0000       0.147800
    3637.48320 
    71097.8047        -0.0335         2.2823       0.617000      -0.158445 
        1.4110        -1.7389        84.7472        15.4368         0.3379 
        6.2219         5.9862         9.2251         7.2431        16.8808 
       47.5265        15.5059      4861.6670       0.148400
    3637.63560 
    71972.0000        -0.0335         2.3515       0.617700      -0.154440 
        1.4110        -1.9924        85.3699        15.4368         0.3372 
        6.2219         5.9862         9.2182         7.1289        17.3361 
       47.8520        15.4446      4910.5000       0.149800
    3637.78800 
    72297.6953        -0.0335         2.3153       0.600900      -0.150832 
      359.8050        -2.0960        83.1974        15.4368         0.3376 
        6.2219         5.9923        10.0030         7.7421        17.0364 
       47.9733        15.5830      4986.0000       0.147500
    3637.94040 
    71255.2031        -0.0335         2.2593       0.603100      -0.148278 
      358.3940        -2.2608        85.0819        15.4368         0.3362 
        6.2219         5.9862         9.1671         7.0721        17.3244 
       47.5851        15.6775      4942.6665       0.147600
    3638.09280 
    72343.5000        -0.0335         2.3592       0.612200      -0.144925 
      358.3940        -2.2306        86.3814        15.4368         0.3383 
        6.2219         5.9862         9.4917         7.3536        17.6410 
       47.9904        15.7271      4916.0000       0.147700
    3638.24520 
    70350.5000        -0.0335         2.2614       0.615000      -0.141923 
      358.3940        -2.1975        82.3921        15.4368         0.3323 
        6.2219         5.9862         9.6573         7.5415        17.1657 
       47.2485        15.8795      4772.6665       0.146100
    3638.39760 
    68598.1953        -0.0335         2.3777       0.605100      -0.136840 
      358.3940        -2.4089        85.5169        15.4368         0.3330 
        6.2219         5.9862         9.7298         7.4330        17.7835 
       46.5977        15.8866      4921.6665       0.145300
    3638.55000 
    70805.7031        -0.0335         2.3357       0.593100      -0.130473 
      358.3940        -2.5088        83.9225        15.4368         0.3293 
        6.2219         5.9862         9.8131         7.5453        17.6655 
       47.4178        16.1289      4828.3330       0.144300
    3638.70240 
    71445.8047        -0.0335         2.2604       0.609600      -0.123267 
      358.3940        -2.4686        85.2119        15.4368         0.3320 
        6.2219         5.9862         9.1856         7.4681        17.9049 
       47.6560        15.8854      4926.0000       0.150400
    3638.85480 
    73937.3984        -0.0335         2.3727       0.621400      -0.118632 
      358.3940        -2.5923        81.9108        15.4368         0.3351 
        6.2219         5.9862        10.0468         7.4976        17.0596 
       48.5849        15.5206      5054.6665       0.150900
    3639.00720 
    70860.0000        -0.0335         2.2743       0.608700      -0.118228 
      358.3940        -2.6625        86.3522        15.4368         0.3344 
        6.2203         5.9862         9.2237         7.3675        16.5725 
       47.4380        15.3634      4965.0000       0.150400
    3639.15960 
    71645.2031        -0.0335         2.3572       0.602800      -0.119490 
      358.3940        -2.6716        87.2126        15.4368         0.3330 
        6.2070         5.9862         9.5355         7.5099        17.4592 
       47.7303        15.4303      4786.0000       0.141300
    3639.31200 
    67491.0938        -0.0335         2.3595       0.600500      -0.120740 
      358.3940        -2.6004        86.5982        15.4368         0.3296 
        6.2103         5.9862         9.6646         7.4649        17.2743 
       46.1871        15.4865      4858.2505       0.136200
    3639.46440 
    67736.1953        -0.0335         2.3838       0.607000      -0.118602 
      358.3940        -2.6604        87.6358        15.4368         0.3325 
        6.2037         5.9862         9.5614         7.4158        16.7710 
       46.2779        15.5674      4924.6665       0.128300
    3639.61680 
    62837.0000        -0.0335         2.3753       0.612700      -0.119863 
      358.3940        -2.4884        89.3716        15.4368         0.3332 
        6.2093         5.9862         9.0966         7.1635        17.7406 
       44.4670        15.7622      4969.0005       0.122600
    3639.76920 
    58615.0000        -0.0335         2.3637       0.612000      -0.119410 
      356.9830        -3.6227        82.9422        15.4368         0.3338 
        6.2219         5.9862         9.8219         7.4846        17.8769 
       42.9146        16.1403      4972.6665       0.113900
    3639.92160 
    58615.0000        -0.0335         2.3637       0.612000      -0.120277 
      356.9830        -3.6227        82.9422        15.4368         0.3338 
        6.2219         5.9862         9.8219         7.4846        17.8769 
       42.9146        16.1403      4931.0000       0.113900
    3640.07400 
    58615.0000        -0.0335         2.3637       0.612000      -0.114790 
      356.9830        -3.6227        82.9422        15.4368         0.3338 
        6.2205         5.9862         9.8219         7.4846        17.8769 
       42.9146        16.1403      4960.0000       0.113900
    3640.22640 
    58615.0000        -0.0335         2.3637       0.612000      -0.107408 
      356.9830        -3.6227        82.9422        15.4368         0.3338 
        6.2219         5.9862         9.8219         7.4846        17.8769 
       42.9146        16.1403      4763.0000       0.113900
    3640.37880 
    58615.0000        -0.0335         2.3637       0.612000      -0.104568 
      355.5720        -3.6227        82.9422        15.4368         0.3338 
        6.2219         5.9862         9.8219         7.4846        17.8769 
       42.9146        16.1403      4914.0000       0.113900
    3640.53120 
    58615.0000        -0.0335         2.3637       0.612000      -0.103285 
      355.5720        -3.6227        82.9422        15.4368         0.3338 
        6.2219         5.9862         9.8219         7.4846        17.8769 
       42.9146        16.1403      5063.7500       0.113900
    3640.68360 
    58615.0000        -0.0335         2.3637       0.612000      -0.101993 
      355.5720        -3.6227        82.9422        15.4368         0.3338 
        6.2219         5.9862         9.8219         7.4846        17.8769 
       42.9146        16.1403      5006.7500       0.113900
    3640.83600 
    58615.0000        -0.0335         2.3637       0.612000      -0.093212 
      355.5720        -3.6227        82.9422        15.4368         0.3338 
        6.2219         5.9862         9.8219         7.4846        17.8769 
       42.9146        16.1403      4974.3335       0.113900
    3640.98840 
    58615.0000        -0.0335         2.3637       0.612000      -0.087687 
      355.5720        -3.6227        82.9422        15.4368         0.3338 
        6.2219         5.9881         9.8219         7.4846        17.8769 
       42.9146        16.1403      4805.8003       0.113900
