~Version Information Block
VERS .                 2.00:  CWLS LOG ASCII STANDARD - VERSION 2.00
WRAP .                  YES:  Multiple lines per depth step
~Well Information Block
#MNEM.UNIT        Data Type   Information
#---------- ----------------  -----------
STRT .M          3174.64440:  START DEPTH
STOP .M          3422.90400:  STOP DEPTH
STEP .M             0.15240:  STEP
NULL .              -999.25:  NULL VALUE
COMP .         StatoilHydro:  COMPANY
WELL .          NO_15/9-F-4:  WELL
FLD  .                VOLVE:  FIELD
LOC  .            North Sea:  LOCATION
CTRY .                     :  COUNTRY
STAT .                     :  STATE
CNTY .                     :  COUNTY
SRVC .         Schlumberger:  SERVICE COMPANY
DATE .          13-Sep-2012:  DATE
API  .                     :  API NUMBER
UWI  .             15/9-F-4:  UNIQUE WELL ID
~Curve Information Block
#MNEM.UNIT         API CODE   Curve Description
#---------- ----------------  -----------------
DEPTH.M                    :  DEPTH (BOREHOLE)
BSAL .PPM                  :  Borehole Salinity
CCLC .V                    :  CCL
CCLD .V                    :  CCL Discriminated Amplitude
CIRF .                     :  RST Capture to Inelastic Ratio Far
CIRN .                     :  RST Capture to Inelastic Ratio Near
CVEL .M/MIN                 :  Cable Velocity
DEVI .DEG                  :  Hole Deviation
DSIG .CU                   :  Sigma Difference
FBEF .UA                   :  RST Far Effective Beam Current
GR   .GAPI                 :  Gamma Ray
IRAT .                     :  RST Inelastic Ratio
RB_PCMS.DEG                  :  Relative Bearing
RSCF .                     :  RST Far Detector Effective Unregulated Capture Count Rate
RSCN .                     :  RST Near Detector Effective Unregulated Capture Count Rate
SFFA .CU                   :  RST Sigma Formation Far Apparent
SIBF .CU                   :  RST Sigma Borehole Fluid
SIGM .CU                   :  Formation Sigma (Neutron Capture Cross Section)
TPHI .V/V                  :  Thermal Decay Porosity
WPRE .PSI                  :  Well Pressure
WTEP .DEGC                 :  Well Temperature
~Parameter Information Block
#MNEM.UNIT            Value   Description
#---------- ----------------  -----------
APD  .M                  54:  Elevation of Depth Reference (LMF) above Permanent Datum
BHS  .                 CASE:  Borehole Status (Open or Cased Hole)
BS   .IN                8.5:  Bit Size
BSAL .PPM       34972.17188:  Borehole Salinity
BSALOPT.              UNKNOWN:  Borehole Salinity Option
CSID .IN              6.184:  Casing Inner Diameter
CSIZ .IN                  7:  Current Casing Size
CWEI .LB/F               29:  Casing Weight
MATR .                 SAND:  Rock Matrix for Neutron Porosity Corrections
RUN  .                    4:  RUN NUMBER
PROJECT.     SLEIPNER_OST@st-vlinapp01:  
SET  .       RSTD_0912_SIG1:  
~Other Information Block
~Ascii Log Data
# ...
    3337.10280 
    23811.0000         0.2423         0.0000         2.9154     0.85399997 
      -4.56180        56.0066        -1.6806        80.4386        12.6888 
    0.33019999       355.7584        12.5531        10.9082        13.2282 
       30.4082        11.4065     0.14530000      4976.5703        85.4579
    3337.25520 
    23560.9004         0.0660         0.0000         2.9422     0.85060000 
      -4.56830        55.9921        -1.8162        79.8026        12.0992 
    0.33080000       355.8131        12.2698        10.4526        13.8613 
       30.3202        11.3590     0.14470001      4976.7139        85.4239
    3337.40760 
    23740.4004         0.2220         0.0000         2.9375     0.83829999 
      -4.57610        55.7304        -1.9430        78.7004        12.0992 
    0.33320001       355.8919        12.7086        10.9793        13.4001 
       30.3834        11.4668     0.14000000      4976.9014        85.3835
    3337.56000 
    23899.2988        -0.0872         0.0000         2.8329     0.85200000 
      -4.58070        55.8943        -1.9655        77.5644        12.4480 
    0.33440000       355.9457        11.9906        10.2792        13.6073 
       30.4393        11.2891     0.13740000      4976.9526        85.3492
    3337.71240 
    23344.5000         0.3095         0.0000         2.9218     0.82290000 
      -4.60150        55.9789        -2.0148        83.3425        11.6491 
    0.33890000       356.0807        12.2945        10.7057        13.3858 
       30.2441        11.3232     0.13090000      4977.0898        85.3051
    3337.86480 
    23476.6016        -0.0228         0.0000         2.8832     0.83840001 
      -4.61430        55.6614        -2.0026        80.5892        11.3169 
    0.33719999       355.9981        12.9286        11.0530        13.5417 
       30.2906        11.2959     0.12890001      4977.3042        85.2915
    3338.01720 
    23608.6992        -0.0007         0.0000         2.9575     0.84490001 
      -4.56820        55.7587        -1.9120        78.5885        12.0892 
    0.33880001       356.0012        13.2421        10.7193        13.5668 
       30.3371        11.2982     0.13050000      4977.3545        85.2565
    3338.16960 
    23416.3008         0.0506         0.0000         2.8987     0.85180002 
      -4.57950        55.8873        -1.8784        78.6678        11.9176 
    0.33030000       355.9751        12.8770        11.0772        13.4090 
       30.2694        11.2744     0.13519999      4977.4600        85.2267
    3338.32200 
    23276.3008        -0.0895         0.0000         3.0721     0.85339999 
      -4.56090        55.6870        -1.8654        85.0481        11.1397 
    0.32110000       356.0151        12.7299        11.0359        13.4810 
       30.2202        11.3302     0.13180000      4977.6631        85.2133
    3338.47440 
    23129.1016        -0.0517        -0.0517         2.8905     0.76969999 
      -4.58090        55.5842        -1.9354        82.7409        11.0806 
    0.31090000       356.0165        12.9111        10.8247        13.7368 
       30.1684        11.4529     0.12680000      4977.7080        85.1480
    3338.62680 
    23155.0996        -0.1677        -0.1677         2.8526     0.69599998 
      -4.57160        55.8563        -2.0271        85.4649        10.8121 
    0.30910000       355.8507        12.1720         9.6204        13.8371 
       30.1776        11.5749     0.12060000      4977.8613        85.1315
    3338.77920 
    23315.0996        -1.7384        -1.7384         2.5190     0.69989997 
      -4.57060        55.7857        -2.0644        79.7010         9.6329 
    0.31560001       355.8988        11.7817        10.2849        13.8929 
       30.2338        11.5987     0.12680000      4978.0293        85.0891
    3338.93160 
    23674.1992        -0.0384         0.0000         2.8083     0.79250002 
      -4.57080        55.4991        -2.0227        79.4969         9.8045 
    0.32589999       355.8817        12.4255        10.6329        13.8653 
       30.3601        11.5811     0.13339999      4978.1084        85.0481
    3339.08400 
    23632.7988         0.1116         0.0000         2.8552     0.83819997 
      -4.56650        55.7105        -1.9797        79.7212        11.0916 
    0.33160001       355.8235        12.7252        11.1313        13.7754 
       30.3455        11.4908     0.14500000      4978.2510        84.9997
    3339.23640 
    23437.4004         0.0087         0.0000         2.8593     0.84469998 
      -4.57550        55.7457        -1.8945        84.5121        11.6923 
    0.33700001       355.7880        12.0020        11.1027        13.6206 
       30.2768        11.4339     0.15390000      4978.3711        84.9871
    3339.38880 
    23934.7988        -0.0940         0.0000         2.7541     0.87169999 
      -4.58060        55.4157        -1.8979        79.2478        12.5504 
    0.33530000       355.8121        12.0995        11.1943        13.6471 
       30.4518        11.4455     0.16120000      4978.5054        84.9249
    3339.54120 
    23740.6016        -0.6295         0.0000         2.8339     0.86049998 
      -4.56200        55.7679        -1.9204        81.0175        13.6438 
    0.33590001       355.8236        12.1252        11.0735        13.7399 
       30.3834        11.7639     0.16280000      4978.6392        84.8817
    3339.69360 
    23487.1992        -0.5083         0.0000         2.8246     0.83670002 
      -4.57310        55.6733        -1.9510        80.3935        13.6438 
    0.33250001       355.8418        12.2016        10.8777        14.4940 
       30.2943        11.8922     0.16320001      4978.7568        84.8503
    3339.84600 
    23314.6992        -0.0776         0.0000         2.7457     0.85589999 
      -4.58370        55.5013        -1.9004        80.9260        13.2147 
    0.33390000       355.9107        11.7635        10.7028        13.9686 
       30.2337        12.0794     0.16610000      4978.8901        84.8344
    3339.99840 
    23325.0996        -0.0321         0.0000         2.7447     0.85049999 
      -4.56280        55.7443        -1.9262        78.6033        13.6438 
    0.33320001       355.8960        12.4508        11.1117        14.2425 
       30.2373        12.0802     0.16720000      4978.9946        84.8016
    3340.15080 
    23166.0996         0.0061         0.0000         2.8199     0.85850000 
      -4.60970        55.7243        -1.8280        85.1218        13.8154 
    0.33059999       355.8914        11.5841        10.8871        14.4311 
       30.1814        12.2989     0.16580001      4979.0952        84.7891
    3340.30320 
    23010.7988        -0.1903         0.0000         2.8162     0.83020002 
      -4.58510        55.6085        -1.6667        81.5719        13.5580 
    0.32940000       355.9487        11.8430        10.4859        14.5268 
       30.1268        12.4134     0.16080000      4979.2500        84.7567
    3340.45560 
    22894.6992        -0.2427         0.0000         2.7576     0.84369999 
      -4.55570        55.6816        -1.6097        80.8897        13.1289 
    0.33129999       355.9783        11.9187        10.8614        14.4966 
       30.0860        12.3967     0.15989999      4979.3638        84.6981
    3340.60800 
    23233.9004         0.1100         0.0000         2.7000     0.81500000 
      -4.57100        55.7780        -1.4926        79.9606        14.0728 
    0.33289999       356.0631        12.3304        11.3537        14.3043 
       30.2053        12.3594     0.15970001      4979.5195        84.6687
    3340.76040 
    23245.3008         0.0096         0.0000         2.7897     0.84200001 
      -4.56310        55.7728        -1.5013        81.4767        14.1503 
    0.33180001       356.0097        12.1280        10.9649        14.3783 
       30.2092        12.4636     0.16220000      4979.6338        84.6544
    3340.91280 
    23528.2988         0.0138         0.0000         2.7236     0.83109999 
      -4.68950        55.7654        -1.4638        80.4857        13.2064 
    0.32990000       355.9048        11.9088        10.8329        14.7676 
       30.3088        12.5388     0.16440000      4979.7402        84.6350
