~Version Information Block
VERS .                 2.00:  CWLS LOG ASCII STANDARD - VERSION 2.00
WRAP .                   NO:  One line per depth step
~Well Information Block
#MNEM.UNIT        Data Type   Information
#---------- ----------------  -----------
STRT .M          3454.60320:  START DEPTH
STOP .M          3792.47400:  STOP DEPTH
STEP .M             0.15240:  STEP
NULL .              -999.25:  NULL VALUE
COMP .              Statoil:  COMPANY
WELL .        NO_15/9-F-1_C:  WELL
FLD  .                Volve:  FIELD
LOC  .            North Sea:  LOCATION
CTRY .               Norway:  COUNTRY
STAT .                     :  STATE
CNTY .                     :  COUNTY
SRVC .         Schlumberger:  SERVICE COMPANY
DATE .          27-Nov-2014:  DATE
API  .                     :  API NUMBER
UWI  .           15/9-F-1 C:  UNIQUE WELL ID
LATI .     58° 26' 29.91" N:  LATITUDE
LONG .      1° 53' 14.71" E:  LONGITUDE
~Curve Information Block
#MNEM.UNIT         API CODE   Curve Description
#---------- ----------------  -----------------
DEPTH.M                    :  DEPTH (BOREHOLE)
CVEL .M/SEC                 :  Cable Velocity
DFRB .DEG                  :  Calibrated Relative Bearing
FBEF .UA                   :  RST Far Effective Beam Current
FCOR .                     :  RST Far Carbon/Oxygen Ratio
FERD .                     :  RST Far IC Mode Capture Optimization
FIRD .                     :  RST Far Inelastic Optimization Resolution
GR   .GAPI                 :  Gamma Ray
NCOR .                     :  RST Near Carbon/Oxygen Ratio
NERD .                     :  RST Near IC Mode Capture Optimization
NIRD .                     :  RST Near Inelastic Optimization Resolution
PFC1 .IN                   :  PFCS CaliperX
PFC2 .IN                   :  PFCS CaliperY
TENS .LBF                  :  Cable Tension
~Parameter Information Block
#MNEM.UNIT            Value   Description
#---------- ----------------  -----------
APD  .M           54.900002:  Elevation of Depth Reference (LMF) above Permanent Datum
EPD  .C3                  0:  Elevation of Permanent Datum above Mean Sea Level
LMF  .                   KB:  Logging Measured From (Name of Logging Elevation Reference)
PDAT .                  MSL:  Permanent Datum
RUN  .                Run 1:  RUN NUMBER
TAPE_NAME.     ConCu_R1L19Up_S012_PFCS_PILS_DEFT_RST_PCMS_PSTP.las:  
TOOL_STRING.              UNKNOWN:  
WN   .           15/9-F-1 C:  WELL
PROJECT.     SLEIPNER_OST@st-vlinapp01:  
SET  .        RSTD_1114_IC3:  
~Other Information Block
# 
~A       DEPTH           CVEL           DFRB           FBEF           FCOR           FERD           FIRD             GR           NCOR           NERD           NIRD           PFC1           PFC2           TENS 
# ...
    3609.13680      -0.200562       358.3940       124.2249        -0.3413         5.0514         5.0514        43.7702         0.0158         7.0100         7.0100         6.2533         6.0510      4423.1816
    3609.28920      -0.166750       356.9830       123.5665        -0.1961         5.1276         5.1276        43.4641         0.0386         7.0162         7.0162         6.2530         6.0517      4419.8999
    3609.44160      -0.125085       356.9830       124.8274         0.0816         5.0963         5.0963        45.7402         0.0517         6.8854         6.8854         6.2253         6.0513      4446.8335
    3609.59400      -0.076923       356.9830       124.6893        -0.0139         5.0258         5.0258        50.1396         0.0276         6.8917         6.8917         6.2222         6.0510      4335.0527
    3609.74640      -0.008315       356.9830       124.6075         0.0697         5.0747         5.0747        52.5829        -0.0107         6.9429         6.9429         6.2219         6.0482      4179.4575
    3609.89880      -0.006678       356.9830       125.4760         0.0017         5.2035         5.2035        56.0508        -0.0481         6.8934         6.8934         6.2219         6.0467      4086.0408
    3610.05120      -0.006617       356.9830       125.4585        -0.0863         5.1767         5.1767        59.6487         0.0273         6.8867         6.8867         6.2219         6.0456      4207.9014
    3610.20360      -0.006473       356.9830       125.9246         0.0558         5.0923         5.0923        60.7904         0.0397         6.8780         6.8780         6.2219         6.0458      4177.9092
    3610.35600      -0.006520       356.9830       124.0431         0.1890         4.9668         4.9668        59.9398        -0.0533         6.9691         6.9691         6.2219         6.0488      4155.8647
    3610.50840      -0.006470       356.9830       123.6790         0.0165         4.9376         4.9376        59.6135         0.0681         7.0818         7.0818         6.2219         6.0481      4164.4233
    3610.66080      -0.006612       356.9830       124.2386         0.0322         4.8951         4.8951        59.0095         0.1124         7.0673         7.0673         6.2218         6.0461      4147.7485
    3610.81320      -0.006585       356.9830       124.6966         0.0647         4.9830         4.9830        58.5428        -0.0132         6.9830         6.9830         6.2219         6.0477      4129.9453
    3610.96560      -0.006333       356.9830       124.1702        -0.0704         4.9727         4.9727        57.6410        -0.0668         7.0646         7.0646         6.2219         6.0490      4335.4849
    3611.11800      -0.006577       356.9830       124.9344        -0.1406         5.0268         5.0268        57.0093         0.0147         7.0840         7.0840         6.2219         6.0485      4241.0342
    3611.27040      -0.006430       356.9830       124.6987        -0.1791         4.9309         4.9309        55.2803         0.0359         7.2013         7.2013         6.2219         6.0470      4247.5913
    3611.42280      -0.006647       356.9830       123.9979         0.0024         4.9125         4.9125        53.6484         0.0701         7.1274         7.1274         6.2219         6.0475      4221.6328
    3611.57520      -0.006445       356.9830       123.1359         0.1205         4.7395         4.7395        53.0102        -0.0234         7.1282         7.1282         6.2219         6.0455      4225.5186
    3611.72760      -0.006562       356.9830       123.8579         0.0520         4.8129         4.8129        50.9828         0.0448         7.1313         7.1313         6.2219         6.0444      4290.2764
    3611.88000      -0.006603       356.9830       123.4951        -0.0325         4.8241         4.8241        50.8449        -0.0596         7.1587         7.1587         6.2219         6.0450      4205.2061
    3612.03240      -0.006247       356.9830       123.7681         0.0021         4.8605         4.8605        52.4227        -0.0340         7.2185         7.2185         6.2221         6.0435      4247.5464
    3612.18480      -0.006258       356.9830       123.4222         0.0468         4.9931         4.9931        53.6186         0.0345         7.2994         7.2994         6.2220         6.0457      4379.8413
    3612.33720      -0.006358       356.9830       123.2103         0.0295         5.0073         5.0073        52.0950         0.0763         7.3336         7.3336         6.2219         6.0479      4289.1245
    3612.48960      -0.006430       356.9830       125.7264         0.0408         4.8932         4.8932        54.3690         0.0389         7.4306         7.4306         6.2219         6.0387      4260.7881
    3612.64200      -0.006443       356.9830       126.4552         0.0661         4.9253         4.9253        55.3948        -0.0464         7.4374         7.4374         6.2219         6.0194      4287.6260
    3612.79440      -0.006575       356.9830       130.5011         0.0252         4.8819         4.8819        53.1179         0.0756         7.4319         7.4319         6.2219         6.0189      4235.2920
    3612.94680      -0.006705       356.9830       134.0461        -0.0407         4.9475         4.9475        51.7572        -0.0200         7.4327         7.4327         6.2219         6.0187      4211.8804
    3613.09920      -0.006687       356.9830       134.2854         0.2079         4.9794         4.9794        53.6597        -0.0246         7.4156         7.4156         6.2219         6.0041      4229.1831
    3613.25160      -0.006803       356.9830       132.2531         0.0568         4.9330         4.9330        55.8263         0.0646         7.3494         7.3494         6.1663         5.9721      4219.7197
    3613.40400      -0.006832       356.9830       131.7728        -0.0755         4.9372         4.9372        58.1726         0.0235         7.4388         7.4388         6.0964         5.9484      4214.0952
    3613.55640      -0.006880       356.9830       130.2398         0.1473         4.9058         4.9058        58.2200        -0.0630         7.4370         7.4370         6.0965         5.9481      4198.4878
    3613.70880      -0.006828       356.9830       115.8177         0.0559         4.8820         4.8820        55.5331        -0.0823         7.4445         7.4445         6.1918         6.0388      4179.0059
    3613.86120      -0.007063       356.9830       114.5510        -0.0189         4.8855         4.8855        48.0026         0.0254         7.4471         7.4471         6.2032         6.0510      4161.7310
    3614.01360      -0.007010       356.9830       114.5014         0.0324         4.8063         4.8063        39.4939        -0.0192         7.4615         7.4615         6.2042         6.0510      4091.0977
    3614.16600      -0.007090       356.9830       114.3899        -0.0088         4.9740         4.9740        31.5190         0.0569         7.4780         7.4780         6.2207         6.0510      4036.6782
    3614.31840      -0.006588       355.5720       114.4991         0.1488         4.9843         4.9843        27.3312        -0.0093         7.5067         7.5067         6.2188         6.0510      4337.2637
    3614.47080      -0.006802       355.5720       114.9108         0.0593         5.0895         5.0895        23.8011         0.0270         7.5377         7.5377         6.2186         6.0510      4236.0298
    3614.62320      -0.007032       355.5720       114.6174        -0.0923         4.9550         4.9550        23.0054         0.0223         7.5099         7.5099         6.2183         6.0510      4232.0459
    3614.77560      -0.006845       355.5720       116.0553         0.1108         4.8945         4.8945        21.1252         0.0263         7.5159         7.5159         6.2166         6.0509      4180.5273
    3614.92800      -0.006990       355.5720       116.2236         0.0582         4.9536         4.9536        19.0134         0.0575         7.4589         7.4589         6.2146         6.0510      4165.5884
