~Version Information Block
VERS .                 2.00:  CWLS LOG ASCII STANDARD - VERSION 2.00
WRAP .                  YES:  Multiple lines per depth step
~Well Information Block
#MNEM.UNIT        Data Type   Information
#---------- ----------------  -----------
STRT .M          3174.64440:  START DEPTH
STOP .M          3422.90400:  STOP DEPTH
STEP .M             0.15240:  STEP
NULL .              -999.25:  NULL VALUE
COMP .         StatoilHydro:  COMPANY
WELL .          NO_15/9-F-4:  WELL
FLD  .                VOLVE:  FIELD
LOC  .            North Sea:  LOCATION
CTRY .                     :  COUNTRY
STAT .                     :  STATE
CNTY .                     :  COUNTY
SRVC .         Schlumberger:  SERVICE COMPANY
DATE .          13-Sep-2012:  DATE
API  .                     :  API NUMBER
UWI  .             15/9-F-4:  UNIQUE WELL ID
~Curve Information Block
#MNEM.UNIT         API CODE   Curve Description
#---------- ----------------  -----------------
DEPTH.M                    :  DEPTH (BOREHOLE)
BSAL .PPM                  :  Borehole Salinity
CCLC .V                    :  CCL
CCLD .V                    :  CCL Discriminated Amplitude
CIRF .                     :  RST Capture to Inelastic Ratio Far
CIRN .                     :  RST Capture to Inelastic Ratio Near
CVEL .M/MIN                 :  Cable Velocity
DEVI .DEG                  :  Hole Deviation
DSIG .CU                   :  Sigma Difference
FBEF .UA                   :  RST Far Effective Beam Current
GR   .GAPI                 :  Gamma Ray
IRAT .                     :  RST Inelastic Ratio
RB_PCMS.DEG                  :  Relative Bearing
RSCF .                     :  RST Far Detector Effective Unregulated Capture Count Rate
RSCN .                     :  RST Near Detector Effective Unregulated Capture Count Rate
SFFA .CU                   :  RST Sigma Formation Far Apparent
SIBF .CU                   :  RST Sigma Borehole Fluid
SIGM .CU                   :  Formation Sigma (Neutron Capture Cross Section)
TPHI .V/V                  :  Thermal Decay Porosity
WPRE .PSI                  :  Well Pressure
WTEP .DEGC                 :  Well Temperature
~Parameter Information Block
#MNEM.UNIT            Value   Description
#---------- ----------------  -----------
APD  .M                  54:  Elevation of Depth Reference (LMF) above Permanent Datum
BHS  .                 CASE:  Borehole Status (Open or Cased Hole)
BS   .IN                8.5:  Bit Size
BSAL .PPM       34972.17188:  Borehole Salinity
BSALOPT.              UNKNOWN:  Borehole Salinity Option
CSID .IN              6.184:  Casing Inner Diameter
CSIZ .IN                  7:  Current Casing Size
CWEI .LB/F               29:  Casing Weight
MATR .                 SAND:  Rock Matrix for Neutron Porosity Corrections
RUN  .                    4:  RUN NUMBER
PROJECT.     SLEIPNER_OST@st-vlinapp01:  
SET  .       RSTD_0912_SIG1:  
~Other Information Block
~Ascii Log Data
# ...
    3305.40360 
    21281.7988         0.1703         0.0000         2.8996     0.86489999 
      -4.54410        54.4419        -2.0563        78.5226        14.6241 
    0.33880001       356.1708        12.9895        11.1913        13.5206 
       29.5198        11.3990     0.13609999      4948.8721        94.5450
    3305.55600 
    21359.5996         0.3059         0.0000         2.9485     0.84680003 
      -4.58970        54.1699        -1.9689        81.3494        13.7051 
    0.33739999       356.1674        12.5408        10.5180        13.7807 
       29.5471        11.4091     0.13560000      4949.0283        94.5304
    3305.70840 
    20978.5996        -0.0079         0.0000         2.8282     0.85839999 
      -4.58870        54.6322        -1.9961        80.7402        13.3618 
    0.33539999       356.1702        12.6319        11.2547        13.6748 
       29.4135        11.4111     0.13609999      4949.0747        94.5206
    3305.86080 
    20581.5000         0.0985         0.0000         2.9595     0.84340000 
      -4.58920        54.6797        -2.0965        78.2097        13.0127 
    0.33390000       356.3170        13.3037        10.9910        13.5537 
       29.2743        11.4358     0.13130000      4949.2334        94.4978
    3306.01320 
    21319.5996         0.0212         0.0000         3.0441     0.87459999 
      -4.55540        54.2125        -2.1181        80.3208        12.7857 
    0.33059999       356.1626        13.1416        11.3617        13.8693 
       29.5331        11.3829     0.12809999      4949.4399        94.4591
    3306.16560 
    21048.5000         0.0917         0.0000         3.1049     0.86659998 
      -4.56850        54.5163        -2.2660        80.8103        14.1587 
    0.33320001       356.0396        13.4368        11.1116        13.5561 
       29.4380        11.2102     0.12290000      4949.4922        94.4471
    3306.31800 
    21240.5000        -0.2036         0.0000         3.0086     0.86659998 
      -4.61680        54.7663        -2.2523        80.8356        15.6589 
    0.33939999       355.9362        13.2053        11.1646        13.0601 
       29.5053        11.0316     0.12400000      4949.6592        94.4391
    3306.47040 
    21183.7012         0.0495         0.0000         2.9702     0.86860001 
      -4.60160        54.4506        -2.3022        79.4273        16.3454 
    0.34130001       356.0283        13.4040        11.3033        13.3492 
       29.4854        10.9978     0.12809999      4949.8228        94.4417
    3306.62280 
    21270.3984        -0.0089         0.0000         2.9199     0.87019998 
      -4.61870        54.4481        -2.3790        76.4673        17.2035 
    0.33440000       356.0895        13.0916        11.1334        13.4586 
       29.5158        11.0864     0.13810000      4949.8789        94.4230
    3306.77520 
    21319.5996        -0.1249         0.0000         3.0207     0.85509998 
      -4.59980        54.7111        -2.3430        77.1022        17.0319 
    0.32740000       356.1533        13.6030        11.8223        13.3053 
       29.5331        11.2094     0.14430000      4950.0161        94.3843
    3306.92760 
    22102.5000        -0.0155         0.0000         2.9523     0.86640000 
      -4.56960        54.4733        -2.2833        80.0845        17.5882 
    0.32740000       356.2823        12.7534        11.3691        13.6681 
       29.8078        11.3135     0.14610000      4950.2446        94.3696
    3307.08000 
    22313.4004         0.0099         0.0000         2.9192     0.85699999 
      -4.57160        54.3895        -2.2908        80.4520        17.5051 
    0.33559999       356.3571        12.6788        10.8522        13.7456 
       29.8818        11.5314     0.14040001      4950.3467        94.3562
    3307.23240 
    22070.5000         0.0706         0.0000         2.9339     0.87230003 
      -4.58670        54.7783        -2.4865        81.8167        18.1058 
    0.34240001       356.3564        12.5296        10.7657        13.9411 
       29.7965        11.7769     0.13609999      4950.4390        94.3219
    3307.38480 
    21634.4004         0.0122         0.0000         2.8382     0.85949999 
      -4.63220        54.4673        -2.3823        76.6797        17.1619 
    0.34560001       356.3916        12.9946        11.2993        14.3969 
       29.6435        11.8629     0.13699999      4950.6245        94.3100
    3307.53720 
    21059.2012         0.0251         0.0000         2.8070     0.86460000 
      -4.57080        54.4638        -2.2686        74.0453        17.3335 
    0.34310001       356.3058        13.3748        11.5163        13.9884 
       29.4417        11.9206     0.14020000      4950.7476        94.2850
    3307.68960 
    20707.8984        -0.0923         0.0000         2.8264     0.85829997 
      -4.56860        54.7932        -2.2360        78.1216        17.8928 
    0.33829999       356.2681        12.7979        11.2421        14.0878 
       29.3186        11.7906     0.14590000      4950.8394        94.2532
    3307.84200 
    20512.0000        -0.2175         0.0000         2.9425     0.85670000 
      -4.57470        54.6278        -2.2279        83.7581        17.5910 
    0.33399999       356.2736        12.3741        11.1587        13.9425 
       29.2500        11.9798     0.14460000      4951.0132        94.2097
    3307.99440 
    20855.3008        -0.1650         0.0000         2.8231     0.86610001 
      -4.58000        54.4422        -2.1964        77.6785        16.9342 
    0.33649999       356.4240        12.7474        11.2088        14.4819 
       29.3703        12.1240     0.14290000      4951.1479        94.1997
    3308.14680 
    20886.8008         0.2120         0.0000         2.8485     0.85399997 
      -4.58630        54.7248        -2.2454        80.5490        18.6033 
    0.33849999       356.4441        12.1383        10.6302        14.4568 
       29.3813        12.2578     0.13970000      4951.2764        94.1862
    3308.29920 
    21132.6992         0.0085         0.0000         2.9054     0.85200000 
      -4.62820        54.7824        -2.1740        82.0574        19.3756 
    0.34009999       356.4335        12.2356        10.6926        14.2870 
       29.4675        12.5495     0.14360000      4951.3750        94.1633
    3308.45160 
    21267.0996         0.1248         0.0000         2.7370     0.85670000 
      -4.59720        54.5106        -2.0670        78.3696        19.3490 
    0.33480000       356.2960        12.4151        11.3596        15.3204 
       29.5146        12.9106     0.15170000      4951.5327        94.1192
    3308.60400 
    21114.4004        -0.0586         0.0000         2.6974     0.84570003 
      -4.59880        54.6449        -2.0393        79.6468        19.7337 
    0.33149999       356.2162        11.9057        10.9204        15.5054 
       29.4611        13.4223     0.16000000      4951.6914        94.1161
    3308.75640 
    21791.4004        -0.1643         0.0000         2.6950     0.81260002 
      -4.58430        54.8074        -2.0190        79.9616        20.9055 
    0.32969999       356.1684        11.5670        10.3492        15.7621 
       29.6986        13.9459     0.16159999      4951.7827        94.0932
    3308.90880 
    22350.7012        -0.1974         0.0000         2.5595     0.80320001 
      -4.57520        54.6651        -1.9358        79.1099        19.7512 
    0.33419999       356.0149        11.0160        10.4081        16.8177 
       29.8949        14.3315     0.15979999      4951.9688        94.0378
    3309.06120 
    22030.0000         0.0283         0.0000         2.4538     0.79519999 
      -4.57530        54.6434        -2.0393        77.3086        20.2661 
    0.33680001       356.0245        11.0134        10.4280        16.5823 
       29.7823        14.6764     0.15510000      4952.1313        93.9918
    3309.21360 
    22512.0000         0.1558         0.0000         2.5952     0.79579997 
      -4.57600        54.7627        -1.9871        81.7817        19.7778 
    0.33960000       356.0129        10.9347        10.0900        16.7134 
       29.9516        14.6968     0.15150000      4952.1802        93.9745
