#------------------------------------------------------------------------------
#
#   Created by   : las_export
#   Created on   : 2009-06-18 13:07:55
#   Project      : VOLVE
#   User         : TONYG
#   Interpreters : *
#
#------------------------------------------------------------------------------
~VERSION INFORMATION
VERS. 2.0 : CWLS Log ASCII Standard - version 2.0
WRAP.  NO : One line per depth step

~WELL INFORMATION
#MNEMONIC   .UNIT                                           VALUE :DESCRIPTION
#------------------------------------------------------------------------------
STRT        .M                                       2560.0412 :START DEPTH
STOP        .M                                       3222.0668 :STOP DEPTH
STEP        .M                                          0.1524 :STEP
NULL        .                                        -999.2500 :NULL VALUE
COMP        .                                                  :COMPANY
WELL        .                                      15/9-F-15 C :WELL
FLD         .                                            VOLVE :FIELD
LOC         .                                          UNKNOWN :LOCATION
CNTY        .                                          UNKNOWN :COUNTY
STAT        .                                          UNKNOWN :STATE
CTRY        .                                           Norway :COUNTRY
SRVC        .                                          UNKNOWN :SERVICE COMPANY
DATE        .                                          UNKNOWN :LOG DATE
UWI         .                                   NO 15/9-F-15 C :UNIQUE WELL ID
XCOORD      .M                                   435053.550000 :SURFACE X
YCOORD      .M                                  6478560.360000 :SURFACE Y
LAT         .                                        58.441585 :LATITUDE
LON         .                                         1.887541 :LONGITUDE
ELEV        .M                                         54.9000 :SURFACE ELEV
ELEV_TYPE   .                                               KB :ELEV TYPE

~CURVE INFORMATION
#MNEMONIC   .UNIT          API CODE       : CURVE DESCRIPTION
#------------------------------------------------------------------------------
DEPTH       .M                            : Measured Depth
DT          .us/ft         UNKNOWN        : DT:UNKNOWN:rC:NONE:v1
GR          .API           UNKNOWN        : GR:UNKNOWN:rC:NONE:v1
~A     DEPTH           DT           GR 
# ...
  2590.52120  -999.250000    94.775609 
  2590.67360  -999.250000    95.542424 
  2590.82600  -999.250000    96.960446 
  2590.97840  -999.250000    97.019736 
  2591.13080  -999.250000    98.501222 
  2591.28320  -999.250000    98.755849 
  2591.43560  -999.250000    98.346114 
  2591.58800  -999.250000    98.298826 
  2591.74040  -999.250000   102.172941 
  2591.89280  -999.250000   101.633800 
  2592.04520  -999.250000    99.547771 
  2592.19760  -999.250000    91.575093 
  2592.35000  -999.250000    83.321417 
  2592.50240  -999.250000    70.142979 
  2592.65480  -999.250000    59.155047 
  2592.80720  -999.250000    53.881638 
  2592.95960  -999.250000    58.316275 
  2593.11200  -999.250000    67.606992 
  2593.26440  -999.250000    82.365588 
  2593.41680  -999.250000    89.321728 
  2593.56920  -999.250000    92.147700 
  2593.72160  -999.250000    86.704456 
  2593.87400  -999.250000    87.176408 
  2594.02640  -999.250000    89.043351 
  2594.17880  -999.250000    91.248045 
  2594.33120  -999.250000    83.280122 
  2594.48360  -999.250000    71.930331 
  2594.63600  -999.250000    66.368544 
  2594.78840  -999.250000    72.488678 
  2594.94080  -999.250000    80.654846 
  2595.09320  -999.250000    86.407345 
  2595.24560  -999.250000    78.443096 
  2595.39800  -999.250000    73.397377 
  2595.55040  -999.250000    66.846749 
  2595.70280  -999.250000    68.094087 
  2595.85520  -999.250000    69.500609 
  2596.00760  -999.250000    73.076781 
  2596.16000  -999.250000    77.643883 
  2596.31240  -999.250000    77.824763 
  2596.46480  -999.250000    76.721788 
  2596.61720  -999.250000    76.238274 
  2596.76960  -999.250000    78.706712 
  2596.92200  -999.250000    82.623562 
  2597.07440  -999.250000    84.100960 
  2597.22680  -999.250000    83.941320 
  2597.37920  -999.250000    79.902226 
  2597.53160  -999.250000    73.114603 
  2597.68400  -999.250000    71.419879 
  2597.83640  -999.250000    71.049738 
  2597.98880  -999.250000    78.472200 
  2598.14120  -999.250000    81.856787 
  2598.29360  -999.250000    86.619383 
  2598.44600  -999.250000    89.524858 
  2598.59840  -999.250000    94.736027 
  2598.75080  -999.250000    99.141380 
  2598.90320  -999.250000   100.246855 
  2599.05560  -999.250000    93.724912 
  2599.20800  -999.250000    87.242589 
  2599.36040  -999.250000    85.528380 
  2599.51280  -999.250000    85.225899 
  2599.66520  -999.250000    84.670721 
  2599.81760  -999.250000    82.239721 
  2599.97000  -999.250000    83.705423 
  2600.12240  -999.250000    84.238051 
  2600.27480  -999.250000    82.421643 
  2600.42720  -999.250000    79.555822 
  2600.57960  -999.250000    79.929859 
  2600.73200  -999.250000    87.376762 
  2600.88440  -999.250000    98.591978 
  2601.03680  -999.250000   100.352716 
  2601.18920  -999.250000    99.841589 
  2601.34160  -999.250000    95.823981 
  2601.49400  -999.250000    93.846393 
  2601.64640  -999.250000    83.515607 
  2601.79880  -999.250000    72.178947 
  2601.95120  -999.250000    69.462151 
  2602.10360  -999.250000    74.624586 
  2602.25600  -999.250000    83.639411 
  2602.40840  -999.250000    86.421133 
  2602.56080  -999.250000    85.115846 
  2602.71320  -999.250000    74.500162 
  2602.86560  -999.250000    67.805405 
  2603.01800  -999.250000    65.042516 
  2603.17040  -999.250000    71.022781 
  2603.32280  -999.250000    75.225247 
  2603.47520  -999.250000    74.959984 
  2603.62760  -999.250000    75.121255 
  2603.78000  -999.250000    85.694531 
  2603.93240  -999.250000    95.801937 
  2604.08480  -999.250000   100.261422 
  2604.23720  -999.250000    97.801508 
  2604.38960  -999.250000    97.159697 
  2604.54200  -999.250000    99.209044 
  2604.69440  -999.250000    93.728946 
  2604.84680  -999.250000    97.686054 
  2604.99920  -999.250000   100.081532 
  2605.15160  -999.250000   100.519732 
  2605.30400  -999.250000    88.442855 
  2605.45640  -999.250000    70.100949 
  2605.60880  -999.250000    55.688404 
  2605.76120  -999.250000    46.759825 
  2605.91360  -999.250000    44.065337 
  2606.06600  -999.250000    45.177840 
  2606.21840  -999.250000    42.427126 
  2606.37080  -999.250000    40.389427 
  2606.52320  -999.250000    38.997382 
  2606.67560  -999.250000    39.901199 
  2606.82800  -999.250000    41.011773 
  2606.98040  -999.250000    41.709624 
  2607.13280  -999.250000    42.567715 
  2607.28520  -999.250000    43.118442 
  2607.43760  -999.250000    44.384294 
  2607.59000  -999.250000    45.255407 
  2607.74240  -999.250000    45.466155 
  2607.89480  -999.250000    45.698799 
  2608.04720  -999.250000    45.296772 
  2608.19960  -999.250000    43.069505 
  2608.35200  -999.250000    41.298196 
  2608.50440  -999.250000    39.565040 
  2608.65680  -999.250000    41.754825 
  2608.80920  -999.250000    42.043113 
  2608.96160  -999.250000    41.344923 
  2609.11400  -999.250000    41.786639 
  2609.26640  -999.250000    39.834529 
  2609.41880  -999.250000    38.457719 
  2609.57120  -999.250000    37.807572 
  2609.72360  -999.250000    38.662473 
  2609.87600  -999.250000    41.557983 
  2610.02840  -999.250000    40.834072 
  2610.18080  -999.250000    40.191612 
  2610.33320  -999.250000    39.105759 
  2610.48560  -999.250000    38.299360 
  2610.63800  -999.250000    39.422605 
  2610.79040  -999.250000    38.479270 
  2610.94280  -999.250000    40.608617 
  2611.09520  -999.250000    42.103050 
  2611.24760  -999.250000    43.287452 
  2611.40000  -999.250000    44.348307 
  2611.55240  -999.250000    43.611203 
  2611.70480  -999.250000    43.879636 
  2611.85720  -999.250000    42.426431 
  2612.00960  -999.250000    40.273148 
  2612.16200  -999.250000    38.662367 
  2612.31440  -999.250000    37.985354 
  2612.46680  -999.250000    39.634874 
  2612.61920  -999.250000    41.931912 
  2612.77160  -999.250000    42.971041 
  2612.92400  -999.250000    41.560636 
  2613.07640  -999.250000    41.251510 
  2613.22880  -999.250000    40.265269 
  2613.38120  -999.250000    40.853304 
  2613.53360  -999.250000    39.876479 
  2613.68600  -999.250000    41.986599 
  2613.83840  -999.250000    44.451828 
  2613.99080  -999.250000    46.277958 
  2614.14320  -999.250000    44.203058 
  2614.29560  -999.250000    43.755369 
  2614.44800  -999.250000    41.365405 
  2614.60040  -999.250000    42.160279 
  2614.75280  -999.250000    41.019585 
  2614.90520  -999.250000    43.992464 
  2615.05760  -999.250000    43.061798 
  2615.21000  -999.250000    42.664565 
  2615.36240  -999.250000    40.685544 
  2615.51480  -999.250000    40.582115 
  2615.66720  -999.250000    41.511808 
  2615.81960  -999.250000    43.025472 
  2615.97200  -999.250000    43.239060 
  2616.12440  -999.250000    43.016768 
  2616.27680  -999.250000    42.484226 
  2616.42920  -999.250000    42.695946 
  2616.58160  -999.250000    41.065549 
  2616.73400  -999.250000    39.196519 
  2616.88640  -999.250000    39.403292 
  2617.03880  -999.250000    39.306521 
  2617.19120  -999.250000    40.810939 
  2617.34360  -999.250000    39.673349 
  2617.49600  -999.250000    40.690493 
  2617.64840  -999.250000    39.239939 
  2617.80080  -999.250000    37.408365 
  2617.95320  -999.250000    35.482452 
  2618.10560  -999.250000    37.001868 
  2618.25800  -999.250000    40.088642 
  2618.41040  -999.250000    41.311434 
  2618.56280  -999.250000    41.815263 
  2618.71520  -999.250000    41.004501 
  2618.86760  -999.250000    39.764695 
  2619.02000  -999.250000    38.567810 
  2619.17240  -999.250000    38.802232 
  2619.32480  -999.250000    40.541965 
  2619.47720  -999.250000    39.659155 
  2619.62960  -999.250000    39.843946 
  2619.78200  -999.250000    39.912809 
  2619.93440  -999.250000    41.507833 
  2620.08680  -999.250000    42.121736 
  2620.23920  -999.250000    42.037534 
  2620.39160  -999.250000    42.187865 
  2620.54400  -999.250000    43.066767 
  2620.69640  -999.250000    42.308393 
  2620.84880  -999.250000    43.021561 
