~Version Information Block
VERS .                 2.00:  CWLS LOG ASCII STANDARD - VERSION 2.00
WRAP .                   NO:  One line per depth step
~Well Information Block
#MNEM.UNIT        Data Type   Information
#---------- ----------------  -----------
STRT .M          3445.61160:  START DEPTH
STOP .M          3638.55000:  STOP DEPTH
STEP .M             0.15240:  STEP
NULL .              -999.25:  NULL VALUE
COMP .              Statoil:  COMPANY
WELL .          NO_15/9-F-5:  WELL
FLD  .                VOLVE:  FIELD
LOC  .            North Sea:  LOCATION
CTRY .                     :  COUNTRY
STAT .                     :  STATE
CNTY .                     :  COUNTY
SRVC .         Schlumberger:  SERVICE COMPANY
DATE .          16-Sep-2012:  DATE
API  .                     :  API NUMBER
UWI  .             15/9-F-5:  UNIQUE WELL ID
~Curve Information Block
#MNEM.UNIT         API CODE   Curve Description
#---------- ----------------  -----------------
DEPTH.M                    :  DEPTH (BOREHOLE)
CCLC .V                    :  CCL
CCLD .V                    :  CCL Discriminated Amplitude
CRRA .                     :  Near-Far Count Rate Ratio
CS   .F/MN                 :  Cable Speed
CVEL .M/MIN                 :  Cable Velocity
DEVI .DEG                  :  Hole Deviation
FBEF .UA                   :  RST Far Effective Beam Current
FCOR .                     :  RST Far Carbon/Oxygen Ratio
FERD .                     :  RST Far IC Mode Capture Optimization Resolution Degradation Factor
FIRD .                     :  RST Far Inelastic Optimization Resolution Degradation Factor
GR   .GAPI                 :  Gamma Ray
NCOR .                     :  RST Near Carbon/Oxygen Ratio
NERD .                     :  RST Near IC Mode Capture Optimization Resolution Degradation Factor
NIRD .                     :  RST Near Inelastic Optimization Resolution Degradation Factor
RB_PCMS.DEG                  :  Relative Bearing
TENS .LBF                  :  Cable Tension
WPRE .PSI                  :  Well Pressure
WTEP .DEGC                 :  Well Temperature
~Parameter Information Block
#MNEM.UNIT            Value   Description
#---------- ----------------  -----------
APD  .M           54.900002:  Elevation of Depth Reference (LMF) above Permanent Datum
RUN  .                Run 1:  RUN NUMBER
PROJECT.     SLEIPNER_OST@st-vlinapp01:  
SET  .        RSTD_0912_IC2:  
~Other Information Block
# 
~A       DEPTH           CCLC           CCLD           CRRA             CS           CVEL           DEVI           FBEF           FCOR           FERD           FIRD             GR           NCOR           NERD           NIRD        RB_PCMS           TENS           WPRE           WTEP 
# ...
    3547.26240        -0.0027         0.0000         2.8453         1.4560      -0.442100        52.8088       110.0789    -0.10630000         5.3524         5.3524        44.6552     0.03240000         2.6296         2.6296         7.7541      2783.5776      5076.6274        88.9295
    3547.41480        -0.0024         0.0000         2.8537         1.4514      -0.440500        52.8233       110.4596    -0.06040000         5.2043         5.2043        44.8312    -0.00000000         2.6110         2.6110         7.8367      2798.2830      5076.7681        88.9038
    3547.56720        -0.0025         0.0000         2.8591         1.4554      -0.442400        52.8413       110.1831    -0.10360000         5.1355         5.1355        43.9045    -0.09990000         2.5939         2.5939         7.9141      2795.2710      5076.8823        88.8833
    3547.71960         0.0302         0.0000         2.8447         1.4419      -0.442300        52.8587       110.1147    -0.01010000         5.1946         5.1946        43.2188     0.01400000         2.5706         2.5706         7.8919      2790.2297      5076.9824        88.8678
    3547.87200        -0.0032         0.0000         2.8463         1.4413      -0.435500        52.8706       110.4908    -0.01700000         4.9711         4.9711        42.3631    -0.01800000         2.5732         2.5732         7.7967      2797.3779      5077.1343        88.8319
    3548.02440         0.0444         0.0000         2.8501         1.4242      -0.434500        52.8901       109.6670    -0.00920000         4.9827         4.9827        41.3546    -0.01830000         2.5168         2.5168         7.8246      2797.1797      5077.2617        88.8073
    3548.17680         0.0568         0.0000         2.8419         1.4104      -0.429600        52.8880       109.1513     0.00700000         5.0578         5.0578        40.7206     0.03490000         2.5137         2.5137         7.8083      2787.2695      5077.3857        88.7929
    3548.32920         0.0004         0.0000         2.8412         1.4131      -0.428200        52.9072       108.7801     0.03500000         5.0023         5.0023        40.1036    -0.02100000         2.5424         2.5424         7.7480      2787.4985      5077.5210        88.7637
    3548.48160        -0.0008         0.0000         2.8268         1.4101      -0.432900        52.9193       108.2983     0.10400000         5.0400         5.0400        40.5832    -0.02030000         2.5110         2.5110         7.7427      2773.7603      5077.6499        88.7408
    3548.63400        -0.0048         0.0000         2.8191         1.4101      -0.430900        52.9371       108.0872    -0.10690000         5.1374         5.1374        41.8961    -0.03350000         2.5527         2.5527         7.7964      2783.8396      5077.7764        88.7279
    3548.78640        -0.0057         0.0000         2.8177         1.4665      -0.444200        52.9543       108.4239    -0.01130000         5.0668         5.0668        43.2633    -0.01700000         2.5459         2.5459         7.7586      2787.1189      5077.9019        88.6821
    3548.93880        -0.0585         0.0000         2.8291         1.4226      -0.437200        52.9818       108.1787    -0.09190000         5.0793         5.0793        46.0900     0.00830000         2.6092         2.6092         7.4978      2782.8564      5078.0532        88.6803
    3549.09120        -0.0041         0.0000         2.8019         1.4511      -0.441400        52.9792       108.7461     0.05290000         5.0273         5.0273        48.1770     0.00330000         2.6211         2.6211         7.3474      2800.8877      5078.1475        88.6465
    3549.24360        -0.0037         0.0000         2.8271         1.4275      -0.437200        53.0001       108.9939    -0.04430000         5.0118         5.0118        48.5355    -0.01330000         2.6387         2.6387         7.2134      2791.7148      5078.3008        88.6197
    3549.39600        -0.0058         0.0000         2.8409         1.4409      -0.436800        53.0070       109.9436     0.20290001         4.9097         4.9097        48.3733    -0.02150000         2.6734         2.6734         7.2223      2799.7549      5078.4312        88.6000
    3549.54840        -0.0100         0.0000         2.8573         1.4334      -0.440500        53.0184       108.9186    -0.07640000         4.7531         4.7531        48.4681    -0.04730000         2.6598         2.6598         7.2176      2800.5032      5078.5508        88.5754
    3549.70080        -0.0113         0.0000         2.8302         1.4423      -0.438100        53.0422       110.2473    -0.01760000         4.8845         4.8845        46.7555    -0.05050000         2.6432         2.6432         7.2246      2783.7212      5078.6885        88.5396
    3549.85320        -0.0089         0.0000         2.8786         1.4324      -0.439400        53.0780       110.2542     0.02250000         4.8530         4.8530        45.6669    -0.04560000         2.6336         2.6336         7.2507      2781.3057      5078.8315        88.5279
    3550.00560        -0.0112         0.0000         2.9033         1.4659      -0.442800        53.1015       110.6748    -0.08360000         4.6940         4.6940        46.5026     0.00070000         2.6829         2.6829         7.2244      2778.0972      5078.9546        88.4928
    3550.15800         0.0911         0.0000         2.9044         1.4462      -0.441700        53.1366       111.3324    -0.05160000         4.6711         4.6711        47.1837     0.00850000         2.6935         2.6935         7.0768      2779.0742      5079.0942        88.4691
    3550.31040         0.1023         0.0000         2.9022         1.4291      -0.438800        53.1623       109.6163     0.08690000         4.6728         4.6728        46.5482    -0.05250000         2.6936         2.6936         7.1523      2781.2246      5079.2036        88.4538
    3550.46280        -0.0082         0.0000         2.8607         1.4072      -0.440900        53.1798       108.1285    -0.02550000         4.7077         4.7077        45.7000     0.03350000         2.6830         2.6830         7.2780      2785.5000      5079.3506        88.4269
    3550.61520        -0.0246         0.0000         2.8234         1.4715      -0.447500        53.1910       107.2673    -0.05180000         4.6378         4.6378        45.1910    -0.09490000         2.6802         2.6802         7.2852      2785.2866      5079.5083        88.4017
    3550.76760        -0.0733         0.0000         2.7967         1.4469      -0.446400        53.1963       106.2789    -0.03430000         4.7311         4.7311        43.4467     0.07930000         2.7009         2.7009         7.3613      2801.4006      5079.6357        88.3729
    3550.92000         0.0053         0.0000         2.7872         1.4616      -0.446500        53.1383       106.5799     0.02970000         4.7418         4.7418        43.9558     0.01150000         2.7103         2.7103         7.5021      2796.6350      5079.7588        88.3606
    3551.07240        -0.0102         0.0000         2.7906         1.4656      -0.446500        53.1039       107.2666    -0.13760000         4.8115         4.8115        45.6995    -0.06290000         2.6253         2.6253         7.5546      2795.6350      5079.8838        88.3245
    3551.22480        -0.0098         0.0000         2.7890         1.4419      -0.439800        53.1011       107.8258    -0.15730000         4.9182         4.9182        46.9788     0.03090000         2.6039         2.6039         7.4995      2798.5847      5080.0352        88.3002
    3551.37720        -0.0540         0.0000         2.8092         1.4419      -0.437900        53.1325       109.1203    -0.04570000         4.9798         4.9798        48.2689    -0.00990000         2.6273         2.6273         7.4729      2784.9329      5080.1553        88.2777
    3551.52960         0.0393         0.0000         2.8207         1.4656      -0.441800        53.1595       110.6206    -0.12130000         4.9512         4.9512        48.6488    -0.01990000         2.6779         2.6779         7.4190      2796.0032      5080.2812        88.2506
