~Version Information Block
VERS .                 2.00:  CWLS LOG ASCII STANDARD - VERSION 2.00
WRAP .                   NO:  One line per depth step
~Well Information Block
#MNEM.UNIT        Data Type   Information
#---------- ----------------  -----------
STRT .M          3445.61160:  START DEPTH
STOP .M          3638.55000:  STOP DEPTH
STEP .M             0.15240:  STEP
NULL .              -999.25:  NULL VALUE
COMP .              Statoil:  COMPANY
WELL .          NO_15/9-F-5:  WELL
FLD  .                VOLVE:  FIELD
LOC  .            North Sea:  LOCATION
CTRY .                     :  COUNTRY
STAT .                     :  STATE
CNTY .                     :  COUNTY
SRVC .         Schlumberger:  SERVICE COMPANY
DATE .          16-Sep-2012:  DATE
API  .                     :  API NUMBER
UWI  .             15/9-F-5:  UNIQUE WELL ID
~Curve Information Block
#MNEM.UNIT         API CODE   Curve Description
#---------- ----------------  -----------------
DEPTH.M                    :  DEPTH (BOREHOLE)
CCLC .V                    :  CCL
CCLD .V                    :  CCL Discriminated Amplitude
CRRA .                     :  Near-Far Count Rate Ratio
CS   .F/MN                 :  Cable Speed
CVEL .M/MIN                 :  Cable Velocity
DEVI .DEG                  :  Hole Deviation
FBEF .UA                   :  RST Far Effective Beam Current
FCOR .                     :  RST Far Carbon/Oxygen Ratio
FERD .                     :  RST Far IC Mode Capture Optimization Resolution Degradation Factor
FIRD .                     :  RST Far Inelastic Optimization Resolution Degradation Factor
GR   .GAPI                 :  Gamma Ray
NCOR .                     :  RST Near Carbon/Oxygen Ratio
NERD .                     :  RST Near IC Mode Capture Optimization Resolution Degradation Factor
NIRD .                     :  RST Near Inelastic Optimization Resolution Degradation Factor
RB_PCMS.DEG                  :  Relative Bearing
TENS .LBF                  :  Cable Tension
WPRE .PSI                  :  Well Pressure
WTEP .DEGC                 :  Well Temperature
~Parameter Information Block
#MNEM.UNIT            Value   Description
#---------- ----------------  -----------
APD  .M           54.900002:  Elevation of Depth Reference (LMF) above Permanent Datum
RUN  .                Run 1:  RUN NUMBER
PROJECT.     SLEIPNER_OST@st-vlinapp01:  
SET  .        RSTD_0912_IC2:  
~Other Information Block
# 
~A       DEPTH           CCLC           CCLD           CRRA             CS           CVEL           DEVI           FBEF           FCOR           FERD           FIRD             GR           NCOR           NERD           NIRD        RB_PCMS           TENS           WPRE           WTEP 
# ...
    3595.87800        -0.0083         0.0000         2.7687         1.2293      -0.373500        54.5292       104.4918     0.07330000         4.8994         4.8994        47.3230    -0.01090000         1.9803         1.9803         7.6412      2787.3025      5115.6260        78.2637
    3596.03040        -0.0068         0.0000         2.7651         1.2297      -0.372500        54.5241       105.2989     0.04000000         4.6235         4.6235        46.7854     0.01310000         1.9962         1.9962         7.6287      2783.2336      5115.7251        78.0664
    3596.18280        -0.0094         0.0000         2.7770         1.2257      -0.369200        54.5150       106.6661     0.00890000         4.7627         4.7627        47.0533     0.02280000         2.0270         2.0270         7.6429      2790.1699      5115.8940        77.9728
    3596.33520        -0.0086         0.0000         2.7973         1.2165      -0.370100        54.5105       107.5463    -0.06260000         4.8005         4.8005        47.9078     0.02840000         2.0258         2.0258         7.6586      2779.9058      5115.9795        77.8225
    3596.48760        -0.0078         0.0000         2.7952         1.1850      -0.366400        54.4891       107.9712     0.05720000         4.8046         4.8046        48.1296     0.00760000         2.0048         2.0048         7.6863      2797.8130      5116.1025        77.6894
    3596.64000        -0.0074         0.0000         2.8178         1.2005      -0.366300        54.4879       107.9714     0.03590000         4.7754         4.7754        48.2162     0.00920000         2.0026         2.0026         7.8039      2798.6702      5116.2256        77.5458
    3596.79240        -0.0079         0.0000         2.8158         1.2014      -0.377600        54.4896       107.4311     0.05230000         4.7285         4.7285        48.4626    -0.01610000         2.0600         2.0600         7.8448      2781.8701      5116.3506        77.4405
    3596.94480        -0.0097         0.0000         2.8121         1.2054      -0.367300        54.4651       106.8398     0.02070000         4.6340         4.6340        46.8834     0.03430000         1.9920         1.9920         7.6078      2777.6328      5116.4731        77.2519
    3597.09720        -0.0115         0.0000         2.8101         1.2093      -0.369200        54.4857       105.9051    -0.15430000         4.6445         4.6445        45.2016     0.09140000         2.0504         2.0504         7.5850      2770.4624      5116.6040        77.0689
    3597.24960        -0.0058         0.0000         2.8148         1.2057      -0.366700        54.5014       105.2598     0.06430000         4.5864         4.5864        44.7211    -0.02030000         1.9756         1.9756         7.4580      2777.9255      5116.7412        76.9139
    3597.40200        -0.0065         0.0000         2.8146         1.1936      -0.364500        54.5122       104.5180     0.07710000         4.5331         4.5331        43.5109    -0.00190000         2.0279         2.0279         7.3950      2788.1655      5116.8525        76.7993
    3597.55440        -0.0060         0.0000         2.8126         1.2057      -0.367400        54.5318       103.8825     0.10950000         4.4788         4.4788        42.1449     0.00650000         2.0872         2.0872         7.3767      2785.0374      5116.9731        76.6352
    3597.70680        -0.0058         0.0000         2.8302         1.1900      -0.363400        54.5397       103.0743     0.04770000         4.5351         4.5351        41.7876     0.09730000         2.0510         2.0510         7.3886      2789.0823      5117.1157        76.5424
    3597.85920        -0.0070         0.0000         2.8251         1.1932      -0.364200        54.5596       102.0100    -0.06680000         4.3834         4.3834        41.5115     0.00350000         2.0339         2.0339         7.3465      2787.0505      5117.2373        76.3469
    3598.01160        -0.0096         0.0000         2.7761         1.2087      -0.364700        54.5647       102.4269     0.02470000         4.3778         4.3778        40.4932     0.00460000         2.0540         2.0540         7.3157      2788.3936      5117.3618        76.1998
    3598.16400         0.1023         0.0000         2.7455         1.1857      -0.361400        54.5634       103.7934    -0.02370000         4.3288         4.3288        40.7362     0.04010000         2.0317         2.0317         7.3239      2797.1055      5117.4976        76.0765
    3598.31640        -0.0128         0.0000         2.7504         1.1900      -0.364900        54.5504       106.2939     0.07750000         4.2127         4.2127        40.6204     0.08750000         2.0692         2.0692         7.2538      2780.7820      5117.6191        75.9029
    3598.46880        -0.0079         0.0000         2.7831         1.2178      -0.371000        54.5330       108.7124     0.02540000         4.2042         4.2042        40.8169    -0.03130000         2.1251         2.1251         7.3043      2771.9919      5117.7710        75.6978
    3598.62120         0.0168         0.0000         2.8078         1.1824      -0.362800        54.5125       110.5000     0.00260000         4.1068         4.1068        40.5850     0.03060000         2.1101         2.1101         7.3342      2780.1619      5117.9009        75.5570
    3598.77360        -0.0051         0.0000         2.8478         1.2129      -0.366300        54.4892       111.0135    -0.00330000         4.0706         4.0706        40.3331    -0.03400000         2.0685         2.0685         7.3939      2774.5320      5118.0698        75.3077
    3598.92600        -0.0043         0.0000         2.8520         1.1867      -0.366100        54.4380       112.3533    -0.19970000         3.9226         3.9226        40.7696     0.02670000         2.1106         2.1106         7.4577      2779.1655      5118.2139        75.0784
    3599.07840         0.2407         0.0000         2.8802         1.1942      -0.365000        54.3991       111.8794     0.03070000         3.9606         3.9606        41.6265    -0.03790000         2.1110         2.1110         7.4519      2783.2192      5118.3696        74.9166
    3599.23080         0.0015         0.0000         2.8649         1.2100      -0.369000        54.3877       112.1566    -0.02040000         3.9881         3.9881        41.7425     0.00690000         2.0733         2.0733         7.4277      2782.1936      5118.5449        74.6859
    3599.38320        -0.0001         0.0000         2.8501         1.2169      -0.369500        54.3809       113.2836     0.02400000         3.9483         3.9483        42.2620     0.01540000         2.1355         2.1355         7.4439      2782.3369      5118.7061        74.4677
    3599.53560         0.0067         0.0067         2.8708         1.2172      -0.368300        54.3808       115.9189    -0.02570000         3.8927         3.8927        42.8025    -0.02600000         2.1141         2.1141         7.2374      2789.4011      5118.8804        74.2249
    3599.68800         0.0072         0.0072         2.9927         1.2100      -0.368000        54.3722       118.3645    -0.00770000         3.7942         3.7942        42.4767    -0.03470000         2.0553         2.0553         7.2904      2789.6453      5119.0542        74.0014
    3599.84040        -0.0187        -0.0187         3.1150         1.1932      -0.367600        54.3734       118.1792     0.00970000         3.8959         3.8959        42.2135     0.02440000         2.0261         2.0261         7.4080      2790.3064      5119.2349        73.7598
    3599.99280         0.1468         0.0000         3.0940         1.2215      -0.372700        54.3813       116.1952    -0.08360000         4.0208         4.0208        42.7008     0.04570000         2.0337         2.0337         7.4458      2771.8450      5119.4277        73.5139
    3600.14520        -0.0123         0.0000         2.9625         1.2257      -0.370200        54.3290       112.7176    -0.00690000         4.0147         4.0147        43.0338    -0.04910000         2.0455         2.0455         7.5551      2774.6335      5119.6128        73.2689
