~Version Information Block
VERS .                 2.00:  CWLS LOG ASCII STANDARD - VERSION 2.00
WRAP .                   NO:  One line per depth step
~Well Information Block
#MNEM.UNIT        Data Type   Information
#---------- ----------------  -----------
STRT .M          3470.91000:  START DEPTH
STOP .M          3530.04120:  STOP DEPTH
STEP .M             0.15240:  STEP
NULL .              -999.25:  NULL VALUE
COMP .              Statoil:  COMPANY
WELL .          NO_15/9-F-5:  WELL
FLD  .                Volve:  FIELD
LOC  .                Volve:  LOCATION
CTRY .               Norway:  COUNTRY
STAT .                     :  STATE
CNTY .                     :  COUNTY
SRVC .         Schlumberger:  SERVICE COMPANY
DATE .           11/03/2015:  DATE
API  .                     :  API NUMBER
UWI  .             15/9-F-5:  UNIQUE WELL ID
LATI .     58° 26' 29.66" N:  LATITUDE
LONG .      1° 53' 14.99" E:  LONGITUDE
~Curve Information Block
#MNEM.UNIT         API CODE   Curve Description
#---------- ----------------  -----------------
DEPTH.M                    :  Depth Index
CCLC .V                    :  (PSTP-B)                (1in)                   CCL Computed Amplitude
CVEL .M/SEC                 :  (WLWorkflow)            (1in)                   Cable Velocity
FBEF .UA                   :  (RST-D)                 (6in)                   Far Effective Beam Curre
FCOR .                     :  (RST-D)                 (6in)                   Far Carbon/Oxygen Ratio
FERD .                     :  (RST-D)                 (6in)                   Far IC Mode Capture Opti
FIRD .                     :  (RST-D)                 (6in)                   Far Inelastic Optimizati
GR   .GAPI                 :  (PSTP-B)                (6in)                   Gamma Ray
NCOR .                     :  (RST-D)                 (6in)                   Near Carbon/Oxygen Ratio
NERD .                     :  (RST-D)                 (6in)                   Near IC Mode Capture Opt
NIRD .                     :  (RST-D)                 (6in)                   Near Inelastic Optimizat
RB_PCMS.DEG                  :  (PCMS-A)                (6in)                   Relative Bearing
TENS .LBF                  :  (WLWorkflow)            (1in)                   Cable Tension
WPRE .BAR                  :  (PSTP-B)                (6in)                   Well Pressure
WTEP .DEGC                 :  (PSTP-B)                (6in)                   Well Temperature
~Parameter Information Block
#MNEM.UNIT            Value   Description
#---------- ----------------  -----------
APD  .M                  54:  Elevation of Depth Reference (LMF) Above Permanent Datum
CLAB .              Country:  :County Label
ECF  .M             -999.25:  Elevation of Casing Flange above Permanent Datum
EDF  .M                  54:  Elevation of Drill Floor Above Permanent Datum
EGL  .M                 -91:  Elevation of Ground Level Above Permanent Datum
EKB  .M             -999.25:  Elevation of Kelly Bushing Above Permanent Datum
EPD  .M                   0:  Elevation of Permanent Datum (PDAT) above Mean Sea Level
FL1  .            North Sea:  Field Location Line 1
FL2  .     Norwegian Sector:  Field Location Line 2
LMF  .                   DF:  Logging Measured From
LUL  .                 NOBO:  Logging Unit Location
LUN  .          ONCC-A 3837:  Logging Unit Number
PDAT .                  MSL:  Local Permanent Datum
RIGN .      Maersk Inspirer:  Rig Name
RIGTYP.               Jackup:  Rig Type
SON  .           C2TQ-00038:  Service Order Number
TAPE_NAME.     RST_IC_Pass3___03Nov15_234906.las:  
TOOL_STRING.              UNKNOWN:  
WN   .             15/9-F-5:  WELL NAME
PROJECT.     SLEIPNER_OST@st-vlinapp01:  
SET  .        RSTD_1115_IC3:  
~Other Information Block
# 
~A       DEPTH           CCLC           CVEL           FBEF           FCOR           FERD           FIRD             GR           NCOR           NERD           NIRD        RB_PCMS           TENS           WPRE           WTEP 
# ...
    3503.82840      -0.029330    -0.00886033       128.4219       0.050950         5.6834         5.6834       115.7680      -0.059430         4.1556         4.1556       353.2166      4154.5234       360.9043        83.1988
    3503.98080      -0.005340    -0.00919283       128.3777       0.148190         5.7655         5.7655       114.7117       0.023640         4.1910         4.1910       353.1090      4047.8335       360.9171        83.1856
    3504.13320       0.010870    -0.00916917       128.0541       0.310180         5.7485         5.7485       110.1316      -0.064870         4.1940         4.1940       352.8673      4057.8059       360.9254        83.1645
    3504.28560      -0.003930    -0.00933417       127.7795       0.129530         5.7484         5.7484       105.8717       0.094580         4.1716         4.1716       352.6940      4089.4253       360.9423        83.1505
    3504.43800       0.005710    -0.00941683       128.0923       0.006680         5.7877         5.7877       106.3589      -0.000110         4.1667         4.1667       352.4015      4017.5134       360.9520        83.1367
    3504.59040      -0.000220    -0.00936683       127.6529       0.054200         5.8438         5.8438       110.4452       0.070870         4.1896         4.1896       352.7709      4025.7751       360.9630        83.1272
    3504.74280      -0.004340    -0.00921550       132.2201       0.247400         5.8156         5.8156       112.0010       0.081210         4.2101         4.2101       352.7847      3897.2092       360.9746        83.1186
    3504.89520      -0.004300    -0.00909717       134.3748      -0.097760         5.8387         5.8387       113.8142       0.044710         4.2027         4.2027       352.7688      3829.2561       360.9807        83.1040
    3505.04760      -0.004830    -0.00892067       133.3774       0.071050         5.8993         5.8993       116.9485       0.110650         4.1807         4.1807       352.7909      3855.8579       360.9979        83.0952
    3505.20000      -0.003520    -0.00883633       128.0277       0.120300         5.8035         5.8035       117.6323      -0.042370         4.1302         4.1302       352.7976      3820.5740       361.0072        83.0843
    3505.35240      -0.022250    -0.00853900       127.5328       0.155420         5.7597         5.7597       111.3768       0.056800         4.0847         4.0847       352.8157      3891.9778       361.0210        83.0797
    3505.50480       0.015790    -0.00843100       127.4972      -0.078220         5.8397         5.8397       104.8442       0.154760         4.0684         4.0684       352.8195      3890.4243       361.0323        83.0613
    3505.65720      -0.002630    -0.00871317       127.8766       0.175820         5.9169         5.9169       102.1816       0.045350         4.0536         4.0536       352.8748      3911.3945       361.0430        83.0552
    3505.80960      -0.007830    -0.00895100       128.9431       0.010970         5.9643         5.9643       105.1079       0.040280         4.0610         4.0610       352.9314      3991.4287       361.0501        83.0458
    3505.96200      -0.003000    -0.00897917       128.3328       0.059750         5.8784         5.8784       108.5339      -0.011830         4.0816         4.0816       352.9804      4045.3965       361.0639        83.0375
    3506.11440      -0.007960    -0.00926217       127.0116       0.041300         5.9584         5.9584       115.5313       0.032770         4.0845         4.0845       352.8209      3934.3904       361.0743        83.0326
    3506.26680       0.015880    -0.00930317       128.2379       0.115120         6.0013         6.0013       122.0269       0.033040         4.1017         4.1017       352.7443      4044.4253       361.0868        82.9957
    3506.41920       0.015850    -0.00937450       128.2492       0.227350         5.9398         5.9398       126.5138       0.044330         4.1328         4.1328       352.8190      4024.8333       361.0975        82.9796
    3506.57160      -0.002610    -0.00921550       129.2561       0.019090         5.9748         5.9748       124.2166       0.029460         4.1136         4.1136       352.9715      4025.5818       361.1121        82.9751
    3506.72400      -0.001590    -0.00892083       128.9468      -0.002090         5.9575         5.9575       123.6475       0.091640         4.1422         4.1422       353.1150      4074.9993       361.1179        82.9522
    3506.87640      -0.001780    -0.00910217       128.9979       0.133760         5.9834         5.9834       121.1027       0.037320         4.1793         4.1793       353.1303      3938.4751       361.1334        82.9443
    3507.02880       0.031290    -0.00894950       129.0148       0.157940         5.8983         5.8983       117.7310       0.044480         4.1517         4.1517       352.9602      3865.7898       361.1432        82.9280
    3507.18120       0.045460    -0.00916267       130.2045       0.032210         5.7530         5.7530       116.6898       0.109280         4.1396         4.1396       352.8563      3898.3083       361.1536        82.9108
    3507.33360      -0.002840    -0.00883400       128.7606      -0.061690         5.7379         5.7379       113.9939      -0.046350         4.1908         4.1908       353.0751      3885.6675       361.1689        82.8866
    3507.48600      -0.002820    -0.00892017       130.1685       0.064430         5.7725         5.7725       110.0191       0.029260         4.1880         4.1880       353.1291      3855.4890       361.1794        82.8637
    3507.63840      -0.051990    -0.00886000       130.4668       0.191300         5.7569         5.7569       106.8592       0.051580         4.1921         4.1921       353.2083      3943.6907       361.1923        82.8434
    3507.79080      -0.004100    -0.00880183       130.6888       0.031260         5.6746         5.6746       104.3637       0.090300         4.2227         4.2227       353.2615      4015.0923       361.2005        82.8233
    3507.94320      -0.003420    -0.00895100       129.8000       0.025490         5.7853         5.7853       106.8177      -0.057980         4.2525         4.2525       353.1563      3995.6912       361.2120        82.8189
    3508.09560      -0.003650    -0.00904167       130.7949      -0.076110         5.6624         5.6624       106.0891       0.041480         4.2435         4.2435       353.1401      4027.4995       361.2189        82.7757
    3508.24800       0.000790    -0.00935517       131.3915       0.136510         5.6424         5.6424       105.9097       0.004420         4.2017         4.2017       353.1657      3978.7317       361.2376        82.7710
    3508.40040      -0.003490    -0.00924867       131.8309      -0.021640         5.5977         5.5977       110.0387       0.092620         4.2180         4.2180       353.1142      4005.5132       361.2462        82.7467
    3508.55280      -0.008690    -0.00918583       132.7093       0.013970         5.6476         5.6476       113.0703       0.118890         4.1903         4.1903       353.0756      3930.5125       361.2572        82.7296
    3508.70520      -0.003460    -0.00903817       132.6262       0.128550         5.5117         5.5117       110.6756      -0.003700         4.1900         4.1900       353.1764      3982.3264       361.2707        82.7190
    3508.85760       0.001080    -0.00903783       133.0539       0.005710         5.4767         5.4767       111.4776       0.007090         4.1428         4.1428       353.1047      4014.3953       361.2792        82.7043
    3509.01000      -0.003870    -0.00919283       133.2630       0.137590         5.5533         5.5533       112.3282      -0.043120         4.1688         4.1688       352.9496      3880.8564       361.2928        82.6988
    3509.16240       0.015680    -0.00895100       132.6763      -0.008540         5.5291         5.5291       110.7074       0.066320         4.2050         4.2050       352.8765      3951.4038       361.3014        82.6601
