~Version Information Block
VERS .                 2.00:  CWLS LOG ASCII STANDARD - VERSION 2.00
WRAP .                   NO:  One line per depth step
~Well Information Block
#MNEM.UNIT        Data Type   Information
#---------- ----------------  -----------
STRT .M          3461.15640:  START DEPTH
STOP .M          3535.07040:  STOP DEPTH
STEP .M             0.15240:  STEP
NULL .              -999.25:  NULL VALUE
COMP .              Statoil:  COMPANY
WELL .          NO_15/9-F-5:  WELL
FLD  .                Volve:  FIELD
LOC  .                Volve:  LOCATION
CTRY .               Norway:  COUNTRY
STAT .                     :  STATE
CNTY .                     :  COUNTY
SRVC .         Schlumberger:  SERVICE COMPANY
DATE .          03-Nov-2015:  DATE
API  .                     :  API NUMBER
UWI  .             15/9-F-5:  UNIQUE WELL ID
LATI .     58° 26' 29.66" N:  LATITUDE
LONG .      1° 53' 14.99" E:  LONGITUDE
~Curve Information Block
#MNEM.UNIT         API CODE   Curve Description
#---------- ----------------  -----------------
DEPTH.M                    :  DEPTH (BOREHOLE)
CRRA .                     :  Near/Far Count Rate Ratio
CVEL .M/SEC                 :  Cable Velocity
FBEF .UA                   :  Far Effective Beam Current
FCOR .                     :  Far Carbon/Oxygen Ratio
FIRD .                     :  Far Inelastic Optimization Resolution Degradation Factor
NCOR .                     :  Near Carbon/Oxygen Ratio
NIRD .                     :  Near Inelastic Optimization Resolution Degradation Factor
RB_PCMS.DEG                  :  Relative Bearing
WPRE .BAR                  :  Well Pressure
WTEP .DEGC                 :  Well Temperature
~Parameter Information Block
#MNEM.UNIT            Value   Description
#---------- ----------------  -----------
APD  .M                  54:  Elevation of Depth Reference (LMF) above Permanent Datum
EPD  .C3                  0:  Elevation of Permanent Datum above Mean Sea Level
LMF  .                   DF:  Logging Measured From (Name of Logging Elevation Reference)
PDAT .                  MSL:  Permanent Datum
RUN  .                Run 1:  RUN NUMBER
TAPE_NAME.     ConCu_R02_L004Up_RST_PCMS_PSTP.las:  
TOOL_STRING.              UNKNOWN:  
WN   .             15/9-F-5:  WELL
PROJECT.     SLEIPNER_OST@st-vlinapp01:  
SET  .        RSTD_1115_IC1:  
~Other Information Block
# 
~A       DEPTH           CRRA           CVEL           FBEF           FCOR           FIRD           NCOR           NIRD        RB_PCMS           WPRE           WTEP 
# ...
    3491.02680         2.9992     -0.0091767       135.9825     0.09740000         5.3174     0.02410000         4.3922       353.4627       361.3665        83.6482
    3491.17920         2.9803     -0.0091567       135.8559     0.09110000         5.4586    -0.01150000         4.4489       353.4130       361.3765        83.6443
    3491.33160         2.9625     -0.0091667       136.2329     0.20190001         5.4251     0.01510000         4.4331       353.4501       361.3867        83.6277
    3491.48400         2.9752     -0.0092150       134.3360     0.13060001         5.4526     0.03350000         4.4120       353.4860       361.4008        83.6169
    3491.63640         2.9468     -0.0092433       135.2895     0.10200000         5.4922    -0.02070000         4.4306       353.5560       361.4114        83.6019
    3491.78880         2.9415     -0.0092283       134.8804    -0.02730000         5.4441     0.09170000         4.4128       353.6781       361.4238        83.5956
    3491.94120         2.9228     -0.0092000       133.9341    -0.04290000         5.3775    -0.07560000         4.3869       353.7229       361.4324        83.5829
    3492.09360         2.9170     -0.0092067       133.4045    -0.05270000         5.4150     0.00370000         4.4051       353.8279       361.4456        83.5772
    3492.24600         2.9010     -0.0092017       134.0796     0.07930000         5.4235     0.01560000         4.3699       353.7841       361.4567        83.5614
    3492.39840         2.9189     -0.0091900       134.0871    -0.00460000         5.4327     0.02890000         4.3560       353.7414       361.4685        83.5514
    3492.55080         2.9278     -0.0091917       135.0387     0.18279999         5.5181     0.04560000         4.3651       353.6541       361.4811        83.5416
    3492.70320         2.9500     -0.0090800       136.1514     0.01550000         5.6048     0.03410000         4.3552       353.6674       361.4910        83.5166
    3492.85560         2.9831     -0.0091900       141.8826     0.00620000         5.6285    -0.00240000         4.3719       353.6568       361.5038        83.5050
    3493.00800         3.1987     -0.0091450       146.6339     0.05060000         5.7379     0.11280000         4.3530       353.6988       361.5137        83.4896
    3493.16040         3.2984     -0.0092033       148.7646    -0.13249999         5.7454    -0.02240000         4.3311       353.6965       361.5245        83.4732
    3493.31280         3.2742     -0.0090750       142.9962    -0.00430000         5.6535     0.07660000         4.3110       353.7124       361.5394        83.4574
    3493.46520         3.1675     -0.0090633       138.6640     0.07110000         5.7770     0.00950000         4.3006       353.7574       361.5504        83.4520
    3493.61760         3.0622     -0.0091300       137.6434    -0.03030000         5.6548    -0.02920000         4.3046       353.7217       361.5615        83.4456
    3493.77000         3.0371     -0.0091950       138.3799    -0.05390000         5.5683     0.04280000         4.2773       353.7939       361.5702        83.4245
    3493.92240         3.0630     -0.0090833       139.4137    -0.09930000         5.4972     0.01100000         4.3102       353.9459       361.5848        83.4257
    3494.07480         3.0528     -0.0091350       139.0523    -0.12180000         5.5686     0.00100000         4.3181       353.9446       361.5945        83.4169
    3494.22720         3.0901     -0.0090350       135.8337    -0.03490000         5.6247     0.02810000         4.2787       353.8564       361.6059        83.4010
    3494.37960         3.0594     -0.0090517       131.3112     0.18560000         5.6010     0.13060001         4.2763       353.8469       361.6173        83.3810
    3494.53200         2.9716     -0.0091300       128.2896    -0.03020000         5.6999     0.07620000         4.2960       353.7860       361.6307        83.3725
    3494.68440         2.8981     -0.0090467       127.1060    -0.04030000         5.6826     0.04050000         4.2719       353.8180       361.6374        83.3610
    3494.83680         2.8941     -0.0089400       125.2880     0.12950000         5.5095     0.03800000         4.2710       353.8040       361.6534        83.3415
    3494.98920         2.8550     -0.0089600       125.4790    -0.07470000         5.5039     0.08790000         4.1809       353.9767       361.6646        83.3380
    3495.14160         2.8534     -0.0089900       125.0673     0.09750000         5.6975     0.02660000         4.1835       353.9870       361.6719        83.3054
    3495.29400         2.8505     -0.0090167       125.8598    -0.00630000         5.5700     0.08870000         4.2229       353.8947       361.6895        83.2940
    3495.44640         2.8567     -0.0089900       126.4707     0.14720000         5.7449    -0.01570000         4.2443       354.0472       361.6992        83.2887
    3495.59880         2.8758     -0.0089617       126.6501     0.15150000         5.6625    -0.00020000         4.2236       354.0488       361.7105        83.2850
    3495.75120         2.8778     -0.0090717       127.4539     0.06420000         5.6179     0.03050000         4.2476       353.9089       361.7205        83.2751
    3495.90360         2.8958     -0.0090300       128.7310     0.08340000         5.6298     0.02560000         4.2485       354.1800       361.7307        83.2542
    3496.05600         2.9212     -0.0089700       128.9131     0.00730000         5.5386     0.04700000         4.2688       354.2629       361.7434        83.2472
    3496.20840         2.9146     -0.0090150       127.4118    -0.04970000         5.5966    -0.00620000         4.2490       354.3572       361.7563        83.2408
    3496.36080         2.8913     -0.0089150       126.7323    -0.24050000         5.6173     0.01470000         4.2437       354.5120       361.7656        83.2260
    3496.51320         2.8658     -0.0089700       125.0468     0.05240000         5.6160     0.03790000         4.2236       354.3557       361.7807        83.2168
    3496.66560         2.8373     -0.0089350       124.4699     0.01770000         5.6387     0.07130000         4.2554       354.3972       361.7913        83.2073
    3496.81800         2.8351     -0.0089500       123.5129     0.05700000         5.6265    -0.08970000         4.2445       354.4431       361.8032        83.1973
    3496.97040         2.8115     -0.0089700       123.5557     0.14200000         5.8096    -0.02700000         4.2164       354.3089       361.8132        83.1863
    3497.12280         2.8140     -0.0089500       123.6756     0.08270000         5.6866     0.02280000         4.2097       353.7592       361.8246        83.1754
    3497.27520         2.8108     -0.0088517       123.8412    -0.08920000         5.5856     0.10430000         4.1800       353.6761       361.8371        83.1703
    3497.42760         2.8117     -0.0089550       123.7673    -0.02270000         5.5007    -0.01330000         4.1520       353.5882       361.8476        83.1586
    3497.58000         2.8167     -0.0090950       124.8684     0.10510000         5.4878     0.05390000         4.1465       353.6458       361.8600        83.1499
    3497.73240         2.8271     -0.0089700       124.1034     0.13620000         5.3236     0.04130000         4.1864       353.6673       361.8711        83.1443
    3497.88480         2.8186     -0.0089200       125.1419     0.13090000         5.3269    -0.01350000         4.1519       353.7243       361.8830        83.1371
    3498.03720         2.8300     -0.0089467       125.7576    -0.12830000         5.0656     0.02230000         4.1909       353.9700       361.8950        83.1294
    3498.18960         2.8624     -0.0090100       127.9539    -0.11680000         5.0719     0.03750000         4.1697       353.9769       361.9040        83.1213
    3498.34200         2.8724     -0.0090000       130.9827    -0.13810000         5.1522     0.01510000         4.1195       353.9703       361.9186        83.1177
