~Version Information Block
VERS .                 2.00:  CWLS LOG ASCII STANDARD - VERSION 2.00
WRAP .                  YES:  Multiple lines per depth step
~Well Information Block
#MNEM.UNIT        Data Type   Information
#---------- ----------------  -----------
STRT .M          3438.44880:  START DEPTH
STOP .M          3636.26400:  STOP DEPTH
STEP .M             0.15240:  STEP
NULL .              -999.25:  NULL VALUE
COMP .              Statoil:  COMPANY
WELL .          NO_15/9-F-5:  WELL
FLD  .                Volve:  FIELD
LOC  .                Volve:  LOCATION
CTRY .               Norway:  COUNTRY
STAT .                     :  STATE
CNTY .                     :  COUNTY
SRVC .         Schlumberger:  SERVICE COMPANY
DATE .           11/03/2015:  DATE
API  .                     :  API NUMBER
UWI  .             15/9-F-5:  UNIQUE WELL ID
LATI .     58° 26' 29.66" N:  LATITUDE
LONG .      1° 53' 14.99" E:  LONGITUDE
~Curve Information Block
#MNEM.UNIT         API CODE   Curve Description
#---------- ----------------  -----------------
DEPTH.M                    :  Depth Index
BSAL .PPM                  :  (RST-D)                 (6in)                   Borehole Salinity
CCLC .V                    :  (PSTP-B)                (1in)                   CCL Computed Amplitude
CIRF .                     :  (RST-D)                 (6in)                   Capture to Inelastic Rat
CIRN .                     :  (RST-D)                 (6in)                   Capture to Inelastic Rat
CVEL .M/SEC                 :  (WLWorkflow)            (1in)                   Cable Velocity
DSIG .CU                   :  (RST-D)                 (6in)                   Sigma Difference
FBEF .UA                   :  (RST-D)                 (6in)                   Far Effective Beam Curre
GR   .GAPI                 :  (PSTP-B)                (6in)                   Gamma Ray
IRAT .                     :  (RST-D)                 (6in)                   Inelastic Ratio
RB_PCMS.DEG                  :  (PCMS-A)                (6in)                   Relative Bearing
RSCF .                     :  (RST-D)                 (6in)                   Far Detector Effective U
RSCN .                     :  (RST-D)                 (6in)                   Near Detector Effective
SFFA .CU                   :  (RST-D)                 (6in)                   Sigma Formation Far Appa
SIBF .CU                   :  (RST-D)                 (6in)                   Sigma Borehole Fluid
SIGM .CU                   :  (RST-D)                 (6in)                   Formation Sigma (Neutron
TENS .LBF                  :  (WLWorkflow)            (1in)                   Cable Tension
TPHI .V/V                  :  (RST-D)                 (6in)                   Thermal Decay Porosity
WPRE .BAR                  :  (PSTP-B)                (6in)                   Well Pressure
WTEP .DEGC                 :  (PSTP-B)                (6in)                   Well Temperature
~Parameter Information Block
#MNEM.UNIT            Value   Description
#---------- ----------------  -----------
APD  .M                  54:  Elevation of Depth Reference (LMF) Above Permanent Datum
CLAB .              Country:  :County Label
ECF  .M             -999.25:  Elevation of Casing Flange above Permanent Datum
EDF  .M                  54:  Elevation of Drill Floor Above Permanent Datum
EGL  .M                 -91:  Elevation of Ground Level Above Permanent Datum
EKB  .M             -999.25:  Elevation of Kelly Bushing Above Permanent Datum
EPD  .M                   0:  Elevation of Permanent Datum (PDAT) above Mean Sea Level
FL1  .            North Sea:  Field Location Line 1
FL2  .     Norwegian Sector:  Field Location Line 2
LMF  .                   DF:  Logging Measured From
LUL  .                 NOBO:  Logging Unit Location
LUN  .          ONCC-A 3837:  Logging Unit Number
PDAT .                  MSL:  Local Permanent Datum
RIGN .      Maersk Inspirer:  Rig Name
RIGTYP.               Jackup:  Rig Type
SON  .           C2TQ-00038:  Service Order Number
TAPE_NAME.     RST_SIGMA__03Nov15_171237.las:  
TOOL_STRING.              UNKNOWN:  
WN   .             15/9-F-5:  WELL NAME
PROJECT.     SLEIPNER_OST@st-vlinapp01:  
SET  .       RSTD_1115_SIG1:  
~Other Information Block
~Ascii Log Data
# ...
    3516.63000 
    42490.3477         0.1942         1.7502       0.500390     -0.0756995 
        4.8092       113.7243        35.1791       0.298480       353.2401 
        5.6980         5.6805        22.1717        37.0557        20.0139 
     3972.4009       0.211110       363.4480        81.6892
    3516.78240 
    42297.7969         0.2072         1.6023       0.513770     -0.0764578 
        4.1124       108.0526        31.8947       0.303360       353.8706 
        5.4019         5.6619        22.5517        36.9864        19.7532 
     3973.7993       0.222480       363.4647        81.6745
    3516.93480 
    41877.6523        -0.0624         1.8826       0.636900     -0.0762000 
        3.4233       108.2828        29.7997       0.317230       353.9694 
        6.1555         6.4388        20.2758        36.8353        18.4184 
     3952.3997       0.227140       363.4762        81.6561
    3517.08720 
    41605.9492         0.0006         2.1377       0.701230     -0.0772238 
        2.7567       105.8486        27.2876       0.324630       354.0168 
        7.1252         7.0811        18.0363        36.7376        17.2476 
     4023.8013       0.224130       363.4800        81.6453
    3517.23960 
    41144.2305        -0.0575         2.2327       0.698570     -0.0764540 
        2.0409       105.5579        27.5450       0.321750       354.1463 
        7.3596         6.7569        18.9441        36.5717        16.7122 
     4043.4001       0.220850       363.4949        81.6371
    3517.39200 
    40667.6914         0.0137         2.1805       0.695640     -0.0762048 
        1.4864       104.7859        27.7225       0.321400       354.0898 
        7.3205         7.0548        18.5743        36.4005        16.8918 
     4036.7502       0.221570       363.5011        81.6324
    3517.54440 
    40046.2305        -0.0248         2.1158       0.691540     -0.0762000 
        1.0165       110.4913        28.0776       0.316040       353.6975 
        6.7458         7.0551        18.4776        36.1774        16.6325 
     4005.8323       0.222620       363.5105        81.6167
    3517.69680 
    39722.1914         0.0349         2.1658       0.666980     -0.0759498 
        0.7670       109.0331        26.0004       0.313560       353.5868 
        7.0244         6.7706        18.0967        36.0611        16.2623 
     3953.4001       0.218150       363.5254        81.5941
    3517.84920 
    39407.6797         0.0734         2.2649       0.682270     -0.0769697 
        0.6908       108.9090        27.1544       0.312620       353.5271 
        7.5050         7.1133        17.4515        35.9483        15.2535 
     3994.2007       0.210050       363.5321        81.5848
    3518.00160 
    38639.1094         0.0464         2.5206       0.749650     -0.0754380 
        0.6215       107.7734        26.0981       0.316300       353.5553 
        8.2433         7.4722        15.4662        35.6728        14.3339 
     3995.8013       0.198440       363.5390        81.5745
    3518.15400 
    37782.5508        -0.0003         2.6033       0.768100     -0.0759650 
        0.5819       106.0585        24.0830       0.320050       353.4227 
        8.5158         7.6171        15.3647        35.3661        13.5803 
     3913.8000       0.192050       363.5520        81.5674
    3518.30640 
    37225.6094        -0.0315         2.7236       0.786460     -0.0751728 
        0.5961       105.8697        23.1953       0.319150       353.2902 
        8.8226         7.6513        15.2249        35.1669        13.3216 
     3951.3994       0.188990       363.5649        81.5661
    3518.45880 
    36573.9766        -0.0004         2.7407       0.807170     -0.0756958 
        0.4656       108.1632        22.3550       0.315750       353.4445 
        8.8830         8.0844        14.7195        34.9339        13.2183 
     3966.0007       0.191080       363.5700        81.5509
    3518.61120 
    35626.9297         0.0191         2.7976       0.823170     -0.0764617 
        0.2935       113.0931        19.8517       0.313610       353.8779 
        8.6998         8.2569        15.0762        34.5957        12.9015 
     3987.6003       0.197360       363.5841        81.5441
    3518.76360 
    35277.9492         0.0473         2.8622       0.827840     -0.0754380 
       -0.0315       110.2030        19.0877       0.314870       354.0283 
        8.9860         7.9862        14.2952        34.4711        12.9290 
     3990.1992       0.201270       363.5916        81.5362
    3518.91600 
    34436.3594        -0.0001         2.7294       0.840340     -0.0764180 
       -0.1743       112.5179        17.8005       0.319640       354.0003 
        8.4800         8.3519        14.8163        34.1710        12.8011 
     3950.8328       0.206880       363.5961        81.5269
    3519.06840 
    34548.2773        -0.0557         2.6802       0.845100     -0.0759978 
       -0.3598       103.9333        16.4690       0.320360       353.9711 
        8.9509         8.4967        14.7059        34.2109        12.7682 
     3970.6677       0.208970       363.6136        81.5139
    3519.22080 
    34531.0508        -0.0846         2.8322       0.837290     -0.0756882 
       -0.4814       109.3429        15.0102       0.316580       354.0593 
        9.1854         8.4279        14.2079        34.2048        12.6187 
     4040.4011       0.210480       363.6216        81.5104
    3519.37320 
    33785.5977         0.1330         2.7820       0.823530     -0.0772198 
       -0.6618       110.0891        15.3534       0.313850       353.9442 
        9.0886         8.5162        14.3767        33.9391        12.6628 
     3984.3992       0.212390       363.6289        81.5046
    3519.52560 
    34026.0820         0.0836         2.7413       0.841240     -0.0777875 
       -0.6771       110.8901        14.4309       0.313340       353.8182 
        8.6898         8.2484        14.8459        34.0248        12.8098 
     3951.2510       0.215200       363.6397        81.4976
    3519.67800 
    33655.9922         0.0220         2.7389       0.840760     -0.0787518 
       -0.7641       111.9604        14.1823       0.316050       353.7717 
        8.3980         8.1506        14.6552        33.8930        12.9135 
     3962.5994       0.220000       363.6486        81.4930
    3519.83040 
    32945.9688         0.0620         2.6596       0.830390     -0.0777202 
       -0.6589       107.0753        14.5137       0.314440       353.8481 
        8.6671         8.4612        14.6886        33.6403        13.0220 
     3952.5999       0.221280       363.6585        81.4858
    3519.98280 
    32898.8008         0.0237         2.7467       0.851570     -0.0787440 
       -0.6097       110.7512        16.3690       0.313320       353.8810 
        8.6910         8.5574        15.1685        33.6235        13.1590 
     3990.9995       0.221050       363.6676        81.4694
    3520.13520 
    32548.7520        -0.0034         2.7378       0.828060     -0.0787478 
       -0.6526       109.8669        16.1116       0.311070       353.8648 
        8.9332         8.5342        15.0643        33.4990        13.1598 
     3946.5996       0.219680       363.6758        81.4597
    3520.28760 
    32169.1895        -0.0135         2.7409       0.835900     -0.0774738 
       -0.6058       111.6153        17.8248       0.311880       353.9483 
        8.8670         8.5887        14.6896        33.3640        13.0878 
     3967.4014       0.218020       363.6878        81.4575
    3520.44000 
    31814.6094         0.0204         2.7001       0.831610     -0.0785315 
       -0.4921       110.2474        18.5024       0.314220       354.0381 
        8.4865         8.0922        14.9508        33.2380        13.0665 
     3964.8340       0.212850       363.6946        81.4476
    3520.59240 
    31257.5488        -0.0161         2.7462       0.837410     -0.0782360 
       -0.4688       110.9438        19.9464       0.317950       354.1417 
        8.3501         7.9780        15.0068        33.0401        13.0341 
     3957.3994       0.206430       363.7077        81.4419
