#------------------------------------------------------------------------------
#
#   Created by   : las_export
#   Created on   : 2009-06-18 13:07:55
#   Project      : VOLVE
#   User         : TONYG
#   Interpreters : *
#
#------------------------------------------------------------------------------
~VERSION INFORMATION
VERS. 2.0 : CWLS Log ASCII Standard - version 2.0
WRAP.  NO : One line per depth step

~WELL INFORMATION
#MNEMONIC   .UNIT                                           VALUE :DESCRIPTION
#------------------------------------------------------------------------------
STRT        .M                                       2560.0412 :START DEPTH
STOP        .M                                       3222.0668 :STOP DEPTH
STEP        .M                                          0.1524 :STEP
NULL        .                                        -999.2500 :NULL VALUE
COMP        .                                                  :COMPANY
WELL        .                                      15/9-F-15 C :WELL
FLD         .                                            VOLVE :FIELD
LOC         .                                          UNKNOWN :LOCATION
CNTY        .                                          UNKNOWN :COUNTY
STAT        .                                          UNKNOWN :STATE
CTRY        .                                           Norway :COUNTRY
SRVC        .                                          UNKNOWN :SERVICE COMPANY
DATE        .                                          UNKNOWN :LOG DATE
UWI         .                                   NO 15/9-F-15 C :UNIQUE WELL ID
XCOORD      .M                                   435053.550000 :SURFACE X
YCOORD      .M                                  6478560.360000 :SURFACE Y
LAT         .                                        58.441585 :LATITUDE
LON         .                                         1.887541 :LONGITUDE
ELEV        .M                                         54.9000 :SURFACE ELEV
ELEV_TYPE   .                                               KB :ELEV TYPE

~CURVE INFORMATION
#MNEMONIC   .UNIT          API CODE       : CURVE DESCRIPTION
#------------------------------------------------------------------------------
DEPTH       .M                            : Measured Depth
DT          .us/ft         UNKNOWN        : DT:UNKNOWN:rC:NONE:v1
GR          .API           UNKNOWN        : GR:UNKNOWN:rC:NONE:v1
~A     DEPTH           DT           GR 
# ...
  2956.28120    74.091919    31.515989 
  2956.43360    72.162788    44.497454 
  2956.58600    69.688400    54.904851 
  2956.73840    67.903954    54.564991 
  2956.89080    66.453796    43.297734 
  2957.04320    64.769737    30.066639 
  2957.19560    64.318733    22.009716 
  2957.34800    64.701233    18.120503 
  2957.50040    65.143532    15.640093 
  2957.65280    65.069923    15.932456 
  2957.80520    64.900879    15.573014 
  2957.95760    64.276154    15.219459 
  2958.11000    65.389816    13.566858 
  2958.26240    66.773727    12.276779 
  2958.41480    64.593178    11.933912 
  2958.56720    61.682629    13.272194 
  2958.71960    61.265099    15.779395 
  2958.87200    62.831470    17.536338 
  2959.02440    63.392921    16.952825 
  2959.17680    62.874119    14.517446 
  2959.32920    62.171539    13.409489 
  2959.48160    61.954861    12.874729 
  2959.63400    62.310440    12.109397 
  2959.78640    64.184250     9.328225 
  2959.93880    65.368469     7.924121 
  2960.09120    65.422440     8.267279 
  2960.24360    64.977043    12.685916 
  2960.39600    64.772209    20.471546 
  2960.54840    65.680847    25.434935 
  2960.70080    66.971497    24.134742 
  2960.85320    67.130791    18.393566 
  2961.00560    66.080299    16.194314 
  2961.15800    67.037048    17.881838 
  2961.31040    70.680344    19.341093 
  2961.46280    72.687576    19.450931 
  2961.61520    70.048477    20.020652 
  2961.76760    67.245193    25.009327 
  2961.92000    65.060913    32.962052 
  2962.07240    63.656410    36.561497 
  2962.22480    64.148819    30.982378 
  2962.37720    65.703644    21.787846 
  2962.52960    67.519547    15.869333 
  2962.68200    66.816330    17.224622 
  2962.83440    66.036507    21.394977 
  2962.98680    65.752472    24.344648 
  2963.13920    65.450943    23.234390 
  2963.29160    66.158562    18.653752 
  2963.44400    67.343674    15.489963 
  2963.59640    67.890869    15.569583 
  2963.74880    67.711472    18.104342 
  2963.90120    65.982559    20.476107 
  2964.05360    63.735600    23.009990 
  2964.20600    64.349663    23.219902 
  2964.35840    64.405632    20.512451 
  2964.51080    63.820980    16.674010 
  2964.66320    63.462318    15.384788 
  2964.81560    62.212780    17.506128 
  2964.96800    61.950001    17.583928 
  2965.12040    63.102631    15.707982 
  2965.27280    63.588131    12.603807 
  2965.42520    63.241211    11.990113 
  2965.57760    63.099640    13.268340 
  2965.73000    62.554371    14.650984 
  2965.88240    61.165039    14.531522 
  2966.03480    60.896950    12.467770 
  2966.18720    60.701012    10.281833 
  2966.33960    60.964470     8.273817 
  2966.49200    60.874939     7.336916 
  2966.64440    61.611301     7.430330 
  2966.79680    60.578609     8.882242 
  2966.94920    59.819359     9.771258 
  2967.10160    59.925190     9.862985 
  2967.25400    59.762871     9.469132 
  2967.40640    60.009941     8.005387 
  2967.55880    60.121571     7.517787 
  2967.71120    60.753540     7.238959 
  2967.86360    60.984428     8.560482 
  2968.01600    61.449821     8.303392 
  2968.16840    61.535568     8.608847 
  2968.32080    61.383801     8.686927 
  2968.47320    60.589890     9.852224 
  2968.62560    60.500690     9.890233 
  2968.77800    61.160351     9.839987 
  2968.93040    61.252090     8.215561 
  2969.08280    60.154610     7.213952 
  2969.23520    60.202671     7.010568 
  2969.38760    60.425850     8.545116 
  2969.54000    60.542412     9.518673 
  2969.69240    61.506809     9.290414 
  2969.84480    61.050961     8.447041 
  2969.99720    60.099751     7.902019 
  2970.14960    59.452419     8.120069 
  2970.30200    59.952209     8.381354 
  2970.45440    60.736099     8.549013 
  2970.60680    60.737499     7.732184 
  2970.75920    59.749531     6.247405 
  2970.91160    59.352409     5.723283 
  2971.06400    59.648350     6.525471 
  2971.21640    59.881580     8.078624 
  2971.36880    59.910271     8.924149 
  2971.52120    59.307789     8.752046 
  2971.67360    60.258759     8.528441 
  2971.82600    60.921429     8.420065 
  2971.97840    59.874489     8.357481 
  2972.13080    59.458519     8.394277 
  2972.28320    60.875900     8.454558 
  2972.43560    60.972672     9.311709 
  2972.58800    60.298271     9.780607 
  2972.74040    59.743599     9.269778 
  2972.89280    59.742840     8.819366 
  2973.04520    59.923080     8.676474 
  2973.19760    59.950691     9.087358 
  2973.35000    60.157070     9.708698 
  2973.50240    60.588902    10.154149 
  2973.65480    60.397511    10.644692 
  2973.80720    61.419930     9.755745 
  2973.95960    63.811489     8.935552 
  2974.11200    66.473991    10.038463 
  2974.26440    71.105614    12.248509 
  2974.41680    75.379379    16.833275 
  2974.56920    75.820831    22.987068 
  2974.72160    75.407661    28.085672 
  2974.87400    75.118683    28.835446 
  2975.02640    74.189560    28.042296 
  2975.17880    73.256332    27.663598 
  2975.33120    73.229668    30.383830 
  2975.48360    71.633629    29.815462 
  2975.63600    71.083771    30.089192 
  2975.78840    72.048409    29.172006 
  2975.94080    73.524620    29.621967 
  2976.09320    74.161179    29.127650 
  2976.24560    74.620506    27.719037 
  2976.39800    74.786568    27.018903 
  2976.55040    74.166367    28.251915 
  2976.70280    73.533958    30.217803 
  2976.85520    73.058929    32.510980 
  2977.00760    72.634811    32.265942 
  2977.16000    73.603271    31.781132 
  2977.31240    73.801842    29.675843 
  2977.46480    73.967667    28.135178 
  2977.61720    71.890388    27.384086 
  2977.76960    71.175400    27.254887 
  2977.92200    71.933067    27.259758 
  2978.07440    72.482521    27.317112 
  2978.22680    71.792953    27.250247 
  2978.37920    70.946098    25.848525 
  2978.53160    68.957817    24.803771 
  2978.68400    68.648232    23.976989 
  2978.83640    70.181351    24.483958 
  2978.98880    70.128281    24.730345 
  2979.14120    71.434303    25.064961 
  2979.29360    73.917503    26.019896 
  2979.44600    74.554398    27.769462 
  2979.59840    74.300812    29.212742 
  2979.75080    75.045898    28.743730 
  2979.90320    76.173927    28.000011 
  2980.05560    78.996750    28.126427 
  2980.20800    79.286942    31.270914 
  2980.36040    77.613983    33.055427 
  2980.51280    76.562027    33.887987 
  2980.66520    76.291763    32.749391 
  2980.81760    75.828827    32.094765 
  2980.97000    72.461342    30.819596 
  2981.12240    71.190651    29.418138 
  2981.27480    72.081886    27.379413 
  2981.42720    71.675133    25.293469 
  2981.57960    72.737617    23.781963 
  2981.73200    73.547920    23.734267 
  2981.88440    74.051567    25.854732 
  2982.03680    73.973778    28.683759 
  2982.18920    74.642990    31.799088 
  2982.34160    75.090424    34.184004 
  2982.49400    75.441010    34.392196 
  2982.64640    74.516487    32.771766 
  2982.79880    74.337639    29.154339 
  2982.95120    75.004341    26.432282 
  2983.10360    76.251717    24.280783 
  2983.25600    77.250633    24.197544 
  2983.40840    77.056557    25.331644 
  2983.56080    76.572258    26.605764 
  2983.71320    75.101357    29.375792 
  2983.86560    73.639427    31.051665 
  2984.01800    71.267883    32.826909 
  2984.17040    69.601341    30.894811 
  2984.32280    69.779503    28.007292 
  2984.47520    70.583946    24.427761 
  2984.62760    71.931747    22.191325 
  2984.78000    71.396927    20.754006 
  2984.93240    71.373573    20.246691 
  2985.08480    72.671822    20.998137 
  2985.23720    72.895828    24.550114 
  2985.38960    72.033073    28.527028 
  2985.54200    71.261078    30.127091 
  2985.69440    71.876259    28.702394 
  2985.84680    72.560028    26.045917 
  2985.99920    73.389900    25.119747 
  2986.15160    75.029388    26.377856 
  2986.30400    74.838966    30.551205 
  2986.45640    75.452232    33.200032 
  2986.60880    75.199867    34.517370 
