~Version Information Block
VERS .                 2.00:  CWLS LOG ASCII STANDARD - VERSION 2.00
WRAP .                  YES:  Multiple lines per depth step
~Well Information Block
#MNEM.UNIT        Data Type   Information
#---------- ----------------  -----------
STRT .M          3437.38200:  START DEPTH
STOP .M          3636.11160:  STOP DEPTH
STEP .M             0.15240:  STEP
NULL .              -999.25:  NULL VALUE
COMP .                     :  COMPANY
WELL .          NO_15/9-F-5:  WELL
FLD  .                     :  FIELD
LOC  .                     :  LOCATION
CTRY .                     :  COUNTRY
STAT .                     :  STATE
CNTY .                     :  COUNTY
SRVC .                     :  SERVICE COMPANY
DATE .                     :  DATE
API  .                     :  API NUMBER
UWI  .                     :  UNIQUE WELL ID
~Curve Information Block
#MNEM.UNIT         API CODE   Curve Description
#---------- ----------------  -----------------
DEPTH.M                    :  
BSAL .PPM                  :  (RST-D)                 (6in)                   Borehole Salinity Depths
CCLC .V                    :  (PSTP-B)                (1in)                   CCL Computed Amplitude D
CIRF .                     :  (RST-D)                 (6in)                   Capture to Inelastic Rat
CIRN .                     :  (RST-D)                 (6in)                   Capture to Inelastic Rat
CVEL .M/SEC                 :  (WLWorkflow)            (1in)                   Cable Velocity Depthshif
DSIG .CU                   :  (RST-D)                 (6in)                   Sigma Difference Depthsh
DSIG21.                     :  SIGM_1 -RSTD_0912_OW.SAT201SI_SIGR_1
FBEF .UA                   :  (RST-D)                 (6in)                   Far Effective Beam Curre
GR   .GAPI                 :  (PSTP-B)                (6in)                   Gamma Ray Depthshifted
IRAT .                     :  (RST-D)                 (6in)                   Inelastic Ratio Depthshi
RB_PCMS.DEG                  :  (PCMS-A)                (6in)                   Relative Bearing Depthsh
RSCF .                     :  (RST-D)                 (6in)                   Far Detector Effective U
RSCN .                     :  (RST-D)                 (6in)                   Near Detector Effective
SFFA .CU                   :  (RST-D)                 (6in)                   Sigma Formation Far Appa
SIBF .CU                   :  (RST-D)                 (6in)                   Sigma Borehole Fluid Dep
SIGM .CU                   :  (RST-D)                 (6in)                   Formation Sigma (Neutron
TENS .LBF                  :  (WLWorkflow)            (1in)                   Cable Tension Depthshift
TPHI .V/V                  :  (RST-D)                 (6in)                   Thermal Decay Porosity D
WPRE .BAR                  :  (PSTP-B)                (6in)                   Well Pressure Depthshift
WTEP .DEGC                 :  (PSTP-B)                (6in)                   Well Temperature Depthsh
~Parameter Information Block
#MNEM.UNIT            Value   Description
#---------- ----------------  -----------
PROJECT.     SLEIPNER_OST@st-vlinapp01:  
SET  .     RSTD_1115_SIG1_DS:  
~Other Information Block
~Ascii Log Data
# ...
    3603.80280 
    36021.7227         0.0781         2.8452       0.822353     -0.0759601 
       -0.6751         0.0792       103.6086        17.3272       0.325189 
      352.0812         9.6791         8.4115        13.3703        34.7366 
       11.5680      4130.7578       0.179619       368.9625        69.1128
    3603.95520 
    35547.0781         0.0387         2.8361       0.821627     -0.0760083 
       -0.7107         0.1585       105.4099        16.1250       0.324227 
      352.2349         9.5894         8.6226        13.5634        34.5672 
       11.7445      4147.6416       0.181065       368.9719        69.0481
    3604.10760 
    35527.7148        -0.0106         2.7877       0.821613     -0.0760534 
       -0.6882         0.2756       106.9717        14.5764       0.324630 
      352.3162         9.1590         8.2635        13.9529        34.5603 
       11.9690      4107.8638       0.180442       368.9816        69.0073
    3604.26000 
    35530.4922        -0.0466         2.7662       0.812277     -0.0762049 
       -0.6980         0.3870       107.9080        14.8517       0.328542 
      352.2818         8.9607         7.9445        14.0437        34.5613 
       12.1530      4106.1162       0.178468       368.9923        68.9682
    3604.41240 
    35426.3516        -0.0521         2.7482       0.816588     -0.0757321 
       -0.7037         0.2446       106.8487        14.8226       0.329122 
      352.1777         8.7943         7.6958        14.1057        34.5241 
       12.1976      4141.9131       0.177985       368.9982        68.9154
    3604.56480 
    35465.8828        -0.0550         2.7508       0.807928     -0.0757503 
       -0.6505         0.2047       106.6552        14.5485       0.326611 
      352.0284         8.7593         7.6985        14.0756        34.5382 
       12.2936      4113.8735       0.178427       369.0102        68.8730
    3604.71720 
    35331.8359        -0.0261         2.7344       0.799314     -0.0754740 
       -0.6214         0.0169       106.5603        14.8384       0.322451 
      351.9208         8.9301         7.9240        14.3097        34.4904 
       12.2947      4106.2520       0.180372       369.0190        68.8289
    3604.86960 
    34705.1992         0.0063         2.7169       0.782764     -0.0753183 
       -0.5840         0.0338       107.4063        15.4071       0.320114 
      351.8009         8.8935         7.8119        14.1082        34.2669 
       12.4041      4113.1572       0.180354       369.0261        68.7930
    3605.02200 
    34361.2344         0.0888         2.7178       0.786767     -0.0757271 
       -0.5414         0.2883       109.6925        14.4296       0.321842 
      351.6740         8.6220         7.6795        14.3753        34.1442 
       12.4933      4128.8330       0.179812       369.0387        68.7733
    3605.17440 
    34338.6562         0.0763         2.6822       0.800462     -0.0753871 
       -0.5401         0.5709       107.5515        13.7943       0.324104 
      351.5344         8.5988         7.7638        14.5749        34.1362 
       12.6123      4160.6543       0.178533       369.0441        68.7556
    3605.32680 
    34198.4023        -0.0453         2.6935       0.792438     -0.0751664 
       -0.5679         0.6551       105.9233        13.5683       0.325571 
      351.4207         8.7409         7.7844        14.4820        34.0862 
       12.5959      4164.7588       0.177685       369.0562        68.7468
    3605.47920 
    34093.8164        -0.0812         2.7545       0.803336     -0.0746022 
       -0.5612         0.3618       106.4956        13.1428       0.324802 
      351.5192         8.9910         8.0036        14.3226        34.0489 
       12.4320      4122.6113       0.177395       369.0672        68.7448
    3605.63160 
    33826.1914         0.0214         2.7696       0.816456     -0.0744331 
       -0.5518         0.1976       105.2519        13.3549       0.322029 
      351.9123         9.3173         8.2971        14.0974        33.9536 
       12.2462      4123.3735       0.176595       369.0688        68.7443
    3605.78400 
    33659.9102         0.0215         2.8218       0.805504     -0.0755632 
       -0.6345         0.1106       107.7573        14.2404       0.321172 
      352.3084         9.3661         8.2765        13.9341        33.8944 
       12.0903      4115.1270       0.174461       369.0844        68.7480
    3605.93640 
    33612.4570        -0.0358         2.8356       0.806531     -0.0759581 
       -0.7141         0.1197       109.3080        14.7597       0.321672 
      352.6143         9.2540         8.2374        13.8691        33.8775 
       11.9619      4084.6995       0.173206       369.0933        68.7454
    3606.08880 
    33446.5312        -0.0399         2.7984       0.810560     -0.0756378 
       -0.7443         0.1930       107.0814        14.8080       0.323930 
      352.6509         9.2895         8.3074        13.7377        33.8184 
       11.8316      4106.7559       0.174157       369.0934        68.7418
    3606.24120 
    33269.5000         0.0609         2.7836       0.818530     -0.0756280 
       -0.7839         0.2259       106.6103        14.7956       0.325031 
      352.3244         9.2844         8.3760        13.5583        33.7554 
       11.7747      4106.2319       0.175748       369.1123        68.7480
    3606.39360 
    33087.3398         0.1200         2.7948       0.821313     -0.0755856 
       -0.8136         0.1980       107.3274        14.5922       0.322465 
      351.9057         9.2358         8.2647        13.7014        33.6906 
       11.7512      4127.9155       0.176336       369.1222        68.7489
    3606.54600 
    33256.7266        -0.0083         2.8571       0.806742     -0.0755474 
       -0.8578        -0.0985       108.2174        14.3073       0.321457 
      351.5883         9.3255         8.1381        13.6942        33.7509 
       11.7483      4161.3555       0.174902       369.1221        68.7452
    3606.69840 
    33267.0742         0.0152         2.8132       0.810339     -0.0757707 
       -0.9225        -0.1731       106.6942        13.5120       0.323584 
      351.5596         9.2023         8.1383        13.5611        33.7545 
       11.6770      4122.9668       0.175687       369.1399        68.7484
    3606.85080 
    32786.9961         0.0261         2.7626       0.820672     -0.0757581 
       -0.9380        -0.1779       105.1383        12.9563       0.327612 
      351.6708         8.9548         7.9211        13.4947        33.5837 
       11.6280      4113.4751       0.178571       369.1489        68.7495
    3607.00320 
    32449.1680         0.0205         2.7665       0.830880     -0.0757154 
       -0.8549         0.0620       105.1136        12.6279       0.328931 
      351.7889         8.9095         7.8773        13.5489        33.4635 
       11.6740      4137.4824       0.183073       369.1518        68.7493
    3607.15560 
    32187.6953         0.0995         2.7351       0.822316     -0.0761432 
       -0.7917         0.2145       106.3929        12.5668       0.326592 
      351.6992         8.8874         7.9852        13.6993        33.3706 
       11.7742      4127.0278       0.187603       369.1691        68.7507
    3607.30800 
    31948.2344         0.1126         2.7635       0.824159     -0.0761850 
       -0.7887         0.3788       107.6783        12.2566       0.323493 
      351.5747         8.9145         8.0172        13.7927        33.2855 
       11.8862      4087.9802       0.189309       369.1722        68.7486
    3607.46040 
    31867.9160        -0.0026         2.7803       0.833699     -0.0758689 
       -0.7236         0.5220       108.4407        12.0868       0.324598 
      351.5678         8.8371         8.0685        13.8738        33.2569 
       11.9476      4092.8838       0.187856       369.1769        68.7474
    3607.61280 
    32170.4473        -0.0061         2.7684       0.832708     -0.0759509 
       -0.6848         0.3941       107.2558        12.0881       0.325228 
      351.6152         8.8940         8.2094        13.8796        33.3645 
       11.8852      4119.5713       0.183341       369.1979        68.7491
