~Version Information Block
VERS .                 2.00:  CWLS LOG ASCII STANDARD - VERSION 2.00
WRAP .                   NO:  One line per depth step
~Well Information Block
#MNEM.UNIT        Data Type   Information
#---------- ----------------  -----------
STRT .M          3454.45080:  START DEPTH
STOP .M          3788.05440:  STOP DEPTH
STEP .M             0.15240:  STEP
NULL .              -999.25:  NULL VALUE
COMP .              Statoil:  COMPANY
WELL .        NO_15/9-F-1_C:  WELL
FLD  .                Volve:  FIELD
LOC  .            North Sea:  LOCATION
CTRY .               Norway:  COUNTRY
STAT .                     :  STATE
CNTY .                     :  COUNTY
SRVC .         Schlumberger:  SERVICE COMPANY
DATE .          27-Nov-2014:  DATE
API  .                     :  API NUMBER
UWI  .           15/9-F-1 C:  UNIQUE WELL ID
LATI .     58° 26' 29.91" N:  LATITUDE
LONG .      1° 53' 14.71" E:  LONGITUDE
~Curve Information Block
#MNEM.UNIT         API CODE   Curve Description
#---------- ----------------  -----------------
DEPTH.M                    :  DEPTH (BOREHOLE)
CRRA .                     :  Near/Far Count Rate Ratio
CVEL .M/SEC                 :  Cable Velocity
DFRB .DEG                  :  Calibrated Relative Bearing
FBEF .UA                   :  RST Far Effective Beam Current
FCOR .                     :  RST Far Carbon/Oxygen Ratio
FERD .                     :  RST Far IC Mode Capture Optimization
FIRD .                     :  RST Far Inelastic Optimization Resolution
GR   .GAPI                 :  Gamma Ray
NCOR .                     :  RST Near Carbon/Oxygen Ratio
NERD .                     :  RST Near IC Mode Capture Optimization
NIRD .                     :  RST Near Inelastic Optimization Resolution
PFC1 .IN                   :  PFCS CaliperX
PFC2 .IN                   :  PFCS CaliperY
TENS .LBF                  :  Cable Tension
~Parameter Information Block
#MNEM.UNIT            Value   Description
#---------- ----------------  -----------
APD  .M           54.900002:  Elevation of Depth Reference (LMF) above Permanent Datum
EPD  .C3                  0:  Elevation of Permanent Datum above Mean Sea Level
LMF  .                   KB:  Logging Measured From (Name of Logging Elevation Reference)
PDAT .                  MSL:  Permanent Datum
RUN  .                Run 1:  RUN NUMBER
TAPE_NAME.     Statoil_Volve_15-9-F-1 C_PLT-RST_28Nov14_ConCu_R1L17Up_IC1.las:  
TOOL_STRING.              UNKNOWN:  
WN   .           15/9-F-1 C:  WELL
PROJECT.     SLEIPNER_OST@st-vlinapp01:  
SET  .        RSTD_1114_IC1:  
~Other Information Block
# 
~A       DEPTH           CRRA           CVEL           DFRB           FBEF           FCOR           FERD           FIRD             GR           NCOR           NERD           NIRD           PFC1           PFC2           TENS 
# ...
    3586.12440         2.8045      -0.173543       356.9830       124.4651         0.2261         5.1058         5.1058        28.9821         0.1041         7.1129         7.1129         6.2533         6.0759      4527.4614
    3586.27680         2.8558      -0.173968       358.3940       123.0565         0.2279         5.1058         5.1058        28.8689         0.1455         7.1129         7.1129         6.2533         6.0784      4577.1538
    3586.42920         2.7791      -0.174067       358.3940       123.0565         0.2279         5.1058         5.1058        26.3936         0.1663         7.1129         7.1129         6.2533         6.0834      4444.0771
    3586.58160         2.7791      -0.173560       358.3940       122.0931        -0.7856         5.1058         5.1058        25.1914         0.1663         7.1129         7.1129         6.2509         6.0834      4386.0000
    3586.73400         2.7641      -0.173397       358.3940       122.2815        -0.1955         5.1058         5.1058        24.8543         0.1944         7.1129         7.1129         6.2485         6.0834      4313.2856
    3586.88640         2.8242      -0.171090       358.3940       122.4899         1.2314         5.1058         5.1058        23.9207         0.2100         7.1129         7.1129         6.2267         6.0759      4219.7690
    3587.03880         2.8154      -0.173072       358.3940       122.4899         1.2314         5.1058         5.1058        21.8273         0.1660         7.1129         7.1129         6.2219         6.0780      4119.2310
    3587.19120         2.8154      -0.177875       358.3940       121.6899         0.1257         5.1058         5.1058        24.2036         0.1660         7.1129         7.1129         6.2271         6.0726      4089.1431
    3587.34360         2.7846      -0.181643       358.3940       121.2261        -7.5724         5.0878         5.0878        25.0924         0.1703         7.1129         7.1129         6.2316         6.0560      4245.7500
    3587.49600         2.7663      -0.184857       358.3940       119.1227        -0.1804         5.0878         5.0878        26.3630        -0.1226         7.0228         7.0228         6.2364         6.0784      4491.6924
    3587.64840         2.7117      -0.184607       358.3940       119.1227        -0.1804         5.0878         5.0878        28.6431        -0.0978         7.0228         7.0228         6.2364         6.0510      4502.5000
    3587.80080         2.7117      -0.180605       358.3940       122.1467         0.2027         5.0878         5.0878        30.7117        -0.0978         7.0228         7.0228         6.2264         6.0556      4474.3076
    3587.95320         2.8016      -0.175432       358.3940       120.7279         0.0970         5.0878         5.0878        31.0253         0.1001         7.0228         7.0228         6.2195         6.0660      4414.2500
    3588.10560         2.7293      -0.172397       358.3940       122.0194         0.0804         5.0878         5.0878        31.0559        -0.2947         7.0228         7.0228         6.2195         6.0385      4299.6924
    3588.25800         2.7778      -0.172762       358.3940       122.0194         0.0804         5.0878         5.0878        31.9612         0.0631         7.0228         7.0228         6.2219         6.0286      4188.3076
    3588.41040         2.7778      -0.174023       358.3940       127.9095         0.1043         5.0878         5.0878        32.1328         0.0631         7.0228         7.0228         6.2219         6.0394      4263.2861
    3588.56280         3.0538      -0.173433       359.8050       129.7349         0.0656         5.0878         5.0878        31.6823         0.1077         7.0228         7.0228         6.2219         6.0360      4339.3848
    3588.71520         3.1353      -0.173450       359.8050       131.6729        -0.1830         4.9997         4.9997        31.8968         0.2371         7.0228         7.0228         6.2219         6.0335      4495.9233
    3588.86760         3.1411      -0.173500       359.8050       131.6729        -0.1831         4.9997         4.9997        31.1368         0.1364         7.1003         7.1003         6.2219         6.0441      4404.7856
    3589.02000         3.1411      -0.174333       359.8050       130.1634        -4.3333         4.9997         4.9997        32.7687         0.1364         7.1003         7.1003         6.2219         6.0360      4376.1538
    3589.17240         3.1761      -0.173127       359.8050       131.1864        -0.1666         4.9997         4.9997        34.8281         0.3809         7.1003         7.1003         6.2026         6.0211      4304.1538
    3589.32480         3.1057      -0.172635       359.8050       125.6368         0.0689         4.9997         4.9997        38.6038        -0.3452         7.1003         7.1003         6.2316         6.0834      4231.3076
    3589.47720         2.9464      -0.174828       359.8050       125.6368         0.0689         4.9997         4.9997        39.2903         0.4192         7.1003         7.1003         6.2267         6.0834      4125.7690
    3589.62960         2.9464      -0.174947       359.8050       123.5457        -0.0071         4.9997         4.9997        42.4867         0.4192         7.1003         7.1003         6.2533         6.0834      4106.3848
    3589.78200         2.8504      -0.175237       359.8050       123.1740         0.0638         4.9997         4.9997        45.2219        -0.0112         7.1003         7.1003         6.2533         6.0834      4246.1538
    3589.93440         2.8779      -0.175790       358.3940       123.1357        -0.5332         4.9997         4.9997        44.7777         0.0694         7.1003         7.1003         6.2533         6.0834      4477.1538
    3590.08680         2.8688      -0.175487       358.3940       123.1357        -0.5332         4.9997         4.9997        43.5442        -0.1443         7.1003         7.1003         6.2533         6.0834      4492.3081
    3590.23920         2.8688      -0.171487       358.3940       125.1675         0.7142         5.0936         5.0936        45.3247        -0.1443         7.1003         7.1003         6.2291         6.0834      4453.3848
    3590.39160         2.9318      -0.171685       358.3940       127.1061        -0.9737         5.0936         5.0936        44.3594        -0.5443         7.0690         7.0690         6.2316         6.0834      4397.3574
    3590.54400         2.9293      -0.175118       358.3940       123.4542         0.5433         5.0936         5.0936        42.2677         0.1443         7.0690         7.0690         6.2271         6.0834      4257.8462
    3590.69640         2.8715      -0.178730       358.3940       123.4542         0.5433         5.0936         5.0936        39.9963        -0.4792         7.0690         7.0690         6.2316         6.0834      4186.6924
    3590.84880         2.8715      -0.181065       358.3940       122.5778        -0.0173         5.0936         5.0936        39.1918        -0.4792         7.0690         7.0690         6.2316         6.0834      4259.4614
    3591.00120         2.8672      -0.181942       358.3940       127.4052        -0.3121         5.0936         5.0936        36.6743        -0.3769         7.0690         7.0690         6.2291         6.0834      4342.0771
    3591.15360         2.9221      -0.179420       358.3940       125.7801        -1.7179         5.0936         5.0936        35.8698         0.2950         7.0690         7.0690         6.2291         6.0834      4461.5835
    3591.30600         2.8705      -0.175793       358.3940       128.7206         0.3978         5.0936         5.0936        33.0968         0.1528         7.0690         7.0690         6.2316         6.0834      4434.4619
    3591.45840         2.9691      -0.174713       358.3940       128.7206         0.3978         5.0936         5.0936        32.6088         0.0213         7.0690         7.0690         6.2241         6.0834      4375.0771
