~Version Information Block
VERS .                 2.00:  CWLS LOG ASCII STANDARD - VERSION 2.00
WRAP .                   NO:  One line per depth step
~Well Information Block
#MNEM.UNIT        Data Type   Information
#---------- ----------------  -----------
STRT .M          3460.24200:  START DEPTH
STOP .M          3530.19360:  STOP DEPTH
STEP .M             0.15240:  STEP
NULL .              -999.25:  NULL VALUE
COMP .              Statoil:  COMPANY
WELL .          NO_15/9-F-5:  WELL
FLD  .                Volve:  FIELD
LOC  .                Volve:  LOCATION
CTRY .               Norway:  COUNTRY
STAT .                     :  STATE
CNTY .                     :  COUNTY
SRVC .         Schlumberger:  SERVICE COMPANY
DATE .           11/03/2015:  DATE
API  .                     :  API NUMBER
UWI  .             15/9-F-5:  UNIQUE WELL ID
LATI .     58° 26' 29.66" N:  LATITUDE
LONG .      1° 53' 14.99" E:  LONGITUDE
~Curve Information Block
#MNEM.UNIT         API CODE   Curve Description
#---------- ----------------  -----------------
DEPTH.M                    :  Depth Index
CCLC .V                    :  (PSTP-B)                (1in)                   CCL Computed Amplitude
CVEL .M/SEC                 :  (WLWorkflow)            (1in)                   Cable Velocity
FBEF .UA                   :  (RST-D)                 (6in)                   Far Effective Beam Curre
FCOR .                     :  (RST-D)                 (6in)                   Far Carbon/Oxygen Ratio
FERD .                     :  (RST-D)                 (6in)                   Far IC Mode Capture Opti
FIRD .                     :  (RST-D)                 (6in)                   Far Inelastic Optimizati
GR   .GAPI                 :  (PSTP-B)                (6in)                   Gamma Ray
NCOR .                     :  (RST-D)                 (6in)                   Near Carbon/Oxygen Ratio
NERD .                     :  (RST-D)                 (6in)                   Near IC Mode Capture Opt
NIRD .                     :  (RST-D)                 (6in)                   Near Inelastic Optimizat
RB_PCMS.DEG                  :  (PCMS-A)                (6in)                   Relative Bearing
TENS .LBF                  :  (WLWorkflow)            (1in)                   Cable Tension
WPRE .BAR                  :  (PSTP-B)                (6in)                   Well Pressure
WTEP .DEGC                 :  (PSTP-B)                (6in)                   Well Temperature
~Parameter Information Block
#MNEM.UNIT            Value   Description
#---------- ----------------  -----------
APD  .M                  54:  Elevation of Depth Reference (LMF) Above Permanent Datum
CLAB .              Country:  :County Label
ECF  .M             -999.25:  Elevation of Casing Flange above Permanent Datum
EDF  .M                  54:  Elevation of Drill Floor Above Permanent Datum
EGL  .M                 -91:  Elevation of Ground Level Above Permanent Datum
EKB  .M             -999.25:  Elevation of Kelly Bushing Above Permanent Datum
EPD  .M                   0:  Elevation of Permanent Datum (PDAT) above Mean Sea Level
FL1  .            North Sea:  Field Location Line 1
FL2  .     Norwegian Sector:  Field Location Line 2
LMF  .                   DF:  Logging Measured From
LUL  .                 NOBO:  Logging Unit Location
LUN  .          ONCC-A 3837:  Logging Unit Number
PDAT .                  MSL:  Local Permanent Datum
RIGN .      Maersk Inspirer:  Rig Name
RIGTYP.               Jackup:  Rig Type
SON  .           C2TQ-00038:  Service Order Number
TAPE_NAME.     RST_IC_Pass-2___03Nov15_214110.las:  
TOOL_STRING.              UNKNOWN:  
WN   .             15/9-F-5:  WELL NAME
PROJECT.     SLEIPNER_OST@st-vlinapp01:  
SET  .        RSTD_1115_IC2:  
~Other Information Block
# 
~A       DEPTH           CCLC           CVEL           FBEF           FCOR           FERD           FIRD             GR           NCOR           NERD           NIRD        RB_PCMS           TENS           WPRE           WTEP 
# ...
    3504.13320        0.10872     -0.0088622       133.0357       0.128000         5.1234         5.1234        75.5098       0.064200         4.1478         4.1478       353.5829      4021.1104       361.6247        82.9644
    3504.28560        0.03092     -0.0087090       132.1973       0.054860         5.2041         5.2041        71.6989       0.070260         4.1839         4.1839       353.3647      3856.6133       361.6384        82.9555
    3504.43800        0.03458     -0.0085038       132.1721       0.053270         5.1151         5.1151        72.5767       0.054520         4.1762         4.1762       353.0275      3879.8044       361.6484        82.9414
    3504.59040        0.02827     -0.0083825       132.7741       0.076600         5.0682         5.0682        73.2698      -0.042620         4.2088         4.2088       353.0176      3832.9993       361.6621        82.9270
    3504.74280        0.04696     -0.0082832       133.8343       0.121190         5.0926         5.0926        78.7759       0.055860         4.2475         4.2475       352.9665      3833.5859       361.6723        82.9193
    3504.89520        0.07702     -0.0081760       138.8981       0.166950         5.0870         5.0870        83.8054       0.046450         4.3136         4.3136       353.0060      3919.9170       361.6822        82.9096
    3505.04760        0.05498     -0.0084865       139.1107       0.123430         5.1814         5.1814        84.3188       0.090180         4.4043         4.4043       353.0413      3893.9539       361.6948        82.9048
    3505.20000        0.05681     -0.0085235       136.7338       0.027430         5.3060         5.3060        84.8618       0.031500         4.4413         4.4413       353.1235      4002.1770       361.7048        82.8919
    3505.35240       -1.57713     -0.0088603       135.3030      -0.052880         5.3951         5.3951        86.1304       0.093740         4.4182         4.4182       353.1396      3981.5957       361.7182        82.8818
    3505.50480       -0.00136     -0.0089813       130.8667       0.014740         5.4258         5.4258        84.9233       0.033710         4.4098         4.4098       353.1319      3985.5479       361.7306        82.8737
    3505.65720       -0.00232     -0.0088903       130.7706       0.201820         5.4541         5.4541        80.7784       0.111680         4.3735         4.3735       353.0417      4078.3894       361.7405        82.8670
    3505.80960        0.01655     -0.0088018       131.8462       0.110220         5.5339         5.5339        82.7004       0.138790         4.3866         4.3866       353.0108      4097.8130       361.7530        82.8571
    3505.96200       -0.00213     -0.0087277       133.0385       0.105800         5.4978         5.4978        85.2863       0.027680         4.3948         4.3948       353.1540      3982.3083       361.7645        82.8393
    3506.11440       -0.00231     -0.0088098       131.3030       0.005350         5.5199         5.5199        85.2908       0.103180         4.3813         4.3813       353.1151      3880.6160       361.7768        82.8369
    3506.26680        0.01264     -0.0086083       131.0027       0.065020         5.4815         5.4815        84.9352      -0.020010         4.4204         4.4204       353.0996      3881.9109       361.7854        82.8043
    3506.41920       -0.01660     -0.0088313       131.7906       0.250010         5.4254         5.4254        88.5619       0.054250         4.4179         4.4179       353.0764      3736.1628       361.8001        82.7964
    3506.57160       -0.00158     -0.0086595       132.2998       0.036940         5.4792         5.4792        89.4988       0.066210         4.3870         4.3870       353.1845      3884.3186       361.8099        82.7863
    3506.72400        0.00807     -0.0086018       131.5182       0.090330         5.5147         5.5147        88.0912       0.077870         4.3631         4.3631       353.3106      3897.5913       361.8197        82.7625
    3506.87640       -0.00139     -0.0083823       132.1891      -0.018610         5.6305         5.6305        85.2387       0.030110         4.3514         4.3514       353.5812      3834.4224       361.8355        82.7468
    3507.02880       -0.00065     -0.0083708       133.2021       0.059680         5.5786         5.5786        80.7033       0.096600         4.3941         4.3941       353.7224      3950.7271       361.8457        82.7247
    3507.18120       -0.00154     -0.0082978       132.3613       0.011470         5.5947         5.5947        75.5772       0.041000         4.4005         4.4005       353.6906      3914.9556       361.8575        82.7064
    3507.33360       -0.00194     -0.0085442       133.5999       0.028300         5.6176         5.6176        69.6019       0.070640         4.3660         4.3660       353.6333      4054.4766       361.8696        82.7066
    3507.48600        0.02242     -0.0086885       133.5726       0.041400         5.7701         5.7701        63.4324       0.096710         4.3578         4.3578       353.6503      4047.9324       361.8773        82.6682
    3507.63840       -0.00162     -0.0087392       134.9918       0.289010         5.8267         5.8267        60.8917       0.069250         4.3905         4.3905       353.6107      3977.7380       361.8942        82.6647
    3507.79080       -0.00204     -0.0087393       134.0633       0.169550         5.8868         5.8868        60.3094       0.042550         4.4080         4.4080       353.5117      3977.6907       361.9029        82.6381
    3507.94320       -0.00773     -0.0087973       134.7006       0.141090         5.8060         5.8060        61.3177       0.071840         4.4089         4.4089       353.7968      4002.3906       361.9167        82.6301
    3508.09560        0.01194     -0.0085392       135.3185       0.134600         5.7779         5.7779        64.1172       0.052590         4.4061         4.4061       353.9274      3853.4478       361.9250        82.6059
    3508.24800       -0.00263     -0.0085038       134.7821       0.176250         5.7186         5.7186        67.5893       0.027750         4.4196         4.4196       354.0887      3887.3918       361.9408        82.5936
    3508.40040       -0.00276     -0.0084670       135.7404      -0.037880         5.8672         5.8672        70.2082      -0.006180         4.4363         4.4363       354.1506      3873.1545       361.9504        82.5746
    3508.55280       -0.00806     -0.0084852       136.0182       0.086400         5.8081         5.8081        72.9303       0.029150         4.4381         4.4381       354.1380      3832.0212       361.9621        82.5453
    3508.70520       -0.00286     -0.0081848       135.7576       0.044090         5.8561         5.8561        74.4825      -0.046880         4.4138         4.4138       354.9700      3947.1123       361.9745        82.5278
    3508.85760       -0.00282     -0.0082832       136.4535      -0.006260         5.8338         5.8338        75.1291       0.022860         4.3855         4.3855       355.0436      3888.8687       361.9878        82.5127
    3509.01000       -0.00365     -0.0083382       136.6533      -0.066820         5.8351         5.8351        75.0434      -0.062930         4.3661         4.3661       354.7664      4017.1738       361.9976        82.4915
    3509.16240        0.04857     -0.0083825       137.6169       0.141160         5.7556         5.7556        74.6035       0.042490         4.2987         4.2987       354.6035      3991.9998       362.0074        82.4754
    3509.31480       -0.00433     -0.0085063       137.4780       0.047890         5.8680         5.8680        74.0048       0.064200         4.2440         4.2440       354.2888      4010.4880       362.0232        82.4642
    3509.46720       -0.00487     -0.0087133       136.8224       0.014420         5.6072         5.6072        74.8812       0.015050         4.1885         4.1885       354.0768      3984.8845       362.0324        82.4489
