~Version Information Block
VERS .                 2.00:  CWLS LOG ASCII STANDARD - VERSION 2.00
WRAP .                   NO:  One line per depth step
~Well Information Block
#MNEM.UNIT        Data Type   Information
#---------- ----------------  -----------
STRT .M          3445.30680:  START DEPTH
STOP .M          3639.15960:  STOP DEPTH
STEP .M             0.15240:  STEP
NULL .              -999.25:  NULL VALUE
COMP .              Statoil:  COMPANY
WELL .          NO_15/9-F-5:  WELL
FLD  .                VOLVE:  FIELD
LOC  .            North Sea:  LOCATION
CTRY .                     :  COUNTRY
STAT .                     :  STATE
CNTY .                     :  COUNTY
SRVC .         Schlumberger:  SERVICE COMPANY
DATE .          16-Sep-2012:  DATE
API  .                     :  API NUMBER
UWI  .             15/9-F-5:  UNIQUE WELL ID
~Curve Information Block
#MNEM.UNIT         API CODE   Curve Description
#---------- ----------------  -----------------
DEPTH.M                    :  DEPTH (BOREHOLE)
CCLC .V                    :  CCL
CRRA .                     :  Near-Far Count Rate Ratio
CVEL .M/MIN                 :  Cable Velocity
FBEF .UA                   :  RST Far Effective Beam Current
FCOR .                     :  RST Far Carbon/Oxygen Ratio
FERD .                     :  RST Far IC Mode Capture Optimization Resolution Degradation Factor
FIRD .                     :  RST Far Inelastic Optimization Resolution Degradation Factor
GR   .GAPI                 :  Gamma Ray
NCOR .                     :  RST Near Carbon/Oxygen Ratio
NERD .                     :  RST Near IC Mode Capture Optimization Resolution Degradation Factor
NIRD .                     :  RST Near Inelastic Optimization Resolution Degradation Factor
RB_PCMS.DEG                  :  Relative Bearing
TENS .LBF                  :  Cable Tension
~Parameter Information Block
#MNEM.UNIT            Value   Description
#---------- ----------------  -----------
APD  .M           54.900002:  Elevation of Depth Reference (LMF) above Permanent Datum
RUN  .                Run 1:  RUN NUMBER
PROJECT.     SLEIPNER_OST@st-vlinapp01:  
SET  .        RSTD_0912_IC3:  
~Other Information Block
# 
~A       DEPTH           CCLC           CRRA           CVEL           FBEF           FCOR           FERD           FIRD             GR           NCOR           NERD           NIRD        RB_PCMS           TENS 
# ...
    3457.19400         0.0331         3.1454       -0.03130       118.9319     0.07720000         5.9577         5.9577        27.8642       0.046900         2.5621         2.5621         8.7518      2746.7898
    3457.34640        -0.0057         3.1454       -0.03130       120.3195     0.07720000         5.8192         5.8192        32.4821       0.046900         2.5621         2.5621         8.6767      2746.7898
    3457.49880        -0.0980         3.2022       -0.03130       120.1900     0.05000000         5.7765         5.7765        49.9874       0.008200         2.6520         2.6520         8.6658      2746.7898
    3457.65120        -0.0078         3.1887       -0.03130       116.0395     0.03790000         5.8399         5.8399        68.4155       0.110100         2.6733         2.6733         8.9796      2746.7898
    3457.80360         0.0140         3.0696       -0.03130       117.4123     0.01440000         5.7926         5.7926        75.6697      -0.034900         2.7184         2.7184         9.2068      2746.7898
    3457.95600        -0.0048         3.0855       -0.03130       115.3796    -0.08440000         5.7425         5.7425        80.8660       0.043400         2.7389         2.7389         9.1756      2746.7898
    3458.10840         0.0639         3.0494       -0.03130       113.7410     0.13290000         6.1337         6.1337        84.1280      -0.015800         2.7599         2.7599         9.2700      2746.7898
    3458.26080        -0.0029         2.9922       -0.03130       115.5359     0.05390000         6.2854         6.2854        75.0625      -0.020500         2.7703         2.7703         9.2752      2746.7898
    3458.41320         0.0052         3.0280       -0.03130       118.2071     0.01510000         6.4325         6.4325        63.7159       0.018000         2.8149         2.8149         9.2118      2746.7898
    3458.56560        -0.0045         3.1276       -0.03130       121.7815     0.10890000         6.5331         6.5331        62.0644       0.000400         2.8385         2.8385         9.0476      2746.7898
    3458.71800        -0.0058         3.2788       -0.03130       124.4479    -0.00560000         6.3519         6.3519        61.7427       0.060800         2.8549         2.8549         8.9531      2746.7898
    3458.87040         0.0458         3.3313       -0.03130       122.7779     0.07040000         6.4105         6.4105        60.8618       0.018400         2.8625         2.8625         8.8865      2746.7898
    3459.02280        -0.0038         3.2487       -0.03130       122.9208    -0.02050000         6.5679         6.5679        60.9290       0.014000         2.8535         2.8535         8.9372      2746.7898
    3459.17520        -0.0045         3.2051       -0.03130       125.0268     0.01430000         6.4617         6.4617        61.8356      -0.019900         2.8904         2.8904         8.9519      2746.7898
    3459.32760         0.0023         3.2059       -0.03130       127.0913    -0.07960000         6.3896         6.3896        65.2707       0.038800         2.8548         2.8548         9.0050      2746.7898
    3459.48000        -0.0021         3.2581       -0.03130       127.7834     0.02730000         6.3877         6.3877        68.4237       0.008700         2.8577         2.8577         9.1084      2746.7898
    3459.63240        -0.0470         3.2737       -0.03130       128.2666     0.00810000         6.2791         6.2791        69.8901       0.010300         2.8388         2.8388         9.1592      2746.7898
    3459.78480        -0.1454         3.3444       -0.03130       128.5777    -0.06580000         6.4274         6.4274        67.4833       0.112100         2.8811         2.8811         9.0484      2746.7898
    3459.93720        -0.0054         3.4369       -0.03130       129.2248     0.05010000         6.2415         6.2415        66.7665       0.027200         2.9263         2.9263         9.1226      2746.7898
    3460.08960         0.0169         3.4505       -0.03130       128.5547     0.11710000         6.3327         6.3327        64.0561       0.005200         2.8592         2.8592         9.2120      2746.7898
    3460.24200         0.0138         3.3996       -0.03130       127.9820     0.08680000         6.4363         6.4363        60.6365      -0.061800         2.8515         2.8515         9.2926      2746.7898
    3460.39440         0.1765         3.3982       -0.03130       128.7794     0.07460000         6.5960         6.5960        59.0821       0.012200         2.7820         2.7820         9.0417      2746.7898
    3460.54680        -0.0064         3.4530       -0.03130       128.6850     0.01600000         6.4313         6.4313        59.0679       0.026500         2.8356         2.8356         9.0305      2746.7898
    3460.69920         0.1198         3.4566       -0.03130       127.2358     0.07390000         6.5272         6.5272        57.5242       0.025400         2.8006         2.8006         9.1960      2746.7898
    3460.85160         0.1174         3.4261       -0.03130       128.2716     0.01020000         6.6910         6.6910        57.1298       0.102200         2.7622         2.7622         9.0111      2746.7898
    3461.00400        -0.0038         3.4173       -0.03130       129.2701     0.10690000         6.3749         6.3749        57.5386       0.085800         2.7662         2.7662         8.9552      2746.7898
    3461.15640        -0.0010         3.4282       -0.03130       129.0869     0.15539999         6.2893         6.2893        57.7842       0.045800         2.7667         2.7667         8.8888      2746.7898
    3461.30880        -0.0010         3.4414       -0.03130       127.8961     0.17690000         6.0183         6.0183        57.6386       0.027300         2.6924         2.6924         8.9996      2746.7898
    3461.46120        -0.0374         3.4053       -0.35420       126.8498     0.08110000         5.9264         5.9264        57.3353       0.056800         2.7299         2.7299         8.9184      2833.0464
    3461.61360        -0.0287         3.3808       -0.35300       125.2368     0.09120000         5.7736         5.7736        56.7151       0.032900         2.7232         2.7232         8.8218      2823.4124
    3461.76600        -0.0045         3.3178       -0.34490       122.7624     0.05850000         5.8947         5.8947        55.9260       0.037100         2.6799         2.6799         8.8535      2823.7710
    3461.91840        -0.0050         3.2419       -0.33600       118.3939     0.13200000         5.7065         5.7065        54.8984       0.030200         2.6607         2.6607         9.0647      2828.6519
    3462.07080        -0.0059         3.1193       -0.35550       115.2340     0.07520000         5.7898         5.7898        54.8291       0.027600         2.7170         2.7170         9.0623      2821.3257
    3462.22320        -0.0157         3.0356       -0.35080       114.1997    -0.07870000         5.7936         5.7936        52.6100       0.029300         2.7097         2.7097         8.9747      2819.4590
    3462.37560         0.0772         3.0367       -0.35220       115.9561     0.18840000         5.5867         5.5867        51.1721      -0.026800         2.7583         2.7583         8.9573      2828.1768
    3462.52800        -0.0031         3.1113       -0.35490       118.5163     0.22280000         5.3033         5.3033        50.5497       0.050000         2.7871         2.7871         8.8141      2820.1501
    3462.68040        -0.0316         3.1908       -0.36310       117.7441     0.03280000         5.5013         5.5013        49.9836       0.051400         2.7466         2.7466         8.8038      2811.6252
    3462.83280        -0.0016         3.1310       -0.35770       117.2873    -0.01750000         5.5189         5.5189        49.2136       0.053700         2.7079         2.7079         8.7497      2822.3386
    3462.98520        -0.0013         3.1210       -0.36520       117.8803     0.02420000         5.7144         5.7144        51.1750       0.098600         2.7105         2.7105         8.5637      2822.5293
