~Version Information Block
VERS .                 2.00:  CWLS LOG ASCII STANDARD - VERSION 2.00
WRAP .                   NO:  One line per depth step
~Well Information Block
#MNEM.UNIT        Data Type   Information
#---------- ----------------  -----------
STRT .M          3230.11800:  START DEPTH
STOP .M          3389.98560:  STOP DEPTH
STEP .M             0.15240:  STEP
NULL .              -999.25:  NULL VALUE
COMP .              Statoil:  COMPANY
WELL .          NO_15/9-F-4:  WELL
FLD  .                VOLVE:  FIELD
LOC  .            North Sea:  LOCATION
CTRY .                     :  COUNTRY
STAT .                     :  STATE
CNTY .                     :  COUNTY
SRVC .         Schlumberger:  SERVICE COMPANY
DATE .          13-Sep-2012:  DATE
API  .                     :  API NUMBER
UWI  .             15/9-F-4:  UNIQUE WELL ID
~Curve Information Block
#MNEM.UNIT         API CODE   Curve Description
#---------- ----------------  -----------------
DEPTH.M                    :  DEPTH (BOREHOLE)
CCLC .V                    :  CCL
CCLD .V                    :  CCL Discriminated Amplitude
CRRA .                     :  Near-Far Count Rate Ratio
CS   .F/MN                 :  Cable Speed
CVEL .M/MIN                 :  Cable Velocity
FBEF .UA                   :  RST Far Effective Beam Current
FCOR .                     :  RST Far Carbon/Oxygen Ratio
FERD .                     :  RST Far IC Mode Capture Optimization Resolution Degradation Factor
FIRD .                     :  RST Far Inelastic Optimization Resolution Degradation Factor
GR   .GAPI                 :  Gamma Ray
NCOR .                     :  RST Near Carbon/Oxygen Ratio
NERD .                     :  RST Near IC Mode Capture Optimization Resolution Degradation Factor
NIRD .                     :  RST Near Inelastic Optimization Resolution Degradation Factor
RB_PCMS.DEG                  :  Relative Bearing
TENS .LBF                  :  Cable Tension
WTEP .DEGC                 :  Well Temperature
WTPE .MS                   :  Well Temperature Period
~Parameter Information Block
#MNEM.UNIT            Value   Description
#---------- ----------------  -----------
APD  .M                  54:  Elevation of Depth Reference (LMF) above Permanent Datum
RUN  .                    1:  RUN NUMBER
PROJECT.     SLEIPNER_OST@st-vlinapp01:  
SET  .        RSTD_0912_IC3:  
~Other Information Block
# 
~A       DEPTH           CCLC           CCLD           CRRA             CS           CVEL           FBEF           FCOR           FERD           FIRD             GR           NCOR           NERD           NIRD        RB_PCMS           TENS           WTEP           WTPE 
# ...
    3376.42200        -0.1382         0.0000         2.9461         1.6690       -0.50870       115.4687         0.0452         4.7428         4.7428        44.5359      -0.001000         2.2518         2.2518       356.2671      2323.1560        80.8923         3.8906
    3376.57440        -0.0523         0.0000         2.9381         1.6670       -0.50810       115.2187        -0.0154         4.7198         4.7198        45.1300      -0.021000         2.2091         2.2091       356.2113      2319.2510        80.8672         3.8904
    3376.72680         0.1380         0.0000         2.9270         1.6755       -0.51070       114.5827        -0.0414         4.8844         4.8844        45.2941      -0.062600         2.2147         2.2147       356.2612      2326.4016        80.8467         3.8902
    3376.87920        -0.0411         0.0000         2.9223         1.6699       -0.50900       113.7708        -0.1319         4.6869         4.6869        44.9512       0.018700         2.1894         2.1894       356.4741      2325.5872        80.8035         3.8898
    3377.03160         0.0401         0.0000         2.9199         1.6591       -0.50570       112.4143        -0.0916         4.6789         4.6789        45.1545       0.028500         2.1874         2.1874       356.3135      2323.8340        80.7671         3.8895
    3377.18400         0.0010         0.0000         2.9078         1.6614       -0.50640       110.6602         0.0223         4.7181         4.7181        43.3908      -0.027400         2.1668         2.1668       356.0451      2329.5312        80.7008         3.8889
    3377.33640         0.0386         0.0000         2.8642         1.6552       -0.50450       108.5228        -0.2470         4.6513         4.6513        41.4016      -0.050400         2.1363         2.1363       355.9934      2321.2693        80.6693         3.8887
    3377.48880         0.0185         0.0000         2.8108         1.6532       -0.50390       109.5635        -0.0840         4.6796         4.6796        38.6899      -0.077100         2.1468         2.1468       355.9465      2326.6729        80.6172         3.8882
    3377.64120         0.2030         0.0000         2.8346         1.6604       -0.50610       110.0463         0.0136         4.6323         4.6323        37.4600      -0.048100         2.1724         2.1724       356.0960      2322.8787        80.5915         3.8880
    3377.79360        -0.0741         0.0000         2.8420         1.6512       -0.50330       111.7446         0.0529         4.6213         4.6213        36.4926      -0.012100         2.1771         2.1771       356.0315      2320.3530        80.5498         3.8876
    3377.94600        -0.0097         0.0000         2.8706         1.6552       -0.50450       110.9385         0.0868         4.5711         4.5711        37.0815       0.022300         2.2079         2.2079       356.0433      2327.0813        80.4637         3.8868
    3378.09840        -0.0128         0.0000         2.8389         1.6480       -0.50230       112.4363        -0.1883         4.5778         4.5778        38.1970      -0.040700         2.1827         2.1827       356.1386      2319.6313        80.4453         3.8867
    3378.25080        -0.0118         0.0000         2.8788         1.6545       -0.50430       112.9695        -0.0897         4.6245         4.6245        40.9477       0.043700         2.1571         2.1571       356.0215      2327.5571        80.4202         3.8865
    3378.40320        -0.0065         0.0000         2.8981         1.6614       -0.50640       114.4210        -0.0661         4.6035         4.6035        42.1086       0.052600         2.1590         2.1590       356.0245      2303.1912        80.3452         3.8858
    3378.55560         0.0118         0.0000         2.9243         1.6460       -0.50170       117.2250         0.1666         4.6423         4.6423        43.6830      -0.010900         2.1741         2.1741       355.8870      2342.6140        80.3046         3.8854
    3378.70800        -0.0135         0.0000         2.9611         1.6453       -0.50150       124.4864         0.4100         4.5425         4.5425        43.4132      -0.062100         2.2247         2.2247       355.8576      2324.6716        80.2864         3.8853
    3378.86040        -0.0154         0.0000         3.0104         1.6568       -0.50500       130.9257         0.9083         4.5581         4.5581        41.9590       0.094600         2.2409         2.2409       355.9255      2327.1545        80.2171         3.8847
    3379.01280        -0.0172         0.0000         3.0519         1.6490       -0.50260       137.9659         1.4628         4.5732         4.5732        40.8225       0.163800         2.2472         2.2472       356.0783      2336.3237        80.1677         3.8842
    3379.16520        -0.0141         0.0000         3.1586         1.6640       -0.50720       143.8542         1.6668         4.5358         4.5358        39.5299       0.219900         2.2520         2.2520       356.1140      2329.7417        80.1148         3.8838
    3379.31760         0.0607         0.0000         3.2715         1.6775       -0.51130       144.9354         1.5152         4.5874         4.5874        36.9272       0.249500         2.2360         2.2360       356.0522      2326.2156        80.0243         3.8830
    3379.47000        -0.0179         0.0000         3.2836         1.6804       -0.51220       140.7352         1.2889         4.5434         4.5434        36.2091       0.386300         2.2320         2.2320       355.9789      2326.5283        79.9824         3.8826
    3379.62240        -0.0145         0.0000         3.2439         1.6759       -0.51080       139.6550         0.8872         4.5772         4.5772        35.8067       0.245600         2.2338         2.2338       355.8148      2323.0522        79.8313         3.8813
    3379.77480         0.3573         0.0000         3.2552         1.6722       -0.50970       134.1491         0.4826         4.4834         4.4834        34.1129       0.235500         2.2522         2.2522       355.7715      2318.7361        79.8175         3.8811
    3379.92720         0.0851         0.0000         3.2916         1.6765       -0.51100       126.5587         0.3067         4.5032         4.5032        33.6793       0.100400         2.2735         2.2735       355.7642      2316.9070        79.7405         3.8805
    3380.07960        -0.1336         0.0000         3.1272         1.7477       -0.53270       122.5645         0.2216         4.5232         4.5232        32.9462       0.074300         2.2708         2.2708       355.6600      2330.3970        79.7071         3.8802
    3380.23200        -0.0104         0.0000         3.0817         1.6850       -0.51360       117.8312         0.1397         4.5446         4.5446        31.6163      -0.001400         2.2398         2.2398       355.6326      2312.0222        79.6415         3.8796
    3380.38440        -0.0091         0.0000         2.9846         1.6929       -0.51600       116.2610         0.1610         4.5425         4.5425        30.5970      -0.025400         2.1968         2.1968       355.7907      2317.0225        79.6091         3.8793
    3380.53680        -0.0078         0.0000         2.9464         1.7044       -0.51950       115.6240         0.0283         4.5949         4.5949        30.2120       0.054300         2.1605         2.1605       355.8713      2324.5630        79.5576         3.8788
    3380.68920        -0.0089         0.0000         2.9386         1.7139       -0.52240       115.5983         0.0862         4.5492         4.5492        29.0460       0.028500         2.1784         2.1784       355.8882      2320.2053        79.5460         3.8787
    3380.84160        -0.0074         0.0000         2.9364         1.7080       -0.52060       114.2118        -0.0147         4.4494         4.4494        28.9633      -0.052200         2.2211         2.2211       355.9504      2327.1440        79.5113         3.8784
