~Version Information Block
VERS .                 2.00:  CWLS LOG ASCII STANDARD - VERSION 2.00
WRAP .                   NO:  One line per depth step
~Well Information Block
#MNEM.UNIT        Data Type   Information
#---------- ----------------  -----------
STRT .M          3445.30680:  START DEPTH
STOP .M          3639.15960:  STOP DEPTH
STEP .M             0.15240:  STEP
NULL .              -999.25:  NULL VALUE
COMP .              Statoil:  COMPANY
WELL .          NO_15/9-F-5:  WELL
FLD  .                VOLVE:  FIELD
LOC  .            North Sea:  LOCATION
CTRY .                     :  COUNTRY
STAT .                     :  STATE
CNTY .                     :  COUNTY
SRVC .         Schlumberger:  SERVICE COMPANY
DATE .          16-Sep-2012:  DATE
API  .                     :  API NUMBER
UWI  .             15/9-F-5:  UNIQUE WELL ID
~Curve Information Block
#MNEM.UNIT         API CODE   Curve Description
#---------- ----------------  -----------------
DEPTH.M                    :  DEPTH (BOREHOLE)
CCLC .V                    :  CCL
CRRA .                     :  Near-Far Count Rate Ratio
CVEL .M/MIN                 :  Cable Velocity
FBEF .UA                   :  RST Far Effective Beam Current
FCOR .                     :  RST Far Carbon/Oxygen Ratio
FERD .                     :  RST Far IC Mode Capture Optimization Resolution Degradation Factor
FIRD .                     :  RST Far Inelastic Optimization Resolution Degradation Factor
GR   .GAPI                 :  Gamma Ray
NCOR .                     :  RST Near Carbon/Oxygen Ratio
NERD .                     :  RST Near IC Mode Capture Optimization Resolution Degradation Factor
NIRD .                     :  RST Near Inelastic Optimization Resolution Degradation Factor
RB_PCMS.DEG                  :  Relative Bearing
TENS .LBF                  :  Cable Tension
~Parameter Information Block
#MNEM.UNIT            Value   Description
#---------- ----------------  -----------
APD  .M           54.900002:  Elevation of Depth Reference (LMF) above Permanent Datum
RUN  .                Run 1:  RUN NUMBER
PROJECT.     SLEIPNER_OST@st-vlinapp01:  
SET  .        RSTD_0912_IC3:  
~Other Information Block
# 
~A       DEPTH           CCLC           CRRA           CVEL           FBEF           FCOR           FERD           FIRD             GR           NCOR           NERD           NIRD        RB_PCMS           TENS 
# ...
    3480.96840        -0.0017         2.8108       -0.40340       107.9432     0.06770000         5.2316         5.2316        33.7771       0.043600         2.7784         2.7784         8.3072      2836.0205
    3481.12080        -0.0012         2.8133       -0.40040       107.3671    -0.11340000         5.2227         5.2227        33.8868      -0.061000         2.7282         2.7282         8.2277      2833.5703
    3481.27320        -0.0039         2.7856       -0.38400       107.2083     0.01910000         5.1216         5.1216        34.3850       0.077000         2.7508         2.7508         8.1351      2836.4453
    3481.42560        -0.0010         2.7843       -0.38690       107.4654    -0.00460000         5.2863         5.2863        34.1723      -0.022100         2.7333         2.7333         8.0723      2825.9209
    3481.57800        -0.0444         2.7884       -0.38500       107.3822     0.14960000         5.3103         5.3103        34.5693       0.077900         2.7369         2.7369         8.1958      2835.5295
    3481.73040         0.0013         2.7935       -0.38870       107.7532    -0.10380000         5.1990         5.1990        35.1499      -0.089800         2.7672         2.7672         8.3443      2822.9380
    3481.88280        -0.0340         2.7896       -0.39000       107.5158    -0.01280000         5.3780         5.3780        35.9881      -0.050900         2.6714         2.6714         8.2941      2828.3135
    3482.03520        -0.0566         2.7982       -0.38890       107.3412    -0.00900000         5.3923         5.3923        35.7133      -0.007800         2.6538         2.6538         8.1800      2819.8467
    3482.18760         0.0019         2.7982       -0.38900       107.1223     0.06160000         5.2510         5.2510        35.4361       0.056300         2.6772         2.6772         8.0636      2825.2410
    3482.34000         0.0006         2.7947       -0.38830       107.6894    -0.06440000         5.3851         5.3851        35.6284       0.002100         2.6939         2.6939         8.1026      2817.7056
    3482.49240        -0.0020         2.8096       -0.39500       106.5769     0.00610000         5.4335         5.4335        35.3645       0.009300         2.6796         2.6796         8.1356      2815.6487
    3482.64480         0.4483         2.7870       -0.40360       106.4729     0.03340000         5.3542         5.3542        34.2297      -0.015900         2.6548         2.6548         8.1147      2817.6736
    3482.79720         0.0738         2.7740       -0.39980       106.6546     0.00040000         5.4417         5.4417        33.9668       0.033700         2.6404         2.6404         8.0551      2822.5859
    3482.94960        -0.0024         2.7848       -0.40000       106.8005    -0.05470000         5.4197         5.4197        33.9547      -0.002000         2.6029         2.6029         7.9806      2828.8372
    3483.10200         0.0541         2.7917       -0.40070       106.7263    -0.00420000         5.5207         5.5207        32.9154       0.055200         2.5819         2.5819         7.8766      2823.8530
    3483.25440        -0.0010         2.7917       -0.39700       106.1531    -0.02860000         5.5161         5.5161        32.2494       0.016200         2.5649         2.5649         7.8473      2827.8328
    3483.40680         0.0557         2.7698       -0.40430       105.7786    -0.06980000         5.5709         5.5709        31.9014       0.000300         2.5792         2.5792         7.8998      2820.0884
    3483.55920         0.1275         2.7685       -0.40410       105.9722     0.07840000         5.4910         5.4910        30.3686       0.023700         2.5603         2.5603         7.9040      2817.4424
    3483.71160        -0.0456         2.7720       -0.40530       105.4127    -0.10600000         5.5618         5.5618        30.2891       0.044100         2.5359         2.5359         8.0348      2821.9380
    3483.86400         0.0453         2.7646       -0.40950       106.0435    -0.09610000         5.5580         5.5580        30.2183      -0.103900         2.5435         2.5435         8.1977      2822.9282
    3484.01640         0.0234         2.7706       -0.41760       106.1252    -0.05160000         5.5461         5.5461        29.9199      -0.005100         2.5634         2.5634         8.3604      2815.4407
    3484.16880         0.0058         2.7742       -0.42980       105.3193     0.06810000         5.6428         5.6428        29.6385       0.026400         2.5239         2.5239         8.2030      2809.9500
    3484.32120         0.0436         2.7586       -0.42710       105.5655     0.00380000         5.6734         5.6734        30.4058       0.013800         2.4747         2.4747         8.0856      2806.8816
    3484.47360         0.1189         2.7701       -0.42950       104.9002    -0.04890000         5.5588         5.5588        30.0724       0.011500         2.4106         2.4106         8.0074      2826.6343
    3484.62600        -0.1274         2.7521       -0.43690       104.7539     0.01810000         5.6403         5.6403        29.8333       0.018300         2.3895         2.3895         7.9828      2826.4951
    3484.77840        -0.0022         2.7504       -0.43670       105.5757    -0.01230000         5.7254         5.7254        30.2003       0.026300         2.4317         2.4317         7.9790      2825.5525
    3484.93080        -0.1278         2.7582       -0.43600       105.8360    -0.01890000         5.5324         5.5324        30.7842       0.017800         2.5205         2.5205         8.0018      2825.9556
    3485.08320         0.0188         2.7634       -0.42950       105.5371     0.10610000         5.5432         5.5432        31.4236       0.097100         2.5684         2.5684         7.8140      2821.6992
    3485.23560        -0.0027         2.7553       -0.42190       105.2712    -0.07430000         5.4782         5.4782        31.7631      -0.087800         2.5463         2.5463         7.5470      2818.6094
    3485.38800        -0.0039         2.7782       -0.42700       104.2859     0.10150000         5.5181         5.5181        33.5047       0.014600         2.5155         2.5155         7.5585      2807.2803
    3485.54040        -0.0113         2.7753       -0.42960       104.4670    -0.02000000         5.4008         5.4008        37.5564      -0.053300         2.5214         2.5214         7.5568      2802.7197
    3485.69280        -0.0095         2.7788       -0.43890       106.3403     0.02530000         5.4206         5.4206        40.9973       0.024500         2.6414         2.6414         7.4851      2796.6763
    3485.84520        -0.0066         2.8024       -0.43530       110.3191     0.09870000         5.3340         5.3340        43.8740       0.010800         2.6599         2.6599         7.5928      2819.0222
    3485.99760         0.0859         2.8760       -0.43790       110.0070     0.19460000         5.2609         5.2609        46.1748      -0.034300         2.6065         2.6065         7.7792      2802.7444
    3486.15000        -0.0112         2.8632       -0.43320       110.0398     0.06360000         5.3176         5.3176        47.1808      -0.110300         2.5799         2.5799         7.8916      2822.9336
    3486.30240        -0.0128         2.8491       -0.42610       110.8106     0.11080000         5.2552         5.2552        45.0621      -0.023100         2.6390         2.6390         7.9667      2821.5530
    3486.45480        -0.0690         2.8550       -0.42460       110.5757    -0.09850000         5.2426         5.2426        42.9576      -0.055600         2.6486         2.6486         8.0477      2817.5710
    3486.60720        -0.0080         2.8512       -0.42740       110.1596     0.11380000         5.3551         5.3551        40.9703       0.029300         2.7000         2.7000         8.0140      2817.2437
    3486.75960        -0.0057         2.8365       -0.42280       110.4407     0.16140001         5.4588         5.4588        39.3786       0.074600         2.7413         2.7413         8.0335      2831.7625
