~Version Information Block
VERS .                 2.00:  CWLS LOG ASCII STANDARD - VERSION 2.00
WRAP .                   NO:  One line per depth step
~Well Information Block
#MNEM.UNIT        Data Type   Information
#---------- ----------------  -----------
STRT .M          3451.70760:  START DEPTH
STOP .M          3790.03560:  STOP DEPTH
STEP .M             0.15240:  STEP
NULL .              -999.25:  NULL VALUE
COMP .              Statoil:  COMPANY
WELL .        NO_15/9-F-1_C:  WELL
FLD  .                Volve:  FIELD
LOC  .            North Sea:  LOCATION
CTRY .               Norway:  COUNTRY
STAT .                     :  STATE
CNTY .                     :  COUNTY
SRVC .         Schlumberger:  SERVICE COMPANY
DATE .          27-Nov-2014:  DATE
API  .                     :  API NUMBER
UWI  .           15/9-F-1 C:  UNIQUE WELL ID
LATI .     58° 26' 29.91" N:  LATITUDE
LONG .      1° 53' 14.71" E:  LONGITUDE
~Curve Information Block
#MNEM.UNIT         API CODE   Curve Description
#---------- ----------------  -----------------
DEPTH.M                    :  DEPTH (BOREHOLE)
CVEL .M/SEC                 :  Cable Velocity
DFRB .DEG                  :  Calibrated Relative Bearing
FBEF .UA                   :  RST Far Effective Beam Current
FCOR .                     :  RST Far Carbon/Oxygen Ratio
FERD .                     :  RST Far IC Mode Capture Optimization
FIRD .                     :  RST Far Inelastic Optimization Resolution
GR   .GAPI                 :  Gamma Ray
NCOR .                     :  RST Near Carbon/Oxygen Ratio
NERD .                     :  RST Near IC Mode Capture Optimization
NIRD .                     :  RST Near Inelastic Optimization Resolution
PFC1 .IN                   :  PFCS CaliperX
PFC2 .IN                   :  PFCS CaliperY
TENS .LBF                  :  Cable Tension
~Parameter Information Block
#MNEM.UNIT            Value   Description
#---------- ----------------  -----------
APD  .M           54.900002:  Elevation of Depth Reference (LMF) above Permanent Datum
EPD  .C3                  0:  Elevation of Permanent Datum above Mean Sea Level
LMF  .                   KB:  Logging Measured From (Name of Logging Elevation Reference)
PDAT .                  MSL:  Permanent Datum
RUN  .                Run 1:  RUN NUMBER
TAPE_NAME.     Statoil_Volve_15-9-F-1 C_PLT-RST_28Nov14_ConCu_R1L18Up_IC2.las:  
TOOL_STRING.              UNKNOWN:  
WN   .           15/9-F-1 C:  WELL
PROJECT.     SLEIPNER_OST@st-vlinapp01:  
SET  .        RSTD_1114_IC2:  
~Other Information Block
# 
~A       DEPTH           CVEL           DFRB           FBEF           FCOR           FERD           FIRD             GR           NCOR           NERD           NIRD           PFC1           PFC2           TENS 
# ...
    3760.77480     -0.0082250       334.4070       118.8521        -0.0009         5.0414         5.0414        16.8440         0.0135         7.0499         7.0499         6.2164         6.0832      4553.5923
    3760.92720     -0.0088583       334.4070       118.7261        -0.1187         5.0033         5.0033        17.3968         0.0159         7.0247         7.0247         6.2187         6.0834      4542.6851
    3761.07960     -0.0071333       334.4070       119.8347        -0.0779         4.9926         4.9926        17.4443         0.0486         6.9545         6.9545         6.2209         6.0833      4508.0913
    3761.23200     -0.0070583       334.4070       119.2430         0.0393         4.9611         4.9611        17.8202         0.0482         6.9181         6.9181         6.2213         6.0834      4522.6030
    3761.38440     -0.0070217       334.4070       119.4608         0.0412         4.9921         4.9921        18.5914        -0.0844         7.0266         7.0266         6.2178         6.0833      4470.2671
    3761.53680     -0.0071700       334.4070       120.4045        -0.0825         4.9142         4.9142        18.6274         0.0240         6.9142         6.9142         6.2179         6.0815      4464.8174
    3761.68920     -0.0073667       334.4070       120.3308         0.0751         4.9889         4.9889        19.2334        -0.0389         6.8610         6.8610         6.2183         6.0830      4502.7070
    3761.84160     -0.0089167       334.4070       120.3760         0.0233         4.9811         4.9811        19.2899         0.0892         6.8547         6.8547         6.2184         6.0834      4462.2764
    3761.99400     -0.0086700       334.4070       120.4037         0.0245         5.1621         5.1621        18.5902         0.0147         6.8747         6.8747         6.2182         6.0834      4538.2012
    3762.14640     -0.0079867       334.4070       120.4585         0.1967         5.3806         5.3806        17.6526         0.0349         6.9350         6.9350         6.2162         6.0834      4437.6890
    3762.29880     -0.0070633       334.4070       119.0921        -0.0291         5.3839         5.3839        16.4732        -0.0700         6.9165         6.9165         6.2107         6.0834      4539.9478
    3762.45120     -0.0071633       334.4070       118.6516         0.1059         5.4281         5.4281        16.3091         0.0350         6.9732         6.9732         6.1974         6.0833      4524.0439
    3762.60360     -0.0069717       334.4070       118.3053        -0.0842         5.2318         5.2318        16.4937         0.0068         6.9547         6.9547         6.1916         6.0833      4530.2378
    3762.75600     -0.0071083       334.4070       117.9784         0.0973         5.2249         5.2249        17.3311         0.0574         7.1129         7.1129         6.2113         6.0834      4519.8086
    3762.90840     -0.0089317       334.4070       117.5719        -0.0006         5.1606         5.1606        18.1331         0.0813         7.0964         7.0964         6.2121         6.0834      4463.3799
    3763.06080     -0.0076350       334.4070       117.3433        -0.0732         5.1552         5.1552        19.1421        -0.0176         7.0168         7.0168         6.2123         6.0834      4419.4160
    3763.21320     -0.0071883       334.4070       117.9674        -0.0403         5.0920         5.0920        19.5349        -0.0059         7.0122         7.0122         6.2149         6.0834      4396.8799
    3763.36560     -0.0066883       334.4070       117.6012        -0.0859         5.0397         5.0397        19.8495        -0.0462         6.9554         6.9554         6.2185         6.0834      4620.0815
    3763.51800     -0.0070083       334.4070       118.0135        -0.0413         5.0166         5.0166        19.3460         0.0312         7.0439         7.0439         6.2069         6.0800      4572.1782
    3763.67040     -0.0086667       334.4070       118.1147        -0.0961         5.1561         5.1561        19.7682        -0.0069         7.0971         7.0971         6.2048         6.0775      4565.4697
    3763.82280     -0.0089917       334.4070       117.0926         0.0050         5.1296         5.1296        19.7106         0.0708         7.1272         7.1272         6.2099         6.0821      4520.7480
    3763.97520     -0.0081017       334.4070       117.0670        -0.0244         5.1291         5.1291        18.8426         0.0624         7.1103         7.1103         6.2218         6.0822      4533.0322
    3764.12760     -0.0070433       334.4070       117.5703         0.0559         5.1807         5.1807        19.3128         0.0183         7.0629         7.0629         6.2169         6.0834      4534.0464
    3764.28000     -0.0071550       334.4070       117.8880        -0.0031         5.2016         5.2016        19.6483         0.0294         7.0805         7.0805         6.2189         6.0834      4484.8657
    3764.43240     -0.0068700       334.4070       116.8212         0.0485         5.0833         5.0833        18.8994         0.1069         7.0662         7.0662         6.2168         6.0825      4554.4927
    3764.58480     -0.0083183       334.4070       117.9795        -0.0175         5.0887         5.0887        20.0026        -0.0659         7.0614         7.0614         6.2195         6.0820      4491.3906
    3764.73720     -0.0079383       334.4070       116.7674         0.0799         5.0146         5.0146        21.8741         0.0052         7.1037         7.1037         6.2059         6.0815      4554.3613
    3764.88960     -0.0068517       334.4070       116.6514         0.0280         5.0387         5.0387        21.8859        -0.0632         7.0439         7.0439         6.2045         6.0765      4514.6748
    3765.04200     -0.0069583       334.4070       117.3287        -0.0253         5.0623         5.0623        21.1882         0.0335         7.0762         7.0762         6.1960         6.0614      4523.1743
    3765.19440     -0.0069183       335.8180       117.2008        -0.0394         5.0564         5.0564        19.9957         0.0181         7.0700         7.0700         6.1974         6.0634      4551.0513
    3765.34680     -0.0089767       335.8180       117.0519         0.0060         5.1332         5.1332        17.3350         0.0428         7.0631         7.0631         6.1964         6.0597      4491.7466
    3765.49920     -0.0088583       334.4070       121.2765        -0.0187         4.9614         4.9614        15.0660         0.0768         7.0447         7.0447         6.1971         6.0671      4466.4614
    3765.65160     -0.0078333       335.8180       120.5986         0.0028         5.0397         5.0397        14.1258         0.0788         7.0708         7.0708         6.1802         6.0430      4515.1421
    3765.80400     -0.0071833       335.8180       118.0217        -0.1483         4.9215         4.9215        14.8620         0.0324         7.0572         7.0572         6.0958         5.9745      4425.6201
    3765.95640     -0.0082283       335.8180       117.2111        -0.0184         4.9114         4.9114        16.3821         0.0647         7.0526         7.0526         6.0945         5.9756      4381.4155
    3766.10880     -0.0079250       337.2290       117.3941         0.0602         4.7775         4.7775        19.2657        -0.0485         7.0393         7.0393         6.2172         6.0793      4463.5718
    3766.26120     -0.0069800       337.2290       118.2801        -0.0347         4.8357         4.8357        21.5535         0.0522         6.9493         6.9493         6.2211         6.0834      4469.0088
    3766.41360     -0.0070683       337.2290       118.8926         0.0139         4.8799         4.8799        23.3320        -0.0178         6.9139         6.9139         6.2219         6.0834      4540.3765
    3766.56600     -0.0071383       337.2290       118.7116         0.0670         5.0763         5.0763        25.5678        -0.0588         6.9465         6.9465         6.2205         6.0801      4474.8691
