~Version Information Block
VERS .                 2.00:  CWLS LOG ASCII STANDARD - VERSION 2.00
WRAP .                   NO:  One line per depth step
~Well Information Block
#MNEM.UNIT        Data Type   Information
#---------- ----------------  -----------
STRT .M          3460.24200:  START DEPTH
STOP .M          3530.19360:  STOP DEPTH
STEP .M             0.15240:  STEP
NULL .              -999.25:  NULL VALUE
COMP .              Statoil:  COMPANY
WELL .          NO_15/9-F-5:  WELL
FLD  .                Volve:  FIELD
LOC  .                Volve:  LOCATION
CTRY .               Norway:  COUNTRY
STAT .                     :  STATE
CNTY .                     :  COUNTY
SRVC .         Schlumberger:  SERVICE COMPANY
DATE .           11/03/2015:  DATE
API  .                     :  API NUMBER
UWI  .             15/9-F-5:  UNIQUE WELL ID
LATI .     58° 26' 29.66" N:  LATITUDE
LONG .      1° 53' 14.99" E:  LONGITUDE
~Curve Information Block
#MNEM.UNIT         API CODE   Curve Description
#---------- ----------------  -----------------
DEPTH.M                    :  Depth Index
CCLC .V                    :  (PSTP-B)                (1in)                   CCL Computed Amplitude
CVEL .M/SEC                 :  (WLWorkflow)            (1in)                   Cable Velocity
FBEF .UA                   :  (RST-D)                 (6in)                   Far Effective Beam Curre
FCOR .                     :  (RST-D)                 (6in)                   Far Carbon/Oxygen Ratio
FERD .                     :  (RST-D)                 (6in)                   Far IC Mode Capture Opti
FIRD .                     :  (RST-D)                 (6in)                   Far Inelastic Optimizati
GR   .GAPI                 :  (PSTP-B)                (6in)                   Gamma Ray
NCOR .                     :  (RST-D)                 (6in)                   Near Carbon/Oxygen Ratio
NERD .                     :  (RST-D)                 (6in)                   Near IC Mode Capture Opt
NIRD .                     :  (RST-D)                 (6in)                   Near Inelastic Optimizat
RB_PCMS.DEG                  :  (PCMS-A)                (6in)                   Relative Bearing
TENS .LBF                  :  (WLWorkflow)            (1in)                   Cable Tension
WPRE .BAR                  :  (PSTP-B)                (6in)                   Well Pressure
WTEP .DEGC                 :  (PSTP-B)                (6in)                   Well Temperature
~Parameter Information Block
#MNEM.UNIT            Value   Description
#---------- ----------------  -----------
APD  .M                  54:  Elevation of Depth Reference (LMF) Above Permanent Datum
CLAB .              Country:  :County Label
ECF  .M             -999.25:  Elevation of Casing Flange above Permanent Datum
EDF  .M                  54:  Elevation of Drill Floor Above Permanent Datum
EGL  .M                 -91:  Elevation of Ground Level Above Permanent Datum
EKB  .M             -999.25:  Elevation of Kelly Bushing Above Permanent Datum
EPD  .M                   0:  Elevation of Permanent Datum (PDAT) above Mean Sea Level
FL1  .            North Sea:  Field Location Line 1
FL2  .     Norwegian Sector:  Field Location Line 2
LMF  .                   DF:  Logging Measured From
LUL  .                 NOBO:  Logging Unit Location
LUN  .          ONCC-A 3837:  Logging Unit Number
PDAT .                  MSL:  Local Permanent Datum
RIGN .      Maersk Inspirer:  Rig Name
RIGTYP.               Jackup:  Rig Type
SON  .           C2TQ-00038:  Service Order Number
TAPE_NAME.     RST_IC_Pass-2___03Nov15_214110.las:  
TOOL_STRING.              UNKNOWN:  
WN   .             15/9-F-5:  WELL NAME
PROJECT.     SLEIPNER_OST@st-vlinapp01:  
SET  .        RSTD_1115_IC2:  
~Other Information Block
# 
~A       DEPTH           CCLC           CVEL           FBEF           FCOR           FERD           FIRD             GR           NCOR           NERD           NIRD        RB_PCMS           TENS           WPRE           WTEP 
# ...
    3515.10600       -0.00379     -0.0078365       144.5987      -0.022670         5.4165         5.4165       126.2505       0.032770         4.0377         4.0377       354.5516      3975.2764       362.4606        82.1818
    3515.25840       -0.00425     -0.0083382       144.5063       0.064830         5.4202         5.4202       125.8384       0.039050         4.0188         4.0188       354.6189      4059.6313       362.4720        82.1762
    3515.41080       -0.00553     -0.0083933       143.5704       0.033110         5.3929         5.3929       125.0035       0.079010         4.0749         4.0749       354.6109      3885.1077       362.4842        82.1722
    3515.56320       -0.00071     -0.0082553       144.5827       0.148170         5.3862         5.3862       124.7990       0.021330         4.1184         4.1184       354.5645      3940.8267       362.4960        82.1635
    3515.71560       -0.00526     -0.0082413       145.2540       0.108000         5.2997         5.2997       121.5587      -0.071010         4.1554         4.1554       354.5222      3969.8899       362.5098        82.1560
    3515.86800       -0.00115     -0.0082688       143.8767      -0.002850         5.3536         5.3536       120.7547      -0.001080         4.1687         4.1687       354.5326      3847.7668       362.5204        82.1425
    3516.02040        0.00377     -0.0075955       142.2270      -0.055470         5.2470         5.2470       118.0573       0.033670         4.1227         4.1227       354.4491      3882.3718       362.5319        82.1434
    3516.17280       -0.00153     -0.0078998       139.6707       0.099800         5.2641         5.2641       114.0640       0.035420         4.1510         4.1510       354.3831      3875.8208       362.5413        82.1288
    3516.32520       -0.00669     -0.0077200       138.5209      -0.028660         5.4642         5.4642       109.3981       0.045530         4.1389         4.1389       354.3090      3929.0781       362.5568        82.1120
    3516.47760       -0.00691     -0.0075442       140.3464       0.052960         5.5262         5.5262       105.7133       0.061010         4.1312         4.1312       353.9366      3988.0208       362.5674        82.0898
    3516.63000       -0.00653     -0.0078137       143.1292       0.167610         5.5797         5.5797        98.3028       0.037880         4.0991         4.0991       353.9434      3923.9998       362.5799        82.0869
    3516.78240        0.17432     -0.0077792       143.8917      -0.229940         5.7561         5.7561        96.2240       0.034750         4.1062         4.1062       353.9760      4019.2512       362.5897        82.0566
    3516.93480        0.00211     -0.0078537       141.7074       0.179380         5.8496         5.8496        93.7843       0.014610         4.1037         4.1037       353.9732      4012.2461       362.6039        82.0460
    3517.08720       -0.00775     -0.0083230       135.1265       0.008260         5.7110         5.7110        91.8639      -0.024520         4.1122         4.1122       354.1615      3883.1924       362.6155        82.0350
    3517.23960        0.01130     -0.0084487       135.0394       0.062120         5.7636         5.7636        90.1335       0.024270         4.1343         4.1343       354.3485      3983.8057       362.6246        82.0210
    3517.39200       -0.00861     -0.0083660       134.1429       0.056120         5.6884         5.6884        90.9952      -0.002510         4.1357         4.1357       354.2754      3953.0427       362.6412        82.0161
    3517.54440       -0.00898     -0.0082840       135.9707       0.059350         5.6606         5.6606        89.1560       0.084880         4.1342         4.1342       354.2095      3877.4778       362.6527        82.0081
    3517.69680       -0.01097     -0.0082150       137.1949       0.122460         5.7251         5.7251        85.7655       0.061640         4.1179         4.1179       354.1541      3882.7651       362.6632        81.9751
    3517.84920       -0.01719     -0.0081387       136.6919      -0.029590         5.8257         5.8257        81.3350       0.058760         4.1344         4.1344       354.0398      3875.7354       362.6764        81.9483
    3518.00160       -0.01361     -0.0078905       135.2224      -0.031650         5.8780         5.8780        76.6226       0.069330         4.1214         4.1214       353.9274      3924.9146       362.6893        81.9432
    3518.15400       -0.01509     -0.0076733       134.4317       0.129760         5.9380         5.9380        71.7244      -0.022460         4.1327         4.1327       353.7815      3882.5627       362.7013        81.9095
    3518.30640        0.01303     -0.0075207       134.7081      -0.059640         5.9963         5.9963        69.1331      -0.039400         4.1388         4.1388       353.5441      3913.2561       362.7126        81.9119
    3518.45880       -0.01721     -0.0072295       134.0242      -0.011350         6.0995         6.0995        69.7397       0.021910         4.1213         4.1213       353.3796      4008.7683       362.7294        81.8702
    3518.61120        0.16248     -0.0077013       134.1312       0.110790         5.9098         5.9098        70.5945      -0.009190         4.1506         4.1506       353.4338      3912.2556       362.7515        81.8733
    3518.76360       -0.01635     -0.0077527       135.2757       0.162080         5.7920         5.7920        70.7217       0.001420         4.1790         4.1790       353.4221      3962.6465       362.7543        81.8705
    3518.91600       -0.01834     -0.0076723       134.9431      -0.084090         5.7895         5.7895        70.4967       0.108900         4.2315         4.2315       352.9273      4017.0615       362.7825        81.8458
    3519.06840       -0.00514     -0.0078235       135.5487       0.107750         5.6621         5.6621        71.6491       0.032640         4.2345         4.2345       352.9906      3884.1611       362.7963        81.8458
    3519.22080       -0.00577     -0.0079380       135.8137      -0.057490         5.6588         5.6588        70.6184       0.083320         4.2615         4.2615       352.8376      3935.1726       362.7984        81.8460
    3519.37320       -0.00648     -0.0083825       134.7213      -0.043730         5.6278         5.6278        70.6861       0.050820         4.2631         4.2631       352.2865      3956.3992       362.8006        81.8456
    3519.52560       -0.00727     -0.0083230       135.2754      -0.035980         5.4862         5.4862        70.1411      -0.009620         4.2497         4.2497       352.0384      3908.8093       362.8025        81.8461
    3519.67800       -0.00795     -0.0081067       135.7660       0.029770         5.5149         5.5149        70.9568      -0.016080         4.2979         4.2979       350.5388      3923.4465       362.8046        81.8462
    3519.83040       -0.00892     -0.0076712       136.5972       0.018360         5.6275         5.6275        72.1814       0.121610         4.2229         4.2229       350.5379      3920.8613       362.8066        81.8466
    3519.98280       -0.01001     -0.0074682       136.0328      -0.016320         5.5901         5.5901        73.0647       0.014840         4.2094         4.2094       350.2983      3924.8403       362.8084        81.8469
    3520.13520       -0.01123     -0.0083260       136.9827      -0.099540         5.5684         5.5684        72.2138      -0.041020         4.1929         4.1929       349.9638      3893.2886       362.8103        81.8465
    3520.28760       -0.01261     -0.0083708       136.3382      -0.032820         5.6957         5.6957        72.8677      -0.010890         4.2268         4.2268       349.9650      3932.7268       362.8124        81.8467
    3520.44000       -0.01414     -0.0081068       137.9001      -0.012880         5.6569         5.6569        73.2191       0.067760         4.2427         4.2427       349.9732      3995.9138       362.8147        81.8464
