~Version Information Block
VERS .                 2.00:  CWLS LOG ASCII STANDARD - VERSION 2.00
WRAP .                   NO:  One line per depth step
~Well Information Block
#MNEM.UNIT        Data Type   Information
#---------- ----------------  -----------
STRT .M          3445.30680:  START DEPTH
STOP .M          3639.15960:  STOP DEPTH
STEP .M             0.15240:  STEP
NULL .              -999.25:  NULL VALUE
COMP .              Statoil:  COMPANY
WELL .          NO_15/9-F-5:  WELL
FLD  .                VOLVE:  FIELD
LOC  .            North Sea:  LOCATION
CTRY .                     :  COUNTRY
STAT .                     :  STATE
CNTY .                     :  COUNTY
SRVC .         Schlumberger:  SERVICE COMPANY
DATE .          16-Sep-2012:  DATE
API  .                     :  API NUMBER
UWI  .             15/9-F-5:  UNIQUE WELL ID
~Curve Information Block
#MNEM.UNIT         API CODE   Curve Description
#---------- ----------------  -----------------
DEPTH.M                    :  DEPTH (BOREHOLE)
CCLC .V                    :  CCL
CRRA .                     :  Near-Far Count Rate Ratio
CVEL .M/MIN                 :  Cable Velocity
FBEF .UA                   :  RST Far Effective Beam Current
FCOR .                     :  RST Far Carbon/Oxygen Ratio
FERD .                     :  RST Far IC Mode Capture Optimization Resolution Degradation Factor
FIRD .                     :  RST Far Inelastic Optimization Resolution Degradation Factor
GR   .GAPI                 :  Gamma Ray
NCOR .                     :  RST Near Carbon/Oxygen Ratio
NERD .                     :  RST Near IC Mode Capture Optimization Resolution Degradation Factor
NIRD .                     :  RST Near Inelastic Optimization Resolution Degradation Factor
RB_PCMS.DEG                  :  Relative Bearing
TENS .LBF                  :  Cable Tension
~Parameter Information Block
#MNEM.UNIT            Value   Description
#---------- ----------------  -----------
APD  .M           54.900002:  Elevation of Depth Reference (LMF) above Permanent Datum
RUN  .                Run 1:  RUN NUMBER
PROJECT.     SLEIPNER_OST@st-vlinapp01:  
SET  .        RSTD_0912_IC3:  
~Other Information Block
# 
~A       DEPTH           CCLC           CRRA           CVEL           FBEF           FCOR           FERD           FIRD             GR           NCOR           NERD           NIRD        RB_PCMS           TENS 
# ...
    3623.61480        -0.0342         3.0500       -0.33080       114.9306     0.03830000         5.0222         5.0222        30.0119       0.028700         2.2273         2.2273         6.6435      2816.6523
    3623.76720         2.1576         3.0591       -0.33210       111.6711    -0.02880000         4.9476         4.9476        29.5872      -0.004000         2.2416         2.2416         6.4365      2818.0803
    3623.91960        -0.0341         2.8843       -0.32480       107.8865     0.03190000         4.7948         4.7948        29.0059      -0.025400         2.2823         2.2823         6.3939      2822.3887
    3624.07200         0.1204         2.7868       -0.33040       106.1507     0.03460000         4.7570         4.7570        30.0129      -0.098800         2.2462         2.2462         6.5265      2829.0435
    3624.22440        -0.0351         2.7734       -0.33060       104.2686    -0.03900000         4.6350         4.6350        30.2291       0.007300         2.1918         2.1918         6.5693      2830.0193
    3624.37680         0.0308         2.7702       -0.32920       100.0913     0.04950000         4.6558         4.6558        29.8578       0.007500         2.2108         2.2108         6.5237      2831.5300
    3624.52920         0.1033         2.6703       -0.32870        97.6970     0.09300000         4.5874         4.5874        29.8434       0.008800         2.2052         2.2052         6.4629      2824.1899
    3624.68160        -0.0366         2.6171       -0.33190        97.5540     0.06170000         4.5822         4.5822        31.2938       0.036500         2.2225         2.2225         6.4974      2826.1792
    3624.83400        -0.0674         2.6211       -0.33440        97.1570     0.08520000         4.6314         4.6314        31.5150       0.031800         2.2077         2.2077         6.5874      2833.5452
    3624.98640         0.0746         2.6017       -0.33040        99.4497    -0.03530000         4.5581         4.5581        32.4505       0.004500         2.1944         2.1944         6.6089      2821.8696
    3625.13880         0.0386         2.6034       -0.32770       101.6235     0.01710000         4.5428         4.5428        32.3453       0.045000         2.1774         2.1774         6.6012      2824.2124
    3625.29120         0.0327         2.6488       -0.33340       103.7214    -0.11090000         4.4334         4.4334        32.4039      -0.012700         2.1322         2.1322         6.5785      2828.4951
    3625.44360        -0.0390         2.7149       -0.32580       103.1365     0.06740000         4.3914         4.3914        31.4947      -0.044200         2.1404         2.1404         6.5428      2834.5215
    3625.59600        -0.0649         2.7426       -0.32470       101.9885    -0.28049999         4.2501         4.2501        30.1661       0.058500         2.1796         2.1796         6.4574      2835.0708
    3625.74840        -0.0106         2.6951       -0.32890       102.1620    -0.06210000         4.2014         4.2014        28.5287       0.051100         2.2055         2.2055         6.3890      2830.1011
    3625.90080        -0.0325         2.6669       -0.33830       105.5139    -0.00760000         4.2396         4.2396        28.0402      -0.005500         2.1376         2.1376         6.2596      2820.8203
    3626.05320         0.0075         2.7529       -0.34330       107.0263     0.06800000         4.2008         4.2008        30.4341       0.027900         2.1261         2.1261         6.1924      2818.7158
    3626.20560        -0.0512         2.7953       -0.36870       109.3388     0.01090000         3.9863         3.9863        34.7720      -0.028500         2.1924         2.1924         6.1921      2815.7305
    3626.35800         0.2063         2.8361       -0.37120       111.8697     0.02640000         3.6661         3.6661        40.2740       0.034100         2.2072         2.2072         6.1333      2833.0732
    3626.51040        -0.0304         2.8993       -0.37160       113.8690     0.01310000         3.7884         3.7884        47.1169      -0.018100         2.1906         2.1906         6.0826      2823.2461
    3626.66280        -0.0325         2.9601       -0.36810       113.5984    -0.01490000         3.7893         3.7893        53.2251       0.058900         2.1560         2.1560         6.0870      2824.4141
    3626.81520        -0.0345         2.9498       -0.36500       113.3575    -0.15250000         3.8311         3.8311        57.6091       0.049400         2.1452         2.1452         5.9611      2824.2368
    3626.96760         0.1951         2.9326       -0.36880       113.6182     0.00580000         3.7915         3.7915        59.8173       0.020500         2.1809         2.1809         5.8925      2825.9006
    3627.12000        -0.1048         2.9298       -0.36540       113.5618    -0.00560000         3.8469         3.8469        61.0967      -0.031000         2.1207         2.1207         5.8521      2827.9331
    3627.27240        -0.0372         2.9342       -0.37250       114.0745    -0.04010000         3.8412         3.8412        61.8534       0.054000         2.1251         2.1251         5.8227      2822.5000
    3627.42480        -0.0402         2.9281       -0.36960       114.0199    -0.02650000         3.8680         3.8680        61.3229      -0.027600         2.1199         2.1199         5.8123      2844.2676
    3627.57720        -0.0379         2.9247       -0.37040       115.2500    -0.04620000         3.8697         3.8697        61.1174      -0.006100         2.1612         2.1612         5.7896      2845.0996
    3627.72960         0.0455         2.9522       -0.36940       115.4480    -0.08980000         3.7537         3.7537        60.3791      -0.007600         2.1450         2.1450         5.6572      2830.7737
    3627.88200         0.4435         2.9449       -0.37120       115.6445     0.01390000         3.7620         3.7620        60.4789       0.037500         2.1832         2.1832         5.5405      2837.3833
    3628.03440        -0.0043         2.9538       -0.36990       115.8994     0.01990000         3.7504         3.7504        59.6413      -0.033000         2.2299         2.2299         5.5115      2827.8254
    3628.18680        -0.0048         2.9505       -0.37240       116.4104     0.08200000         3.8763         3.8763        60.0974       0.018800         2.2600         2.2600         5.3507      2831.2446
    3628.33920        -0.0054         2.9647       -0.36740       115.6667    -0.05420000         3.8261         3.8261        59.7228       0.050900         2.3029         2.3029         5.2569      2821.8340
    3628.49160        -0.0060         2.9378       -0.36880       115.9904     0.09660000         3.7564         3.7564        59.6182       0.002000         2.3199         2.3199         5.0967      2834.4597
    3628.64400        -0.0068         2.9509       -0.36820       116.6719    -0.06060000         3.7333         3.7333        59.2880      -0.104900         2.3694         2.3694         5.0537      2837.7825
    3628.79640        -0.0076         2.9663       -0.37100       116.0301    -0.07390000         3.8745         3.8745        60.1257      -0.008900         2.3650         2.3650         4.9932      2831.7783
    3628.94880        -0.0085         2.9673       -0.36790       116.4310    -0.03040000         3.8619         3.8619        60.1764      -0.023500         2.3170         2.3170         4.9538      2814.6514
    3629.10120        -0.0095         2.9646       -0.37000       115.8113    -0.07030000         3.9472         3.9472        60.4477      -0.027400         2.3457         2.3457         4.9515      2821.4934
    3629.25360        -0.0107         2.9441       -0.36350       115.9862    -0.05860000         3.8610         3.8610        60.4477      -0.017300         2.3164         2.3164         4.9507      2814.7129
    3629.40600        -0.0120         2.9601       -0.36970       115.8090     0.08400000         3.7921         3.7921        60.4477      -0.052200         2.3309         2.3309         4.9508      2816.4141
