~Version Information Block
VERS .                 2.00:  CWLS LOG ASCII STANDARD - VERSION 2.00
WRAP .                   NO:  One line per depth step
~Well Information Block
#MNEM.UNIT        Data Type   Information
#---------- ----------------  -----------
STRT .M          3454.60320:  START DEPTH
STOP .M          3792.47400:  STOP DEPTH
STEP .M             0.15240:  STEP
NULL .              -999.25:  NULL VALUE
COMP .              Statoil:  COMPANY
WELL .        NO_15/9-F-1_C:  WELL
FLD  .                Volve:  FIELD
LOC  .            North Sea:  LOCATION
CTRY .               Norway:  COUNTRY
STAT .                     :  STATE
CNTY .                     :  COUNTY
SRVC .         Schlumberger:  SERVICE COMPANY
DATE .          27-Nov-2014:  DATE
API  .                     :  API NUMBER
UWI  .           15/9-F-1 C:  UNIQUE WELL ID
LATI .     58° 26' 29.91" N:  LATITUDE
LONG .      1° 53' 14.71" E:  LONGITUDE
~Curve Information Block
#MNEM.UNIT         API CODE   Curve Description
#---------- ----------------  -----------------
DEPTH.M                    :  DEPTH (BOREHOLE)
CVEL .M/SEC                 :  Cable Velocity
DFRB .DEG                  :  Calibrated Relative Bearing
FBEF .UA                   :  RST Far Effective Beam Current
FCOR .                     :  RST Far Carbon/Oxygen Ratio
FERD .                     :  RST Far IC Mode Capture Optimization
FIRD .                     :  RST Far Inelastic Optimization Resolution
GR   .GAPI                 :  Gamma Ray
NCOR .                     :  RST Near Carbon/Oxygen Ratio
NERD .                     :  RST Near IC Mode Capture Optimization
NIRD .                     :  RST Near Inelastic Optimization Resolution
PFC1 .IN                   :  PFCS CaliperX
PFC2 .IN                   :  PFCS CaliperY
TENS .LBF                  :  Cable Tension
~Parameter Information Block
#MNEM.UNIT            Value   Description
#---------- ----------------  -----------
APD  .M           54.900002:  Elevation of Depth Reference (LMF) above Permanent Datum
EPD  .C3                  0:  Elevation of Permanent Datum above Mean Sea Level
LMF  .                   KB:  Logging Measured From (Name of Logging Elevation Reference)
PDAT .                  MSL:  Permanent Datum
RUN  .                Run 1:  RUN NUMBER
TAPE_NAME.     ConCu_R1L19Up_S012_PFCS_PILS_DEFT_RST_PCMS_PSTP.las:  
TOOL_STRING.              UNKNOWN:  
WN   .           15/9-F-1 C:  WELL
PROJECT.     SLEIPNER_OST@st-vlinapp01:  
SET  .        RSTD_1114_IC3:  
~Other Information Block
# 
~A       DEPTH           CVEL           DFRB           FBEF           FCOR           FERD           FIRD             GR           NCOR           NERD           NIRD           PFC1           PFC2           TENS 
# ...
    3745.83960      -0.007638       351.3390       116.0881         0.1035         5.3331         5.3331        20.3081         0.0056         7.0732         7.0732         6.2219         6.0757      4444.2129
    3745.99200      -0.007567       351.3390       116.3859         0.0969         5.3203         5.3203        20.7298         0.0257         7.0848         7.0848         6.2219         6.0650      4421.9570
    3746.14440      -0.007782       351.3390       117.0237         0.0471         5.3207         5.3207        22.5667         0.1150         7.1042         7.1042         6.2219         6.0692      4468.5864
    3746.29680      -0.007945       351.3390       118.3571         0.0933         5.1999         5.1999        21.5613         0.0190         7.1743         7.1743         6.2220         6.0834      4420.6294
    3746.44920      -0.007690       351.3390       116.5873         0.1161         5.1941         5.1941        20.1124         0.0062         7.1211         7.1211         6.2219         6.0828      4395.6895
    3746.60160      -0.008155       349.9280       116.9354        -0.0740         5.1295         5.1295        20.5473         0.1580         7.1522         7.1522         6.2219         6.0804      4436.8916
    3746.75400      -0.008002       349.9280       117.0118         0.0377         5.2312         5.2312        20.4994         0.1129         7.1236         7.1236         6.2220         6.0831      4436.4609
    3746.90640      -0.007467       349.9280       118.5540         0.0332         5.2634         5.2634        19.4347         0.0871         7.1204         7.1204         6.2219         6.0829      4468.6035
    3747.05880      -0.007617       349.9280       117.9500        -0.1185         5.3018         5.3018        20.1575         0.0524         7.2109         7.2109         6.2219         6.0833      4408.5269
    3747.21120      -0.007682       349.9280       118.2169         0.0811         5.2479         5.2479        21.3934         0.0467         7.1406         7.1406         6.2219         6.0834      4407.5391
    3747.36360      -0.007408       348.5170       117.2889         0.0890         5.2613         5.2613        21.9196         0.0054         7.1139         7.1139         6.2219         6.0835      4533.3667
    3747.51600      -0.007517       348.5170       116.7287         0.1160         5.3676         5.3676        22.4444         0.0349         7.1422         7.1422         6.2218         6.0835      4454.3813
    3747.66840      -0.007513       345.6950       116.2897         0.1296         5.4102         5.4102        21.8511        -0.0826         7.0252         7.0252         6.2218         6.0834      4512.9150
    3747.82080      -0.007517       345.6950       115.3751         0.1393         5.4689         5.4689        22.3455         0.0143         6.9340         6.9340         6.2218         6.0834      4502.1514
    3747.97320      -0.007677       345.6950       115.1055        -0.0633         5.4985         5.4985        22.0076         0.0436         6.9088         6.9088         6.2217         6.0834      4431.0068
    3748.12560      -0.008335       345.6950       115.1629         0.0855         5.5309         5.5309        21.0856         0.0340         6.8902         6.8902         6.2215         6.0832      4494.9819
    3748.27800      -0.008013       344.2840       115.4444         0.1158         5.5643         5.5643        20.9671         0.1041         6.8566         6.8566         6.2199         6.0827      4460.1489
    3748.43040      -0.007635       342.8730       115.9040         0.1642         5.5592         5.5592        21.2184        -0.0003         6.8795         6.8795         6.2195         6.0834      4481.4731
    3748.58280      -0.007625       342.8730       115.2426         0.1107         5.4887         5.4887        21.1698         0.0478         6.8538         6.8538         6.2152         6.0834      4495.2969
    3748.73520      -0.007625       341.4620       115.1615         0.0884         5.3999         5.3999        21.0543         0.0342         6.8902         6.8902         6.2181         6.0834      4489.9209
    3748.88760      -0.007547       341.4620       116.0359         0.0105         5.3760         5.3760        20.1740        -0.0029         6.8549         6.8549         6.2167         6.0776      4472.3203
    3749.04000      -0.007695       340.0510       117.3084        -0.0549         5.4660         5.4660        19.1416        -0.1243         6.8547         6.8547         6.2105         6.0834      4495.3110
    3749.19240      -0.007855       340.0510       116.9161         0.1081         5.4635         5.4635        18.7408        -0.0520         6.8499         6.8499         6.2081         6.0834      4448.4712
    3749.34480      -0.007725       340.0510       116.6982         0.0261         5.5636         5.5636        17.1185         0.0499         6.8438         6.8438         6.2066         6.0833      4458.4800
    3749.49720      -0.008337       340.0510       116.9778         0.1317         5.5519         5.5519        16.0750         0.0171         6.7884         6.7884         6.2065         6.0834      4447.4980
    3749.64960      -0.008912       338.6400       116.3469        -0.1357         5.5640         5.5640        16.9923        -0.0599         6.7719         6.7719         6.2081         6.0834      4465.2344
    3749.80200      -0.007797       338.6400       115.4528         0.1890         5.5922         5.5922        17.8650        -0.0565         6.7353         6.7353         6.2095         6.0834      4447.5103
    3749.95440      -0.007747       337.2290       116.3384        -0.0922         5.5802         5.5802        18.9592         0.0595         6.7483         6.7483         6.2041         6.0834      4512.7300
    3750.10680      -0.007798       337.2290       116.1800         0.0953         5.5297         5.5297        20.4459         0.0246         6.8198         6.8198         6.1960         6.0834      4461.3535
    3750.25920      -0.007800       337.2290       115.6994         0.0563         5.4889         5.4889        21.0205        -0.0030         6.7770         6.7770         6.1972         6.0834      4487.8091
    3750.41160      -0.007863       335.8180       116.7317        -0.1454         5.5218         5.5218        20.0701         0.0341         6.7814         6.7814         6.1918         6.0834      4468.1421
    3750.56400      -0.007785       335.8180       117.7021         0.1203         5.5593         5.5593        18.7368         0.0439         6.7633         6.7633         6.1909         6.0834      4485.1191
    3750.71640      -0.008563       335.8180       116.3693         0.0299         5.5239         5.5239        17.0125        -0.0156         6.7715         6.7715         6.1931         6.0835      4471.2109
    3750.86880      -0.007858       335.8180       115.8998         0.1711         5.4923         5.4923        16.5573        -0.0063         6.8180         6.8180         6.1966         6.0904      4414.7163
    3751.02120      -0.007782       335.8180       115.3251        -0.0167         5.5353         5.5353        17.9866        -0.0303         6.7642         6.7642         6.1990         6.0851      4466.8296
    3751.17360      -0.007910       335.8180       115.1616         0.1061         5.4776         5.4776        19.6400        -0.0542         6.7689         6.7689         6.1968         6.0838      4474.0859
    3751.32600      -0.007725       335.8180       115.0834        -0.0017         5.5359         5.5359        21.5406         0.0068         6.7537         6.7537         6.1967         6.0868      4547.0781
    3751.47840      -0.007908       335.8180       115.0058         0.0703         5.5282         5.5282        22.8207        -0.0042         6.8514         6.8514         6.1988         6.0962      4489.2183
    3751.63080      -0.007785       334.4070       115.4312        -0.0407         5.4068         5.4068        22.9167         0.0375         6.8025         6.8025         6.1915         6.0834      4495.3286
