~Version Information Block
VERS .                 2.00:  CWLS LOG ASCII STANDARD - VERSION 2.00
WRAP .                   NO:  One line per depth step
~Well Information Block
#MNEM.UNIT        Data Type   Information
#---------- ----------------  -----------
STRT .M          3457.23500:  START DEPTH
STOP .M          3635.08580:  STOP DEPTH
STEP .M             0.15240:  STEP
NULL .              -999.25:  NULL VALUE
COMP .                     :  COMPANY
WELL .          NO_15/9-F-5:  WELL
FLD  .                     :  FIELD
LOC  .                     :  LOCATION
CTRY .                     :  COUNTRY
STAT .                     :  STATE
CNTY .                     :  COUNTY
SRVC .                     :  SERVICE COMPANY
DATE .                     :  DATE
API  .                     :  API NUMBER
UWI  .                     :  UNIQUE WELL ID
~Curve Information Block
#MNEM.UNIT         API CODE   Curve Description
#---------- ----------------  -----------------
DEPTH.M                    :  
SAT201IC_BHOF.                     :  
SAT201IC_BVW.                     :  
SAT201IC_CRRA.                     :  Near-Far Count Rate Ratio
SAT201IC_FBEF.UA                   :  RST Far Effective Beam Current
SAT201IC_FCOR.                     :  
SAT201IC_GR.GAPI                 :  Gamma Ray
SAT201IC_NCOR.                     :  
SAT201IC_SO.                     :  
SAT201IC_SW.                     :  
SAT201IC_WPRE.PSI                  :  Well Pressure
SAT201IC_WTEP.DEGC                 :  Well Temperature
SAT201SI_BSAL.PPM                  :  Borehole Salinity
SAT201SI_GR.GAPI                 :  Gamma Ray
SAT201SI_IRAT.                     :  RST Inelastic Ratio
SAT201SI_RSCF.                     :  RST Far Detector Effective Unregulated Capture Count Rate
SAT201SI_RSCN.                     :  RST Near Detector Effective Unregulated Capture Count Rate
SAT201SI_SIGR.CU                   :  Formation Sigma (Neutron Capture Cross Section)
SAT201SI_TPHI.V/V                  :  Thermal Decay Porosity
~Parameter Information Block
#MNEM.UNIT            Value   Description
#---------- ----------------  -----------
CUR_INT_BOT.M           3635.2382:  
PROJECT.     SLEIPNER_OST@st-vlinapp01:  
SET  .            RSTD_0912:  
~Other Information Block
# 
~A       DEPTH  SAT201IC_BHOF   SAT201IC_BVW  SAT201IC_CRRA  SAT201IC_FBEF  SAT201IC_FCOR    SAT201IC_GR  SAT201IC_NCOR    SAT201IC_SO    SAT201IC_SW  SAT201IC_WPRE  SAT201IC_WTEP  SAT201SI_BSAL    SAT201SI_GR  SAT201SI_IRAT  SAT201SI_RSCF  SAT201SI_RSCN  SAT201SI_SIGR  SAT201SI_TPHI 
    3457.23500      0.0132400    -999.250000         3.0945       117.0648      0.0169200        35.9132      0.0450100       0.109900      -999.2500      4993.8857        96.3386     40839.6016        26.7810       0.304100         4.1619         6.3917        32.8803       0.367000
    3457.38740      0.0132400       0.000000         3.0945       117.0648      0.0112800        38.8931      0.0477500       0.097400         0.0000      4994.0913        96.3235     40775.1992        28.8571       0.304000         4.1925         6.2766        32.0975       0.358500
    3457.53980      0.0132400       0.000000         3.0945       117.0648      0.0153400        41.3187      0.0426400       0.120100         0.0000      4994.2432        96.3137     40454.8008        28.6855       0.307200         4.5245         6.0347        30.6023       0.349700
    3457.69220   -999.2500000    -999.250000         3.0945       116.4915      0.0217100        43.9754      0.0396600    -999.250000      -999.2500      4994.3955        96.2999     40051.6016        30.2383       0.311900         4.5082         6.3176        28.8605       0.353100
    3457.84460   -999.2500000    -999.250000         3.0759       114.6162      0.0348800        46.7019      0.0371000    -999.250000      -999.2500      4994.5605        96.2842     40142.5000        33.1448       0.312200         5.1987         6.8618        29.1696       0.349000
    3457.99700   -999.2500000    -999.250000         3.0101       115.9061      0.0443200        49.6289      0.0344500    -999.250000      -999.2500      4994.7031        96.2783     40247.1992        35.1821       0.313100         5.0904         7.0555        29.9874       0.357200
    3458.14940   -999.2500000    -999.250000         3.0292       116.8279      0.0585600        51.8902      0.0260900    -999.250000      -999.2500      4994.8486        96.2706     40220.0000        36.6990       0.307700         4.4363         6.3468        32.4949       0.367400
    3458.30180   -999.2500000    -999.250000         3.0739       118.1968      0.0657400        54.5429      0.0231300    -999.250000      -999.2500      4995.0063        96.2591     40269.6016        38.7778       0.301900         3.8744         6.0807        34.7626       0.386600
    3458.45420   -999.2500000    -999.250000         3.1460       120.0112      0.0685300        57.1799      0.0262500    -999.250000      -999.2500      4995.1528        96.2458     40310.5000        40.9231       0.297200         3.3828         6.4109        35.9228       0.409300
    3458.60660   -999.2500000    -999.250000         3.1892       123.1067      0.0650200        58.3446      0.0276400    -999.250000      -999.2500      4995.3359        96.2403     40104.1992        43.6634       0.298800         3.2837         6.2304        36.5134       0.420500
    3458.75900      0.0132400    -999.250000         3.2606       122.8896      0.0643100        60.8160      0.0266200       0.246000      -999.2500      4995.4634        96.2285     39849.3984        43.8295       0.300100         3.0134         5.6660        36.0157       0.429800
    3458.91140      0.0123200       0.000000         3.2022       123.4656      0.0624400        64.6341      0.0295400       0.259900         0.0000      4995.6426        96.2186     40368.6992        47.8626       0.298600         2.8735         5.8082        37.9576       0.418100
    3459.06380   -999.2500000    -999.250000         3.2140       127.9782      0.0579800        68.2672      0.0334400    -999.250000      -999.2500      4995.7729        96.2078     40368.8984        50.6750       0.291700         2.6949         5.2334        40.2063       0.403800
    3459.21620   -999.2500000    -999.250000         3.2961       127.4564      0.0682500        70.5680      0.0288300    -999.250000      -999.2500      4995.9639        96.2035     40696.6016        52.9558       0.291900         2.6760         5.2273        41.5366       0.394600
    3459.36860   -999.2500000    -999.250000         3.2696       127.7732      0.0666200        70.5429      0.0319200    -999.250000      -999.2500      4996.0923        96.1925     40184.3008        52.7898       0.291800         2.8454         5.2845        40.9430       0.398600
    3459.52100   -999.2500000    -999.250000         3.3034       128.0422      0.0730900        67.0814      0.0375500    -999.250000      -999.2500      4996.2402        96.1821     39950.0000        52.1310       0.291700         2.6264         4.9808        41.8244       0.392000
    3459.67340   -999.2500000    -999.250000         3.3991       130.3880      0.0896300        62.7846      0.0405900    -999.250000      -999.2500      4996.3940        96.1769     39873.6016        45.9167       0.288900         2.4278         5.3044        42.6282       0.377300
    3459.82580   -999.2500000    -999.250000         3.4783       129.1812      0.1094400        59.1810      0.0367600    -999.250000      -999.2500      4996.5303        96.1692     39916.6992        43.2565       0.288200         2.2571         5.2745        47.7287       0.330500
    3459.97820      0.0018000    -999.250000         3.4062       128.2058      0.1102100        53.5198      0.0385800       0.408400      -999.2500      4996.6973        96.1638     39981.3984        37.8588       0.288400         1.9675         4.8181        47.3293       0.323000
    3460.13060   -999.2500000    -999.250000         3.4055       129.4867      0.1172200        49.9779      0.0386200    -999.250000      -999.2500      4996.8491        96.1580     40072.1992        33.3164       0.287800         2.3161         5.3804        48.0866       0.321300
    3460.28300   -999.2500000    -999.250000         3.4628       129.3581      0.1257100        48.6113      0.0382200    -999.250000      -999.2500      4996.9897        96.1559     39930.4023        31.1518       0.286300         2.3442         5.2349        45.4464       0.342800
    3460.43540   -999.2500000    -999.250000         3.4645       128.0367      0.1241800        47.6209      0.0416500    -999.250000      -999.2500      4997.1558        96.1537     39815.3008        30.5013       0.284500         2.3445         5.1189        45.8369       0.338600
    3460.58780   -999.2500000    -999.250000         3.4518       128.1864      0.1198700        45.8760      0.0499300    -999.250000      -999.2500      4997.3018        96.1532     40445.8984        27.8578       0.288800         2.1086         5.0803        46.1105       0.330800
    3460.74020   -999.2500000    -999.250000         3.4310       128.3239      0.1185600        46.3095      0.0531000    -999.250000      -999.2500      4997.4526        96.1544     40889.5977        27.8578       0.287300         2.0535         5.0551        45.4945       0.337100
    3460.89260   -999.2500000    -999.250000         3.3976       129.3856      0.1256800        47.1202      0.0548000    -999.250000      -999.2500      4997.6006        96.1566     41353.1016        28.0294       0.288000         2.3843         5.1629        44.7035       0.352800
    3461.04500   -999.2500000    -999.250000         3.4197       128.2349      0.1306600        46.9259      0.0514800    -999.250000      -999.2500      4997.7417        96.1569     41256.1016        28.1346       0.284800         2.4204         5.1496        42.8085       0.378200
    3461.19740   -999.2500000    -999.250000         3.4054       127.8444      0.1186500        46.8405      0.0510100    -999.250000      -999.2500      4997.8940        96.1580     40521.8008        28.2868       0.286700         2.4124         5.2943        41.5753       0.390400
    3461.34980   -999.2500000    -999.250000         3.4113       126.1527      0.1064300        46.8957      0.0473100    -999.250000      -999.2500      4998.0366        96.1623     40010.6992        29.6986       0.290900         2.8403         5.3856        39.4931       0.390000
    3461.50220   -999.2500000    -999.250000         3.3343       123.2851      0.0998200        47.5837      0.0460000    -999.250000      -999.2500      4998.1919        96.1674     40266.3008        30.4985       0.295100         3.2852         5.2315        36.8658       0.371700
