~Version Information Block
VERS .                 2.00:  CWLS LOG ASCII STANDARD - VERSION 2.00
WRAP .                  YES:  Multiple lines per depth step
~Well Information Block
#MNEM.UNIT        Data Type   Information
#---------- ----------------  -----------
STRT .M          3513.58200:  START DEPTH
STOP .M          3649.06560:  STOP DEPTH
STEP .M             0.15240:  STEP
NULL .              -999.25:  NULL VALUE
COMP .              Statoil:  COMPANY
WELL .        NO_15/9-F-1_C:  WELL
FLD  .                Volve:  FIELD
LOC  .            North Sea:  LOCATION
CTRY .               Norway:  COUNTRY
STAT .                     :  STATE
CNTY .                     :  COUNTY
SRVC .         Schlumberger:  SERVICE COMPANY
DATE .          27-Nov-2014:  DATE
API  .                     :  API NUMBER
UWI  .           15/9-F-1 C:  UNIQUE WELL ID
LATI .     58° 26' 29.91" N:  LATITUDE
LONG .      1° 53' 14.71" E:  LONGITUDE
~Curve Information Block
#MNEM.UNIT         API CODE   Curve Description
#---------- ----------------  -----------------
DEPTH.M                    :  DEPTH (BOREHOLE)
BSAL .PPM                  :  Borehole Salinity
CCLC .V                    :  CCL
CIRF .                     :  RST Capture to Inelastic Ratio Far
CIRN .                     :  RST Capture to Inelastic Ratio Near
CVEL .M/SEC                 :  Cable Velocity
DFRB .DEG                  :  Calibrated Relative Bearing
DSIG .CU                   :  Sigma Difference
FBEF .UA                   :  RST Far Effective Beam Current
GR   .GAPI                 :  Gamma Ray
IRAT .                     :  RST Inelastic Ratio
PFC1 .IN                   :  PFCS CaliperX
PFC2 .IN                   :  PFCS CaliperY
RSCF .                     :  RST Far Detector Effective Unregulated
RSCN .                     :  RST Near Detector Effective
SFFA .CU                   :  RST Sigma Formation Far Apparent
SIBF .CU                   :  RST Sigma Borehole Fluid
SIGM .CU                   :  Formation Sigma (Neutron Capture Cross
TENS .LBF                  :  Cable Tension
TPHI .V/V                  :  Thermal Decay Porosity
~Parameter Information Block
#MNEM.UNIT            Value   Description
#---------- ----------------  -----------
APD  .M           54.900002:  Elevation of Depth Reference (LMF) above Permanent Datum
BHS  .                 CASE:  Borehole Status (Open or Cased Hole)
BS   .IN                8.5:  Bit Size
BSAL .PPM                 0:  Borehole Salinity
BSALOPT.              UNKNOWN:  Borehole Salinity Option
CSIZ .IN                  7:  Current Casing Size
CWEI .LB/F               29:  Casing Weight
EPD  .C3                  0:  Elevation of Permanent Datum above Mean Sea Level
LMF  .                   KB:  Logging Measured From (Name of Logging Elevation Reference)
MATR .                 SAND:  Rock Matrix for Neutron Porosity Corrections
PDAT .                  MSL:  Permanent Datum
RUN  .                Run 1:  RUN NUMBER
TAPE_NAME.     Statoil_Volve_15-9-F-1 C_PLT-RST_28Nov14_ConCu_R1L15Up_SigmaRepeat.las:  
TOOL_STRING.              UNKNOWN:  
WN   .           15/9-F-1 C:  WELL
PROJECT.     SLEIPNER_OST@st-vlinapp01:  
SET  .       RSTD_1114_SIG2:  
~Other Information Block
~Ascii Log Data
    3513.58200 
   -39088.7969         0.0872         2.4594       0.993900      -0.000168 
      355.5720      -999.2500        19.6445        29.0406         1.5329 
        6.2026         6.0487        41.1423        12.1544        19.0830 
        9.2000      -999.2500      3761.2288      -0.536100
    3513.73440 
   -39088.7969         0.0812         2.4594       0.993900      -0.000168 
      355.5720      -999.2500        19.6445        28.8567         1.5329 
        6.2026         6.0487        41.1423        12.1544        19.0830 
        9.2000      -999.2500      3761.2288      -0.536100
    3513.88680 
   -39088.7969        -0.0418         2.4594       0.993900      -0.000168 
      355.5720      -999.2500        19.6445        30.0703         1.5329 
        6.2026         6.0487        41.1423        12.1544        19.0830 
        9.2000      -999.2500      3761.2288      -0.536100
    3514.03920 
   -39088.7969         0.0358         2.4594       0.993900      -0.000168 
      355.5720      -999.2500        19.6445        29.3470         1.5329 
        6.2026         6.0487        41.1423        12.1544        19.0830 
        9.2000      -999.2500      3761.2288      -0.536100
    3514.19160 
   -39088.7969         0.0070         2.4594       0.993900      -0.000168 
      355.5720      -999.2500        19.6445        30.8180         1.5329 
        6.2026         6.0487        41.1423        12.1544        19.0830 
        9.2000      -999.2500      3761.2288      -0.536100
    3514.34400 
   -39088.7969         0.0019         2.4594       0.993900      -0.000168 
      355.5720      -999.2500        19.6445        30.7322         1.5329 
        6.2026         6.0487        41.1423        12.1544        19.0830 
        9.2000      -999.2500      3761.2288      -0.536100
    3514.49640 
   -39088.7969        -0.0029         2.4594       0.993900      -0.000168 
      355.5720      -999.2500        19.6445        28.8935         1.5329 
        6.2026         6.0487        41.1423        12.1544        19.0830 
        9.2000      -999.2500      3761.2288      -0.536100
    3514.64880 
   -39088.7969        -0.0030         2.4594       0.993900      -0.000168 
      355.5720      -999.2500        19.6445        28.7831         1.5329 
        6.2026         6.0487        41.1423        12.1544        19.0830 
        9.2000      -999.2500      3761.2288      -0.536100
    3514.80120 
   -39088.7969         0.0710         2.4594       0.993900      -0.000168 
      355.5720      -999.2500        19.6445        29.6780         1.5329 
        6.2026         6.0487        41.1423        12.1544        19.0830 
        9.2000      -999.2500      3761.2288      -0.536100
    3514.95360 
   -39088.7969        -0.1095         2.4594       0.993900      -0.000168 
      355.5720      -999.2500        19.6445        25.8166         1.5329 
        6.2026         6.0487        41.1423        12.1544        19.0830 
        9.2000      -999.2500      3761.2288      -0.536100
    3515.10600 
   -39088.7969         0.0870         2.4594       0.993900      -0.000168 
      355.5720      -999.2500        19.6445        24.9585         1.5329 
        6.2026         6.0487        41.1423        12.1544        19.0830 
        9.2000      -999.2500      3761.2288      -0.536100
    3515.25840 
   -39088.7969         0.0105         2.4594       0.993900      -0.000168 
      355.5720      -999.2500        19.6445        25.1423         1.5329 
        6.2026         6.0487        41.1423        12.1544        19.0830 
        9.2000      -999.2500      3761.2288      -0.536100
    3515.41080 
   -39088.7969        -0.0429         2.4594       0.993900      -0.000168 
      355.5720      -999.2500        19.6445        24.0513         1.5329 
        6.2026         6.0487        41.1423        12.1544        19.0830 
        9.2000      -999.2500      3761.2288      -0.536100
    3515.56320 
   -39088.7969         0.0854         2.4594       0.993900      -0.000168 
      355.5720      -999.2500        19.6445        23.7081         1.5329 
        6.2026         6.0487        41.1423        12.1544        19.0830 
        9.2000      -999.2500      3761.2288      -0.536100
    3515.71560 
   -39088.7969        -0.0002         2.4594       0.993900      -0.000168 
      355.5720      -999.2500        19.6445        27.4224         1.5329 
        6.2026         6.0487        41.1423        12.1544        19.0830 
        9.2000      -999.2500      3761.2288      -0.536100
    3515.86800 
   -39088.7969         0.0049         2.4594       0.993900      -0.000168 
      355.5720      -999.2500        19.6445        25.5346         1.5329 
        6.2026         6.0487        41.1423        12.1544        19.0830 
        9.2000      -999.2500      3761.2288      -0.536100
    3516.02040 
   -39088.7969        -0.0052         2.4594       0.993900      -0.000168 
      355.5720      -999.2500        19.6445        26.2579         1.5329 
        6.2026         6.0487        41.1423        12.1544        19.0830 
        9.2000      -999.2500      3761.2288      -0.536100
    3516.17280 
   -39088.7969         0.0094         2.4594       0.993900      -0.000168 
      355.5720      -999.2500        19.6445        26.7727         1.5329 
        6.2026         6.0487        41.1423        12.1544        19.0830 
        9.2000      -999.2500      3761.2288      -0.536100
    3516.32520 
   -39088.7969        -0.0256         2.4594       0.993900      -0.000168 
      355.5720      -999.2500        19.6445        26.7727         1.5329 
        6.2026         6.0487        41.1423        12.1544        19.0830 
        9.2000      -999.2500      3761.2288      -0.536100
    3516.47760 
   -39088.7969        -0.0723         2.4594       0.993900      -0.000168 
      355.5720      -999.2500        19.6445        25.8165         1.5329 
        6.2026         6.0487        41.1423        12.1544        19.0830 
        9.2000      -999.2500      3761.2288      -0.536100
    3516.63000 
   -39088.7969         0.0277         2.4594       0.993900      -0.000168 
      355.5720      -999.2500        19.6445        27.1631         1.5329 
        6.2026         6.0487        41.1423        12.1544        19.0830 
        9.2000      -999.2500      3761.2288      -0.536100
    3516.78240 
   -39088.7969        -0.0244         2.4594       0.993900      -0.000168 
      355.5720      -999.2500        19.6445        27.8496         1.5329 
        6.2026         6.0487        41.1423        12.1544        19.0830 
        9.2000      -999.2500      3761.2288      -0.536100
    3516.93480 
   -39088.7969        -0.0053         2.4594       0.993900      -0.000168 
      355.5720      -999.2500        19.6445        27.7209         1.5329 
        6.2026         6.0487        41.1423        12.1544        19.0830 
        9.2000      -999.2500      3761.2288      -0.536100
    3517.08720 
   -39088.7969         0.0055         2.4594       0.993900      -0.000168 
      355.5720      -999.2500        19.6445        27.7209         1.5329 
        6.2026         6.0487        41.1423        12.1544        19.0830 
        9.2000      -999.2500      3761.2288      -0.536100
    3517.23960 
   -39088.7969         0.0144         2.4594       0.993900      -0.000168 
      355.5720      -999.2500        19.6445        27.6077         1.5329 
        6.2026         6.0487        41.1423        12.1544        19.0830 
        9.2000      -999.2500      3761.2288      -0.536100
    3517.39200 
   -39088.7969         0.0004         2.4594       0.993900      -0.000168 
      355.5720      -999.2500        19.6445        27.8057         1.5329 
        6.2026         6.0487        41.1423        12.1544        19.0830 
        9.2000      -999.2500      3761.2288      -0.536100
    3517.54440 
   -39088.7969        -0.0095         2.4594       0.993900      -0.000168 
      355.5720      -999.2500        19.6445        26.5186         1.5329 
        6.2026         6.0487        41.1423        12.1544        19.0830 
        9.2000      -999.2500      3761.2288      -0.536100
