~Version Information Block
VERS .                 2.00:  CWLS LOG ASCII STANDARD - VERSION 2.00
WRAP .                   NO:  One line per depth step
~Well Information Block
#MNEM.UNIT        Data Type   Information
#---------- ----------------  -----------
STRT .M          3457.23500:  START DEPTH
STOP .M          3635.08580:  STOP DEPTH
STEP .M             0.15240:  STEP
NULL .              -999.25:  NULL VALUE
COMP .                     :  COMPANY
WELL .          NO_15/9-F-5:  WELL
FLD  .                     :  FIELD
LOC  .                     :  LOCATION
CTRY .                     :  COUNTRY
STAT .                     :  STATE
CNTY .                     :  COUNTY
SRVC .                     :  SERVICE COMPANY
DATE .                     :  DATE
API  .                     :  API NUMBER
UWI  .                     :  UNIQUE WELL ID
~Curve Information Block
#MNEM.UNIT         API CODE   Curve Description
#---------- ----------------  -----------------
DEPTH.M                    :  
SAT201IC_BHOF.                     :  
SAT201IC_BVW.                     :  
SAT201IC_CRRA.                     :  Near-Far Count Rate Ratio
SAT201IC_FBEF.UA                   :  RST Far Effective Beam Current
SAT201IC_FCOR.                     :  
SAT201IC_GR.GAPI                 :  Gamma Ray
SAT201IC_NCOR.                     :  
SAT201IC_SO.                     :  
SAT201IC_SW.                     :  
SAT201IC_WPRE.PSI                  :  Well Pressure
SAT201IC_WTEP.DEGC                 :  Well Temperature
SAT201SI_BSAL.PPM                  :  Borehole Salinity
SAT201SI_GR.GAPI                 :  Gamma Ray
SAT201SI_IRAT.                     :  RST Inelastic Ratio
SAT201SI_RSCF.                     :  RST Far Detector Effective Unregulated Capture Count Rate
SAT201SI_RSCN.                     :  RST Near Detector Effective Unregulated Capture Count Rate
SAT201SI_SIGR.CU                   :  Formation Sigma (Neutron Capture Cross Section)
SAT201SI_TPHI.V/V                  :  Thermal Decay Porosity
~Parameter Information Block
#MNEM.UNIT            Value   Description
#---------- ----------------  -----------
CUR_INT_BOT.M           3635.2382:  
PROJECT.     SLEIPNER_OST@st-vlinapp01:  
SET  .            RSTD_0912:  
~Other Information Block
# 
~A       DEPTH  SAT201IC_BHOF   SAT201IC_BVW  SAT201IC_CRRA  SAT201IC_FBEF  SAT201IC_FCOR    SAT201IC_GR  SAT201IC_NCOR    SAT201IC_SO    SAT201IC_SW  SAT201IC_WPRE  SAT201IC_WTEP  SAT201SI_BSAL    SAT201SI_GR  SAT201SI_IRAT  SAT201SI_RSCF  SAT201SI_RSCN  SAT201SI_SIGR  SAT201SI_TPHI 
# ...
    3607.50140      0.0025300       0.128780         2.8621       112.4356      0.0160200        26.6781     -0.0114800       0.089300         0.5615      5127.5254        67.3253     32725.3008        10.5477       0.331400        12.1671        11.1027        11.4035       0.191800
    3607.65380      0.0025900       0.130300         2.8540       112.6006      0.0172800        26.4302     -0.0101300       0.092300         0.5643      5127.6606        67.3295     32665.6992        10.4589       0.330200        12.2751        11.4712        11.5233       0.192900
    3607.80620      0.0029100       0.130520         2.8600       112.6973      0.0196100        26.8254     -0.0021900       0.097900         0.5612      5127.7915        67.3619     32640.0977        11.9680       0.328800        12.4963        11.1580        11.4915       0.194100
    3607.95860      0.0030000       0.132860         2.8660       112.9424      0.0284800        27.6670     -0.0019400       0.119600         0.5675      5127.9175        67.3904     33035.8984        11.2578       0.326500        11.7626        10.7226        11.4155       0.191800
    3608.11100      0.0025900       0.135470         2.8647       113.1060      0.0320300        28.2554     -0.0017000       0.128300         0.5781      5128.0806        67.4026     33465.5977        11.7904       0.324800        11.9509        11.0740        11.2991       0.186600
    3608.26340      0.0027600       0.137980         2.8622       112.6581      0.0221500        28.3101     -0.0012200       0.104100         0.5902      5128.2153        67.4225     33519.1992        12.3421       0.324400        12.5634        10.8930        11.3551       0.181900
    3608.41580      0.0028900       0.142530         2.8605       112.1045      0.0169600        28.5552      0.0000400       0.091300         0.6139      5128.3496        67.4313     33793.2031        12.1645       0.326300        12.2009        10.7713        11.5021       0.180700
    3608.56820      0.0022900       0.148140         2.8382       113.1201      0.0161500        28.3172      0.0022200       0.089700         0.6469      5128.4819        67.4618     34341.3008        11.6319       0.330000        12.5190        11.2078        11.4652       0.185200
    3608.72060      0.0018300       0.146070         2.8745       112.1285      0.0121700        28.4263      0.0055700       0.080300         0.6568      5128.5879        67.4548     35084.8008        11.8982       0.326600        11.5342        10.2718        11.4456       0.189900
    3608.87300      0.0015900       0.144030         2.8516       113.2587      0.0052700        27.6817      0.0060200       0.062500         0.6483      5128.7266        67.4963     35117.4023        10.9218       0.326500        12.3017        10.6815        11.4032       0.192500
    3609.02540      0.0011900       0.150180         2.8865       114.1990      0.0162600        27.0608      0.0059600       0.090300         0.6558      5128.8691        67.5125     35372.3984        11.0074       0.321300        11.7309        10.9643        11.2997       0.194200
    3609.17780      0.0003900       0.162140         2.8973       113.3832      0.0215600        27.1412      0.0054500       0.103500         0.6957      5129.0034        67.5608     35174.1992        11.8063       0.324500        12.1328        10.6136        11.2956       0.195700
    3609.33020     -0.0004000       0.173180         2.8556       112.9739      0.0221600        27.0553      0.0012700       0.105400         0.7462      5129.1343        67.5418     34768.3984        11.6161       0.321800        11.6536        10.7800        11.2707       0.197800
    3609.48260     -0.0016600       0.185910         2.8420       114.7590      0.0253900        26.9576     -0.0010400       0.113500         0.7899      5129.2568        67.5674     35225.8984        10.9947       0.323200        11.8344        10.8906        11.6874       0.197800
    3609.63500     -0.0025300       0.185820         2.9228       116.0086      0.0211300        27.8579      0.0015500       0.103200         0.7890      5129.4175        67.5954     35657.5000        11.5273       0.318500        11.8812        10.6958        11.9146       0.197900
    3609.78740     -0.0033200       0.182980         2.9681       116.0066      0.0061100        27.4891      0.0079600       0.065000         0.7610      5129.5269        67.6235     35056.3984        10.2845       0.316400        11.2638        10.2774        11.9648       0.201300
    3609.93980     -0.0035000       0.165660         2.9871       115.6925     -0.0050200        27.5097      0.0075400       0.036000         0.6856      5129.6772        67.6432     35508.7031         9.4856       0.310400        11.3662        10.6056        11.8351       0.203500
    3610.09220     -0.0035100       0.151060         2.9344       114.4995     -0.0218500        27.3810      0.0068200      -0.009600         0.6223      5129.7925        67.6856     36045.8008        10.3131       0.313900        11.9277        10.5406        11.7238       0.202600
    3610.24460     -0.0032100       0.155850         2.9171       114.4745     -0.0373400        27.3714      0.0067200      -0.053400         0.6298      5129.8960        67.7016     35861.5000        11.9997       0.318500        11.8250        10.7225        11.7067       0.199900
    3610.39700     -0.0031000       0.168880         2.9002       113.4849     -0.0347300        27.2309      0.0061400      -0.046100         0.7030      5130.0444        67.7154     35921.3008        12.2660       0.323800        11.6665        10.4354        11.5804       0.199200
    3610.54940     -0.0030700       0.195320         2.8715       112.6418     -0.0167900        28.7033     -0.0028800       0.004200         0.8280      5130.1572        67.6902     36243.3008        13.4200       0.324900        11.9370        11.2269        11.6334       0.201600
    3610.70180     -0.0031200       0.227510         2.8489       113.3905     -0.0030700        28.4365     -0.0005700       0.041300         0.9692      5130.2915        67.7473     35645.3008        14.9290       0.326400        11.1889        10.5386        11.9163       0.200000
    3610.85420     -0.0027600       0.222440         2.8808       112.8947      0.0071600        28.4533     -0.0044900       0.068900         0.9986      5130.4121        67.7784     34741.9023        14.5613       0.332300        11.5382        10.5231        12.1439       0.199700
    3611.00660     -0.0017900       0.218690         2.8565       112.5367      0.0103900        28.6452     -0.0082900       0.077300         1.0000      5130.5757        67.8228     35021.8008        13.6736       0.333900        11.1918        10.4318        12.1758       0.198800
    3611.15900     -0.0010100       0.214490         2.8475       112.8020      0.0199000        27.9902     -0.0077700       0.101900         1.0000      5130.7427        67.8966     35542.5000        13.8511       0.333100        11.1845        10.5910        12.0423       0.199200
    3611.31140     -0.0003700       0.194310         2.8647       113.3590      0.0132200        26.8097     -0.0076500       0.085000         0.9246      5130.8511        67.8826     35926.0000        12.9634       0.322100        11.9727        11.0740        11.9475       0.197000
    3611.46380      0.0000900       0.156550         2.9005       115.2434     -0.0039100        26.8442     -0.0061000       0.039200         0.7431      5130.9551        67.9218     35733.3008        10.3891       0.307600        12.2102        11.3223        11.7785       0.197200
    3611.61620      0.0006300       0.119130         3.0314       117.4912     -0.0037600        27.5304      0.0046800       0.039400         0.5576      5131.0762        68.0048     35628.8984         9.2320       0.300200        11.5316        10.2125        11.8607       0.198700
    3611.76860      0.0004000       0.089000         3.1046       117.0845      0.0052300        26.6851      0.0113200       0.063800         0.4242      5131.2363        68.0413     35305.3008         9.9421       0.311900        10.5365         9.8587        11.7059       0.201700
