~Version Information Block
VERS .                 2.00:  CWLS LOG ASCII STANDARD - VERSION 2.00
WRAP .                   NO:  One line per depth step
~Well Information Block
#MNEM.UNIT        Data Type   Information
#---------- ----------------  -----------
STRT .M          3454.60320:  START DEPTH
STOP .M          3792.47400:  STOP DEPTH
STEP .M             0.15240:  STEP
NULL .              -999.25:  NULL VALUE
COMP .              Statoil:  COMPANY
WELL .        NO_15/9-F-1_C:  WELL
FLD  .                Volve:  FIELD
LOC  .            North Sea:  LOCATION
CTRY .               Norway:  COUNTRY
STAT .                     :  STATE
CNTY .                     :  COUNTY
SRVC .         Schlumberger:  SERVICE COMPANY
DATE .          27-Nov-2014:  DATE
API  .                     :  API NUMBER
UWI  .           15/9-F-1 C:  UNIQUE WELL ID
LATI .     58° 26' 29.91" N:  LATITUDE
LONG .      1° 53' 14.71" E:  LONGITUDE
~Curve Information Block
#MNEM.UNIT         API CODE   Curve Description
#---------- ----------------  -----------------
DEPTH.M                    :  DEPTH (BOREHOLE)
CVEL .M/SEC                 :  Cable Velocity
DFRB .DEG                  :  Calibrated Relative Bearing
FBEF .UA                   :  RST Far Effective Beam Current
FCOR .                     :  RST Far Carbon/Oxygen Ratio
FERD .                     :  RST Far IC Mode Capture Optimization
FIRD .                     :  RST Far Inelastic Optimization Resolution
GR   .GAPI                 :  Gamma Ray
NCOR .                     :  RST Near Carbon/Oxygen Ratio
NERD .                     :  RST Near IC Mode Capture Optimization
NIRD .                     :  RST Near Inelastic Optimization Resolution
PFC1 .IN                   :  PFCS CaliperX
PFC2 .IN                   :  PFCS CaliperY
TENS .LBF                  :  Cable Tension
~Parameter Information Block
#MNEM.UNIT            Value   Description
#---------- ----------------  -----------
APD  .M           54.900002:  Elevation of Depth Reference (LMF) above Permanent Datum
EPD  .C3                  0:  Elevation of Permanent Datum above Mean Sea Level
LMF  .                   KB:  Logging Measured From (Name of Logging Elevation Reference)
PDAT .                  MSL:  Permanent Datum
RUN  .                Run 1:  RUN NUMBER
TAPE_NAME.     ConCu_R1L19Up_S012_PFCS_PILS_DEFT_RST_PCMS_PSTP.las:  
TOOL_STRING.              UNKNOWN:  
WN   .           15/9-F-1 C:  WELL
PROJECT.     SLEIPNER_OST@st-vlinapp01:  
SET  .        RSTD_1114_IC3:  
~Other Information Block
# 
~A       DEPTH           CVEL           DFRB           FBEF           FCOR           FERD           FIRD             GR           NCOR           NERD           NIRD           PFC1           PFC2           TENS 
# ...
    3656.68560      -0.008690         1.4110       124.3236         0.1450         5.3603         5.3603        36.2665        -0.4736         7.0576         7.0576         6.2219         6.0451      4560.4624
    3656.83800      -0.008793         1.4110       124.3236         0.1450         5.3603         5.3603        36.4504        -0.0255         7.0576         7.0576         6.2219         6.0480      4482.2949
    3656.99040      -0.008800         1.4110       124.4482        -0.1085         5.3603         5.3603        33.4800        -0.0255         7.0576         7.0576         6.2219         6.0493      4516.2988
    3657.14280      -0.008732         1.4110       120.7715         0.1771         5.3603         5.3603        33.7629         0.1089         7.0576         7.0576         6.2219         6.0500      4514.0688
    3657.29520      -0.008892         1.4110       120.9831         0.1409         5.3603         5.3603        30.8067         0.1498         7.0576         7.0576         6.2245         6.0510      4448.4849
    3657.44760      -0.008632         1.4110       120.9831         0.1409         5.3603         5.3603        30.7077         0.0655         7.0576         7.0576         6.2219         6.0510      4552.7427
    3657.60000      -0.008785         1.4110       122.4944        -0.2060         5.3603         5.3603        31.1038         0.0655         7.0576         7.0576         6.2220         6.0510      4461.9502
    3657.75240      -0.008887         1.4110       120.0210        -0.0418         5.3603         5.3603        30.7360         0.2848         7.0576         7.0576         6.2232         6.0801      4490.7422
    3657.90480      -0.008673         1.4110       124.8559         0.1487         5.4420         5.4420        30.5380        -0.3991         7.0576         7.0576         6.2417         6.0632      4570.0190
    3658.05720      -0.008755         1.4110       124.8559         0.1499         5.4420         5.4420        31.6413         0.0199         7.1688         7.1688         6.2528         6.0807      4487.3926
    3658.20960      -0.008853         1.4110       121.9153         0.1258         5.4420         5.4420        32.0373         0.0199         7.1688         7.1688         6.2533         6.0834      4459.2056
    3658.36200      -0.008593       359.8050       128.4583         0.1008         5.4420         5.4420        29.0670         0.0646         7.1688         7.1688         6.2429         6.0834      4545.9517
    3658.51440      -0.008627       359.8050       121.3785        -0.4517         5.4420         5.4420        29.6327         0.1293         7.1688         7.1688         6.2337         6.0820      4498.1294
    3658.66680      -0.008457       358.3940       121.3785        -0.4517         5.4420         5.4420        27.8930        -0.2312         7.1688         7.1688         6.2316         6.0650      4574.8530
    3658.81920      -0.008587       358.3940       120.0988        -1.0248         5.4420         5.4420        27.1716        -0.2312         7.1688         7.1688         6.2492         6.0688      4496.5151
    3658.97160      -0.008545       358.3940       125.7204         0.2911         5.4420         5.4420        27.2423        -0.6544         7.1688         7.1688         6.2533         6.0549      4578.4009
    3659.12400      -0.008607       358.3940       123.9282         0.1619         5.4420         5.4420        28.0344        -0.1006         7.1688         7.1688         6.2535         6.0648      4535.0938
    3659.27640      -0.008482       358.3940       123.9282         0.1619         5.4420         5.4420        27.8364         0.2517         7.1688         7.1688         6.2535         6.0771      4527.8955
    3659.42880      -0.008442       358.3940       130.7686        -0.3213         5.4607         5.4607        31.1603         0.2517         7.1688         7.1688         6.2362         6.0656      4533.2749
    3659.58120      -0.008732       358.3940       126.3946        -0.2561         5.4607         5.4607        33.5366        -0.0067         7.1592         7.1592         6.2495         6.0822      4441.6069
    3659.73360      -0.008675       358.3940       126.2526         3.2728         5.4607         5.4607        32.4333        -0.1908         7.1592         7.1592         6.2343         6.0829      4430.7046
    3659.88600      -0.008592       358.3940       126.2526         3.2728         5.4607         5.4607        31.4432         0.1701         7.1592         7.1592         6.2273         6.0828      4521.3198
    3660.03840      -0.008573       358.3940       127.9700        -0.2252         5.4607         5.4607        32.9143         0.1701         7.1592         7.1592         6.2220         6.0808      4445.2622
    3660.19080      -0.008408       358.3940       122.2359         0.2745         5.4607         5.4607        31.1321         0.1794         7.1592         7.1592         6.2219         6.0510      4483.6162
    3660.34320      -0.008362       358.3940       121.6220         0.3830         5.4607         5.4607        28.9538         0.2006         7.1592         7.1592         6.2166         6.0316      4527.4912
    3660.49560      -0.008373       358.3940       121.6220         0.3830         5.4607         5.4607        30.2410         0.2563         7.1592         7.1592         6.2216         6.0201      4444.8716
    3660.64800      -0.008540       358.3940       125.6938         0.1631         5.4607         5.4607        32.2212         0.2563         7.1592         7.1592         6.2219         6.0199      4461.8296
    3660.80040      -0.008605       358.3940       123.2095         0.2130         5.4766         5.4766        32.7728        -0.0249         7.1592         7.1592         6.2219         6.0199      4414.8267
    3660.95280      -0.008500       358.3940       124.5095        -0.6264         5.4766         5.4766        35.5451         0.1073         7.0898         7.0898         6.2483         6.0477      4446.0557
    3661.10520      -0.008552       358.3940       124.5095        -0.6264         5.4766         5.4766        37.1718         0.1335         7.0898         7.0898         6.2533         6.0512      4480.0894
    3661.25760      -0.008562       358.3940       123.8556         0.2630         5.4766         5.4766        35.1350         0.1335         7.0898         7.0898         6.2529         6.0510      4403.4756
    3661.41000      -0.008505       358.3940       123.3949         0.0982         5.4766         5.4766        33.1689         0.2261         7.0898         7.0898         6.2531         6.0529      4343.7622
    3661.56240      -0.008385       358.3940       122.2586         0.0658         5.4766         5.4766        33.3245         0.0214         7.0898         7.0898         6.2387         6.0510      4452.1064
    3661.71480      -0.008545       358.3940       122.2586         0.0658         5.4766         5.4766        29.1943        -0.0510         7.0898         7.0898         6.2234         6.0510      4371.2573
    3661.86720      -0.008495       358.3940       121.6212        -0.1858         5.4766         5.4766        29.1518        -0.0510         7.0898         7.0898         6.2384         6.0510      4424.0410
    3662.01960      -0.008423       358.3940       123.9994         0.1322         5.4766         5.4766        29.7176         0.2690         7.0898         7.0898         6.2529         6.0510      4455.2734
    3662.17200      -0.008418       358.3940       121.2614         0.1569         5.5111         5.5111        30.6936        -0.1162         7.0898         7.0898         6.2319         6.0510      4447.8975
    3662.32440      -0.008362       358.3940       121.2614         0.1576         5.5111         5.5111        30.3541        -0.0386         7.0665         7.0665         6.2225         6.0510      4424.4907
    3662.47680      -0.008423       358.3940       122.9297         0.0265         5.5111         5.5111        31.3159        -0.0386         7.0665         7.0665         6.2222         6.0510      4446.4019
