~Version Information Block
VERS .                 2.00:  CWLS LOG ASCII STANDARD - VERSION 2.00
WRAP .                  YES:  Multiple lines per depth step
~Well Information Block
#MNEM.UNIT        Data Type   Information
#---------- ----------------  -----------
STRT .M          3437.38200:  START DEPTH
STOP .M          3636.11160:  STOP DEPTH
STEP .M             0.15240:  STEP
NULL .              -999.25:  NULL VALUE
COMP .                     :  COMPANY
WELL .          NO_15/9-F-5:  WELL
FLD  .                     :  FIELD
LOC  .                     :  LOCATION
CTRY .                     :  COUNTRY
STAT .                     :  STATE
CNTY .                     :  COUNTY
SRVC .                     :  SERVICE COMPANY
DATE .                     :  DATE
API  .                     :  API NUMBER
UWI  .                     :  UNIQUE WELL ID
~Curve Information Block
#MNEM.UNIT         API CODE   Curve Description
#---------- ----------------  -----------------
DEPTH.M                    :  
BSAL .PPM                  :  (RST-D)                 (6in)                   Borehole Salinity Depths
CCLC .V                    :  (PSTP-B)                (1in)                   CCL Computed Amplitude D
CIRF .                     :  (RST-D)                 (6in)                   Capture to Inelastic Rat
CIRN .                     :  (RST-D)                 (6in)                   Capture to Inelastic Rat
CVEL .M/SEC                 :  (WLWorkflow)            (1in)                   Cable Velocity Depthshif
DSIG .CU                   :  (RST-D)                 (6in)                   Sigma Difference Depthsh
DSIG21.                     :  SIGM_1 -RSTD_0912_OW.SAT201SI_SIGR_1
FBEF .UA                   :  (RST-D)                 (6in)                   Far Effective Beam Curre
GR   .GAPI                 :  (PSTP-B)                (6in)                   Gamma Ray Depthshifted
IRAT .                     :  (RST-D)                 (6in)                   Inelastic Ratio Depthshi
RB_PCMS.DEG                  :  (PCMS-A)                (6in)                   Relative Bearing Depthsh
RSCF .                     :  (RST-D)                 (6in)                   Far Detector Effective U
RSCN .                     :  (RST-D)                 (6in)                   Near Detector Effective
SFFA .CU                   :  (RST-D)                 (6in)                   Sigma Formation Far Appa
SIBF .CU                   :  (RST-D)                 (6in)                   Sigma Borehole Fluid Dep
SIGM .CU                   :  (RST-D)                 (6in)                   Formation Sigma (Neutron
TENS .LBF                  :  (WLWorkflow)            (1in)                   Cable Tension Depthshift
TPHI .V/V                  :  (RST-D)                 (6in)                   Thermal Decay Porosity D
WPRE .BAR                  :  (PSTP-B)                (6in)                   Well Pressure Depthshift
WTEP .DEGC                 :  (PSTP-B)                (6in)                   Well Temperature Depthsh
~Parameter Information Block
#MNEM.UNIT            Value   Description
#---------- ----------------  -----------
PROJECT.     SLEIPNER_OST@st-vlinapp01:  
SET  .     RSTD_1115_SIG1_DS:  
~Other Information Block
~Ascii Log Data
# ...
    3564.17880 
    35654.2070        -0.0016         2.7961       0.763237     -0.0772104 
       -0.5251         0.2264        99.1445        18.8949       0.336447 
      353.4913         9.9698         8.2107        14.0542        34.6054 
       11.9633      4018.3477       0.129144       366.4648        77.6539
    3564.33120 
    35349.4961        -0.0123         2.7923       0.750219     -0.0784626 
       -0.7473         0.1579        99.3128        17.9237       0.336999 
      353.4858        10.0506         8.0926        13.5123        34.4967 
       11.6436      4003.5112       0.120498       366.4950        77.5980
    3564.48360 
    35097.0078        -0.0037         2.7706       0.768352     -0.0775002 
       -1.0006         0.0638        99.6245        17.5875       0.338530 
      353.2749         9.9818         8.1269        13.6147        34.4066 
       11.4395      4087.7627       0.121840       366.5006        77.5847
    3564.63600 
    35258.3477        -0.0037         2.7967       0.769180     -0.0768572 
       -1.1614        -0.0784        98.0941        17.3295       0.335058 
      353.2532        10.2200         8.1148        13.5518        34.4641 
       11.4848      3984.4263       0.123422       366.4937        77.5659
    3564.78840 
    35990.8750        -0.0028         2.7802       0.750636     -0.0764708 
       -1.2578        -0.3846        97.2695        18.2649       0.337587 
      353.1432        10.4935         8.4457        13.7111        34.7256 
       11.5052      4055.3774       0.129111       366.5254        77.5280
    3564.94080 
    35578.9766         0.0001         2.6433       0.745614     -0.0779235 
       -1.2880        -0.3240        96.8056        17.6153       0.337969 
      353.0029         9.5972         7.8137        13.7091        34.5786 
       11.8885      3988.3721       0.134984       366.5213        77.4951
    3565.09320 
    36009.6016        -0.0839         2.5077       0.733030     -0.0770090 
       -1.3511        -0.1037        95.7257        17.5059       0.332848 
      352.9935         9.3449         7.8004        14.6945        34.7323 
       12.2624      3941.1714       0.145274       366.5334        77.4470
    3565.24560 
    36216.3203         0.1330         2.6966       0.747820     -0.0772118 
       -1.4343         0.2847       101.4539        18.0101       0.328930 
      352.9212         9.7887         8.3333        14.7946        34.8061 
       12.7252      4034.1560       0.153080       366.5491        77.4049
    3565.39800 
    36539.1211         0.0074         2.6660       0.773354     -0.0774575 
       -1.4560         0.3118       103.1808        18.6865       0.326652 
      353.2427         9.4386         8.1678        15.0223        34.9215 
       12.7892      3955.6494       0.157882       366.5470        77.3816
    3565.55040 
    37107.9766        -0.0372         2.6833       0.782486     -0.0762698 
       -1.5591         0.0194       103.4498        17.7902       0.331861 
      353.3312         9.3207         8.1770        14.8322        35.1248 
       12.7526      4071.7375       0.162382       366.5680        77.3113
    3565.70280 
    37569.3555        -0.0010         2.6250       0.749746     -0.0764426 
       -1.5696        -0.1756       100.6562        19.6570       0.328755 
      353.3643         9.3987         8.0880        14.6377        35.2898 
       12.9886      4041.5396       0.169658       366.5664        77.2643
    3565.85520 
    37596.9102        -0.0410         2.5345       0.752465     -0.0762199 
       -1.5147        -0.0186       101.8930        21.4740       0.322939 
      353.4142         9.0287         8.1455        15.6525        35.2997 
       13.5642      3969.3230       0.184113       366.5847        77.2320
    3566.00760 
    37281.8477         0.0634         2.4723       0.748528     -0.0766811 
       -1.3677         0.2361       106.3086        22.2936       0.320564 
      353.4654         8.3474         7.8636        16.4336        35.1870 
       14.1851      4078.5535       0.198227       366.5903        77.1965
    3566.16000 
    36993.8633        -0.0316         2.4272       0.770797     -0.0767086 
       -1.1173         0.1297       107.0902        22.4023       0.319854 
      353.6327         7.9268         7.6075        16.3860        35.0840 
       14.4462      4018.1011       0.209735       366.5970        77.1848
    3566.31240 
    36810.8242        -0.0181         2.5080       0.780756     -0.0762456 
       -0.7970        -0.1754       108.0519        24.0557       0.322342 
      353.6131         7.8920         7.4459        16.3103        35.0186 
       14.6123      3958.2734       0.213637       366.6185        77.1532
    3566.46480 
    36629.0742         0.0076         2.4545       0.771466     -0.0759705 
       -0.4120        -0.3461       104.2631        23.3988       0.323608 
      353.6277         8.0450         7.6233        16.8165        34.9536 
       14.7882      4089.7788       0.211737       366.6109        77.1467
    3566.61720 
    36626.3477        -0.0288         2.3759       0.767816     -0.0759498 
       -0.1449        -0.1751       103.2323        23.0074       0.322784 
      353.7883         7.9173         7.5112        16.8069        34.9526 
       15.0530      3989.5002       0.207062       366.6350        77.1354
    3566.76960 
    36545.8164        -0.0348         2.4383       0.730583     -0.0757183 
        0.0833        -0.2147       106.3847        23.8262       0.324241 
      353.8005         8.0151         7.3999        17.0140        34.9239 
       15.0481      4008.5566       0.202602       366.6430        77.0587
    3566.92200 
    36046.9961        -0.0131         2.3631       0.739605     -0.0761534 
        0.1815        -0.1426       108.9860        25.4874       0.322112 
      353.7169         7.6624         7.4416        16.7345        34.7457 
       15.2901      3984.9014       0.198408       366.6420        77.0195
    3567.07440 
    36376.0781        -0.0274         2.3176       0.724793     -0.0764364 
        0.2863        -0.2132       105.3960        26.2845       0.321808 
      353.6926         7.5647         7.0988        17.4894        34.8632 
       15.4354      3982.7427       0.196322       366.6662        76.9905
    3567.22680 
    35954.0000        -0.0040         2.3425       0.696931     -0.0764582 
        0.3600        -0.0371       103.9476        27.4328       0.319687 
      353.7190         7.8690         7.1241        17.4177        34.7125 
       15.6271      4037.6494       0.192525       366.6641        76.9726
    3567.37920 
    36191.0781         0.0666         2.2490       0.694618     -0.0766817 
        0.4266         0.0179       101.7926        27.4003       0.319620 
      353.6683         7.9729         7.4323        17.2763        34.7971 
       15.5249      4005.4934       0.190294       366.6801        76.9420
    3567.53160 
    36094.7305        -0.0227         2.4208       0.719758     -0.0779612 
        0.2626         0.2591       105.8514        26.8287       0.320566 
      353.6700         7.9611         7.1338        17.1618        34.7627 
       15.5199      4026.5366       0.187969       366.6857        76.8863
    3567.68400 
    35998.3164        -0.0347         2.4515       0.736848     -0.0775397 
        0.0409         0.2679       106.2379        25.4543       0.324759 
      353.6432         8.0618         7.3060        17.3957        34.7283 
       15.4528      4065.0732       0.192498       366.6961        76.8530
    3567.83640 
    36324.2812        -0.1220         2.3190       0.750942     -0.0771936 
       -0.0824         0.1433       102.3822        25.8931       0.324909 
      353.5709         7.8766         7.5639        17.0765        34.8447 
       15.4494      4054.7300       0.201582       366.7075        76.8233
    3567.98880 
    36718.9648        -0.0637         2.3677       0.744745     -0.0776550 
       -0.2119         0.0960       103.6185        24.3911       0.328127 
      353.5793         7.8124         7.3897        17.1524        34.9857 
       15.3530      4054.3750       0.215858       366.7135        76.8206
