~Version Information Block
VERS .                 2.00:  CWLS LOG ASCII STANDARD - VERSION 2.00
WRAP .                  YES:  Multiple lines per depth step
~Well Information Block
#MNEM.UNIT        Data Type   Information
#---------- ----------------  -----------
STRT .M          3450.03120:  START DEPTH
STOP .M          3948.83640:  STOP DEPTH
STEP .M             0.15240:  STEP
NULL .              -999.25:  NULL VALUE
COMP .              Statoil:  COMPANY
WELL .        NO_15/9-F-1_C:  WELL
FLD  .                Volve:  FIELD
LOC  .            North Sea:  LOCATION
CTRY .               Norway:  COUNTRY
STAT .                     :  STATE
CNTY .                     :  COUNTY
SRVC .         Schlumberger:  SERVICE COMPANY
DATE .          27-Nov-2014:  DATE
API  .                     :  API NUMBER
UWI  .           15/9-F-1 C:  UNIQUE WELL ID
LATI .     58° 26' 29.91" N:  LATITUDE
LONG .      1° 53' 14.71" E:  LONGITUDE
~Curve Information Block
#MNEM.UNIT         API CODE   Curve Description
#---------- ----------------  -----------------
DEPTH.M                    :  DEPTH (BOREHOLE)
BSAL .PPM                  :  Borehole Salinity
CCLC .V                    :  CCL
CIRF .                     :  RST Capture to Inelastic Ratio Far
CIRN .                     :  RST Capture to Inelastic Ratio Near
CVEL .M/SEC                 :  Cable Velocity
DFRB .DEG                  :  Calibrated Relative Bearing
DSIG .CU                   :  Sigma Difference
FBEF .UA                   :  RST Far Effective Beam Current
GR   .GAPI                 :  Gamma Ray
IRAT .                     :  RST Inelastic Ratio
PFC1 .IN                   :  PFCS CaliperX
PFC2 .IN                   :  PFCS CaliperY
RSCF .                     :  RST Far Detector Effective Unregulated
RSCN .                     :  RST Near Detector Effective
SFFA .CU                   :  RST Sigma Formation Far Apparent
SIBF .CU                   :  RST Sigma Borehole Fluid
SIGM .CU                   :  Formation Sigma (Neutron Capture Cross
TENS .LBF                  :  Cable Tension
TPHI .V/V                  :  Thermal Decay Porosity
~Parameter Information Block
#MNEM.UNIT            Value   Description
#---------- ----------------  -----------
APD  .M           54.900002:  Elevation of Depth Reference (LMF) above Permanent Datum
BHS  .                 CASE:  Borehole Status (Open or Cased Hole)
BS   .IN                8.5:  Bit Size
BSAL .PPM                 0:  Borehole Salinity
BSALOPT.              UNKNOWN:  Borehole Salinity Option
CSIZ .IN                  7:  Current Casing Size
CWEI .LB/F               29:  Casing Weight
EPD  .C3                  0:  Elevation of Permanent Datum above Mean Sea Level
LMF  .                   KB:  Logging Measured From (Name of Logging Elevation Reference)
MATR .                 SAND:  Rock Matrix for Neutron Porosity Corrections
PDAT .                  MSL:  Permanent Datum
RUN  .                Run 1:  RUN NUMBER
TAPE_NAME.     Statoil_Volve_15-9-F-1 C_PLT-RST_28Nov14_ConCu_R1L16Up_SigmaMain.las:  
TOOL_STRING.              UNKNOWN:  
WN   .           15/9-F-1 C:  WELL
PROJECT.     SLEIPNER_OST@st-vlinapp01:  
SET  .       RSTD_1114_SIG1:  
~Other Information Block
~Ascii Log Data
# ...
    3548.78640 
    12618.2002        -0.0673         2.4174         0.8915      -0.166943 
      356.9830        -1.3721        75.7613        21.3582     0.38090000 
        6.2219         6.0510        11.2928        10.9022        17.4193 
       26.4982        15.3657      4336.7856     0.14710000
    3548.93880 
    11307.8008         0.2424         2.5009         0.8897      -0.166932 
      356.9830        -1.5617        76.0020        21.8250     0.38240001 
        6.2219         6.0510        11.8603        11.4121        17.1407 
       26.0440        15.3750      4359.2856     0.14640000
    3549.09120 
    11714.0000         0.0467         2.4696         0.9156      -0.167252 
      356.9830        -1.6278        71.8083        21.8250     0.38310000 
        6.2510         6.0510        12.1485        11.5676        17.3760 
       26.1847        15.4891      4277.6152     0.14929999
    3549.24360 
    11614.1992         0.0241         2.3565         0.8963      -0.167920 
      356.9830        -1.5079        73.4596        27.1292     0.38339999 
        6.2823         6.0510        10.9802        10.5798        17.7855 
       26.1501        16.3075      4231.2144     0.14690000
    3549.39600 
    11338.6006         0.0077         2.2666         0.8625      -0.169178 
      356.9830        -1.5101        71.5875        27.8647     0.37500000 
        6.2847         6.0510        11.0633        10.6220        19.6162 
       26.0547        16.5693      4080.9287     0.14420000
    3549.54840 
    10484.8008         0.0092         2.3964         0.8172      -0.169200 
      356.9830        -1.6068        76.7206        30.6087     0.37149999 
        6.2847         6.0510        11.1901        10.4222        18.1857 
       25.7592        16.7182      4054.1541     0.13390000
    3549.70080 
     9447.8994         0.0203         2.3656         0.8448      -0.167848 
      356.9830        -1.7279        76.3655        33.8195     0.37380001 
        6.2869         6.0510        10.8991        10.3148        18.2330 
       25.4008        16.1913      4166.3574     0.13320000
    3549.85320 
     8460.3008        -0.0058         2.3564         0.8463      -0.166905 
      358.3940        -1.7378        77.7794        33.4518     0.38389999 
        6.2895         6.0510        10.5080         9.9336        18.0577 
       25.0599        16.2949      4359.1538     0.13000000
    3550.00560 
     8537.0000         0.0305         2.1826         0.8628      -0.166982 
      358.3940        -1.7609        73.6008        31.7120     0.38560000 
        6.2847         6.0510        10.4685        10.6122        18.4404 
       25.0864        16.6904      4379.0713     0.14150000
    3550.15800 
     9044.2002         0.0676         2.2436         0.8222      -0.166355 
      356.9830        -1.8093        74.7696        32.4475     0.38000000 
        6.2847         6.0510        10.7098        10.2659        19.3750 
       25.2614        17.3873      4390.6431     0.14910001
    3550.31040 
     9777.2002        -0.1273         2.1140         0.8062      -0.166247 
      356.9830        -1.7008        76.9480        30.2551     0.36970001 
        6.2847         6.0579         9.8788        10.1359        20.0796 
       25.5146        17.9016      4245.3081     0.16260000
    3550.46280 
     9738.5000         0.0275         2.0548         0.7920      -0.166973 
      356.9830        -1.8617        85.0415        28.6285     0.35990000 
        6.2847         6.0510         8.5983         9.8466        19.9626 
       25.5012        18.4626      4214.0713     0.16810000
    3550.61520 
     9513.7998        -0.1127         2.0148         0.7232      -0.167748 
      356.9830        -1.9771        77.0722        28.8124     0.35240000 
        6.2623         6.0510         9.6826         9.6741        20.9779 
       25.4236        18.5668      4141.5000     0.17150000
    3550.76760 
     8714.4004        -0.0124         2.0759         0.7577      -0.168638 
      356.9830        -1.8605        79.0407        27.7940     0.35139999 
        6.2847         6.0556         9.2937         9.3523        20.3117 
       25.1476        19.0468      3966.5000     0.17219999
    3550.92000 
     9114.4004         0.0080         2.2152         0.8277      -0.169613 
      356.9830        -1.8634        83.4749        27.8364     0.35130000 
        6.2823         6.0535         9.2057         9.9828        21.3466 
       25.2857        18.9665      4064.7693     0.17739999
    3551.07240 
     8922.7998         0.0090         2.1269         0.8260      -0.168502 
      356.9830        -1.7555        80.5554        27.6525     0.35519999 
        6.2847         6.0834         9.4627        10.5828        20.6833 
       25.2195        19.3476      4119.0713     0.18480000
    3551.22480 
     8558.7998        -0.0146         2.1414         0.8519      -0.166802 
      355.5720        -1.6532        80.7251        27.2565     0.35789999 
        6.2847         6.0834         9.2455        10.1143        21.4004 
       25.0939        19.3305      4368.6157     0.18920000
    3551.37720 
     8831.0000         0.0159         2.1044         0.8089      -0.166778 
      355.5720        -1.6028        81.9007        26.1532     0.36359999 
        6.2847         6.0834         9.1622        10.1481        21.2639 
       25.1878        19.2705      4371.5713     0.18910000
    3551.52960 
     9107.1992        -0.1244         2.0527         0.8306      -0.166788 
      355.5720        -1.4874        79.7494        26.1815     0.36309999 
        6.2847         6.0834         9.0601         9.9998        20.4379 
       25.2832        19.0462      4370.4287     0.18640000
    3551.68200 
     9399.7002         0.7088         2.0953         0.8064      -0.167303 
      355.5720        -1.3759        75.5863        24.6680     0.37050000 
        6.2847         6.0834         9.8352         9.9150        20.6956 
       25.3842        18.4546      4328.0005     0.18120000
    3551.83440 
     9527.6006        -0.1526         2.0904         0.8263      -0.167910 
      355.5720        -1.2183        77.0804        25.0358     0.37169999 
        6.2757         6.0695         9.6102        10.2201        19.4549 
       25.4284        18.0220      4292.6431     0.17600000
    3551.98680 
     8391.2002        -0.0043         2.1433         0.8120      -0.168068 
      355.5720        -1.0888        76.3585        25.8279     0.37560001 
        6.2823         6.0734         9.7391         9.5237        19.1637 
       25.0361        17.5008      4165.5000     0.17540000
    3552.13920 
     7805.0000         0.0553         2.2617         0.8776      -0.168532 
      355.5720        -0.9059        76.2544        24.1730     0.37270001 
        6.2847         6.0510        10.3373        10.5472        19.1424 
       24.8340        17.4988      4128.5386     0.17700000
    3552.29160 
     8132.0000         0.0059         2.1485         0.8478      -0.168900 
      355.5720        -0.7519        74.6903        23.2253     0.37130001 
        6.2847         6.0510        10.3073        10.5311        19.4836 
       24.9467        17.3061      4004.2859     0.17870000
    3552.44400 
     8713.8994         0.0015         2.2339         0.8724      -0.168893 
      356.9830        -0.8210        77.3466        25.0641     0.37259999 
        6.2847         6.0510         9.9420        10.3983        18.6027 
       25.1474        17.0748      4050.4617     0.17720000
    3552.59640 
     9387.7002         0.0021         2.2275         0.8540      -0.167818 
      355.5720        -1.0407        75.4344        24.6963     0.37230000 
        6.2847         6.0510        10.2447        10.2697        18.4576 
       25.3800        16.7621      4297.2144     0.17810000
    3552.74880 
     9872.2002        -0.0271         2.2997         0.8666      -0.166372 
      356.9830        -1.3495        77.9946        23.9042     0.37270001 
        6.2847         6.0533         9.8398         9.6314        18.5667 
       25.5474        16.6288      4368.0000     0.18480000
