~Version Information Block
VERS .                 2.00:  CWLS LOG ASCII STANDARD - VERSION 2.00
WRAP .                   NO:  One line per depth step
~Well Information Block
#MNEM.UNIT        Data Type   Information
#---------- ----------------  -----------
STRT .M          3439.51560:  START DEPTH
STOP .M          3642.36000:  STOP DEPTH
STEP .M             0.15240:  STEP
NULL .              -999.25:  NULL VALUE
COMP .              Statoil:  COMPANY
WELL .          NO_15/9-F-5:  WELL
FLD  .                VOLVE:  FIELD
LOC  .            North Sea:  LOCATION
CTRY .                     :  COUNTRY
STAT .                     :  STATE
CNTY .                     :  COUNTY
SRVC .         Schlumberger:  SERVICE COMPANY
DATE .          16-Sep-2012:  DATE
API  .                     :  API NUMBER
UWI  .             15/9-F-5:  UNIQUE WELL ID
~Curve Information Block
#MNEM.UNIT         API CODE   Curve Description
#---------- ----------------  -----------------
DEPTH.M                    :  DEPTH (BOREHOLE)
BSAL .PPM                  :  Borehole Salinity
CCLC .V                    :  CCL
CIRF .                     :  RST Capture to Inelastic Ratio Far
CIRN .                     :  RST Capture to Inelastic Ratio Near
CVEL .M/MIN                 :  Cable Velocity
DSIG .CU                   :  Sigma Difference
FBEF .UA                   :  RST Far Effective Beam Current
GR   .GAPI                 :  Gamma Ray
IRAT .                     :  RST Inelastic Ratio
RSCF .                     :  RST Far Detector Effective Unregulated Capture Count Rate
RSCN .                     :  RST Near Detector Effective Unregulated Capture Count Rate
SFFA .CU                   :  RST Sigma Formation Far Apparent
SIBF .CU                   :  RST Sigma Borehole Fluid
SIGM .CU                   :  Formation Sigma (Neutron Capture Cross Section)
TENS .LBF                  :  Cable Tension
TPHI .V/V                  :  Thermal Decay Porosity
~Parameter Information Block
#MNEM.UNIT            Value   Description
#---------- ----------------  -----------
APD  .M           54.900002:  Elevation of Depth Reference (LMF) above Permanent Datum
BHS  .                 CASE:  Borehole Status (Open or Cased Hole)
BS   .IN                8.5:  Bit Size
BSAL .PPM       34972.17188:  Borehole Salinity
BSALOPT.              UNKNOWN:  Borehole Salinity Option
CSID .IN              6.184:  Casing Inner Diameter
CSIZ .IN                  7:  Current Casing Size
CWEI .LB/F               29:  Casing Weight
MATR .                 SAND:  Rock Matrix for Neutron Porosity Corrections
RUN  .                Run 1:  RUN NUMBER
PROJECT.     SLEIPNER_OST@st-vlinapp01:  
SET  .       RSTD_0912_SIG1:  
~Other Information Block
# 
~A       DEPTH           BSAL           CCLC           CIRF           CIRN           CVEL           DSIG           FBEF             GR           IRAT           RSCF           RSCN           SFFA           SIBF           SIGM           TENS           TPHI 
# ...
    3493.16040     41440.3008        -0.0683         1.3145     0.46000001       -4.50790         4.2974        77.6951        35.7662     0.32550001         5.6160         5.9897        26.4156        36.6781        23.7083      2654.3547     0.21860000
    3493.31280     41713.6016        -0.4221         1.5530     0.49810001       -4.51360         4.3858        76.1665        33.2749     0.32600001         7.0420         6.8158        24.0944        36.7763        21.9721      2661.9666     0.19040000
    3493.46520     41510.5000         0.4671         1.7025     0.52389997       -4.48230         4.4001        76.0872        30.5290     0.33219999         8.0237         7.6581        21.4477        36.7033        20.3220      2654.0000     0.17839999
    3493.61760     42376.0977        -0.0523         1.6866     0.55239999       -4.50290         4.0528        72.4605        28.3837     0.33809999         8.1303         7.7246        21.3818        37.0146        19.1961      2656.5334     0.17360000
    3493.77000     42430.6992        -0.0825         1.7857     0.56680000       -4.50500         3.5828        67.1495        25.2281     0.33710000         9.3122         8.3395        20.6084        37.0343        18.6391      2638.6001     0.17070000
    3493.92240     42717.2031        -0.2018         1.9354     0.58050001       -4.48310         2.9405        71.6116        24.5610     0.33750001         9.5606         8.4566        19.6271        37.1374        18.1192      2655.2905     0.17389999
    3494.07480     43270.1992        -0.4558         1.8801     0.60110003       -4.47700         2.2235        69.0403        24.2455     0.33899999         9.7907         8.9415        19.6650        37.3366        17.7765      2651.9033     0.17810000
    3494.22720     43849.0000         0.0810         1.8500     0.60329998       -4.49840         1.6093        71.9339        23.0441     0.34670001         9.2338         8.7479        19.4353        37.5451        17.6945      2626.7000     0.18420000
    3494.37960     43934.1992        -0.0577         1.8855     0.61879998       -4.52470         1.1290        70.9597        23.5590     0.34189999         8.9278         8.1637        19.2716        37.5758        17.7703      2653.1936     0.18960001
    3494.53200     44162.8984        -0.2454         1.8843     0.59630001       -4.49200         0.7113        71.1676        23.8912     0.33759999         9.3216         8.7260        19.7974        37.6583        18.0684      2660.2668     0.19700000
    3494.68440     44545.1992        -0.0439         1.8781     0.60310000       -4.47840         0.5206        70.5002        24.2150     0.33059999         9.3951         8.7308        20.2500        37.7962        18.4312      2650.7742     0.20180000
    3494.83680     44375.4023        -0.2136         1.8945     0.62910002       -4.49860         0.4113        75.5598        23.7832     0.33320001         8.7977         8.8102        20.3130        37.7349        18.7609      2647.5000     0.20180000
    3494.98920     44561.5000        -0.0021         1.8783     0.61089998       -4.49380         0.3956        72.4060        24.2981     0.33180001         9.3217         8.8071        20.7863        37.8020        18.5064      2668.3225     0.19159999
    3495.14160     44719.6992        -0.1148         2.0539     0.61860001       -4.50000         0.2959        73.1331        24.0406     0.33570001         9.9252         8.8999        19.4959        37.8591        17.9379      2663.5002     0.17710000
    3495.29400     45037.1992         0.2329         2.1264     0.64740002       -4.52420         0.3477        69.6708        23.7915     0.33710000        10.5461         9.1389        18.6246        37.9738        16.9850      2647.9033     0.16419999
    3495.44640     45579.0000         0.3227         2.2165     0.65789998       -4.51420         0.2106        69.3321        23.2767     0.33899999        11.4899         9.7058        17.9596        38.1694        16.2115      2646.7000     0.15440001
    3495.59880     45608.3984        -0.2012         2.3268     0.66570002       -4.49700         0.2078        73.0408        22.2802     0.33739999        11.7719        10.0920        17.2231        38.1800        15.3308      2650.9333     0.15250000
    3495.75120     46185.5000        -0.0269         2.4309     0.68070000       -4.50740         0.2296        73.4589        21.4221     0.33590001        11.9470         9.8762        16.0500        38.3885        14.8607      2654.5161     0.15240000
    3495.90360     45809.6992         0.0108         2.3884     0.70649999       -4.52700         0.3102        73.0801        19.7695     0.34079999        11.5324        10.1285        16.5949        38.2527        14.3485      2647.0000     0.15780000
    3496.05600     44991.6016         0.3477         2.3560     0.70880002       -4.51330         0.2190        70.3645        18.9723     0.34360000        11.9131        10.3682        15.7460        37.9573        14.3557      2652.1614     0.15650000
    3496.20840     44318.1992         0.1735         2.3784     0.69849998       -4.51570         0.0648        70.3082        18.6291     0.34570000        12.1547        10.1764        16.1104        37.7143        14.1456      2648.1001     0.15420000
    3496.36080     43231.3008         0.1443         2.3485     0.68739998       -4.50800        -0.2738        71.0172        18.1308     0.34670001        11.9390        10.0297        16.0186        37.3225        14.4932      2650.5669     0.14800000
    3496.51320     42632.4023         0.0369         2.3308     0.69110000       -4.51380        -0.6087        69.8793        18.2166     0.34709999        12.0202         9.8390        16.8281        37.1069        14.4802      2658.4517     0.14980000
    3496.66560     41911.5977        -0.1927         2.3478     0.70429999       -4.47800        -0.8500        70.8473        19.4623     0.34360000        11.7039        10.0461        16.1044        36.8475        14.8029      2660.1335     0.15650000
    3496.81800     40943.8008         0.2799         2.3274     0.70039999       -4.50170        -1.2369        72.5698        19.2048     0.33950001        11.2065         9.8299        16.9925        36.4996        14.8466      2641.3872     0.17370000
    3496.97040     39942.5000         0.0733         2.1962     0.68699998       -4.50930        -1.6218        71.0810        20.7494     0.33750001        11.1395         9.9009        16.9389        36.1401        15.7666      2659.2334     0.19200000
    3497.12280     39673.4023        -0.0905         2.0342     0.69309998       -4.52200        -1.5674        70.7313        22.4102     0.33739999        10.1689         9.6457        18.8257        36.0436        16.8526      2662.5483     0.21860000
    3497.27520     38984.1992         0.1855         1.9286     0.67739999       -4.51670        -1.5842        75.4079        25.4136     0.34000000         9.0370         9.3981        20.2129        35.7965        18.2884      2632.1001     0.24609999
    3497.42760     38795.5000        -0.0885         1.6102     0.64050001       -4.50180        -1.3881        70.9430        27.1575     0.33559999         7.8302         8.8201        21.2182        35.7289        19.9823      2641.3000     0.27350000
    3497.58000     39119.3984         0.5257         1.5197     0.59399998       -4.50280        -1.2988        74.5791        31.9628     0.33579999         7.1466         8.3340        23.9274        35.8449        21.8493      2656.1936     0.29130000
    3497.73240     38609.7969         0.1978         1.4106     0.58050001       -4.53550        -1.0209        75.3810        34.8804     0.32929999         6.4913         7.8317        25.8305        35.6624        23.3283      2647.0332     0.30309999
    3497.88480     38630.0000         0.0431         1.3419     0.54820001       -4.55010        -0.6324        77.5029        39.6082     0.32839999         6.1008         7.5562        25.6933        35.6696        24.3122      2657.5667     0.30500001
