~Version Information Block
VERS .                 2.00:  CWLS LOG ASCII STANDARD - VERSION 2.00
WRAP .                   NO:  One line per depth step
~Well Information Block
#MNEM.UNIT        Data Type   Information
#---------- ----------------  -----------
STRT .M          3454.60320:  START DEPTH
STOP .M          3792.47400:  STOP DEPTH
STEP .M             0.15240:  STEP
NULL .              -999.25:  NULL VALUE
COMP .              Statoil:  COMPANY
WELL .        NO_15/9-F-1_C:  WELL
FLD  .                Volve:  FIELD
LOC  .            North Sea:  LOCATION
CTRY .               Norway:  COUNTRY
STAT .                     :  STATE
CNTY .                     :  COUNTY
SRVC .         Schlumberger:  SERVICE COMPANY
DATE .          27-Nov-2014:  DATE
API  .                     :  API NUMBER
UWI  .           15/9-F-1 C:  UNIQUE WELL ID
LATI .     58° 26' 29.91" N:  LATITUDE
LONG .      1° 53' 14.71" E:  LONGITUDE
~Curve Information Block
#MNEM.UNIT         API CODE   Curve Description
#---------- ----------------  -----------------
DEPTH.M                    :  DEPTH (BOREHOLE)
CVEL .M/SEC                 :  Cable Velocity
DFRB .DEG                  :  Calibrated Relative Bearing
FBEF .UA                   :  RST Far Effective Beam Current
FCOR .                     :  RST Far Carbon/Oxygen Ratio
FERD .                     :  RST Far IC Mode Capture Optimization
FIRD .                     :  RST Far Inelastic Optimization Resolution
GR   .GAPI                 :  Gamma Ray
NCOR .                     :  RST Near Carbon/Oxygen Ratio
NERD .                     :  RST Near IC Mode Capture Optimization
NIRD .                     :  RST Near Inelastic Optimization Resolution
PFC1 .IN                   :  PFCS CaliperX
PFC2 .IN                   :  PFCS CaliperY
TENS .LBF                  :  Cable Tension
~Parameter Information Block
#MNEM.UNIT            Value   Description
#---------- ----------------  -----------
APD  .M           54.900002:  Elevation of Depth Reference (LMF) above Permanent Datum
EPD  .C3                  0:  Elevation of Permanent Datum above Mean Sea Level
LMF  .                   KB:  Logging Measured From (Name of Logging Elevation Reference)
PDAT .                  MSL:  Permanent Datum
RUN  .                Run 1:  RUN NUMBER
TAPE_NAME.     ConCu_R1L19Up_S012_PFCS_PILS_DEFT_RST_PCMS_PSTP.las:  
TOOL_STRING.              UNKNOWN:  
WN   .           15/9-F-1 C:  WELL
PROJECT.     SLEIPNER_OST@st-vlinapp01:  
SET  .        RSTD_1114_IC3:  
~Other Information Block
# 
~A       DEPTH           CVEL           DFRB           FBEF           FCOR           FERD           FIRD             GR           NCOR           NERD           NIRD           PFC1           PFC2           TENS 
# ...
    3632.91120      -0.008488       358.3940       121.4061         0.0877         5.3585         5.3585        20.8355         0.0027         6.7665         6.7665         6.1911         6.0500      4306.7090
    3633.06360      -0.008578       358.3940       123.7894         0.0812         5.4986         5.4986        20.9572         0.0067         6.7961         6.7961         6.1908         6.0499      4277.2847
    3633.21600      -0.008652       358.3940       124.7827        -0.0873         5.5623         5.5623        21.2803        -0.0427         6.7379         6.7379         6.1912         6.0503      4256.3735
    3633.36840      -0.008490       358.3940       123.4493         0.0324         5.6259         5.6259        21.7366         0.0397         6.7576         6.7576         6.1905         6.0490      4207.0405
    3633.52080      -0.008675       358.3940       123.1042         0.0095         5.4766         5.4766        22.4023        -0.0201         6.6683         6.6683         6.1905         6.0509      4191.9243
    3633.67320      -0.009120       358.3940       122.7562        -0.0583         5.5136         5.5136        23.0124         0.0123         6.7160         6.7160         6.1905         6.0494      4211.2632
    3633.82560      -0.008508       358.3940       120.6769        -0.0706         5.6142         5.6142        23.6200        -0.0465         6.6732         6.6732         6.1913         6.0504      4246.1040
    3633.97800      -0.008208       358.3940       121.0472        -0.0671         5.6204         5.6204        24.4427         0.0309         6.7420         6.7420         6.1912         6.0504      4287.2769
    3634.13040      -0.008267       358.3940       121.2490        -0.0465         5.6652         5.6652        24.8713         0.0818         6.7333         6.7333         6.2144         6.0507      4225.2505
    3634.28280      -0.008438       358.3940       120.9479        -0.0207         5.6722         5.6722        25.8612         0.0092         6.7413         6.7413         6.2179         6.0506      4231.2539
    3634.43520      -0.008362       358.3940       121.5216         0.0966         5.7423         5.7423        26.3882         0.0878         6.6337         6.6337         6.2214         6.0506      4250.2017
    3634.58760      -0.008043       358.3940       121.4900        -0.2174         5.8150         5.8150        26.4396         0.0466         6.6953         6.6953         6.2219         6.0504      4176.1416
    3634.74000      -0.007485       356.9830       121.4636         0.0986         5.8325         5.8325        26.2223        -0.0924         6.6193         6.6193         6.2219         6.0504      4326.3105
    3634.89240      -0.007505       356.9830       121.2767        -0.0505         5.9002         5.9002        26.4992         0.0495         6.6133         6.6133         6.2219         6.0501      4286.7632
    3635.04480      -0.007380       356.9830       120.8105        -0.0076         5.6074         5.6074        26.4063         0.0103         6.6112         6.6112         6.2219         6.0507      4358.8423
    3635.19720      -0.007428       356.9830       120.7477        -0.0235         5.7964         5.7964        26.8039         0.0713         6.5976         6.5976         6.2219         6.0510      4364.9419
    3635.34960      -0.007362       356.9830       120.6509        -0.0527         5.8308         5.8308        27.4223         0.0038         6.7378         6.7378         6.2219         6.0509      4273.5195
    3635.50200      -0.007355       356.9830       120.4950         0.0564         5.8041         5.8041        27.0870        -0.0386         6.9229         6.9229         6.2219         6.0510      4198.6304
    3635.65440      -0.007367       356.9830       120.3234        -0.0002         5.7398         5.7398        28.0410         0.0289         6.9676         6.9676         6.2219         6.0510      4290.0747
    3635.80680      -0.006638       358.3940       120.4183         0.0719         5.6455         5.6455        28.6218         0.0270         7.0061         7.0061         6.2219         6.0508      4430.6436
    3635.95920      -0.006722       358.3940       120.7393        -0.0063         5.7648         5.7648        27.9419         0.0214         7.0121         7.0121         6.2220         6.0510      4380.5972
    3636.11160      -0.006587       358.3940       121.4547         0.0248         5.7207         5.7207        27.2524        -0.0236         6.9375         6.9375         6.2219         6.0510      4318.7485
    3636.26400      -0.006838       356.9830       122.5025        -0.0638         5.7662         5.7662        26.7169         0.0582         6.9540         6.9540         6.2220         6.0510      4383.7212
    3636.41640      -0.006527       356.9830       124.9096         0.0480         5.7570         5.7570        24.6508        -0.0006         6.9592         6.9592         6.2219         6.0509      4371.1064
    3636.56880      -0.006752       356.9830       126.4376         0.0447         5.6278         5.6278        24.7075         0.1433         7.0229         7.0229         6.2220         6.0509      4387.7080
    3636.72120      -0.006805       356.9830       126.0557        -0.1597         5.6665         5.6665        25.4871         0.0020         7.0131         7.0131         6.2219         6.0510      4330.1655
    3636.87360      -0.006707       356.9830       125.4169         0.0402         5.6731         5.6731        26.3798         0.0224         6.9823         6.9823         6.2184         6.0382      4330.3452
    3637.02600      -0.006705       356.9830       120.1748         0.1107         5.5166         5.5166        26.2195         0.0106         7.0589         7.0589         6.2219         6.0278      4263.6099
    3637.17840      -0.006918       356.9830       118.9395        -0.0128         5.7265         5.7265        26.3784        -0.0339         7.0755         7.0755         6.2219         6.0411      4278.5181
    3637.33080      -0.007058       356.9830       118.6939         0.0228         5.6908         5.6908        25.2986        -0.0370         7.0251         7.0251         6.2219         6.0279      4252.9102
    3637.48320      -0.006782       356.9830       119.3813        -0.0158         5.7171         5.7171        23.7756         0.0987         7.0555         7.0555         6.2219         6.0229      4253.6523
    3637.63560      -0.006812       356.9830       118.2586         0.0514         5.7430         5.7430        22.5700         0.0090         7.0671         7.0671         6.2219         6.0389      4308.9312
    3637.78800      -0.006920       356.9830       118.0336        -0.0554         5.7287         5.7287        25.4155        -0.0006         7.1179         7.1179         6.2219         6.0422      4297.8350
    3637.94040      -0.007043       356.9830       118.4736        -0.1360         5.7488         5.7488        28.0703         0.0693         7.1933         7.1933         6.2220         6.0313      4304.4307
    3638.09280      -0.007087       356.9830       118.4047         0.0311         5.8683         5.8683        29.7564         0.0161         7.1717         7.1717         6.2220         6.0227      4246.0869
    3638.24520      -0.007153       356.9830       118.1728         0.0126         5.7469         5.7469        31.6010         0.0669         7.2129         7.2129         6.2219         6.0409      4263.1250
    3638.39760      -0.007082       356.9830       116.6854        -0.0641         5.7379         5.7379        32.1220         0.0221         7.2026         7.2026         6.2219         6.0186      4236.7607
    3638.55000      -0.007045       356.9830       116.3894        -0.1897         5.7230         5.7230        29.9006        -0.0681         7.1883         7.1883         6.2219         6.0186      4230.3052
    3638.70240      -0.006873       356.9830       115.6657         0.0128         5.7333         5.7333        28.0072         0.0659         7.1391         7.1391         6.2219         6.0186      4253.8125
