~Version Information Block
VERS .                 2.00:  CWLS LOG ASCII STANDARD - VERSION 2.00
WRAP .                   NO:  One line per depth step
~Well Information Block
#MNEM.UNIT        Data Type   Information
#---------- ----------------  -----------
STRT .M          3454.60320:  START DEPTH
STOP .M          3792.47400:  STOP DEPTH
STEP .M             0.15240:  STEP
NULL .              -999.25:  NULL VALUE
COMP .              Statoil:  COMPANY
WELL .        NO_15/9-F-1_C:  WELL
FLD  .                Volve:  FIELD
LOC  .            North Sea:  LOCATION
CTRY .               Norway:  COUNTRY
STAT .                     :  STATE
CNTY .                     :  COUNTY
SRVC .         Schlumberger:  SERVICE COMPANY
DATE .          27-Nov-2014:  DATE
API  .                     :  API NUMBER
UWI  .           15/9-F-1 C:  UNIQUE WELL ID
LATI .     58° 26' 29.91" N:  LATITUDE
LONG .      1° 53' 14.71" E:  LONGITUDE
~Curve Information Block
#MNEM.UNIT         API CODE   Curve Description
#---------- ----------------  -----------------
DEPTH.M                    :  DEPTH (BOREHOLE)
CVEL .M/SEC                 :  Cable Velocity
DFRB .DEG                  :  Calibrated Relative Bearing
FBEF .UA                   :  RST Far Effective Beam Current
FCOR .                     :  RST Far Carbon/Oxygen Ratio
FERD .                     :  RST Far IC Mode Capture Optimization
FIRD .                     :  RST Far Inelastic Optimization Resolution
GR   .GAPI                 :  Gamma Ray
NCOR .                     :  RST Near Carbon/Oxygen Ratio
NERD .                     :  RST Near IC Mode Capture Optimization
NIRD .                     :  RST Near Inelastic Optimization Resolution
PFC1 .IN                   :  PFCS CaliperX
PFC2 .IN                   :  PFCS CaliperY
TENS .LBF                  :  Cable Tension
~Parameter Information Block
#MNEM.UNIT            Value   Description
#---------- ----------------  -----------
APD  .M           54.900002:  Elevation of Depth Reference (LMF) above Permanent Datum
EPD  .C3                  0:  Elevation of Permanent Datum above Mean Sea Level
LMF  .                   KB:  Logging Measured From (Name of Logging Elevation Reference)
PDAT .                  MSL:  Permanent Datum
RUN  .                Run 1:  RUN NUMBER
TAPE_NAME.     ConCu_R1L19Up_S012_PFCS_PILS_DEFT_RST_PCMS_PSTP.las:  
TOOL_STRING.              UNKNOWN:  
WN   .           15/9-F-1 C:  WELL
PROJECT.     SLEIPNER_OST@st-vlinapp01:  
SET  .        RSTD_1114_IC3:  
~Other Information Block
# 
~A       DEPTH           CVEL           DFRB           FBEF           FCOR           FERD           FIRD             GR           NCOR           NERD           NIRD           PFC1           PFC2           TENS 
# ...
    3674.51640      -0.171790       356.9830       122.9646         0.1936         5.4099         5.4099        28.9821         0.2271         6.9750         6.9750         6.2219         6.0510      4303.6924
    3674.66880      -0.171950       356.9830       119.9735        -0.4033         5.4099         5.4099        29.7459        -0.9652         6.9750         6.9750         6.2219         6.0510      4292.2310
    3674.82120      -0.170882       356.9830       121.4096        -1.5127         5.4099         5.4099        30.2551        -0.0275         6.9750         6.9750         6.2219         6.0510      4444.0000
    3674.97360      -0.170545       356.9830       121.4096        -1.5127         5.4099         5.4099        31.4574        -0.5718         6.9750         6.9750         6.2219         6.0510      4519.0767
    3675.12600      -0.170862       356.9830       120.1573        -0.0585         5.4669         5.4669        33.1123        -0.5718         6.9750         6.9750         6.2219         6.0510      4602.0000
    3675.27840      -0.171410       356.9830       121.1533        -0.3486         5.4669         5.4669        33.7771         0.2345         7.0281         7.0281         6.2219         6.0510      4534.7144
    3675.43080      -0.171207       356.9830       118.7037        -0.2007         5.4669         5.4669        31.5988         0.1483         7.0281         7.0281         6.2219         6.0510      4473.6924
    3675.58320      -0.171793       356.9830       118.7037        -0.2007         5.4669         5.4669        32.8860         0.0721         7.0281         7.0281         6.2219         6.0510      4411.4614
    3675.73560      -0.171782       356.9830       122.5930        -0.5233         5.4669         5.4669        33.4800         0.0721         7.0281         7.0281         6.2219         6.0510      4381.6431
    3675.88800      -0.171198       356.9830       120.6740         0.0719         5.4669         5.4669        35.3188        -0.0052         7.0281         7.0281         6.2219         6.0510      4412.7695
    3676.04040      -0.169522       356.9830       124.0223        -1.0850         5.4669         5.4669        34.2580         0.1957         7.0281         7.0281         6.2219         6.0510      4464.0000
    3676.19280      -0.169030       356.9830       124.0223        -1.0850         5.4669         5.4669        34.0175         0.1037         7.0281         7.0281         6.2219         6.0510      4476.1426
    3676.34520      -0.169575       356.9830       121.1203        -0.2236         5.4669         5.4669        31.0755         0.1037         7.0281         7.0281         6.2219         6.0510      4555.3574
    3676.49760      -0.170913       356.9830       125.3978         0.0726         5.5003         5.5003        30.0854         0.2137         7.0281         7.0281         6.2219         6.0510      4492.3848
    3676.65000      -0.170992       356.9830       122.2264        -0.3030         5.5003         5.5003        29.1660         0.1160         7.0469         7.0469         6.2219         6.0510      4493.8462
    3676.80240      -0.171182       356.9830       122.2264        -0.3030         5.5003         5.5003        29.9581         0.2603         7.0469         7.0469         6.2219         6.0510      4496.0713
    3676.95480      -0.170982       356.9830       121.6047         0.2359         5.5003         5.5003        30.3258         0.2603         7.0469         7.0469         6.2219         6.0510      4397.9233
    3677.10720      -0.171192       356.9830       120.5584        -0.0280         5.5003         5.5003        32.2636         0.1437         7.0469         7.0469         6.2219         6.0510      4410.9233
    3677.25960      -0.170423       356.9830       122.0714         0.4643         5.5003         5.5003        31.0896         0.0231         7.0469         7.0469         6.2219         6.0510      4434.0713
    3677.41200      -0.169637       356.9830       122.0714         0.4643         5.5003         5.5003        31.0896         0.3421         7.0469         7.0469         6.2219         6.0510      4507.0000
    3677.56440      -0.169767       356.9830       121.6255        -0.1341         5.5003         5.5003        29.9015         0.3421         7.0469         7.0469         6.2219         6.0734      4553.0000
    3677.71680      -0.170790       356.9830       124.8545        -0.2691         5.5003         5.5003        28.6143         0.0358         7.0469         7.0469         6.2219         6.0556      4526.5386
    3677.86920      -0.171128       356.9830       118.8097         0.0673         5.3917         5.3917        28.8124         0.0701         7.0469         7.0469         6.2219         6.0660      4432.2856
    3678.02160      -0.171595       356.9830       118.8097         0.0676         5.3917         5.3917        29.9156        -0.1932         7.0295         7.0295         6.2219         6.0834      4397.5386
    3678.17400      -0.171677       356.9830       121.2227        -0.0428         5.3917         5.3917        27.8930        -0.1932         7.0295         7.0295         6.2219         6.0834      4325.9229
    3678.32640      -0.171388       356.9830       119.5610        -0.3498         5.3917         5.3917        28.4870        -0.0712         7.0295         7.0295         6.2219         6.0834      4441.8574
    3678.47880      -0.170878       356.9830       121.8665         0.3995         5.3917         5.3917        27.9354         0.0516         7.0295         7.0295         6.2219         6.0834      4569.3843
    3678.63120      -0.170418       356.9830       121.8665         0.3995         5.3917         5.3917        25.3611         0.1434         7.0295         7.0295         6.2219         6.0834      4668.8462
    3678.78360      -0.170357       356.9830       120.5196         0.0125         5.3917         5.3917        27.1999         0.1434         7.0295         7.0295         6.2219         6.0834      4634.0000
    3678.93600      -0.169940       356.9830       120.9111        -0.0182         5.3917         5.3917        27.9354         0.0701         7.0295         7.0295         6.2219         6.0834      4589.0000
    3679.08840      -0.170135       356.9830       120.3441         0.2229         5.3917         5.3917        27.5394        -0.1477         7.0295         7.0295         6.2219         6.0834      4491.9287
    3679.24080      -0.171168       356.9830       120.3441         0.2229         5.3917         5.3917        28.4587         0.2631         7.0295         7.0295         6.2219         6.0834      4435.8462
    3679.39320      -0.171783       356.9830       121.4115        -0.1013         5.3757         5.3757        30.2410         0.2631         7.0295         7.0295         6.2219         6.0834      4450.2310
    3679.54560      -0.171062       356.9830       121.8453        -0.2406         5.3757         5.3757        27.4828         0.2444         6.9670         6.9670         6.2219         6.0834      4538.7856
    3679.69800      -0.170220       356.9830       121.9224         0.1366         5.3757         5.3757        26.7331         0.2615         6.9670         6.9670         6.2219         6.0834      4662.2310
    3679.85040      -0.169923       356.9830       121.9224         0.1366         5.3757         5.3757        26.5209        -0.4830         6.9670         6.9670         6.2219         6.0834      4644.4287
    3680.00280      -0.170187       356.9830       122.0532        -0.1322         5.3757         5.3757        25.2338        -0.4830         6.9670         6.9670         6.2219         6.0834      4643.0000
    3680.15520      -0.169478       356.9830       120.5493        -0.0192         5.3757         5.3757        25.4318         0.2344         6.9670         6.9670         6.2219         6.0809      4584.7856
    3680.30760      -0.169532       356.9830       121.3515        -0.2980         5.3757         5.3757        26.7190        -0.2305         6.9670         6.9670         6.2264         6.0834      4480.6157
