~Version Information Block
VERS .                 2.00:  CWLS LOG ASCII STANDARD - VERSION 2.00
WRAP .                  YES:  Multiple lines per depth step
~Well Information Block
#MNEM.UNIT        Data Type   Information
#---------- ----------------  -----------
STRT .M          3513.58200:  START DEPTH
STOP .M          3649.06560:  STOP DEPTH
STEP .M             0.15240:  STEP
NULL .              -999.25:  NULL VALUE
COMP .              Statoil:  COMPANY
WELL .        NO_15/9-F-1_C:  WELL
FLD  .                Volve:  FIELD
LOC  .            North Sea:  LOCATION
CTRY .               Norway:  COUNTRY
STAT .                     :  STATE
CNTY .                     :  COUNTY
SRVC .         Schlumberger:  SERVICE COMPANY
DATE .          27-Nov-2014:  DATE
API  .                     :  API NUMBER
UWI  .           15/9-F-1 C:  UNIQUE WELL ID
LATI .     58° 26' 29.91" N:  LATITUDE
LONG .      1° 53' 14.71" E:  LONGITUDE
~Curve Information Block
#MNEM.UNIT         API CODE   Curve Description
#---------- ----------------  -----------------
DEPTH.M                    :  DEPTH (BOREHOLE)
BSAL .PPM                  :  Borehole Salinity
CCLC .V                    :  CCL
CIRF .                     :  RST Capture to Inelastic Ratio Far
CIRN .                     :  RST Capture to Inelastic Ratio Near
CVEL .M/SEC                 :  Cable Velocity
DFRB .DEG                  :  Calibrated Relative Bearing
DSIG .CU                   :  Sigma Difference
FBEF .UA                   :  RST Far Effective Beam Current
GR   .GAPI                 :  Gamma Ray
IRAT .                     :  RST Inelastic Ratio
PFC1 .IN                   :  PFCS CaliperX
PFC2 .IN                   :  PFCS CaliperY
RSCF .                     :  RST Far Detector Effective Unregulated
RSCN .                     :  RST Near Detector Effective
SFFA .CU                   :  RST Sigma Formation Far Apparent
SIBF .CU                   :  RST Sigma Borehole Fluid
SIGM .CU                   :  Formation Sigma (Neutron Capture Cross
TENS .LBF                  :  Cable Tension
TPHI .V/V                  :  Thermal Decay Porosity
~Parameter Information Block
#MNEM.UNIT            Value   Description
#---------- ----------------  -----------
APD  .M           54.900002:  Elevation of Depth Reference (LMF) above Permanent Datum
BHS  .                 CASE:  Borehole Status (Open or Cased Hole)
BS   .IN                8.5:  Bit Size
BSAL .PPM                 0:  Borehole Salinity
BSALOPT.              UNKNOWN:  Borehole Salinity Option
CSIZ .IN                  7:  Current Casing Size
CWEI .LB/F               29:  Casing Weight
EPD  .C3                  0:  Elevation of Permanent Datum above Mean Sea Level
LMF  .                   KB:  Logging Measured From (Name of Logging Elevation Reference)
MATR .                 SAND:  Rock Matrix for Neutron Porosity Corrections
PDAT .                  MSL:  Permanent Datum
RUN  .                Run 1:  RUN NUMBER
TAPE_NAME.     Statoil_Volve_15-9-F-1 C_PLT-RST_28Nov14_ConCu_R1L15Up_SigmaRepeat.las:  
TOOL_STRING.              UNKNOWN:  
WN   .           15/9-F-1 C:  WELL
PROJECT.     SLEIPNER_OST@st-vlinapp01:  
SET  .       RSTD_1114_SIG2:  
~Other Information Block
~Ascii Log Data
# ...
    3599.99280 
    63808.6016        -0.0224         1.1298       0.349700      -0.162218 
      358.3940         1.5543        87.2468        46.7542         0.3157 
        6.2062         6.0834         4.7895         4.8735        29.5536 
       44.8253        28.5373      4348.3335       0.192900
    3600.14520 
    62850.8984         0.0763         1.1760       0.364800      -0.163912 
      358.3940         1.7922        86.2625        45.3812         0.3190 
        6.2040         6.0834         4.7258         4.3162        30.5740 
       44.4721        27.4545      4303.5000       0.186400
    3600.29760 
    63120.3984         0.0488         1.1366       0.340400      -0.163953 
      359.8050         1.9604        83.0391        43.9102         0.3198 
        6.2052         6.0834         4.9919         4.5014        27.3332 
       44.5715        25.4095      4416.0000       0.191500
    3600.45000 
    62284.4023        -0.0132         1.2695       0.399900      -0.163297 
        1.4110         2.0035        87.6787        41.2991         0.3212 
        6.1995         6.0834         5.2889         5.3871        23.3738 
       44.2634        23.5286      4662.4995       0.194200
    3600.60240 
    62006.9023         0.0042         1.3148       0.414000      -0.163318 
        1.4110         1.8640        84.8042        38.7739         0.3190 
        6.2017         6.0857         5.3314         5.0222        24.8914 
       44.1612        21.8379      4685.0000       0.176300
    3600.75480 
    61188.5000        -0.0050         1.5571       0.398600      -0.163317 
        1.4110         1.4806        83.6572        36.8002         0.3213 
        6.2129         6.0950         6.6156         5.1451        22.2044 
       43.8599        21.1789      4689.0000       0.143700
    3600.90720 
    61665.2969         0.0294         1.7264       0.435100      -0.162047 
        1.4110         0.7856        83.4702        34.0298         0.3151 
        6.2219         6.1343         7.4553         5.8065        21.4055 
       44.0354        19.6554      4502.5000       0.121700
    3601.05960 
    62323.5000         0.1638         1.7594       0.433800      -0.162682 
        1.4110         0.7131        86.1418        31.0877         0.3190 
        6.1950         6.0927         7.4205         5.8810        20.3607 
       44.2778        18.6447      4536.0000       0.122400
    3601.21200 
    62075.6992        -0.2067         2.0341       0.529700      -0.162027 
        1.4110         0.1499        82.0141        28.1825         0.3228 
        6.2219         6.1019         8.9480         6.9137        19.2394 
       44.1865        17.6545      4306.0000       0.132800
    3601.36440 
    61046.3984        -0.0185         2.1195       0.597100      -0.162047 
        1.4110        -0.3790        85.1983        25.0565         0.3239 
        6.2198         6.0748         8.6401         7.2945        18.4574 
       43.8077        17.1908      4358.9995       0.142800
    3601.51680 
    59803.1992        -0.0275         2.3127       0.585200      -0.161412 
        1.4110        -0.8721        88.3594        25.3998         0.3247 
        6.2219         6.0510         8.9578         6.8407        18.9948 
       43.3507        17.0751      4319.5000       0.142200
    3601.66920 
    58654.0000         0.0003         2.1898       0.594300      -0.162298 
        0.0000        -1.3791        83.4182        25.2159         0.3289 
        6.2219         6.0510         9.1079         7.3257        18.9093 
       42.9289        16.7812      4506.3335       0.142900
    3601.82160 
    58555.0977         0.0254         2.0947       0.605100      -0.163543 
        2.8220        -1.9041        82.1281        24.1862         0.3301 
        6.2197         6.0510         8.6139         6.9200        17.6225 
       42.8926        16.6034      4570.0000       0.144400
    3601.97400 
    58378.0000         0.0018         2.2496       0.588500      -0.163502 
        2.8220        -2.4258        86.0961        26.3927         0.3288 
        6.2219         6.0510         9.3634         7.5462        18.4949 
       42.8277        16.6415      4600.0000       0.142600
    3602.12640 
    56823.8984        -0.0122         2.0751       0.584400      -0.162298 
        2.8220        -2.8902        89.2811        27.2385         0.3300 
        6.2376         6.0765         8.1716         7.2917        19.0550 
       42.2583        16.9552      4503.0000       0.140100
    3602.27880 
    57069.5000         0.0036         2.1823       0.594400      -0.162272 
        2.8220        -3.1139        81.2896        27.0301         0.3321 
        6.2623         6.1042         9.2317         7.1364        18.6100 
       42.3482        16.9346      4477.0005       0.140500
    3602.43120 
    57778.5000        -0.0696         2.2999       0.613800      -0.162258 
        1.4110        -3.0273        90.1786        27.9250         0.3321 
        6.2449         6.1072         8.6708         7.2265        18.4734 
       42.6079        16.8089      4299.6670       0.148900
    3602.58360 
    58989.5000         0.0455         2.1368       0.608800      -0.162682 
        2.8220        -2.8981        86.6322        27.7534         0.3257 
        6.2398         6.1158         8.4630         7.4109        18.6648 
       43.0520        17.0538      4312.3335       0.151300
    3602.73600 
    59004.9023        -0.0368         2.2093       0.589200      -0.162702 
        2.8220        -2.9094        84.7762        25.3630         0.3277 
        6.2443         6.1158         9.2857         7.5542        19.2820 
       43.0576        17.6112      4408.0000       0.147900
    3602.88840 
    57785.3008         0.0029         2.2538       0.610100      -0.162067 
        4.2330        -3.0395        90.2511        24.3333         0.3263 
        6.2331         6.1158         8.7310         7.5107        20.0730 
       42.6104        18.1455      4683.5000       0.144800
    3603.04080 
    57922.5000        -0.0058         2.1562       0.593700      -0.162087 
        8.4660        -2.9969        84.1883        25.3998         0.3259 
        6.2286         6.1158         9.1317         7.6104        20.2645 
       42.6607        17.9031      4686.5000       0.147900
    3603.19320 
    58439.8008         0.0087         2.1569       0.601900      -0.163993 
        8.4660        -2.8625        82.3708        26.5275         0.3247 
        6.2331         6.1158         9.3283         7.6320        18.5536 
       42.8503        17.5974      4705.0000       0.154900
    3603.34560 
    57916.6992         0.0519         2.1655       0.579200      -0.163338 
        8.4660        -2.8586        88.9381        28.8322         0.3259 
        6.2286         6.1135         8.6911         7.3261        19.1357 
       42.6586        17.3921      4505.0000       0.151400
    3603.49800 
    58069.3008         0.0375         2.0448       0.585400      -0.163973 
        8.4660        -2.9029        86.4709        29.1754         0.3263 
        6.2421         6.0996         8.4378         7.3929        19.6154 
       42.7145        17.5268      4561.0000       0.145800
    3603.65040 
    57414.6992         0.0091         2.1504       0.546800      -0.163338 
        8.4660        -2.8637        87.4327        28.9915         0.3203 
        6.2376         6.0996         8.7555         6.9557        18.9719 
       42.4747        17.4793      4405.0000       0.135900
    3603.80280 
    57141.3984         0.0044         2.1630       0.551900      -0.162723 
        8.4660        -2.6422        92.6423        28.1334         0.3137 
        6.2219         6.0899         8.1118         6.7176        19.0088 
       42.3746        17.3704      4265.5005       0.139100
    3603.95520 
    56808.1016         0.0593         2.0645       0.530800      -0.163358 
        8.4660        -2.3709        83.7544        26.6624         0.3094 
        6.2219         6.0834         8.6042         6.6808        19.2933 
       42.2526        17.3814      4432.5000       0.140200
