~Version Information Block
VERS .                 2.00:  CWLS LOG ASCII STANDARD - VERSION 2.00
WRAP .                   NO:  One line per depth step
~Well Information Block
#MNEM.UNIT        Data Type   Information
#---------- ----------------  -----------
STRT .M          3454.45080:  START DEPTH
STOP .M          3788.05440:  STOP DEPTH
STEP .M             0.15240:  STEP
NULL .              -999.25:  NULL VALUE
COMP .              Statoil:  COMPANY
WELL .        NO_15/9-F-1_C:  WELL
FLD  .                Volve:  FIELD
LOC  .            North Sea:  LOCATION
CTRY .               Norway:  COUNTRY
STAT .                     :  STATE
CNTY .                     :  COUNTY
SRVC .         Schlumberger:  SERVICE COMPANY
DATE .          27-Nov-2014:  DATE
API  .                     :  API NUMBER
UWI  .           15/9-F-1 C:  UNIQUE WELL ID
LATI .     58° 26' 29.91" N:  LATITUDE
LONG .      1° 53' 14.71" E:  LONGITUDE
~Curve Information Block
#MNEM.UNIT         API CODE   Curve Description
#---------- ----------------  -----------------
DEPTH.M                    :  DEPTH (BOREHOLE)
CRRA .                     :  Near/Far Count Rate Ratio
CVEL .M/SEC                 :  Cable Velocity
DFRB .DEG                  :  Calibrated Relative Bearing
FBEF .UA                   :  RST Far Effective Beam Current
FCOR .                     :  RST Far Carbon/Oxygen Ratio
FERD .                     :  RST Far IC Mode Capture Optimization
FIRD .                     :  RST Far Inelastic Optimization Resolution
GR   .GAPI                 :  Gamma Ray
NCOR .                     :  RST Near Carbon/Oxygen Ratio
NERD .                     :  RST Near IC Mode Capture Optimization
NIRD .                     :  RST Near Inelastic Optimization Resolution
PFC1 .IN                   :  PFCS CaliperX
PFC2 .IN                   :  PFCS CaliperY
TENS .LBF                  :  Cable Tension
~Parameter Information Block
#MNEM.UNIT            Value   Description
#---------- ----------------  -----------
APD  .M           54.900002:  Elevation of Depth Reference (LMF) above Permanent Datum
EPD  .C3                  0:  Elevation of Permanent Datum above Mean Sea Level
LMF  .                   KB:  Logging Measured From (Name of Logging Elevation Reference)
PDAT .                  MSL:  Permanent Datum
RUN  .                Run 1:  RUN NUMBER
TAPE_NAME.     Statoil_Volve_15-9-F-1 C_PLT-RST_28Nov14_ConCu_R1L17Up_IC1.las:  
TOOL_STRING.              UNKNOWN:  
WN   .           15/9-F-1 C:  WELL
PROJECT.     SLEIPNER_OST@st-vlinapp01:  
SET  .        RSTD_1114_IC1:  
~Other Information Block
# 
~A       DEPTH           CRRA           CVEL           DFRB           FBEF           FCOR           FERD           FIRD             GR           NCOR           NERD           NIRD           PFC1           PFC2           TENS 
    3454.45080         2.6793      -0.000952       358.3940       111.6301         0.1053         4.9505         4.9505        38.4989         0.5980         6.6875         6.6875         6.2205         6.0455      4041.7209
    3454.60320         2.6793      -0.000952       358.3940       111.6301         0.1053         4.9505         4.9505        38.4989         0.5980         6.6875         6.6875         6.2205         6.0455      4041.7209
    3454.75560         2.6793      -0.000952       358.3940       111.6301         0.1053         4.9505         4.9505        38.4989         0.5980         6.6875         6.6875         6.2205         6.0455      4041.7209
    3454.90800         2.6793      -0.000952       358.3940       111.6301         0.1053         4.9505         4.9505        38.4989         0.5980         6.6875         6.6875         6.2205         6.0455      4041.7209
    3455.06040         2.6793      -0.000952       358.3940       111.6301         0.1053         4.9505         4.9505        38.4989         0.5980         6.6875         6.6875         6.2205         6.0455      4041.7209
    3455.21280         2.6793      -0.000952       358.3940       111.6301         0.1053         4.9505         4.9505        38.4989         0.5980         6.6875         6.6875         6.2205         6.0455      4041.7209
    3455.36520         2.6793      -0.000952       358.3940       111.6301         0.1053         4.9505         4.9505        38.4989         0.5980         6.6875         6.6875         6.2205         6.0455      4041.7209
    3455.51760         2.6793      -0.000952       358.3940       111.6301         0.1053         4.9505         4.9505        38.4989         0.5980         6.6875         6.6875         6.2205         6.0455      4041.7209
    3455.67000         2.6793      -0.000952       358.3940       111.6301         0.1053         4.9505         4.9505        38.4989         0.5980         6.6875         6.6875         6.2205         6.0455      4041.7209
    3455.82240         2.6793      -0.000952       358.3940       111.6301         0.1053         4.9505         4.9505        38.4989         0.5980         6.6875         6.6875         6.2205         6.0455      4041.7209
    3455.97480         2.6793      -0.000952       358.3940       111.6301         0.1053         4.9505         4.9505        38.4989         0.5980         6.6875         6.6875         6.2205         6.0455      4041.7209
    3456.12720         2.6793      -0.000952       358.3940       111.6301         0.1053         4.9505         4.9505        38.4989         0.5980         6.6875         6.6875         6.2205         6.0455      4041.7209
    3456.27960         2.6793      -0.000952       358.3940       111.6301         0.1053         4.9505         4.9505        38.4989         0.5980         6.6875         6.6875         6.2205         6.0455      4041.7209
    3456.43200         2.6793      -0.000952       358.3940       111.6301         0.1053         4.9505         4.9505        38.4989         0.5980         6.6875         6.6875         6.2205         6.0455      4041.7209
    3456.58440         2.6793      -0.000952       358.3940       111.6301         0.1053         4.9505         4.9505        38.4989         0.5980         6.6875         6.6875         6.2205         6.0455      4041.7209
    3456.73680         2.6793      -0.000952       358.3940       111.6301         0.1053         4.9505         4.9505        38.4989         0.5980         6.6875         6.6875         6.2205         6.0455      4041.7209
    3456.88920         2.6793      -0.000952       358.3940       111.6301         0.1053         4.9505         4.9505        38.4989         0.5980         6.6875         6.6875         6.2205         6.0455      4041.7209
    3457.04160         2.6793      -0.000952       358.3940       111.6301         0.1053         4.9505         4.9505        38.4989         0.5980         6.6875         6.6875         6.2205         6.0455      4041.7209
    3457.19400         2.6793      -0.000952       358.3940       111.6301         0.1053         4.9505         4.9505        38.4989         0.5980         6.6875         6.6875         6.2205         6.0455      4041.7209
    3457.34640         2.6793      -0.000952       358.3940       111.6301         0.1053         4.9505         4.9505        38.4989         0.5980         6.6875         6.6875         6.2205         6.0455      4041.7209
    3457.49880         2.6793      -0.000952       358.3940       111.6301         0.1053         4.9505         4.9505        38.4989         0.5980         6.6875         6.6875         6.2205         6.0455      4041.7209
    3457.65120         2.6793      -0.000952       358.3940       111.6301         0.1053         4.9505         4.9505        38.4989         0.5980         6.6875         6.6875         6.2205         6.0455      4041.7209
    3457.80360         2.6793      -0.000952       358.3940       111.6301         0.1053         4.9505         4.9505        38.4989         0.5980         6.6875         6.6875         6.2205         6.0455      4041.7209
    3457.95600         2.6793      -0.000952       358.3940       111.6301         0.1053         4.9505         4.9505        38.4989         0.5980         6.6875         6.6875         6.2205         6.0455      4041.7209
    3458.10840         2.6793      -0.000952       358.3940       111.6301         0.1053         4.9505         4.9505        38.4989         0.5980         6.6875         6.6875         6.2205         6.0455      4041.7209
    3458.26080         2.6793      -0.000952       358.3940       111.6301         0.1053         4.9505         4.9505        38.4989         0.5980         6.6875         6.6875         6.2205         6.0455      4041.7209
    3458.41320         2.6793      -0.000952       358.3940       111.6301         0.1053         4.9505         4.9505        38.4989         0.5980         6.6875         6.6875         6.2205         6.0455      4041.7209
    3458.56560         2.6793      -0.000952       358.3940       111.6301         0.1053         4.9505         4.9505        38.4989         0.5980         6.6875         6.6875         6.2205         6.0455      4041.7209
    3458.71800         2.6793      -0.000952       358.3940       111.6301         0.1053         4.9505         4.9505        38.4989         0.5980         6.6875         6.6875         6.2205         6.0455      4041.7209
    3458.87040         2.6793      -0.000952       358.3940       111.6301         0.1053         4.9505         4.9505        38.4989         0.5980         6.6875         6.6875         6.2205         6.0455      4041.7209
    3459.02280         2.6793      -0.000952       358.3940       111.6301         0.1053         4.9505         4.9505        38.4989         0.5980         6.6875         6.6875         6.2205         6.0455      4041.7209
    3459.17520         2.6793      -0.000952       358.3940       111.6301         0.1053         4.9505         4.9505        38.4989         0.5980         6.6875         6.6875         6.2205         6.0455      4041.7209
    3459.32760         2.6793      -0.000952       358.3940       111.6301         0.1053         4.9505         4.9505        38.4989         0.5980         6.6875         6.6875         6.2205         6.0455      4041.7209
    3459.48000         2.6793      -0.000952       358.3940       111.6301         0.1053         4.9505         4.9505        38.4989         0.5980         6.6875         6.6875         6.2205         6.0455      4041.7209
    3459.63240         2.6793      -0.000952       358.3940       111.6301         0.1053         4.9505         4.9505        38.4989         0.5980         6.6875         6.6875         6.2205         6.0455      4041.7209
    3459.78480         2.6793      -0.000952       358.3940       111.6301         0.1053         4.9505         4.9505        38.4989         0.5980         6.6875         6.6875         6.2205         6.0455      4041.7209
