~Version Information Block
VERS .                 2.00:  CWLS LOG ASCII STANDARD - VERSION 2.00
WRAP .                   NO:  One line per depth step
~Well Information Block
#MNEM.UNIT        Data Type   Information
#---------- ----------------  -----------
STRT .M          3199.94280:  START DEPTH
STOP .M          3410.40720:  STOP DEPTH
STEP .M             0.15240:  STEP
NULL .              -999.25:  NULL VALUE
COMP .              Statoil:  COMPANY
WELL .          NO_15/9-F-4:  WELL
FLD  .                VOLVE:  FIELD
LOC  .            North Sea:  LOCATION
CTRY .                     :  COUNTRY
STAT .                     :  STATE
CNTY .                     :  COUNTY
SRVC .         Schlumberger:  SERVICE COMPANY
DATE .          13-Sep-2012:  DATE
API  .                     :  API NUMBER
UWI  .             15/9-F-4:  UNIQUE WELL ID
~Curve Information Block
#MNEM.UNIT         API CODE   Curve Description
#---------- ----------------  -----------------
DEPTH.M                    :  DEPTH (BOREHOLE)
CCLC .V                    :  CCL
CRRA .                     :  Near-Far Count Rate Ratio
CVEL .M/MIN                 :  Cable Velocity
FBEF .UA                   :  RST Far Effective Beam Current
FCOR .                     :  RST Far Carbon/Oxygen Ratio
FERD .                     :  RST Far IC Mode Capture Optimization Resolution Degradation Factor
FIRD .                     :  RST Far Inelastic Optimization Resolution Degradation Factor
GR   .GAPI                 :  Gamma Ray
NCOR .                     :  RST Near Carbon/Oxygen Ratio
NERD .                     :  RST Near IC Mode Capture Optimization Resolution Degradation Factor
NIRD .                     :  RST Near Inelastic Optimization Resolution Degradation Factor
RB_PCMS.DEG                  :  Relative Bearing
TENS .LBF                  :  Cable Tension
~Parameter Information Block
#MNEM.UNIT            Value   Description
#---------- ----------------  -----------
APD  .M                  54:  Elevation of Depth Reference (LMF) above Permanent Datum
RUN  .                    4:  RUN NUMBER
PROJECT.     SLEIPNER_OST@st-vlinapp01:  
SET  .        RSTD_0912_IC1:  
~Other Information Block
# 
~A       DEPTH           CCLC           CRRA           CVEL           FBEF           FCOR           FERD           FIRD             GR           NCOR           NERD           NIRD        RB_PCMS           TENS 
# ...
    3211.83000         0.0781         3.0875      -0.518800       120.2374         0.0279         5.4928         5.4928        66.8921       0.005700         2.4202         2.4202       355.4778      2270.5322
    3211.98240        -0.0045         3.0732      -0.518800       120.3396        -0.0984         5.5340         5.5340        66.4810       0.040200         2.4599         2.4599       355.6567      2270.5322
    3212.13480        -0.0044         3.0820      -0.518800       121.5121         0.0004         5.5808         5.5808        66.1186      -0.034900         2.4512         2.4512       356.0770      2270.5322
    3212.28720        -0.0021         3.0940      -0.518800       121.3454        -0.0559         5.5305         5.5305        66.7501      -0.045000         2.4844         2.4844       356.2130      2270.5322
    3212.43960        -0.0022         3.1103      -0.518800       121.7489         0.0789         5.3632         5.3632        66.6167       0.036100         2.4258         2.4258       356.2660      2270.5322
    3212.59200        -0.0005         3.0946      -0.518800       121.7046         0.1019         5.4376         5.4376        66.5591      -0.111900         2.4307         2.4307       356.3199      2270.5322
    3212.74440         0.0290         3.1032      -0.518800       121.7139         0.0321         5.5054         5.5054        66.4441       0.060500         2.4433         2.4433       356.3827      2270.5322
    3212.89680        -0.0061         3.1220      -0.518800       120.8469        -0.1655         5.4235         5.4235        66.8445      -0.003500         2.4461         2.4461       356.3549      2270.5322
    3213.04920        -0.0050         3.0872      -0.518800       122.2312         0.1004         5.3475         5.3475        64.9736       0.044300         2.4528         2.4528       356.3035      2270.5322
    3213.20160        -0.0026         3.1083      -0.518800       123.2671        -0.0115         5.2682         5.2682        65.7316       0.048400         2.4564         2.4564       356.3185      2270.5322
    3213.35400        -0.0029         3.1542      -0.518800       123.1814         0.1403         5.4442         5.4442        66.7895       0.020900         2.4730         2.4730       356.2546      2270.5322
    3213.50640        -0.0023         3.1478      -0.518800       123.1395        -0.0243         5.5952         5.5952        67.4613       0.011900         2.4590         2.4590       356.0113      2270.5322
    3213.65880         0.1461         3.1457      -0.518800       124.7337         0.0668         5.6653         5.6653        68.7304      -0.041300         2.4496         2.4496       356.0109      2270.5322
    3213.81120         0.0034         3.1681      -0.518800       123.2774        -0.0187         5.6969         5.6969        70.2418       0.108500         2.5109         2.5109       356.0449      2270.5322
    3213.96360        -0.1055         3.1462      -0.518800       122.5924        -0.0430         5.6605         5.6605        70.0993       0.007400         2.5348         2.5348       355.9238      2270.5322
    3214.11600        -0.0020         3.1241      -0.518800       122.4556        -0.1533         5.7288         5.7288        70.1661      -0.042800         2.5533         2.5533       355.8167      2270.5322
    3214.26840        -0.0023         3.1258      -0.518800       122.9572         0.1996         5.7856         5.7856        69.2801       0.034000         2.5438         2.5438       355.7714      2270.5322
    3214.42080         0.1291         3.1450      -0.518800       122.3030         0.1168         5.9603         5.9603        68.4297       0.017700         2.5658         2.5658       355.8076      2270.5322
    3214.57320        -0.0030         3.1150      -0.518800       121.1624         0.0387         5.7317         5.7317        67.6061       0.001900         2.5902         2.5902       355.6747      2270.5322
    3214.72560        -0.0196         3.0945      -0.518800       122.2985        -0.0671         5.7082         5.7082        67.9101      -0.004400         2.5753         2.5753       355.5440      2270.5322
    3214.87800        -0.0082         3.1180      -0.518800       123.1461         0.0833         5.6689         5.6689        67.0711      -0.023200         2.5726         2.5726       355.5963      2270.5322
    3215.03040         0.0022         3.1316      -0.518800       121.7287        -0.0007         5.6750         5.6750        65.8633      -0.024700         2.6180         2.6180       355.5955      2270.5322
    3215.18280         0.0018         3.1095      -0.518800       120.4666         0.0476         5.8378         5.8378        62.9368      -0.009200         2.6619         2.6619       355.6408      2270.5322
    3215.33520        -0.0101         3.1267      -0.518800       119.0909         0.0411         5.7947         5.7947        58.5389      -0.055300         2.6371         2.6371       355.6656      2270.5322
    3215.48760        -0.0094         3.1240      -0.518800       117.2570         0.1273         5.9798         5.9798        53.2609       0.053300         2.6732         2.6732       355.7668      2270.5322
    3215.64000        -0.0076         3.0970      -0.518200       115.9620         0.0669         6.0463         6.0463        49.0274       0.074300         2.6515         2.6515       356.0427      2278.1362
    3215.79240         0.0746         3.0743      -0.518200       115.0866        -0.0404         5.8044         5.8044        47.3841       0.063600         2.6840         2.6840       356.1640      2275.4453
    3215.94480        -0.0123         3.0106      -0.514800       116.0076         0.0549         5.8114         5.8114        48.7615       0.073400         2.7118         2.7118       356.0978      2283.1843
    3216.09720        -0.0333         3.0003      -0.517700       118.3996         0.0069         5.8991         5.8991        52.3060       0.040100         2.7960         2.7960       356.2694      2266.5889
    3216.24960        -0.0141         3.0267      -0.504600       120.7938         0.0895         5.8640         5.8640        56.6519       0.038100         2.7877         2.7877       356.5229      2288.9485
    3216.40200        -0.2129         3.0792      -0.515400       122.4174         0.0373         6.1274         6.1274        60.4563      -0.047400         2.7357         2.7357       356.7378      2273.7849
    3216.55440        -0.0195         3.1040      -0.513400       124.0273         0.0589         5.8539         5.8539        63.9420       0.064800         2.7562         2.7562       356.7530      2274.5354
    3216.70680        -0.0220         3.1411      -0.517500       123.9062        -0.0200         5.8982         5.8982        65.9262       0.002800         2.7082         2.7082       356.7281      2263.4055
    3216.85920         0.0332         3.1310      -0.520900       124.2531        -0.0381         5.8540         5.8540        67.8897       0.049100         2.7365         2.7365       356.8028      2271.4106
    3217.01160        -0.0191         3.1538      -0.512600       124.1691         0.0644         5.7923         5.7923        68.4178       0.007100         2.7369         2.7369       356.7623      2264.6294
    3217.16400         0.0085         3.1337      -0.516600       124.1785        -0.0351         5.8216         5.8216        68.2101      -0.018800         2.7099         2.7099       356.7351      2267.5488
    3217.31640        -0.0229         3.1348      -0.517400       124.2577         0.0517         5.8669         5.8669        65.9698      -0.021700         2.7128         2.7128       356.8279      2269.6062
    3217.46880        -0.0274         3.1970      -0.521300       126.5532         0.0577         5.8244         5.8244        62.6682      -0.001400         2.7137         2.7137       356.5345      2269.7871
    3217.62120        -0.0404         3.3653      -0.514000       127.9596        -0.0639         5.9939         5.9939        61.5198       0.054800         2.7323         2.7323       356.4653      2267.4907
