~Version Information Block
VERS .                 2.00:  CWLS LOG ASCII STANDARD - VERSION 2.00
WRAP .                   NO:  One line per depth step
~Well Information Block
#MNEM.UNIT        Data Type   Information
#---------- ----------------  -----------
STRT .M          3439.51560:  START DEPTH
STOP .M          3642.36000:  STOP DEPTH
STEP .M             0.15240:  STEP
NULL .              -999.25:  NULL VALUE
COMP .              Statoil:  COMPANY
WELL .          NO_15/9-F-5:  WELL
FLD  .                VOLVE:  FIELD
LOC  .            North Sea:  LOCATION
CTRY .                     :  COUNTRY
STAT .                     :  STATE
CNTY .                     :  COUNTY
SRVC .         Schlumberger:  SERVICE COMPANY
DATE .          16-Sep-2012:  DATE
API  .                     :  API NUMBER
UWI  .             15/9-F-5:  UNIQUE WELL ID
~Curve Information Block
#MNEM.UNIT         API CODE   Curve Description
#---------- ----------------  -----------------
DEPTH.M                    :  DEPTH (BOREHOLE)
BSAL .PPM                  :  Borehole Salinity
CCLC .V                    :  CCL
CIRF .                     :  RST Capture to Inelastic Ratio Far
CIRN .                     :  RST Capture to Inelastic Ratio Near
CVEL .M/MIN                 :  Cable Velocity
DSIG .CU                   :  Sigma Difference
FBEF .UA                   :  RST Far Effective Beam Current
GR   .GAPI                 :  Gamma Ray
IRAT .                     :  RST Inelastic Ratio
RSCF .                     :  RST Far Detector Effective Unregulated Capture Count Rate
RSCN .                     :  RST Near Detector Effective Unregulated Capture Count Rate
SFFA .CU                   :  RST Sigma Formation Far Apparent
SIBF .CU                   :  RST Sigma Borehole Fluid
SIGM .CU                   :  Formation Sigma (Neutron Capture Cross Section)
TENS .LBF                  :  Cable Tension
TPHI .V/V                  :  Thermal Decay Porosity
~Parameter Information Block
#MNEM.UNIT            Value   Description
#---------- ----------------  -----------
APD  .M           54.900002:  Elevation of Depth Reference (LMF) above Permanent Datum
BHS  .                 CASE:  Borehole Status (Open or Cased Hole)
BS   .IN                8.5:  Bit Size
BSAL .PPM       34972.17188:  Borehole Salinity
BSALOPT.              UNKNOWN:  Borehole Salinity Option
CSID .IN              6.184:  Casing Inner Diameter
CSIZ .IN                  7:  Current Casing Size
CWEI .LB/F               29:  Casing Weight
MATR .                 SAND:  Rock Matrix for Neutron Porosity Corrections
RUN  .                Run 1:  RUN NUMBER
PROJECT.     SLEIPNER_OST@st-vlinapp01:  
SET  .       RSTD_0912_SIG1:  
~Other Information Block
# 
~A       DEPTH           BSAL           CCLC           CIRF           CIRN           CVEL           DSIG           FBEF             GR           IRAT           RSCF           RSCN           SFFA           SIBF           SIGM           TENS           TPHI 
# ...
    3454.14600     49028.0977        -0.2173         1.4203     0.52450001       -0.39360         2.3242        78.4540        26.3547     0.32190001         6.2884         7.2930        25.3125        39.4178        23.9439      2484.8628     0.28299999
    3454.29840     48769.0000        -0.7973         1.5357     0.55519998       -0.39360         2.3911        75.8581        25.9644     0.31659999         6.8216         7.3817        24.8105        39.3239        22.7393      2484.8628     0.27469999
    3454.45080     49210.0000        -0.3260         1.5705     0.52990001       -0.39360         2.4040        79.2330        25.8371     0.32139999         7.0868         7.6892        24.0948        39.4838        22.2772      2484.8628     0.27450001
    3454.60320     49817.6992         0.0479         1.4589     0.54180002       -0.39360         2.4825        78.3473        28.5083     0.31979999         6.5184         7.4677        23.9083        39.7043        21.7053      2484.8628     0.28299999
    3454.75560     49315.1016         0.1053         1.4955     0.54619998       -0.39360         2.6909        79.3906        28.5083     0.32510000         6.6736         7.6726        23.0818        39.5219        21.9476      2484.8628     0.29139999
    3454.90800     49539.3984        -0.0522         1.4448     0.55080003       -0.39360         2.8203        76.7572        27.6087     0.32020000         6.3460         7.3787        24.8185        39.6033        22.1568      2484.8628     0.29980001
    3455.06040     48932.5000         0.0044         1.4773     0.54430002       -0.39360         2.7761        76.1098        26.7533     0.32060000         6.6920         7.5171        24.5219        39.3832        22.9651      2484.8628     0.29330000
    3455.21280     48428.3008        -0.0491         1.4095     0.53539997       -0.39360         2.7427        77.7565        28.2536     0.32010001         6.1453         7.1274        25.5090        39.2004        22.6171      2484.8628     0.28549999
    3455.36520     47484.4023         0.0169         1.5385     0.54470003       -0.39360         2.4122        74.8733        26.7589     0.32170001         7.3064         7.8522        23.7496        38.8584        22.0803      2484.8628     0.26830000
    3455.51760     47423.1992        -0.1438         1.6217     0.55800003       -0.39360         2.2097        75.8835        27.8384     0.32690001         7.4624         7.8092        22.8645        38.8363        21.0309      2484.8628     0.25749999
    3455.67000     46765.8008         0.2902         1.6284     0.56950003       -4.50950         1.9877        72.6869        27.6668     0.32609999         7.5084         7.7043        22.3179        38.5984        20.6622      2657.9678     0.24650000
    3455.82240     45755.6992         0.1822         1.6677     0.56989998       -4.52310         1.9394        75.0953        29.1616     0.32600001         7.6545         7.9945        22.6068        38.2332        20.4967      2658.1001     0.24690001
    3455.97480     45409.8008        -0.2384         1.6709     0.56370002       -4.52090         1.6879        75.9254        28.3256     0.32440001         7.6534         7.8760        22.3381        38.1083        21.3414      2659.6667     0.24529999
    3456.12720     44519.6992         0.0017         1.5544     0.57020003       -4.50650         1.6328        76.5900        26.7201     0.32400000         7.0524         7.8324        24.8231        37.7870        22.1580      2655.3870     0.25600001
    3456.27960     43968.1016         0.0214         1.5622     0.55080003       -4.49330         1.3311        77.6550        24.3950     0.31850001         6.8082         7.4397        24.9882        37.5880        23.2108      2655.3335     0.27309999
    3456.43200     43865.0000         0.1133         1.4762     0.54939997       -4.34590         1.0642        78.7238        22.9362     0.30419999         6.4656         7.7715        25.4476        37.5509        24.3672      2650.9678     0.31619999
    3456.58440     43618.0977         0.1690         1.1435     0.44090000       -4.45690         1.1024        78.8242        20.9432     0.29800001         5.3250         6.7934        28.2348        37.4619        26.6865      2650.4517     0.35440001
    3456.73680     43047.0000        -2.7201         0.9386     0.46309999       -4.53370         1.0993        81.7544        21.2753     0.29980001         4.0903         6.7575        31.9460        37.2561        29.3975      2653.9355     0.38550001
    3456.88920     42228.2969         0.2084         0.9508     0.45159999       -4.50790         1.3219        81.4647        22.2193     0.30870000         4.1163         6.3544        33.5826        36.9614        31.1255      2638.2002     0.38999999
    3457.04160     41634.3008         0.0987         0.9262     0.45590001       -4.50990         1.7362        78.6447        23.9631     0.31290001         3.9366         5.9888        33.5085        36.7478        31.9285      2646.8389     0.38800001
    3457.19400     41252.8984         0.0341         0.9596     0.45449999       -4.49540         2.1473        78.7848        24.9984     0.30960000         4.1471         6.1938        34.4450        36.6107        32.3360      2658.8667     0.37990001
    3457.34640     40839.6016        -0.1882         0.9125     0.42770001       -4.51290         2.1502        79.5637        26.7810     0.30410001         4.1619         6.3917        34.9084        36.4622        32.8803      2649.8333     0.36700001
    3457.49880     40775.1992        -0.3034         0.9344     0.42690000       -4.54400         2.4762        80.3583        28.8571     0.30399999         4.1925         6.2766        35.2115        36.4391        32.0975      2649.3550     0.35850000
    3457.65120     40454.8008         0.4379         1.0217     0.42309999       -4.50920         2.4450        80.0500        28.6855     0.30720001         4.5245         6.0347        32.1461        36.3240        30.6023      2660.1001     0.34970000
    3457.80360     40051.6016         0.0165         0.9905     0.44369999       -4.49720         2.2004        76.6783        30.2383     0.31189999         4.5082         6.3176        30.3948        36.1793        28.8605      2662.2334     0.35310000
    3457.95600     40142.5000         0.0314         1.0792     0.46439999       -4.50810         2.6178        74.5918        33.1448     0.31220001         5.1987         6.8618        29.9557        36.2119        29.1696      2648.0322     0.34900001
    3458.10840     40247.1992        -0.1707         1.1159     0.48400000       -4.50580         2.7612        78.6078        35.1821     0.31310001         5.0904         7.0555        33.0893        36.2495        29.9874      2642.8333     0.35720000
    3458.26080     40220.0000        -0.3527         0.9908     0.46140000       -4.51480         2.7152        78.6505        36.6990     0.30770001         4.4363         6.3468        32.7898        36.2397        32.4949      2648.5161     0.36739999
    3458.41320     40269.6016         0.3187         0.9341     0.44720000       -4.52260         2.4928        82.9570        38.7778     0.30190000         3.8744         6.0807        37.4122        36.2575        34.7626      2646.5334     0.38659999
    3458.56560     40310.5000         0.0663         0.7554     0.42730001       -4.48630         1.6204        79.7616        40.9231     0.29719999         3.3828         6.4109        39.8027        36.2722        35.9228      2654.8711     0.40930000
    3458.71800     40104.1992        -0.0756         0.6937     0.40279999       -4.48540         1.2214        77.2460        43.6634     0.29879999         3.2837         6.2304        36.0944        36.1982        36.5134      2654.5334     0.42050001
    3458.87040     39849.3984        -0.1208         0.6788     0.39010000       -4.49290         1.2791        80.3725        43.8295     0.30010000         3.0134         5.6660        39.0800        36.1067        36.0157      2646.4517     0.42980000
