~Version Information Block
VERS .                 2.00:  CWLS LOG ASCII STANDARD - VERSION 2.00
WRAP .                   NO:  One line per depth step
~Well Information Block
#MNEM.UNIT        Data Type   Information
#---------- ----------------  -----------
STRT .M          3445.61160:  START DEPTH
STOP .M          3638.55000:  STOP DEPTH
STEP .M             0.15240:  STEP
NULL .              -999.25:  NULL VALUE
COMP .              Statoil:  COMPANY
WELL .          NO_15/9-F-5:  WELL
FLD  .                VOLVE:  FIELD
LOC  .            North Sea:  LOCATION
CTRY .                     :  COUNTRY
STAT .                     :  STATE
CNTY .                     :  COUNTY
SRVC .         Schlumberger:  SERVICE COMPANY
DATE .          16-Sep-2012:  DATE
API  .                     :  API NUMBER
UWI  .             15/9-F-5:  UNIQUE WELL ID
~Curve Information Block
#MNEM.UNIT         API CODE   Curve Description
#---------- ----------------  -----------------
DEPTH.M                    :  DEPTH (BOREHOLE)
CCLC .V                    :  CCL
CCLD .V                    :  CCL Discriminated Amplitude
CRRA .                     :  Near-Far Count Rate Ratio
CS   .F/MN                 :  Cable Speed
CVEL .M/MIN                 :  Cable Velocity
DEVI .DEG                  :  Hole Deviation
FBEF .UA                   :  RST Far Effective Beam Current
FCOR .                     :  RST Far Carbon/Oxygen Ratio
FERD .                     :  RST Far IC Mode Capture Optimization Resolution Degradation Factor
FIRD .                     :  RST Far Inelastic Optimization Resolution Degradation Factor
GR   .GAPI                 :  Gamma Ray
NCOR .                     :  RST Near Carbon/Oxygen Ratio
NERD .                     :  RST Near IC Mode Capture Optimization Resolution Degradation Factor
NIRD .                     :  RST Near Inelastic Optimization Resolution Degradation Factor
RB_PCMS.DEG                  :  Relative Bearing
TENS .LBF                  :  Cable Tension
WPRE .PSI                  :  Well Pressure
WTEP .DEGC                 :  Well Temperature
~Parameter Information Block
#MNEM.UNIT            Value   Description
#---------- ----------------  -----------
APD  .M           54.900002:  Elevation of Depth Reference (LMF) above Permanent Datum
RUN  .                Run 1:  RUN NUMBER
PROJECT.     SLEIPNER_OST@st-vlinapp01:  
SET  .        RSTD_0912_IC2:  
~Other Information Block
# 
~A       DEPTH           CCLC           CCLD           CRRA             CS           CVEL           DEVI           FBEF           FCOR           FERD           FIRD             GR           NCOR           NERD           NIRD        RB_PCMS           TENS           WPRE           WTEP 
# ...
    3485.38800        -0.0145         0.0000         2.7948         1.3438      -0.410000        48.5493       104.7459    -0.16660000         5.2830         5.2830        34.1235     0.00760000         2.7790         2.7790         7.4889      2794.7471      5020.9316        96.1774
    3485.54040        -0.1014         0.0000         2.7648         1.3474      -0.409100        48.5696       106.7333    -0.17890000         5.3643         5.3643        37.4129     0.02360000         2.8100         2.8100         7.5069      2800.1909      5021.0757        96.1724
    3485.69280         0.0638         0.0000         2.7939         1.3360      -0.410700        48.5810       110.1094    -0.06390000         5.2625         5.2625        40.6966    -0.08590000         2.8037         2.8037         7.7514      2805.7747      5021.2251        96.1665
    3485.84520        -0.0141         0.0000         2.8618         1.3504      -0.410300        48.5978       110.9897     0.05490000         5.2548         5.2548        43.8556     0.00050000         2.7723         2.7723         7.8512      2800.6926      5021.3638        96.1622
    3485.99760        -0.0141         0.0000         2.8925         1.3543      -0.411100        48.6142       111.6150     0.05920000         5.4148         5.4148        44.8039     0.04490000         2.8130         2.8130         7.8445      2815.6035      5021.5088        96.1503
    3486.15000         0.1903         0.0000         2.8818         1.3455      -0.410100        48.6335       111.2137    -0.01940000         5.2901         5.2901        43.1751    -0.00910000         2.8244         2.8244         7.9127      2810.6528      5021.6465        96.1414
    3486.30240        -0.0090         0.0000         2.8663         1.3681      -0.414200        48.6534       110.9655     0.11690000         5.4425         5.4425        41.1524    -0.03140000         2.8606         2.8606         8.0254      2801.1326      5021.7769        96.1332
    3486.45480         0.0084         0.0000         2.8476         1.3543      -0.411900        48.6659       111.3161     0.05580000         5.4315         5.4315        38.6468     0.06570000         2.8551         2.8551         8.0389      2814.9368      5021.9185        96.1241
    3486.60720        -0.0073         0.0000         2.8497         1.3333      -0.409000        48.6961       110.5601     0.05660000         5.4104         5.4104        36.3167     0.02530000         2.8126         2.8126         8.0093      2802.6667      5022.0669        96.1125
    3486.75960        -0.0121         0.0000         2.8433         1.3570      -0.411100        48.7048       111.0374     0.08050000         5.3699         5.3699        34.7287     0.11010000         2.7488         2.7488         8.0146      2813.1082      5022.2217        96.1060
    3486.91200        -0.1339         0.0000         2.8506         1.3524      -0.410200        48.7207       110.3201    -0.09470000         5.2803         5.2803        33.0415     0.03540000         2.7209         2.7209         7.8964      2803.6548      5022.3706        96.0901
    3487.06440        -0.0373         0.0000         2.8252         1.3438      -0.410600        48.7397       110.5500     0.05000000         5.2489         5.2489        32.9321     0.01830000         2.7037         2.7037         7.8594      2795.5864      5022.5356        96.0841
    3487.21680        -0.0099         0.0000         2.8267         1.3635      -0.411300        48.7637       110.5458    -0.03010000         5.2139         5.2139        32.6823     0.07610000         2.7204         2.7204         7.9314      2809.7927      5022.6528        96.0775
    3487.36920         0.0955         0.0000         2.8372         1.3570      -0.412400        48.7875       110.0880     0.07920000         5.1902         5.1902        32.2581     0.00520000         2.6955         2.6955         7.9272      2806.1658      5022.7964        96.0696
    3487.52160         0.0786         0.0000         2.8176         1.3366      -0.410600        48.8114       110.4924     0.21020000         5.2418         5.2418        32.7701    -0.00820000         2.6895         2.6895         7.9643      2807.5481      5022.9424        96.0555
    3487.67400        -0.0083         0.0000         2.8300         1.3724      -0.414400        48.8280       110.6409     0.14399999         5.2838         5.2838        32.7016    -0.02570000         2.7102         2.7102         7.9431      2815.0667      5023.0884        96.0478
    3487.82640        -0.0385         0.0000         2.8430         1.3514      -0.413300        48.8432       109.7779    -0.19490001         5.0794         5.0794        32.4215     0.03100000         2.7300         2.7300         7.9880      2804.2319      5023.2324        96.0357
    3487.97880        -0.0083         0.0000         2.8069         1.3451      -0.414800        48.8456       110.5930    -0.14330000         5.0083         5.0083        32.2263    -0.00010000         2.7329         2.7329         8.0953      2799.1028      5023.3706        96.0267
    3488.13120        -0.0070         0.0000         2.8194         1.3724      -0.414800        48.8462       109.8645    -0.15050000         5.0347         5.0347        32.0893     0.08930000         2.7530         2.7530         8.1325      2813.8521      5023.5332        96.0049
    3488.28360        -0.0048         0.0000         2.8043         1.3635      -0.414100        48.8578       110.1995     0.02830000         4.9845         4.9845        31.2873     0.04150000         2.7104         2.7104         8.2606      2793.0271      5023.6763        95.9912
    3488.43600         0.0132         0.0000         2.8235         1.3451      -0.406500        48.8333       111.0163     0.07250000         5.0589         5.0589        31.6066    -0.05230000         2.7302         2.7302         8.2650      2803.2551      5023.7832        95.9820
    3488.58840        -0.0051         0.0000         2.8426         1.3540      -0.413600        48.8355       111.1534     0.13760000         5.0710         5.0710        31.2276     0.01200000         2.7844         2.7844         8.0975      2794.9819      5023.9648        95.9709
    3488.74080        -0.0048         0.0000         2.8481         1.3589      -0.414300        48.8361       111.2657     0.04400000         5.1126         5.1126        31.0764    -0.03800000         2.7196         2.7196         8.1051      2802.3293      5024.0845        95.9552
    3488.89320        -0.0294         0.0000         2.8419         1.3524      -0.414300        48.8311       110.3993     0.10620000         5.1121         5.1121        31.2501     0.10000000         2.7449         2.7449         8.2236      2817.4866      5024.2417        95.9395
    3489.04560        -0.0059         0.0000         2.8307         1.3678      -0.414400        48.8300       110.3305     0.09110000         5.3317         5.3317        31.5335     0.03470000         2.7117         2.7117         8.4250      2808.0757      5024.3843        95.9258
    3489.19800         0.1146         0.0000         2.8147         1.3570      -0.412300        48.8328       110.2173     0.16689999         5.3709         5.3709        31.6670     0.06330000         2.6357         2.6357         8.4064      2807.6758      5024.5278        95.9141
    3489.35040        -0.0041         0.0000         2.8235         1.3494      -0.413200        48.8130       111.0133     0.06410000         5.2503         5.2503        31.3624     0.00840000         2.6735         2.6735         8.4520      2814.8647      5024.6714        95.9039
    3489.50280        -0.0833         0.0000         2.8561         1.3684      -0.415900        48.8236       110.5305     0.03660000         5.2572         5.2572        31.1906     0.01050000         2.7630         2.7630         8.3902      2809.3010      5024.8164        95.8892
    3489.65520        -0.0030         0.0000         2.8463         1.3501      -0.414300        48.8360       110.9911     0.10310000         5.2607         5.2607        31.0637    -0.01310000         2.8696         2.8696         8.3264      2805.4683      5024.9570        95.8779
