~Version Information Block
VERS .                 2.00:  CWLS LOG ASCII STANDARD - VERSION 2.00
WRAP .                  YES:  Multiple lines per depth step
~Well Information Block
#MNEM.UNIT        Data Type   Information
#---------- ----------------  -----------
STRT .M          3437.38200:  START DEPTH
STOP .M          3636.11160:  STOP DEPTH
STEP .M             0.15240:  STEP
NULL .              -999.25:  NULL VALUE
COMP .                     :  COMPANY
WELL .          NO_15/9-F-5:  WELL
FLD  .                     :  FIELD
LOC  .                     :  LOCATION
CTRY .                     :  COUNTRY
STAT .                     :  STATE
CNTY .                     :  COUNTY
SRVC .                     :  SERVICE COMPANY
DATE .                     :  DATE
API  .                     :  API NUMBER
UWI  .                     :  UNIQUE WELL ID
~Curve Information Block
#MNEM.UNIT         API CODE   Curve Description
#---------- ----------------  -----------------
DEPTH.M                    :  
BSAL .PPM                  :  (RST-D)                 (6in)                   Borehole Salinity Depths
CCLC .V                    :  (PSTP-B)                (1in)                   CCL Computed Amplitude D
CIRF .                     :  (RST-D)                 (6in)                   Capture to Inelastic Rat
CIRN .                     :  (RST-D)                 (6in)                   Capture to Inelastic Rat
CVEL .M/SEC                 :  (WLWorkflow)            (1in)                   Cable Velocity Depthshif
DSIG .CU                   :  (RST-D)                 (6in)                   Sigma Difference Depthsh
DSIG21.                     :  SIGM_1 -RSTD_0912_OW.SAT201SI_SIGR_1
FBEF .UA                   :  (RST-D)                 (6in)                   Far Effective Beam Curre
GR   .GAPI                 :  (PSTP-B)                (6in)                   Gamma Ray Depthshifted
IRAT .                     :  (RST-D)                 (6in)                   Inelastic Ratio Depthshi
RB_PCMS.DEG                  :  (PCMS-A)                (6in)                   Relative Bearing Depthsh
RSCF .                     :  (RST-D)                 (6in)                   Far Detector Effective U
RSCN .                     :  (RST-D)                 (6in)                   Near Detector Effective
SFFA .CU                   :  (RST-D)                 (6in)                   Sigma Formation Far Appa
SIBF .CU                   :  (RST-D)                 (6in)                   Sigma Borehole Fluid Dep
SIGM .CU                   :  (RST-D)                 (6in)                   Formation Sigma (Neutron
TENS .LBF                  :  (WLWorkflow)            (1in)                   Cable Tension Depthshift
TPHI .V/V                  :  (RST-D)                 (6in)                   Thermal Decay Porosity D
WPRE .BAR                  :  (PSTP-B)                (6in)                   Well Pressure Depthshift
WTEP .DEGC                 :  (PSTP-B)                (6in)                   Well Temperature Depthsh
~Parameter Information Block
#MNEM.UNIT            Value   Description
#---------- ----------------  -----------
PROJECT.     SLEIPNER_OST@st-vlinapp01:  
SET  .     RSTD_1115_SIG1_DS:  
~Other Information Block
~Ascii Log Data
# ...
    3552.29160 
    37302.4414        -0.0119         2.3682       0.730175     -0.0747748 
       -0.1689        -0.9237       102.9426        26.0850       0.324736 
      353.3099         8.0612         7.4911        16.4964        35.1944 
       14.4488      4025.2263       0.205582       365.7316        79.4998
    3552.44400 
    37311.3398         0.0120         2.4152       0.741809     -0.0745164 
       -0.0980        -0.6161       106.1315        28.6530       0.324581 
      353.1441         7.9893         7.4362        16.4533        35.1976 
       14.6395      4029.8977       0.201523       365.7390        79.4845
    3552.59640 
    37251.8672         0.0322         2.4719       0.766074     -0.0747100 
        0.0167        -0.4254       105.4499        29.3685       0.325376 
      353.0615         8.2446         7.6725        16.3781        35.1763 
       14.7554      3994.3066       0.199367       365.7587        79.4302
    3552.74880 
    37565.1328         0.0134         2.4223       0.758896     -0.0749404 
        0.1108        -0.4203       104.1937        30.1841       0.325770 
      353.0745         8.0065         7.3599        16.7983        35.2883 
       14.8079      4020.9775       0.197904       365.7565        79.4032
    3552.90120 
    37446.1484         0.0492         2.4255       0.734314     -0.0753118 
       -0.0625        -0.1775       104.5948        31.0894       0.323585 
      353.1157         8.0927         7.3987        16.5695        35.2458 
       15.0661      4020.8271       0.195449       365.7759        79.3888
    3553.05360 
    37564.0781         0.0405         2.3773       0.714786     -0.0748267 
       -0.1453         0.0911       105.2143        32.1742       0.320344 
      353.0025         8.0543         7.5116        17.1020        35.2880 
       15.4381      3977.3103       0.195832       365.7847        79.3792
    3553.20600 
    37607.4023         0.0251         2.3212       0.716975     -0.0753319 
       -0.1228         0.5584       107.5898        33.9609       0.319912 
      352.8290         7.6380         7.2886        17.8824        35.3035 
       15.9540      4003.7058       0.199004       365.7876        79.3650
    3553.35840 
    37691.6680         0.0577         2.2750       0.711427     -0.0751960 
       -0.2114         0.7835       108.3656        36.2894       0.321934 
      352.7152         7.4366         7.2722        18.1029        35.3337 
       16.3356      3998.1516       0.204321       365.7996        79.3343
    3553.51080 
    38695.8320        -0.0039         2.2236       0.713229     -0.0741306 
       -0.2915         0.9059       108.0401        38.9547       0.322189 
      352.7177         7.2739         7.2641        18.2339        35.6932 
       16.5658      4007.1907       0.210345       365.8079        79.3129
    3553.66320 
    39446.5547        -0.0253         2.1885       0.692267     -0.0745442 
       -0.1653         0.8878       107.4514        39.9647       0.321512 
      352.9007         7.2288         7.2023        18.5637        35.9622 
       16.7537      3986.8433       0.212514       365.8192        79.2957
    3553.81560 
    39302.7812        -0.0260         2.1778       0.693243     -0.0745755 
       -0.1816         0.8779       105.8225        37.8955       0.320438 
      353.0714         7.0629         6.8316        18.6649        35.9107 
       16.7512      3985.8108       0.212925       365.8281        79.2790
    3553.96800 
    38961.5508         0.0144         2.2240       0.697478     -0.0751672 
       -0.2214         0.6286       109.4199        36.0775       0.322177 
      353.1109         7.1389         6.9629        18.2226        35.7884 
       16.4488      4013.2729       0.213842       365.8374        79.2622
    3554.12040 
    39214.6719         0.0205         2.2159       0.704795     -0.0739938 
       -0.1543         0.5419       109.5490        35.1249       0.323566 
      353.0342         7.1335         7.0517        17.6413        35.8791 
       16.3039      4066.3044       0.214662       365.8475        79.2551
    3554.27280 
    39133.0508        -0.0292         2.2164       0.718084     -0.0748263 
       -0.1204         0.1576       102.9948        33.8914       0.324192 
      352.9687         7.5577         7.2825        18.2364        35.8498 
       16.0799      4005.0300       0.217511       365.8543        79.2472
    3554.42520 
    39238.0664        -0.0268         2.2853       0.719746     -0.0745522 
       -0.1510         0.3351       105.5391        32.5043       0.325550 
      352.8697         7.4259         7.2008        17.5544        35.8875 
       16.1489      3994.2534       0.217392       365.8690        79.2195
    3554.57760 
    39620.0312         0.0197         2.2142       0.720964     -0.0746380 
        0.0096        -0.0502       105.7879        33.5673       0.325275 
      352.7755         7.2432         7.1225        17.8473        36.0245 
       15.9306      4061.0830       0.221597       365.8713        79.1987
    3554.73000 
    39820.2344        -0.0094         2.2347       0.719616     -0.0743670 
        0.1847        -0.0922       103.7512        34.4780       0.324713 
      352.7147         7.6534         7.3533        17.5967        36.0963 
       15.8970      3992.9097       0.223964       365.8864        79.1816
    3554.88240 
    39791.0391        -0.0272         2.2253       0.720448     -0.0741585 
        0.2410        -0.1543       106.2137        34.7925       0.323101 
      352.7597         7.4223         7.3182        17.4588        36.0858 
       15.8131      3982.1489       0.227112       365.8977        79.1499
    3555.03480 
    40086.3789         0.0072         2.2262       0.714533     -0.0746374 
        0.2430        -0.0056       108.2869        34.0133       0.323439 
      352.8868         7.0538         6.9178        17.6086        36.1918 
       15.6452      3938.9226       0.225066       365.8985        79.1177
    3555.18720 
    40583.5273         0.0128         2.2864       0.738438     -0.0739520 
        0.3002         0.0836       105.7259        35.4673       0.322844 
      352.9665         7.4692         7.4063        17.1013        36.3702 
       15.4033      3981.7532       0.220292       365.9173        79.0981
    3555.33960 
    40514.8203         0.0062         2.3738       0.725275     -0.0749367 
        0.2013        -0.2047       107.0468        35.6280       0.320875 
      353.0609         7.8233         7.4355        16.7344        36.3456 
       15.0284      4020.7156       0.212204       365.9209        79.0840
    3555.49200 
    40287.0859        -0.0452         2.4628       0.740512     -0.0747101 
        0.1168        -0.3606       108.0890        34.2791       0.320773 
      353.1523         7.9800         7.4495        16.4837        36.2638 
       14.8603      3999.5081       0.204109       365.9315        79.0683
    3555.64440 
    39658.6016        -0.0931         2.4312       0.740492     -0.0741364 
        0.0942        -0.3607       108.3782        33.2270       0.322351 
      353.2100         7.9989         7.5751        16.6009        36.0383 
       14.8057      3980.4058       0.198492       365.9435        79.0506
    3555.79680 
    39197.1602        -0.0097         2.4140       0.732200     -0.0746625 
        0.1119        -0.2532       107.7911        33.3306       0.320159 
      353.2859         7.9129         7.5235        16.5755        35.8728 
       14.9445      4015.0393       0.197519       365.9490        79.0315
    3555.94920 
    39461.9688         0.0420         2.4723       0.733620     -0.0738241 
        0.1176        -0.3566       108.2528        33.1985       0.317509 
      353.3927         8.1119         7.7217        16.9046        35.9678 
       15.0996      4054.1584       0.200141       365.9649        79.0172
    3556.10160 
    39031.4570        -0.0451         2.4311       0.739972     -0.0745779 
        0.2094        -0.6308       109.6449        32.5134       0.315867 
      353.3347         7.8143         7.4584        17.0720        35.8134 
       15.2638      4020.7114       0.203567       365.9652        78.9947
