~Version Information Block
VERS .                 2.00:  CWLS LOG ASCII STANDARD - VERSION 2.00
WRAP .                   NO:  One line per depth step
~Well Information Block
#MNEM.UNIT        Data Type   Information
#---------- ----------------  -----------
STRT .M          3201.31440:  START DEPTH
STOP .M          3410.40720:  STOP DEPTH
STEP .M             0.15240:  STEP
NULL .              -999.25:  NULL VALUE
COMP .              Statoil:  COMPANY
WELL .          NO_15/9-F-4:  WELL
FLD  .                VOLVE:  FIELD
LOC  .            North Sea:  LOCATION
CTRY .                     :  COUNTRY
STAT .                     :  STATE
CNTY .                     :  COUNTY
SRVC .         Schlumberger:  SERVICE COMPANY
DATE .          13-Sep-2012:  DATE
API  .                     :  API NUMBER
UWI  .             15/9-F-4:  UNIQUE WELL ID
~Curve Information Block
#MNEM.UNIT         API CODE   Curve Description
#---------- ----------------  -----------------
DEPTH.M                    :  DEPTH (BOREHOLE)
CCLC .V                    :  CCL
CCLD .V                    :  CCL Discriminated Amplitude
CRRA .                     :  Near-Far Count Rate Ratio
CVEL .M/MIN                 :  Cable Velocity
DEVI .DEG                  :  Hole Deviation
FBEF .UA                   :  RST Far Effective Beam Current
FCOR .                     :  RST Far Carbon/Oxygen Ratio
FERD .                     :  RST Far IC Mode Capture Optimization Resolution Degradation Factor
FIRD .                     :  RST Far Inelastic Optimization Resolution Degradation Factor
GR   .GAPI                 :  Gamma Ray
NCOR .                     :  RST Near Carbon/Oxygen Ratio
NERD .                     :  RST Near IC Mode Capture Optimization Resolution Degradation Factor
NIRD .                     :  RST Near Inelastic Optimization Resolution Degradation Factor
RB_PCMS.DEG                  :  Relative Bearing
TENS .LBF                  :  Cable Tension
WPRE .PSI                  :  Well Pressure
WTEP .DEGC                 :  Well Temperature
WTPE .MS                   :  Well Temperature Period
~Parameter Information Block
#MNEM.UNIT            Value   Description
#---------- ----------------  -----------
APD  .M                  54:  Elevation of Depth Reference (LMF) above Permanent Datum
RUN  .                    1:  RUN NUMBER
PROJECT.     SLEIPNER_OST@st-vlinapp01:  
SET  .        RSTD_0912_IC2:  
~Other Information Block
# 
~A       DEPTH           CCLC           CCLD           CRRA           CVEL           DEVI           FBEF           FCOR           FERD           FIRD             GR           NCOR           NERD           NIRD        RB_PCMS           TENS           WPRE           WTEP           WTPE 
# ...
    3325.06320       -0.10530        0.00000         2.8895       -0.46700        55.8014       113.0698         0.0043         5.4805         5.4805        52.5940    -0.02290000         2.5005         2.5005       356.3727      2312.0889      4968.0132        89.4758         3.9664
    3325.21560        0.10840        0.00000         2.8792       -0.47420        55.8016       113.0526         0.0416         5.2977         5.2977        52.2242     0.05500000         2.5048         2.5048       356.4264      2316.6125      4968.1509        89.4439         3.9661
    3325.36800       -0.02280        0.00000         2.8823       -0.47590        55.8142       112.1541         0.0223         5.2468         5.2468        50.5835    -0.10610000         2.4574         2.4574       356.3733      2320.3091      4968.2417        89.4011         3.9658
    3325.52040        0.10320        0.00000         2.8900       -0.47420        55.8425       110.2859         0.1055         5.0287         5.0287        47.4280     0.00700000         2.4635         2.4635       356.3083      2319.0208      4968.3813        89.3797         3.9656
    3325.67280        0.02320        0.00000         2.8632       -0.47490        55.6747       107.8948        -0.1908         5.0211         5.0211        43.6820    -0.03900000         2.4213         2.4213       356.0916      2322.9792      4968.4937        89.3527         3.9653
    3325.82520       -0.19880        0.00000         2.8189       -0.48220        55.7108       106.3103         0.0734         5.2398         5.2398        39.1893     0.01030000         2.3722         2.3722       356.0302      2306.0107      4968.6670        89.3387         3.9652
    3325.97760        0.03010        0.00000         2.7718       -0.47720        55.7209       105.9310        -0.0299         5.1318         5.1318        34.9490     0.01520000         2.3724         2.3724       356.0055      2332.4861      4968.7559        89.3225         3.9651
    3326.13000       -0.14480        0.00000         2.7420       -0.47890        55.7729       106.3230         0.0497         5.3009         5.3009        31.3865    -0.00200000         2.3784         2.3784       356.0398      2317.9409      4968.8735        89.2917         3.9648
    3326.28240        0.10030        0.10030         2.7579       -0.48230        55.6856       107.2724        -0.0830         5.2070         5.2070        30.0412     0.08220000         2.3992         2.3992       355.8842      2315.0071      4968.9990        89.2597         3.9645
    3326.43480        0.16310        0.16310         2.8664       -0.48260        55.6890       109.5908         0.0152         5.2936         5.2936        30.7450     0.01530000         2.3881         2.3881       355.7530      2305.8345      4969.1138        89.2363         3.9643
    3326.58720        0.03200        0.03200         3.0069       -0.47910        55.6958       109.9493        -0.0807         5.3301         5.3301        32.2383     0.01650000         2.3734         2.3734       355.5948      2330.3811      4969.2500        89.2214         3.9642
    3326.73960       -0.00570        0.00000         2.9653       -0.48890        55.7555       108.8371         0.0932         5.3812         5.3812        33.3305     0.01720000         2.3591         2.3591       355.5413      2312.6692      4969.3628        89.1812         3.9638
    3326.89200       -0.00320        0.00000         2.8672       -0.48170        55.5647       107.2567        -0.1361         5.2568         5.2568        34.5703     0.03820000         2.4410         2.4410       355.4665      2317.8948      4969.4805        89.1469         3.9635
    3327.04440       -0.00150        0.00000         2.8207       -0.48260        55.6083       107.2197         0.0176         5.3633         5.3633        36.2139     0.05120000         2.4466         2.4466       355.5099      2315.6162      4969.6099        89.1203         3.9633
    3327.19680       -0.03960        0.00000         2.8188       -0.47790        55.5895       106.8658         0.1787         5.3759         5.3759        36.8609    -0.01870000         2.4518         2.4518       355.6854      2320.4529      4969.7329        89.0601         3.9627
    3327.34920       -0.09060        0.00000         2.8063       -0.48430        55.5895       106.3211         0.1729         5.4264         5.4264        37.4833    -0.02390000         2.4669         2.4669       355.8225      2319.7729      4969.8511        89.0009         3.9622
    3327.50160       -0.00560        0.00000         2.7991       -0.48250        55.5828       106.5973         0.0280         5.3572         5.3572        38.2369    -0.06640000         2.4000         2.4000       355.9029      2320.0984      4969.9761        88.9646         3.9619
    3327.65400        0.00860        0.00000         2.7977       -0.47710        55.5897       106.2788         0.0779         5.4232         5.4232        39.4965    -0.00980000         2.3986         2.3986       356.0137      2316.6470      4970.0972        88.9143         3.9615
    3327.80640       -0.00740        0.00000         2.7723       -0.47620        55.6002       106.6975        -0.1548         5.4692         5.4692        39.7968     0.00010000         2.3580         2.3580       356.0742      2318.3357      4970.2329        88.8755         3.9611
    3327.95880       -0.00400        0.00000         2.7914       -0.47540        55.6121       106.8886         0.0153         5.4919         5.4919        39.8207     0.06750000         2.3599         2.3599       356.0446      2313.6667      4970.3203        88.8248         3.9607
    3328.11120       -0.00280       -0.00280         2.7805       -0.47390        55.6251       107.2908         0.1196         5.5373         5.5373        39.8602    -0.09440000         2.3965         2.3965       356.0072      2321.8005      4970.5122        88.7852         3.9603
    3328.26360       -0.01650        0.00000         2.8023       -0.47870        55.6524       107.9430        -0.0411         5.4911         5.4911        38.6843    -0.12830000         2.4188         2.4188       355.9805      2312.1572      4970.6060        88.7439         3.9600
    3328.41600        0.10740        0.00000         2.7893       -0.47560        55.6721       108.5793        -0.0335         5.4693         5.4693        38.0597    -0.01460000         2.4375         2.4375       355.9751      2317.5173      4970.7505        88.6746         3.9593
    3328.56840       -0.00900        0.00000         2.8018       -0.47540        55.6898       108.6956         0.1267         5.4662         5.4662        37.8963     0.03310000         2.4820         2.4820       356.1211      2312.2153      4970.8794        88.6338         3.9590
    3328.72080        0.09350        0.00000         2.8000       -0.47080        55.7015       108.3979         0.0078         5.3624         5.3624        36.9147    -0.14330000         2.5211         2.5211       356.1402      2316.9897      4970.9927        88.5982         3.9587
    3328.87320       -0.01340        0.00000         2.8039       -0.47230        55.7128       108.4555        -0.1322         5.3080         5.3080        36.4698    -0.04710000         2.5149         2.5149       356.1579      2329.2725      4971.1089        88.5593         3.9583
    3329.02560       -0.01320        0.00000         2.8089       -0.46990        55.7200       107.4160        -0.1173         5.3347         5.3347        36.5319     0.05240000         2.5464         2.5464       356.1780      2335.2329      4971.2354        88.5080         3.9579
    3329.17800       -0.00810        0.00000         2.8084       -0.46900        55.7419       107.0726        -0.0053         5.3255         5.3255        35.6245    -0.07140000         2.5435         2.5435       356.2379      2313.2698      4971.3408        88.4581         3.9574
    3329.33040       -0.00910        0.00000         2.8015       -0.46360        55.7605       106.8366        -0.0970         5.3445         5.3445        34.7256    -0.05250000         2.4924         2.4924       356.4081      2312.1289      4971.4751        88.4212         3.9571
