~Version Information Block
VERS .                 2.00:  CWLS LOG ASCII STANDARD - VERSION 2.00
WRAP .                  YES:  Multiple lines per depth step
~Well Information Block
#MNEM.UNIT        Data Type   Information
#---------- ----------------  -----------
STRT .M          3174.64440:  START DEPTH
STOP .M          3422.90400:  STOP DEPTH
STEP .M             0.15240:  STEP
NULL .              -999.25:  NULL VALUE
COMP .         StatoilHydro:  COMPANY
WELL .          NO_15/9-F-4:  WELL
FLD  .                VOLVE:  FIELD
LOC  .            North Sea:  LOCATION
CTRY .                     :  COUNTRY
STAT .                     :  STATE
CNTY .                     :  COUNTY
SRVC .         Schlumberger:  SERVICE COMPANY
DATE .          13-Sep-2012:  DATE
API  .                     :  API NUMBER
UWI  .             15/9-F-4:  UNIQUE WELL ID
~Curve Information Block
#MNEM.UNIT         API CODE   Curve Description
#---------- ----------------  -----------------
DEPTH.M                    :  DEPTH (BOREHOLE)
BSAL .PPM                  :  Borehole Salinity
CCLC .V                    :  CCL
CCLD .V                    :  CCL Discriminated Amplitude
CIRF .                     :  RST Capture to Inelastic Ratio Far
CIRN .                     :  RST Capture to Inelastic Ratio Near
CVEL .M/MIN                 :  Cable Velocity
DEVI .DEG                  :  Hole Deviation
DSIG .CU                   :  Sigma Difference
FBEF .UA                   :  RST Far Effective Beam Current
GR   .GAPI                 :  Gamma Ray
IRAT .                     :  RST Inelastic Ratio
RB_PCMS.DEG                  :  Relative Bearing
RSCF .                     :  RST Far Detector Effective Unregulated Capture Count Rate
RSCN .                     :  RST Near Detector Effective Unregulated Capture Count Rate
SFFA .CU                   :  RST Sigma Formation Far Apparent
SIBF .CU                   :  RST Sigma Borehole Fluid
SIGM .CU                   :  Formation Sigma (Neutron Capture Cross Section)
TPHI .V/V                  :  Thermal Decay Porosity
WPRE .PSI                  :  Well Pressure
WTEP .DEGC                 :  Well Temperature
~Parameter Information Block
#MNEM.UNIT            Value   Description
#---------- ----------------  -----------
APD  .M                  54:  Elevation of Depth Reference (LMF) above Permanent Datum
BHS  .                 CASE:  Borehole Status (Open or Cased Hole)
BS   .IN                8.5:  Bit Size
BSAL .PPM       34972.17188:  Borehole Salinity
BSALOPT.              UNKNOWN:  Borehole Salinity Option
CSID .IN              6.184:  Casing Inner Diameter
CSIZ .IN                  7:  Current Casing Size
CWEI .LB/F               29:  Casing Weight
MATR .                 SAND:  Rock Matrix for Neutron Porosity Corrections
RUN  .                    4:  RUN NUMBER
PROJECT.     SLEIPNER_OST@st-vlinapp01:  
SET  .       RSTD_0912_SIG1:  
~Other Information Block
~Ascii Log Data
# ...
    3321.25320 
    28731.8984        -0.2873         0.0000         2.4499     0.77980000 
      -4.59510        55.2535         0.0345        85.7762        25.9285 
    0.31740001       355.3345         9.9034        10.0754        16.9298 
       32.1448        15.2042     0.22180000      4962.9253        90.1650
    3321.40560 
    28688.0000        -0.1024         0.0000         2.3660     0.78850001 
      -4.57200        55.1760        -0.0550        83.3079        26.5153 
    0.32300001       355.3049         9.7519         9.6387        17.7666 
       32.1292        15.3903     0.21390000      4963.1060        90.1124
    3321.55800 
    28362.5996        -0.0739         0.0000         2.4067     0.77789998 
      -4.56930        55.2122        -0.0911        84.8250        27.8024 
    0.32720000       355.3447         9.8839         9.6744        16.9184 
       32.0141        15.6307     0.21030000      4963.1787        90.0743
    3321.71040 
    27565.5996        -0.0479         0.0000         2.3589     0.77399999 
      -4.57140        55.3216        -0.3215        81.0352        26.6011 
    0.32319999       355.3331        10.0658         9.9657        17.6430 
       31.7322        15.5427     0.21570000      4963.3062        90.0093
    3321.86280 
    27943.5996        -0.1688         0.0000         2.3492     0.77789998 
      -4.57090        55.2266        -0.2617        82.6457        28.4031 
    0.32010001       355.3201         9.9905        10.1062        17.4913 
       31.8658        15.6198     0.21990000      4963.5278        89.9802
    3322.01520 
    28428.1992         0.0982         0.0000         2.3626     0.78009999 
      -4.59200        55.1952        -0.2339        85.0556        26.8585 
    0.31790000       355.2844         9.7604        10.3134        17.1471 
       32.0373        15.5927     0.22400001      4963.5869        89.8835
    3322.16760 
    28077.5000         0.0993         0.0000         2.3942     0.75840002 
      -4.63040        55.4124        -0.2885        85.2057        26.5981 
    0.31850001       355.3008         9.6357         9.3182        17.5570 
       31.9132        15.4885     0.22409999      4963.6572        89.8259
    3322.32000 
    28248.5000         0.0247         0.0000         2.3251     0.78500003 
      -4.57170        55.2787        -0.1436        82.6876        26.8556 
    0.32110000       355.3591         9.7014         9.8989        17.1765 
       31.9737        16.0680     0.22180000      4963.9365        89.8040
    3322.47240 
    28147.3008        -0.1460         0.0000         2.2545     0.75340003 
      -4.57070        55.2058        -0.1092        82.6748        27.8853 
    0.32260001       355.4475         9.2867         9.3951        18.8896 
       31.9379        16.4240     0.21850000      4964.0195        89.7466
    3322.62480 
    27914.4004         0.3793         0.0000         2.2204     0.73600000 
      -4.59730        55.4102         0.0097        84.5379        27.0715 
    0.32040000       355.5022         9.2105         9.4891        18.6229 
       31.8555        16.9729     0.21070001      4964.0737        89.6871
    3322.77720 
    28104.0996        -0.0669         0.0000         2.2770     0.73409998 
      -4.79140        55.2898         0.0764        84.5316        25.9559 
    0.32200000       355.5904         9.1671         8.9629        18.8183 
       31.9226        16.9066     0.20410000      4964.2905        89.6309
    3322.92960 
    28465.0000         0.3911         0.0000         2.2237     0.71240002 
      -4.57320        55.2062         0.0312        81.8682        26.9028 
    0.31979999       355.5867         9.5928         9.1012        18.6875 
       32.0503        16.6529     0.20020001      4964.4023        89.5790
    3323.08200 
    28854.7988        -0.0167         0.0000         2.3416     0.74620003 
      -4.57190        55.4236         0.1204        83.7907        27.1602 
    0.32110000       355.5794         9.7106         9.5380        17.8581 
       32.1883        16.0590     0.20299999      4964.4897        89.5158
    3323.23440 
    28032.9004         0.0789         0.0000         2.4104     0.77350003 
      -4.57150        55.5492         0.0454        85.4077        28.1042 
    0.31700000       355.4019         9.8460        10.0428        17.0422 
       31.8974        15.5743     0.20400000      4964.6538        89.4789
    3323.38680 
    28343.0996        -0.3747         0.0000         2.4482     0.76529998 
      -4.56990        55.0479         0.0872        84.4194        28.1457 
    0.31999999       355.3023        10.1341         9.7705        17.2341 
       32.0072        15.1346     0.20400000      4964.7852        89.4445
    3323.53920 
    28733.6016         0.5322         0.0000         2.4235     0.76910001 
      -4.57130        55.3504         0.0177        80.0659        32.0071 
    0.31959999       355.3531        10.6451         9.7728        16.5466 
       32.1454        15.1861     0.20080000      4964.9365        89.3869
    3323.69160 
    28925.0996         0.0730         0.0000         2.4958     0.77780002 
      -4.57510        55.6095        -0.1717        84.9054        33.2085 
    0.32089999       355.3865        10.3552        10.0201        17.1981 
       32.2132        14.8308     0.20510000      4965.0186        89.2835
    3323.84400 
    29033.5996         0.2372         0.0000         2.4380     0.77770001 
      -4.60380        55.2758        -0.1846        83.6947        34.6672 
    0.32040000       355.5741         9.9827         9.7427        16.1709 
       32.2516        14.9274     0.20840000      4965.1802        89.2466
    3323.99640 
    28718.5996        -0.1275         0.0000         2.4910     0.81480002 
      -4.61010        55.4257        -0.3540        84.2981        34.4015 
    0.32319999       355.5513        10.0174         9.9781        16.8402 
       32.1400        14.7884     0.21320000      4965.3442        89.2175
    3324.14880 
    29079.5000        -0.3422         0.0000         2.4472     0.79350001 
      -4.57090        55.5841        -0.4575        82.8299        34.9164 
    0.32510000       355.5626        10.3186        10.2290        16.7771 
       32.2678        14.9387     0.21370000      4965.4395        89.1618
    3324.30120 
    29520.7012         0.4019         0.0000         2.4580     0.80110002 
      -4.57150        55.4756        -0.4903        83.0213        35.6887 
    0.32510000       355.6300        10.1551         9.9704        16.6205 
       32.4241        14.8470     0.21709999      4965.5503        89.0325
    3324.45360 
    29261.8008         0.6866         0.0000         2.4804     0.81169999 
      -4.56620        55.5513        -0.5257        83.8189        36.1147 
    0.32249999       355.7189        10.2887        10.2751        16.5675 
       32.3324        14.7369     0.22030000      4965.7573        89.0264
    3324.60600 
    29449.8008         0.0181         0.0000         2.4753     0.80720001 
      -4.57590        55.6670        -0.4677        82.5486        36.8012 
    0.32350001       355.7888        10.1508        10.0988        16.4470 
       32.3990        15.1277     0.21879999      4965.8218        88.9707
    3324.75840 
    29231.8008        -0.1043         0.0000         2.4448     0.80260003 
      -4.60580        55.8108        -0.5869        81.1473        39.0406 
    0.32580000       355.8532        10.0914         9.8630        17.7979 
       32.3218        15.2638     0.21400000      4965.9399        88.9144
    3324.91080 
    28718.0000        -0.4406         0.0000         2.3814     0.79740000 
      -4.56490        55.5732        -0.5586        78.3897        38.7333 
    0.32890001       355.8345        10.4778        10.2147        16.9753 
       32.1398        15.2952     0.21160001      4966.1533        88.8571
    3325.06320 
    28779.3008        -0.3447         0.0000         2.4532     0.78619999 
      -4.55470        55.6184        -0.5907        82.5738        37.3604 
    0.32699999       355.8434        10.4289        10.2043        16.5498 
       32.1615        14.9561     0.21010000      4966.2324        88.8144
