~Version Information Block
VERS .                 2.00:  CWLS LOG ASCII STANDARD - VERSION 2.00
WRAP .                   NO:  One line per depth step
~Well Information Block
#MNEM.UNIT        Data Type   Information
#---------- ----------------  -----------
STRT .M          3461.15640:  START DEPTH
STOP .M          3535.07040:  STOP DEPTH
STEP .M             0.15240:  STEP
NULL .              -999.25:  NULL VALUE
COMP .              Statoil:  COMPANY
WELL .          NO_15/9-F-5:  WELL
FLD  .                Volve:  FIELD
LOC  .                Volve:  LOCATION
CTRY .               Norway:  COUNTRY
STAT .                     :  STATE
CNTY .                     :  COUNTY
SRVC .         Schlumberger:  SERVICE COMPANY
DATE .          03-Nov-2015:  DATE
API  .                     :  API NUMBER
UWI  .             15/9-F-5:  UNIQUE WELL ID
LATI .     58° 26' 29.66" N:  LATITUDE
LONG .      1° 53' 14.99" E:  LONGITUDE
~Curve Information Block
#MNEM.UNIT         API CODE   Curve Description
#---------- ----------------  -----------------
DEPTH.M                    :  DEPTH (BOREHOLE)
CRRA .                     :  Near/Far Count Rate Ratio
CVEL .M/SEC                 :  Cable Velocity
FBEF .UA                   :  Far Effective Beam Current
FCOR .                     :  Far Carbon/Oxygen Ratio
FIRD .                     :  Far Inelastic Optimization Resolution Degradation Factor
NCOR .                     :  Near Carbon/Oxygen Ratio
NIRD .                     :  Near Inelastic Optimization Resolution Degradation Factor
RB_PCMS.DEG                  :  Relative Bearing
WPRE .BAR                  :  Well Pressure
WTEP .DEGC                 :  Well Temperature
~Parameter Information Block
#MNEM.UNIT            Value   Description
#---------- ----------------  -----------
APD  .M                  54:  Elevation of Depth Reference (LMF) above Permanent Datum
EPD  .C3                  0:  Elevation of Permanent Datum above Mean Sea Level
LMF  .                   DF:  Logging Measured From (Name of Logging Elevation Reference)
PDAT .                  MSL:  Permanent Datum
RUN  .                Run 1:  RUN NUMBER
TAPE_NAME.     ConCu_R02_L004Up_RST_PCMS_PSTP.las:  
TOOL_STRING.              UNKNOWN:  
WN   .             15/9-F-5:  WELL
PROJECT.     SLEIPNER_OST@st-vlinapp01:  
SET  .        RSTD_1115_IC1:  
~Other Information Block
# 
~A       DEPTH           CRRA           CVEL           FBEF           FCOR           FIRD           NCOR           NIRD        RB_PCMS           WPRE           WTEP 
# ...
    3468.62400         3.1213     -0.0096617       142.1867    -0.11560000         6.6019     0.04690000         4.3046       354.6801       359.6709        83.9192
    3468.77640         3.1941     -0.0096617       147.0849     0.10050000         6.5632     0.08690000         4.3071       354.7527       359.6843        83.9322
    3468.92880         3.3572     -0.0096617       150.6482    -0.08740000         6.5997     0.04830000         4.3219       354.7696       359.6957        83.9370
    3469.08120         3.4351     -0.0096617       152.9506     0.09900000         6.4925    -0.05070000         4.3301       354.6817       359.7079        83.9448
    3469.23360         3.3798     -0.0096617       148.2002     0.05770000         6.4050     0.00660000         4.3501       354.6366       359.7188        83.9617
    3469.38600         3.2768     -0.0096617       147.2536     0.16050000         6.5478    -0.01130000         4.3656       354.5802       359.7303        83.9693
    3469.53840         3.2488     -0.0096617       149.2300     0.07970000         6.5503     0.06480000         4.3601       354.6232       359.7429        83.9800
    3469.69080         3.2785     -0.0096617       150.0479     0.12170000         6.5035     0.06830000         4.3250       354.4863       359.7553        83.9836
    3469.84320         3.2877     -0.0096617       150.6691     0.04740000         6.4135     0.02560000         4.3272       354.4384       359.7648        83.9945
    3469.99560         3.3304     -0.0096617       150.7745     0.01690000         6.4283     0.06650000         4.2989       354.5463       359.7761        83.9978
    3470.14800         3.3238     -0.0097800       150.1107     0.16810000         6.3991    -0.00930000         4.3345       354.7316       359.7873        84.0018
    3470.30040         3.3129     -0.0097517       149.7364     0.04050000         6.2355     0.07680000         4.3638       354.7788       359.7989        84.0129
    3470.45280         3.3037     -0.0097283       149.2198     0.03300000         6.2833     0.03500000         4.3580       354.2692       359.8120        84.0228
    3470.60520         3.3166     -0.0097567       147.1623    -0.02180000         6.3171     0.09490000         4.3488       354.1476       359.8238        84.0266
    3470.75760         3.2664     -0.0097550       149.1971     0.00550000         6.2558     0.14390001         4.3360       354.3696       359.8341        84.0282
    3470.91000         3.2847     -0.0098250       152.3968     0.00860000         6.2483    -0.01980000         4.3493       354.7071       359.8461        84.0277
    3471.06240         3.3616     -0.0097350       152.2600    -0.23450001         6.4210     0.05220000         4.3707       354.6805       359.8577        84.0287
    3471.21480         3.3698     -0.0097583       148.6601     0.00450000         6.4990     0.07370000         4.3261       354.4698       359.8683        84.0333
    3471.36720         3.2976     -0.0097333       143.8860    -0.12280000         6.4968    -0.04240000         4.3347       354.5644       359.8810        84.0448
    3471.51960         3.2131     -0.0097650       141.5067     0.02730000         6.5382     0.04180000         4.3054       354.7896       359.8933        84.0560
    3471.67200         3.1829     -0.0097133       142.0612    -0.10360000         6.5747     0.10130000         4.3044       355.0587       359.9039        84.0665
    3471.82440         3.1795     -0.0096617       140.5786     0.13550000         6.5806     0.02560000         4.3978       354.9188       359.9140        84.0703
    3471.97680         3.1511     -0.0096833       139.1610     0.03500000         6.5332     0.02960000         4.4093       354.9086       359.9281        84.0713
    3472.12920         3.1263     -0.0096083       136.8415     0.08480000         6.5663    -0.04460000         4.4095       354.8635       359.9382        84.0747
    3472.28160         3.0960     -0.0096850       133.5606     0.17850000         6.5085    -0.02610000         4.4101       354.8477       359.9492        84.0787
    3472.43400         3.0303     -0.0097367       131.1005     0.03600000         6.3094     0.04530000         4.4260       354.8581       359.9605        84.0831
    3472.58640         3.0030     -0.0097033       128.6561     0.00860000         6.3187    -0.06330000         4.4520       354.7849       359.9725        84.0849
    3472.73880         2.9688     -0.0096817       125.3555    -0.06840000         6.2450    -0.00260000         4.4087       354.8141       359.9839        84.0920
    3472.89120         2.9015     -0.0096917       123.6474     0.06510000         6.3601     0.10940000         4.4473       354.5727       359.9944        84.1049
    3473.04360         2.8519     -0.0097883       122.0132     0.02760000         6.2220     0.04070000         4.4223       354.7218       360.0056        84.1126
    3473.19600         2.8054     -0.0097600       123.5549     0.12030000         6.0704     0.01640000         4.4041       354.8121       360.0182        84.1171
    3473.34840         2.8280     -0.0097767       123.9425    -0.10420000         6.2602     0.06910000         4.3941       354.7333       360.0299        84.1174
    3473.50080         2.8199     -0.0097300       123.5233     0.00050000         6.3713    -0.03170000         4.3830       354.8090       360.0414        84.1246
    3473.65320         2.7873     -0.0097450       123.4981     0.03290000         6.3336     0.11990000         4.3670       354.8453       360.0534        84.1308
    3473.80560         2.8014     -0.0097383       124.5064     0.04530000         6.4046     0.03300000         4.3829       354.9534       360.0643        84.1320
    3473.95800         2.8078     -0.0097783       124.9124     0.05010000         6.4765     0.01120000         4.4026       354.9900       360.0752        84.1415
    3474.11040         2.7992     -0.0098233       126.3628     0.13030000         6.6517     0.05500000         4.3953       355.0643       360.0862        84.1448
    3474.26280         2.8294     -0.0097183       126.0362     0.08680000         6.6107    -0.00250000         4.4105       354.9437       360.0990        84.1450
    3474.41520         2.8077     -0.0097917       126.2192     0.19130000         6.7165     0.00020000         4.4273       354.7673       360.1097        84.1481
    3474.56760         2.8028     -0.0097767       127.3331    -0.15040000         6.6237    -0.01590000         4.4184       354.8406       360.1216        84.1520
    3474.72000         2.8418     -0.0098000       128.4066    -0.16210000         6.5785     0.01240000         4.4169       355.0046       360.1324        84.1572
    3474.87240         2.8586     -0.0098450       128.1730    -0.27160001         6.4317     0.03190000         4.4084       355.1547       360.1446        84.1552
    3475.02480         2.8575     -0.0097683       129.9264     0.05900000         6.5426     0.06280000         4.3904       355.0957       360.1564        84.1607
    3475.17720         2.8738     -0.0098817       129.4917    -0.18670000         6.5950     0.04030000         4.3582       355.0472       360.1662        84.1685
    3475.32960         2.8854     -0.0098233       129.7258     0.12480000         6.5991     0.07850000         4.3448       355.0995       360.1804        84.1736
    3475.48200         2.8801     -0.0098800       129.1962    -0.10620000         6.6377     0.03680000         4.3350       354.9876       360.1911        84.1771
    3475.63440         2.8593     -0.0099650       129.4894     0.10610000         6.6678     0.05650000         4.3138       354.9704       360.2019        84.1821
    3475.78680         2.8689     -0.0099683       130.1471     0.09760000         6.6970     0.08590000         4.3053       354.8936       360.2153        84.1846
    3475.93920         2.8716     -0.0098900       130.4486     0.19930001         6.6582     0.10670000         4.3349       354.7296       360.2256        84.1876
