~Version Information Block
VERS .                 2.00:  CWLS LOG ASCII STANDARD - VERSION 2.00
WRAP .                   NO:  One line per depth step
~Well Information Block
#MNEM.UNIT        Data Type   Information
#---------- ----------------  -----------
STRT .M          3199.94280:  START DEPTH
STOP .M          3410.40720:  STOP DEPTH
STEP .M             0.15240:  STEP
NULL .              -999.25:  NULL VALUE
COMP .              Statoil:  COMPANY
WELL .          NO_15/9-F-4:  WELL
FLD  .                VOLVE:  FIELD
LOC  .            North Sea:  LOCATION
CTRY .                     :  COUNTRY
STAT .                     :  STATE
CNTY .                     :  COUNTY
SRVC .         Schlumberger:  SERVICE COMPANY
DATE .          13-Sep-2012:  DATE
API  .                     :  API NUMBER
UWI  .             15/9-F-4:  UNIQUE WELL ID
~Curve Information Block
#MNEM.UNIT         API CODE   Curve Description
#---------- ----------------  -----------------
DEPTH.M                    :  DEPTH (BOREHOLE)
CCLC .V                    :  CCL
CRRA .                     :  Near-Far Count Rate Ratio
CVEL .M/MIN                 :  Cable Velocity
FBEF .UA                   :  RST Far Effective Beam Current
FCOR .                     :  RST Far Carbon/Oxygen Ratio
FERD .                     :  RST Far IC Mode Capture Optimization Resolution Degradation Factor
FIRD .                     :  RST Far Inelastic Optimization Resolution Degradation Factor
GR   .GAPI                 :  Gamma Ray
NCOR .                     :  RST Near Carbon/Oxygen Ratio
NERD .                     :  RST Near IC Mode Capture Optimization Resolution Degradation Factor
NIRD .                     :  RST Near Inelastic Optimization Resolution Degradation Factor
RB_PCMS.DEG                  :  Relative Bearing
TENS .LBF                  :  Cable Tension
~Parameter Information Block
#MNEM.UNIT            Value   Description
#---------- ----------------  -----------
APD  .M                  54:  Elevation of Depth Reference (LMF) above Permanent Datum
RUN  .                    4:  RUN NUMBER
PROJECT.     SLEIPNER_OST@st-vlinapp01:  
SET  .        RSTD_0912_IC1:  
~Other Information Block
# 
~A       DEPTH           CCLC           CRRA           CVEL           FBEF           FCOR           FERD           FIRD             GR           NCOR           NERD           NIRD        RB_PCMS           TENS 
# ...
    3402.02520        -0.0575         2.9475      -0.494000       116.6275         0.0336         4.6077         4.6077        18.6307       0.049600         2.1244         2.1244       353.7163      2327.1223
    3402.17760        -0.0575         2.8944      -0.496100       115.9383         0.0006         4.6783         4.6783        18.6307      -0.040400         2.1725         2.1725       353.7211      2306.0327
    3402.33000        -0.0575         2.8835      -0.491800       115.2609        -0.0038         4.5671         4.5671        18.6307      -0.033300         2.2219         2.2219       353.7253      2321.9031
    3402.48240        -0.0575         2.8599      -0.495700       115.7172         0.0548         4.4320         4.4320        18.6307       0.037500         2.1691         2.1691       353.7355      2315.1016
    3402.63480        -0.0575         2.8728      -0.492000       116.2770         0.0755         4.4188         4.4188        18.6307       0.000800         2.2259         2.2259       353.7355      2318.0215
    3402.78720        -0.0575         2.8975      -0.495400       117.5540         0.0044         4.3592         4.3592        18.6307       0.010100         2.1479         2.1479       353.7355      2318.2852
    3402.93960        -0.0575         2.8961      -0.499000       116.8299        -0.0257         4.2087         4.2087        18.6307       0.026900         2.1511         2.1511       353.7355      2309.6082
    3403.09200        -0.0575         2.8902      -0.495400       115.1520         0.0527         4.3383         4.3383        18.6307       0.045800         2.1633         2.1633       353.7355      2312.1814
    3403.24440        -0.0575         2.8759      -0.497600       113.0147         0.1537         4.3453         4.3453        18.6307       0.019900         2.1564         2.1564       353.7355      2297.9209
    3403.39680        -0.0575         2.8210      -0.501300       112.1848        -0.1178         4.4476         4.4476        18.6307      -0.047200         2.1483         2.1483       353.7355      2300.9636
    3403.54920        -0.0575         2.8120      -0.498500       111.6988        -0.0414         4.3833         4.3833        18.6307       0.042800         2.1183         2.1183       353.7355      2306.7610
    3403.70160        -0.0575         2.8104      -0.500300       111.5554         0.0177         4.4071         4.4071        18.6307       0.080000         2.0905         2.0905       353.7355      2314.7600
    3403.85400        -0.0575         2.8249      -0.500800       112.2263         0.0201         4.4012         4.4012        18.6307      -0.144200         2.0863         2.0863       353.7355      2297.1812
    3404.00640        -0.0575         2.8342      -0.500800       111.4993        -0.0871         4.4954         4.4954        18.6307       0.075600         2.1049         2.1049       353.7355      2308.3677
    3404.15880        -0.0575         2.8195      -0.503900       111.0902         0.0983         4.4819         4.4819        18.6307       0.049600         2.0606         2.0606       353.7355      2311.7942
    3404.31120        -0.0575         2.8160      -0.503900       108.9253        -0.1786         4.5515         4.5515        18.6307      -0.074700         2.0709         2.0709       353.7355      2308.5823
    3404.46360        -0.0575         2.7736      -0.509900       109.5196         0.0781         4.6446         4.6446        18.6307       0.011300         2.0852         2.0852       353.7355      2319.2036
    3404.61600        -0.0575         2.7975      -0.510500       109.8106         0.1048         4.6659         4.6659        18.6307      -0.013700         2.0961         2.0961       353.7355      2308.0076
    3404.76840        -0.0575         2.8123      -0.512600       109.4359        -0.2772         4.7986         4.7986        18.6307      -0.016800         2.0710         2.0710       353.7355      2315.5576
    3404.92080        -0.0575         2.7961      -0.512400       109.0463        -0.1199         4.8330         4.8330        18.6307      -0.004500         2.0834         2.0834       353.7355      2302.9812
    3405.07320        -0.0575         2.7714      -0.487800       109.3081        -0.1127         4.8231         4.8231        18.6307       0.004200         2.0477         2.0477       353.7355      2302.1858
    3405.22560        -0.0575         2.8048      -0.498500       108.8172         0.0197         4.7705         4.7705        18.6307       0.013100         2.0586         2.0586       353.7355      2307.8911
    3405.37800        -0.0575         2.7897      -0.504700       109.2271        -0.2108         4.7636         4.7636        18.6307      -0.028900         2.0851         2.0851       353.7355      2301.2722
    3405.53040        -0.0575         2.8162      -0.498800       109.2619         0.0987         4.7572         4.7572        18.6307      -0.033000         2.1028         2.1028       353.7355      2299.8987
    3405.68280        -0.0575         2.7928      -0.502300       109.1100        -0.0060         4.6477         4.6477        18.6307      -0.014100         2.1141         2.1141       353.7355      2299.0586
    3405.83520        -0.0575         2.7983      -0.502300       109.4049         0.0942         4.6472         4.6472        18.6307      -0.015100         2.1301         2.1301       353.7355      2301.4045
    3405.98760        -0.0575         2.8143      -0.506900       109.5636         0.0317         4.9251         4.9251        18.6307       0.064400         2.1338         2.1338       353.7355      2302.4265
    3406.14000        -0.0575         2.8059      -0.503100       109.3232        -0.0361         4.9239         4.9239        18.6307      -0.085600         2.0846         2.0846       353.7355      2298.5315
    3406.29240        -0.0575         2.8092      -0.508800       108.9620         0.0057         4.9206         4.9206        18.6307      -0.078700         2.1411         2.1411       353.7355      2293.7888
    3406.44480        -0.0575         2.8077      -0.507900       108.9620         0.0057         4.9206         4.9206        18.6307      -0.078700         2.1434         2.1434       353.7355      2304.2593
    3406.59720        -0.0575         2.8077      -0.509500       108.9620         0.0057         4.9206         4.9206        18.6307      -0.078700         2.1434         2.1434       353.7355      2297.0818
    3406.74960        -0.0575         2.8077      -0.503700       108.9620         0.0057         4.9206         4.9206        18.6307      -0.078700         2.1434         2.1434       353.7355      2304.0842
    3406.90200        -0.0575         2.8077      -0.509000       108.9620         0.0057         4.9206         4.9206        18.6307      -0.078700         2.1434         2.1434       353.7355      2302.6768
    3407.05440        -0.0575         2.8077      -0.501600       108.9620         0.0057         4.9206         4.9206        18.6307      -0.078700         2.1434         2.1434       353.7355      2305.1318
    3407.20680        -0.0575         2.8077      -0.503500       108.9620         0.0057         4.9206         4.9206        18.6307      -0.078700         2.1434         2.1434       353.7355      2302.5774
    3407.35920        -0.0575         2.8077      -0.499600       108.9620         0.0057         4.9206         4.9206        18.6307      -0.078700         2.1434         2.1434       353.7355      2298.0364
    3407.51160        -0.0575         2.8077      -0.508100       108.9620         0.0057         4.9206         4.9206        18.6307      -0.078700         2.1434         2.1434       353.7355      2299.1814
    3407.66400        -0.0575         2.8077      -0.502000       108.9620         0.0057         4.9206         4.9206        18.6307      -0.078700         2.1434         2.1434       353.7355      2296.2400
    3407.81640        -0.0575         2.8077      -0.509400       108.9620         0.0057         4.9206         4.9206        18.6307      -0.078700         2.1434         2.1434       353.7355      2286.8560
