~Version Information Block
VERS .                 2.00:  CWLS LOG ASCII STANDARD - VERSION 2.00
WRAP .                   NO:  One line per depth step
~Well Information Block
#MNEM.UNIT        Data Type   Information
#---------- ----------------  -----------
STRT .M          3461.15640:  START DEPTH
STOP .M          3535.07040:  STOP DEPTH
STEP .M             0.15240:  STEP
NULL .              -999.25:  NULL VALUE
COMP .              Statoil:  COMPANY
WELL .          NO_15/9-F-5:  WELL
FLD  .                Volve:  FIELD
LOC  .                Volve:  LOCATION
CTRY .               Norway:  COUNTRY
STAT .                     :  STATE
CNTY .                     :  COUNTY
SRVC .         Schlumberger:  SERVICE COMPANY
DATE .          03-Nov-2015:  DATE
API  .                     :  API NUMBER
UWI  .             15/9-F-5:  UNIQUE WELL ID
LATI .     58° 26' 29.66" N:  LATITUDE
LONG .      1° 53' 14.99" E:  LONGITUDE
~Curve Information Block
#MNEM.UNIT         API CODE   Curve Description
#---------- ----------------  -----------------
DEPTH.M                    :  DEPTH (BOREHOLE)
CRRA .                     :  Near/Far Count Rate Ratio
CVEL .M/SEC                 :  Cable Velocity
FBEF .UA                   :  Far Effective Beam Current
FCOR .                     :  Far Carbon/Oxygen Ratio
FIRD .                     :  Far Inelastic Optimization Resolution Degradation Factor
NCOR .                     :  Near Carbon/Oxygen Ratio
NIRD .                     :  Near Inelastic Optimization Resolution Degradation Factor
RB_PCMS.DEG                  :  Relative Bearing
WPRE .BAR                  :  Well Pressure
WTEP .DEGC                 :  Well Temperature
~Parameter Information Block
#MNEM.UNIT            Value   Description
#---------- ----------------  -----------
APD  .M                  54:  Elevation of Depth Reference (LMF) above Permanent Datum
EPD  .C3                  0:  Elevation of Permanent Datum above Mean Sea Level
LMF  .                   DF:  Logging Measured From (Name of Logging Elevation Reference)
PDAT .                  MSL:  Permanent Datum
RUN  .                Run 1:  RUN NUMBER
TAPE_NAME.     ConCu_R02_L004Up_RST_PCMS_PSTP.las:  
TOOL_STRING.              UNKNOWN:  
WN   .             15/9-F-5:  WELL
PROJECT.     SLEIPNER_OST@st-vlinapp01:  
SET  .        RSTD_1115_IC1:  
~Other Information Block
# 
~A       DEPTH           CRRA           CVEL           FBEF           FCOR           FIRD           NCOR           NIRD        RB_PCMS           WPRE           WTEP 
# ...
    3520.89720         2.9421     -0.0089550       135.4685    -0.16540000         5.4939     0.07020000         4.3110       354.3340       363.6066        81.6132
    3521.04960         2.9373     -0.0087167       136.5406    -0.06560000         5.5669    -0.03780000         4.3169       354.1845       363.6151        81.5962
    3521.20200         2.9619     -0.0087167       135.9104     0.09130000         5.5394    -0.00650000         4.3076       354.1070       363.6299        81.5918
    3521.35440         2.9430     -0.0082517       135.2234     0.10170000         5.6441     0.03310000         4.2772       354.0363       363.6431        81.5865
    3521.50680         2.9351     -0.0082700       135.9530    -0.00810000         5.6287    -0.03220000         4.2536       354.2857       363.6546        81.5787
    3521.65920         2.9469     -0.0086100       136.1055    -0.11600000         5.6819     0.02920000         4.2448       354.2154       363.6659        81.5736
    3521.81160         2.9707     -0.0093550       135.8662     0.01010000         5.6822     0.06910000         4.2302       353.9710       363.6786        81.5690
    3521.96400         2.9573     -0.0094783       135.2156     0.08940000         5.6700    -0.04470000         4.1872       353.9124       363.6888        81.5595
    3522.11640         2.9262     -0.0094383       135.0970     0.07150000         5.6686     0.05690000         4.1754       353.8397       363.6984        81.5549
    3522.26880         2.9247     -0.0092850       135.5259     0.01550000         5.8411     0.10150000         4.1189       353.8495       363.7099        81.5533
    3522.42120         2.9458     -0.0090900       136.7684     0.04070000         5.7088    -0.01020000         4.1262       353.6997       363.7196        81.5533
    3522.57360         2.9619     -0.0086917       136.4427     0.11340000         5.7871    -0.06980000         4.1274       353.5487       363.7306        81.5514
    3522.72600         2.9486     -0.0084067       135.8354     0.04490000         5.7928    -0.02680000         4.1065       353.4343       363.7433        81.5509
    3522.87840         2.9600     -0.0082217       134.9690     0.11220000         5.7577     0.08360000         4.1032       353.3879       363.7538        81.5480
    3523.03080         2.9314     -0.0092300       134.7936     0.00640000         5.7738     0.06800000         4.0949       353.2972       363.7643        81.5464
    3523.18320         2.9250     -0.0091817       132.5757    -0.01040000         5.7642     0.02410000         4.0790       353.1962       363.7756        81.5453
    3523.33560         2.9089     -0.0089200       133.8331     0.08680000         5.6893     0.01920000         4.1111       353.1721       363.7855        81.5441
    3523.48800         2.9293     -0.0084367       133.2245    -0.22100000         5.7070     0.05230000         4.1146       353.1720       363.7946        81.5458
    3523.64040         2.9029     -0.0083100       132.9594    -0.14370000         5.7456    -0.01080000         4.1111       353.0808       363.8065        81.5469
    3523.79280         2.9004     -0.0083967       135.1070     0.00990000         5.8086     0.00260000         4.0968       353.0774       363.8171        81.5462
    3523.94520         2.9347     -0.0090200       134.1653    -0.03180000         5.7806     0.09280000         4.0958       353.1388       363.8284        81.5421
    3524.09760         2.9248     -0.0092183       134.6215    -0.09710000         5.7804    -0.05260000         4.1092       353.2981       363.8399        81.5347
    3524.25000         2.9283     -0.0090417       135.2537    -0.03620000         5.8448     0.03150000         4.1339       353.1137       363.8517        81.5228
    3524.40240         2.9464     -0.0088017       134.1625    -0.09950000         5.9266     0.07400000         4.1473       353.2285       363.8621        81.5130
    3524.55480         2.9254     -0.0085217       133.1016    -0.04170000         5.9646     0.02860000         4.1454       353.2849       363.8707        81.5119
    3524.70720         2.9013     -0.0089500       133.4359    -0.05620000         5.9694    -0.11060000         4.1402       353.1785       363.8810        81.5054
    3524.85960         2.9004     -0.0092067       132.9457    -0.05800000         6.0055    -0.03750000         4.1164       353.2308       363.8926        81.4944
    3525.01200         2.8908     -0.0088450       133.8121    -0.05910000         5.9997    -0.04340000         4.1386       353.1427       363.9047        81.4859
    3525.16440         2.9266     -0.0087500       133.4311    -0.02570000         6.0332     0.04310000         4.1344       353.2533       363.9172        81.4741
    3525.31680         2.9057     -0.0089350       133.6108    -0.14790000         5.9580    -0.09460000         4.1467       353.1946       363.9287        81.4625
    3525.46920         2.9208     -0.0092533       133.5801     0.08420000         5.9052     0.10590000         4.1458       353.3372       363.9380        81.4591
    3525.62160         2.9016     -0.0090900       134.2134     0.05610000         5.8506     0.02890000         4.1375       353.5697       363.9412        81.4590
    3525.77400         2.9420     -0.0086783       134.1033    -0.00150000         5.6903     0.07170000         4.1311       353.7238       363.9430        81.4581
    3525.92640         2.9030     -0.0087117       134.5669    -0.00840000         5.6352     0.03810000         4.1267       353.6222       363.9458        81.4580
    3526.07880         2.9306     -0.0091600       134.7715    -0.09040000         5.7280     0.06880000         4.1230       353.2476       363.9475        81.4581
    3526.23120         2.9338     -0.0092383       134.0879     0.04990000         5.6445     0.01000000         4.1053       353.3479       363.9511        81.4581
    3526.38360         2.9278     -0.0092183       133.7820    -0.04880000         5.6026    -0.05100000         4.1065       353.4075       363.9511        81.4581
    3526.53600         2.9131     -0.0090883       134.4711     0.07330000         5.5466    -0.03820000         4.1258       353.4073       363.9511        81.4581
    3526.68840         2.9498     -0.0087400       135.8315     0.00090000         5.5903    -0.01020000         4.1185       353.3249       363.9511        81.4581
    3526.84080         2.9857     -0.0088367       136.8351    -0.04550000         5.6255     0.07460000         4.1273       353.3154       363.9511        81.4581
    3526.99320         2.9898     -0.0088367       136.0237     0.07180000         5.5940    -0.01210000         4.1803       353.3195       363.9511        81.4581
    3527.14560         2.9786     -0.0088083       135.8651    -0.04550000         5.6187    -0.08010000         4.2067       353.3223       363.9511        81.4581
    3527.29800         2.9623     -0.0092267       134.7884    -0.01120000         5.6766     0.06240000         4.2001       353.3057       363.9511        81.4581
    3527.45040         2.9265     -0.0089850       134.9047     0.02950000         5.6926     0.11550000         4.2340       353.3057       363.9511        81.4581
    3527.60280         2.9169     -0.0087883       134.8974     0.03930000         5.6910     0.02970000         4.2932       353.3057       363.9511        81.4581
    3527.75520         2.9176     -0.0088950       135.1194    -0.05930000         5.7375     0.02570000         4.2816       353.3057       363.9511        81.4581
    3527.90760         2.9275     -0.0092117       135.9280     0.06650000         5.7646    -0.05650000         4.2769       353.3057       363.9511        81.4581
    3528.06000         2.9348     -0.0091367       135.8176    -0.06550000         5.7426     0.03430000         4.2672       353.3057       363.9511        81.4581
    3528.21240         2.9180     -0.0091067       136.2750     0.08860000         5.7760     0.00660000         4.2638       353.3057       363.9511        81.4581
