~Version Information Block
VERS .                 2.00:  CWLS LOG ASCII STANDARD - VERSION 2.00
WRAP .                   NO:  One line per depth step
~Well Information Block
#MNEM.UNIT        Data Type   Information
#---------- ----------------  -----------
STRT .M          3460.24200:  START DEPTH
STOP .M          3530.19360:  STOP DEPTH
STEP .M             0.15240:  STEP
NULL .              -999.25:  NULL VALUE
COMP .              Statoil:  COMPANY
WELL .          NO_15/9-F-5:  WELL
FLD  .                Volve:  FIELD
LOC  .                Volve:  LOCATION
CTRY .               Norway:  COUNTRY
STAT .                     :  STATE
CNTY .                     :  COUNTY
SRVC .         Schlumberger:  SERVICE COMPANY
DATE .           11/03/2015:  DATE
API  .                     :  API NUMBER
UWI  .             15/9-F-5:  UNIQUE WELL ID
LATI .     58° 26' 29.66" N:  LATITUDE
LONG .      1° 53' 14.99" E:  LONGITUDE
~Curve Information Block
#MNEM.UNIT         API CODE   Curve Description
#---------- ----------------  -----------------
DEPTH.M                    :  Depth Index
CCLC .V                    :  (PSTP-B)                (1in)                   CCL Computed Amplitude
CVEL .M/SEC                 :  (WLWorkflow)            (1in)                   Cable Velocity
FBEF .UA                   :  (RST-D)                 (6in)                   Far Effective Beam Curre
FCOR .                     :  (RST-D)                 (6in)                   Far Carbon/Oxygen Ratio
FERD .                     :  (RST-D)                 (6in)                   Far IC Mode Capture Opti
FIRD .                     :  (RST-D)                 (6in)                   Far Inelastic Optimizati
GR   .GAPI                 :  (PSTP-B)                (6in)                   Gamma Ray
NCOR .                     :  (RST-D)                 (6in)                   Near Carbon/Oxygen Ratio
NERD .                     :  (RST-D)                 (6in)                   Near IC Mode Capture Opt
NIRD .                     :  (RST-D)                 (6in)                   Near Inelastic Optimizat
RB_PCMS.DEG                  :  (PCMS-A)                (6in)                   Relative Bearing
TENS .LBF                  :  (WLWorkflow)            (1in)                   Cable Tension
WPRE .BAR                  :  (PSTP-B)                (6in)                   Well Pressure
WTEP .DEGC                 :  (PSTP-B)                (6in)                   Well Temperature
~Parameter Information Block
#MNEM.UNIT            Value   Description
#---------- ----------------  -----------
APD  .M                  54:  Elevation of Depth Reference (LMF) Above Permanent Datum
CLAB .              Country:  :County Label
ECF  .M             -999.25:  Elevation of Casing Flange above Permanent Datum
EDF  .M                  54:  Elevation of Drill Floor Above Permanent Datum
EGL  .M                 -91:  Elevation of Ground Level Above Permanent Datum
EKB  .M             -999.25:  Elevation of Kelly Bushing Above Permanent Datum
EPD  .M                   0:  Elevation of Permanent Datum (PDAT) above Mean Sea Level
FL1  .            North Sea:  Field Location Line 1
FL2  .     Norwegian Sector:  Field Location Line 2
LMF  .                   DF:  Logging Measured From
LUL  .                 NOBO:  Logging Unit Location
LUN  .          ONCC-A 3837:  Logging Unit Number
PDAT .                  MSL:  Local Permanent Datum
RIGN .      Maersk Inspirer:  Rig Name
RIGTYP.               Jackup:  Rig Type
SON  .           C2TQ-00038:  Service Order Number
TAPE_NAME.     RST_IC_Pass-2___03Nov15_214110.las:  
TOOL_STRING.              UNKNOWN:  
WN   .             15/9-F-5:  WELL NAME
PROJECT.     SLEIPNER_OST@st-vlinapp01:  
SET  .        RSTD_1115_IC2:  
~Other Information Block
# 
~A       DEPTH           CCLC           CVEL           FBEF           FCOR           FERD           FIRD             GR           NCOR           NERD           NIRD        RB_PCMS           TENS           WPRE           WTEP 
# ...
    3482.18760       -0.00354     -0.0090087       129.6875       0.103160         5.8411         5.8411        67.0287       0.075250         4.3131         4.3131       353.5868      3925.6521       359.9584        84.6075
    3482.34000        0.07426     -0.0088298       128.3482      -0.026480         5.8101         5.8101        66.6960       0.073500         4.3128         4.3128       353.5109      4007.3093       359.9704        84.6055
    3482.49240       -0.04123     -0.0085440       128.9782       0.030030         5.7457         5.7457        68.3370      -0.034270         4.3118         4.3118       353.4911      3963.2961       359.9810        84.6019
    3482.64480       -0.00185     -0.0085800       129.8215       0.173080         5.7022         5.7022        71.4500       0.021740         4.3203         4.3203       353.6313      4008.0444       359.9947        84.5997
    3482.79720        0.01575     -0.0087775       130.1165       0.084120         5.6572         5.6572        73.9861       0.016200         4.2757         4.2757       353.7179      3969.8225       360.0035        84.5972
    3482.94960       -0.03312     -0.0087355       129.2364       0.086650         5.6335         5.6335        75.1956      -0.008140         4.3050         4.3050       353.5464      3923.6108       360.0147        84.5895
    3483.10200       -0.00452     -0.0088327       129.8398      -0.156890         5.5608         5.5608        74.5926       0.118090         4.3302         4.3302       353.4988      4032.3418       360.0302        84.5919
    3483.25440       -0.00428     -0.0086883       128.4617      -0.098820         5.6343         5.6343        73.3687       0.031480         4.3035         4.3035       353.4927      3915.7964       360.0370        84.5879
    3483.40680       -0.00379     -0.0088577       127.7731       0.160720         5.6553         5.6553        71.9205       0.063340         4.2815         4.2815       353.4629      3972.1289       360.0525        84.5885
    3483.55920       -0.00299     -0.0088615       128.5292       0.099320         5.6998         5.6998        68.4895       0.049100         4.2700         4.2700       353.5148      3975.2717       360.0616        84.5819
    3483.71160       -0.04191     -0.0085442       128.3727       0.221000         5.6398         5.6398        66.6752      -0.006190         4.2753         4.2753       353.4974      3931.4993       360.0733        84.5622
    3483.86400       -0.00341     -0.0081173       127.7593      -0.064000         5.7120         5.7120        66.9274      -0.040340         4.3017         4.3017       353.4312      3949.6526       360.0893        84.5579
    3484.01640       -0.01860     -0.0085235       127.7538       0.077050         5.6327         5.6327        66.6031       0.064800         4.2875         4.2875       353.5915      4010.6006       360.0969        84.5435
    3484.16880       -0.00485     -0.0082278       127.2889       0.191820         5.6529         5.6529        64.9914       0.096000         4.3509         4.3509       353.4860      4001.3047       360.1116        84.5366
    3484.32120        0.00562     -0.0080622       127.3307       0.042370         5.6221         5.6221        67.8301       0.073910         4.3494         4.3494       353.4352      4009.4788       360.1214        84.5308
    3484.47360       -0.04369     -0.0084178       127.3279       0.050670         5.5808         5.5808        70.1675       0.035830         4.3481         4.3481       353.5494      3997.6516       360.1317        84.5101
    3484.62600       -0.00096     -0.0084865       126.1008      -0.082260         5.5407         5.5407        69.7449       0.086160         4.3104         4.3104       353.6297      4015.7959       360.1480        84.5001
    3484.77840       -0.00066     -0.0084107       127.0449       0.142070         5.6307         5.6307        69.1770       0.069480         4.3044         4.3044       353.6118      4110.9102       360.1570        84.4657
    3484.93080        0.04829     -0.0085153       127.7008       0.039310         5.7644         5.7644        70.9736      -0.002750         4.3377         4.3377       353.5312      3980.2964       360.1682        84.4589
    3485.08320        0.00116     -0.0084365       126.1033       0.095330         5.7777         5.7777        68.9925       0.097900         4.3484         4.3484       353.4436      3980.5706       360.1809        84.4482
    3485.23560        0.01230     -0.0085497       127.0929       0.106500         5.8097         5.8097        66.9162      -0.022720         4.3978         4.3978       353.3295      4011.3672       360.1925        84.4227
    3485.38800       -0.06550     -0.0085315       127.2885      -0.018530         5.8108         5.8108        68.0207       0.026360         4.3867         4.3867       353.2648      3957.8694       360.2050        84.4061
    3485.54040       -0.00323     -0.0085390       127.0163       0.127820         5.8234         5.8234        69.0577       0.062060         4.4299         4.4299       353.1394      4013.4690       360.2166        84.3904
    3485.69280        0.00144     -0.0086080       127.1922       0.007550         5.8537         5.8537        68.6280      -0.004290         4.4474         4.4474       352.9997      4024.3767       360.2282        84.3805
    3485.84520       -0.00329     -0.0083382       127.8814       0.010800         5.7961         5.7961        68.9827       0.037230         4.4580         4.4580       352.8574      3942.1956       360.2389        84.3616
    3485.99760       -0.00341     -0.0080798       126.9466       0.028390         5.7302         5.7302        70.1839       0.052410         4.4166         4.4166       352.7062      3975.6809       360.2489        84.3380
    3486.15000       -0.00383     -0.0081607       126.0490       0.073260         5.7716         5.7716        70.8243       0.064500         4.4255         4.4255       352.6463      3950.9565       360.2627        84.3225
    3486.30240       -0.00472     -0.0088057       126.0695       0.053210         5.7122         5.7122        74.9224      -0.014200         4.4152         4.4152       352.5739      3850.2219       360.2751        84.3089
    3486.45480       -0.00391     -0.0084285       127.1558      -0.315110         5.7181         5.7181        79.4679       0.097330         4.3902         4.3902       352.8634      3968.9998       360.2878        84.2960
    3486.60720        0.00017     -0.0085518       131.7949      -0.081300         5.7926         5.7926        83.4217       0.011020         4.3807         4.3807       353.0399      3933.6890       360.2971        84.2645
    3486.75960       -0.04883     -0.0084577       133.2988      -0.007940         5.8475         5.8475        85.9837       0.032550         4.4034         4.4034       353.2305      3991.5906       360.3105        84.2604
    3486.91200       -0.00661     -0.0079908       133.5415       0.140990         5.8544         5.8544        87.7146       0.077430         4.4010         4.4010       353.4362      3913.8967       360.3213        84.2351
    3487.06440        0.01136     -0.0076728       132.5613       0.066490         5.9041         5.9041        84.1581       0.008970         4.4241         4.4241       353.7334      3936.0203       360.3343        84.2061
    3487.21680       -0.01821     -0.0079645       132.9478       0.031500         5.9124         5.9124        82.2958       0.087050         4.4008         4.4008       353.6224      4020.6248       360.3466        84.1946
    3487.36920        0.00155     -0.0083995       133.6347       0.173230         5.9548         5.9548        80.1518       0.099970         4.4008         4.4008       353.4522      4027.5691       360.3584        84.1827
    3487.52160       -0.00613     -0.0085235       132.6438      -0.005880         6.0099         6.0099        78.4847       0.113740         4.4068         4.4068       353.3976      3998.2451       360.3673        84.1565
