~Version Information Block
VERS .                 2.00:  CWLS LOG ASCII STANDARD - VERSION 2.00
WRAP .                   NO:  One line per depth step
~Well Information Block
#MNEM.UNIT        Data Type   Information
#---------- ----------------  -----------
STRT .M          3454.45080:  START DEPTH
STOP .M          3788.05440:  STOP DEPTH
STEP .M             0.15240:  STEP
NULL .              -999.25:  NULL VALUE
COMP .              Statoil:  COMPANY
WELL .        NO_15/9-F-1_C:  WELL
FLD  .                Volve:  FIELD
LOC  .            North Sea:  LOCATION
CTRY .               Norway:  COUNTRY
STAT .                     :  STATE
CNTY .                     :  COUNTY
SRVC .         Schlumberger:  SERVICE COMPANY
DATE .          27-Nov-2014:  DATE
API  .                     :  API NUMBER
UWI  .           15/9-F-1 C:  UNIQUE WELL ID
LATI .     58° 26' 29.91" N:  LATITUDE
LONG .      1° 53' 14.71" E:  LONGITUDE
~Curve Information Block
#MNEM.UNIT         API CODE   Curve Description
#---------- ----------------  -----------------
DEPTH.M                    :  DEPTH (BOREHOLE)
CRRA .                     :  Near/Far Count Rate Ratio
CVEL .M/SEC                 :  Cable Velocity
DFRB .DEG                  :  Calibrated Relative Bearing
FBEF .UA                   :  RST Far Effective Beam Current
FCOR .                     :  RST Far Carbon/Oxygen Ratio
FERD .                     :  RST Far IC Mode Capture Optimization
FIRD .                     :  RST Far Inelastic Optimization Resolution
GR   .GAPI                 :  Gamma Ray
NCOR .                     :  RST Near Carbon/Oxygen Ratio
NERD .                     :  RST Near IC Mode Capture Optimization
NIRD .                     :  RST Near Inelastic Optimization Resolution
PFC1 .IN                   :  PFCS CaliperX
PFC2 .IN                   :  PFCS CaliperY
TENS .LBF                  :  Cable Tension
~Parameter Information Block
#MNEM.UNIT            Value   Description
#---------- ----------------  -----------
APD  .M           54.900002:  Elevation of Depth Reference (LMF) above Permanent Datum
EPD  .C3                  0:  Elevation of Permanent Datum above Mean Sea Level
LMF  .                   KB:  Logging Measured From (Name of Logging Elevation Reference)
PDAT .                  MSL:  Permanent Datum
RUN  .                Run 1:  RUN NUMBER
TAPE_NAME.     Statoil_Volve_15-9-F-1 C_PLT-RST_28Nov14_ConCu_R1L17Up_IC1.las:  
TOOL_STRING.              UNKNOWN:  
WN   .           15/9-F-1 C:  WELL
PROJECT.     SLEIPNER_OST@st-vlinapp01:  
SET  .        RSTD_1114_IC1:  
~Other Information Block
# 
~A       DEPTH           CRRA           CVEL           DFRB           FBEF           FCOR           FERD           FIRD             GR           NCOR           NERD           NIRD           PFC1           PFC2           TENS 
# ...
    3542.23320         2.6294      -0.008562       356.9830       111.2247         0.2429         5.4905         5.4905        33.3801         0.6663         6.9207         6.9207         6.2053         5.9862      4208.9966
    3542.38560         2.6266      -0.008490       355.5720       110.0017         0.1322         5.4216         5.4216        35.1821         0.7599         6.9114         6.9114         6.2130         5.9862      4176.5059
    3542.53800         2.6061      -0.008545       355.5720       109.5466        -0.0167         5.4429         5.4429        36.0402         0.7374         6.9258         6.9258         6.2019         5.9862      4182.4907
    3542.69040         2.6007      -0.008805       356.9830       109.9676         0.2479         5.3260         5.3260        36.7267         0.7032         6.8941         6.8941         6.1986         5.9862      4250.0459
    3542.84280         2.6081      -0.009188       356.9830       111.0910         0.0967         5.3360         5.3360        38.9577         0.7263         6.8901         6.8901         6.1905         5.9862      4227.0200
    3542.99520         2.6238      -0.008417       356.9830       111.1264         0.2118         5.3190         5.3190        37.7564         0.6544         6.9254         6.9254         6.1905         5.9862      4219.3633
    3543.14760         2.6294      -0.008480       356.9830       111.1484         0.1751         5.3294         5.3294        38.1609         0.5902         6.9506         6.9506         6.1912         5.9862      4177.7749
    3543.30000         2.6218      -0.008518       356.9830       110.8226         0.1976         5.2907         5.2907        38.8474         0.7210         6.9675         6.9675         6.1915         5.9862      4144.7056
    3543.45240         2.6346      -0.008653       356.9830       109.7330         0.2190         5.2260         5.2260        39.3623         0.9571         6.9281         6.9281         6.1912         5.9859      4236.8003
    3543.60480         2.6391      -0.008977       356.9830       108.7142         0.1024         5.2899         5.2899        36.1015         0.6439         6.9692         6.9692         6.1946         5.9861      4156.9766
    3543.75720         2.6541      -0.008237       358.3940       108.3899         0.2339         5.2016         5.2016        35.4150         0.8859         7.0289         7.0289         6.2215         5.9862      4247.9312
    3543.90960         2.6586      -0.008395       358.3940       106.6957         0.1672         5.1412         5.1412        30.2051         0.9162         7.0184         7.0184         6.2201         5.9861      4194.0952
    3544.06200         2.6284      -0.008472       358.3940       104.4041         0.1817         5.2909         5.2909        27.9741         0.8302         6.9505         6.9505         6.2200         5.9862      4173.4834
    3544.21440         2.5782      -0.009082       358.3940       104.2679         0.1779         5.3132         5.3132        25.5714         0.8163         6.9900         6.9900         6.2198         5.9858      4197.1533
    3544.36680         2.5739      -0.008785       358.3940       102.8286         0.1285         5.2968         5.2968        27.1160         0.7176         6.9690         6.9690         6.2181         5.9859      4144.9385
    3544.51920         2.5001      -0.008553       358.3940       102.4921         0.2361         5.1345         5.1345        26.7727         0.9210         6.9647         6.9647         6.2150         5.9859      4080.4548
    3544.67160         2.4970      -0.008718       358.3940       102.5349         0.0555         5.2227         5.2227        28.8322         0.8059         6.9874         6.9874         6.2202         5.9863      4039.1370
    3544.82400         2.4933      -0.008757       358.3940       102.2804         0.2722         5.3132         5.3132        28.4889         0.8977         7.0075         7.0075         6.1972         5.9862      3938.1521
    3544.97640         2.4849      -0.008793       358.3940       102.0402         0.2270         5.3714         5.3714        27.4224         0.6343         7.0084         7.0084         6.1905         5.9862      3857.5251
    3545.12880         2.4727      -0.009222       358.3940       101.1299         0.1176         5.3780         5.3780        25.3630         0.7572         6.9639         6.9639         6.1907         5.9865      4087.7085
    3545.28120         2.4607      -0.008962       356.9830       101.6543         0.2248         5.3157         5.3157        23.3035         0.7615         6.9595         6.9595         6.1905         5.9871      4230.1050
    3545.43360         2.4738      -0.008452       356.9830       101.3464         0.2527         5.4115         5.4115        23.8184         0.5539         6.9488         6.9488         6.1905         5.9886      4239.6196
    3545.58600         2.4624      -0.008415       356.9830       101.5218         0.1088         5.4371         5.4371        22.2738         0.6973         6.9586         6.9586         6.1905         5.9870      4131.4155
    3545.73840         2.4752      -0.008635       356.9830       104.2976         0.0706         5.4012         5.4012        22.3106         0.8859         6.9856         6.9856         6.1905         5.9869      4252.9697
    3545.89080         2.5225      -0.009022       356.9830       104.2308         0.1775         5.3696         5.3696        23.5119         0.6631         6.9920         6.9920         6.1935         5.9935      4228.6929
    3546.04320         2.5225      -0.009100       356.9830       104.3155         0.0443         5.5281         5.5281        24.7133         0.6538         7.0607         7.0607         6.2219         6.0456      4129.3242
    3546.19560         2.5254      -0.008677       356.9830       104.9011         0.1402         5.5971         5.5971        22.9971         0.6361         7.0244         7.0244         6.2219         6.0454      4030.6719
    3546.34800         2.5499      -0.008765       356.9830       104.9903         0.1840         5.6108         5.6108        23.6836         0.7484         7.0403         7.0403         6.2219         6.0467      3986.8530
    3546.50040         2.5437      -0.009057       356.9830       104.8327         0.1300         5.5281         5.5281        23.3403         0.7513         7.0102         7.0102         6.2219         6.0497      4020.2627
    3546.65280         2.5315      -0.008330         1.4110       105.0490         0.1090         5.5636         5.5636        21.4525         0.6978         7.0289         7.0289         6.2219         6.0497      4261.1465
    3546.80520         2.5395      -0.008313         1.4110       104.8717         0.0874         5.4582         5.4582        20.3002         0.6774         7.0104         7.0104         6.2219         6.0499      4233.0693
    3546.95760         2.5476      -0.008373         1.4110       105.9310        -0.1957         5.4582         5.4582        18.5840         0.5484         7.0126         7.0126         6.2219         6.0502      4182.0947
    3547.11000         2.6106      -0.008183         1.4110       106.0856         0.4608         5.4224         5.4224        17.8975         0.9362         7.0126         7.0126         6.2219         6.0495      4198.1108
    3547.26240         2.5315      -0.008873         1.4110       109.9970         0.5495         5.4224         5.4224        15.6665         0.6536         6.9916         6.9916         6.2219         6.0470      4111.7520
    3547.41480         2.7152      -0.008572         1.4110       104.5743        -0.0051         5.4224         5.4224        15.3232         0.5572         6.9916         6.9916         6.2842         6.0510      4035.2144
    3547.56720         2.5366      -0.008485         1.4110       101.8992         0.3999         5.4224         5.4224        14.9309         0.7339         6.9916         6.9916         6.2843         6.0510      3999.2729
