~Version Information Block
VERS .                 2.00:  CWLS LOG ASCII STANDARD - VERSION 2.00
WRAP .                   NO:  One line per depth step
~Well Information Block
#MNEM.UNIT        Data Type   Information
#---------- ----------------  -----------
STRT .M          3460.24200:  START DEPTH
STOP .M          3530.19360:  STOP DEPTH
STEP .M             0.15240:  STEP
NULL .              -999.25:  NULL VALUE
COMP .              Statoil:  COMPANY
WELL .          NO_15/9-F-5:  WELL
FLD  .                Volve:  FIELD
LOC  .                Volve:  LOCATION
CTRY .               Norway:  COUNTRY
STAT .                     :  STATE
CNTY .                     :  COUNTY
SRVC .         Schlumberger:  SERVICE COMPANY
DATE .           11/03/2015:  DATE
API  .                     :  API NUMBER
UWI  .             15/9-F-5:  UNIQUE WELL ID
LATI .     58° 26' 29.66" N:  LATITUDE
LONG .      1° 53' 14.99" E:  LONGITUDE
~Curve Information Block
#MNEM.UNIT         API CODE   Curve Description
#---------- ----------------  -----------------
DEPTH.M                    :  Depth Index
CCLC .V                    :  (PSTP-B)                (1in)                   CCL Computed Amplitude
CVEL .M/SEC                 :  (WLWorkflow)            (1in)                   Cable Velocity
FBEF .UA                   :  (RST-D)                 (6in)                   Far Effective Beam Curre
FCOR .                     :  (RST-D)                 (6in)                   Far Carbon/Oxygen Ratio
FERD .                     :  (RST-D)                 (6in)                   Far IC Mode Capture Opti
FIRD .                     :  (RST-D)                 (6in)                   Far Inelastic Optimizati
GR   .GAPI                 :  (PSTP-B)                (6in)                   Gamma Ray
NCOR .                     :  (RST-D)                 (6in)                   Near Carbon/Oxygen Ratio
NERD .                     :  (RST-D)                 (6in)                   Near IC Mode Capture Opt
NIRD .                     :  (RST-D)                 (6in)                   Near Inelastic Optimizat
RB_PCMS.DEG                  :  (PCMS-A)                (6in)                   Relative Bearing
TENS .LBF                  :  (WLWorkflow)            (1in)                   Cable Tension
WPRE .BAR                  :  (PSTP-B)                (6in)                   Well Pressure
WTEP .DEGC                 :  (PSTP-B)                (6in)                   Well Temperature
~Parameter Information Block
#MNEM.UNIT            Value   Description
#---------- ----------------  -----------
APD  .M                  54:  Elevation of Depth Reference (LMF) Above Permanent Datum
CLAB .              Country:  :County Label
ECF  .M             -999.25:  Elevation of Casing Flange above Permanent Datum
EDF  .M                  54:  Elevation of Drill Floor Above Permanent Datum
EGL  .M                 -91:  Elevation of Ground Level Above Permanent Datum
EKB  .M             -999.25:  Elevation of Kelly Bushing Above Permanent Datum
EPD  .M                   0:  Elevation of Permanent Datum (PDAT) above Mean Sea Level
FL1  .            North Sea:  Field Location Line 1
FL2  .     Norwegian Sector:  Field Location Line 2
LMF  .                   DF:  Logging Measured From
LUL  .                 NOBO:  Logging Unit Location
LUN  .          ONCC-A 3837:  Logging Unit Number
PDAT .                  MSL:  Local Permanent Datum
RIGN .      Maersk Inspirer:  Rig Name
RIGTYP.               Jackup:  Rig Type
SON  .           C2TQ-00038:  Service Order Number
TAPE_NAME.     RST_IC_Pass-2___03Nov15_214110.las:  
TOOL_STRING.              UNKNOWN:  
WN   .             15/9-F-5:  WELL NAME
PROJECT.     SLEIPNER_OST@st-vlinapp01:  
SET  .        RSTD_1115_IC2:  
~Other Information Block
# 
~A       DEPTH           CCLC           CVEL           FBEF           FCOR           FERD           FIRD             GR           NCOR           NERD           NIRD        RB_PCMS           TENS           WPRE           WTEP 
# ...
    3493.16040        0.01660     -0.0083772       145.5100       0.000820         6.0230         6.0230        93.2753       0.056930         4.0999         4.0999       353.4435      3874.2134       360.8000        83.6675
    3493.31280       -0.00020     -0.0082025       140.7487       0.003450         6.0058         6.0058        95.6546       0.040330         4.1157         4.1157       353.6588      3900.7500       360.8119        83.6452
    3493.46520        0.00474     -0.0086143       138.5766      -0.070580         6.0350         6.0350        96.7598       0.079780         4.1410         4.1410       353.6846      3814.9133       360.8246        83.6481
    3493.61760        0.00032     -0.0078840       136.3691       0.108130         6.0390         6.0390        98.5966       0.019450         4.1784         4.1784       353.6311      3828.1321       360.8332        83.6267
    3493.77000       -0.00432     -0.0077728       138.2318       0.145990         6.2202         6.2202        99.3366       0.118380         4.2169         4.2169       353.7101      3894.0798       360.8459        83.6075
    3493.92240       -0.00478     -0.0076468       137.9573       0.051580         6.0511         6.0511        96.4414       0.060690         4.2215         4.2215       353.7826      3855.8330       360.8570        83.5882
    3494.07480       -0.00489     -0.0075675       138.0748       0.006070         6.2020         6.2020        93.0532       0.023770         4.2753         4.2753       353.8438      3934.9365       360.8689        83.5778
    3494.22720       -0.00050     -0.0077015       132.4438       0.162820         6.1390         6.1390        92.0059       0.009260         4.2277         4.2277       353.8393      4031.2986       360.8795        83.5573
    3494.37960       -0.00902     -0.0080352       129.5656       0.099270         6.2273         6.2273        91.1911       0.079270         4.2251         4.2251       353.7689      3975.0808       360.8904        83.5393
    3494.53200       -0.00364     -0.0084670       128.2320       0.039580         6.3092         6.3092        88.2874       0.113850         4.2747         4.2747       353.7088      4009.7778       360.9039        83.5283
    3494.68440        0.01603     -0.0084285       125.5049       0.135940         6.2555         6.2555        88.5637       0.088550         4.2779         4.2779       353.5752      4084.0457       360.9148        83.5128
    3494.83680        0.03555     -0.0080527       124.0142       0.193240         6.3001         6.3001        89.2170       0.063200         4.2049         4.2049       353.5043      4028.1694       360.9266        83.5015
    3494.98920       -0.00162     -0.0080172       124.5649       0.192580         6.1501         6.1501        88.1859       0.022920         4.1899         4.1899       353.4470      3971.9177       360.9387        83.4941
    3495.14160       -0.00153     -0.0083500       124.5885       0.011470         6.2734         6.2734        87.4029       0.012790         4.1750         4.1750       353.3822      3911.0417       360.9495        83.4793
    3495.29400       -0.00639     -0.0079558       125.1373       0.206610         6.2762         6.2762        89.2972       0.028970         4.2041         4.2041       353.2318      3805.6040       360.9664        83.4715
    3495.44640       -0.00069     -0.0078693       125.7411      -0.029060         6.2431         6.2431        87.8012       0.073810         4.2348         4.2348       353.0268      3890.5481       360.9745        83.4670
    3495.59880       -0.04604     -0.0079643       126.4235       0.059690         6.2673         6.2673        85.1846      -0.041810         4.2493         4.2493       352.9486      3864.7085       360.9864        83.4669
    3495.75120        0.02103     -0.0080268       126.9610       0.087360         6.3941         6.3941        86.0976      -0.004260         4.2565         4.2565       352.8583      3805.7590       360.9946        83.4441
    3495.90360        0.00170     -0.0077402       127.8416       0.034920         6.4415         6.4415        86.3795       0.122890         4.2931         4.2931       352.7757      3891.2832       361.0091        83.4311
    3496.05600        0.02624     -0.0078018       126.4723       0.129210         6.4300         6.4300        84.7172       0.106680         4.3155         4.3155       352.7986      3867.1633       361.0195        83.4211
    3496.20840        0.02207     -0.0071472       125.5059       0.032680         6.3598         6.3598        84.3467       0.031220         4.3303         4.3303       352.8203      3906.1565       361.0288        83.4049
    3496.36080       -0.05103     -0.0070200       124.1260       0.156360         6.4636         6.4636        85.9869       0.081080         4.3621         4.3621       353.1159      3996.6355       361.0410        83.3960
    3496.51320       -0.00250     -0.0073612       123.3645      -0.060640         6.4638         6.4638        86.2604       0.067230         4.3484         4.3484       353.1513      3977.6323       361.0530        83.3881
    3496.66560       -0.00275     -0.0075427       123.5833       0.059110         6.7037         6.7037        85.7423      -0.085860         4.3197         4.3197       353.3139      4065.8564       361.0643        83.3787
    3496.81800        0.01021     -0.0078537       122.3796      -0.283520         6.6779         6.6779        85.9919       0.000930         4.2902         4.2902       353.3375      4038.2856       361.0786        83.3666
    3496.97040        0.02501     -0.0079447       122.3827       0.106030         6.7585         6.7585        84.6450      -0.024180         4.2792         4.2792       352.9788      3982.7017       361.0911        83.3648
    3497.12280        0.01097     -0.0079193       121.9437      -0.017640         6.7317         6.7317        80.6666      -0.074200         4.2965         4.2965       352.8143      4060.1372       361.0980        83.3558
    3497.27520       -0.00321     -0.0080092       122.7038       0.045630         6.5844         6.5844        79.8853       0.067890         4.2663         4.2663       352.6188      3967.3271       361.1136        83.3561
    3497.42760        0.02220     -0.0082290       122.6988       0.057230         6.3504         6.3504        78.1362       0.069710         4.2905         4.2905       352.6585      3824.5823       361.1186        83.3410
    3497.58000       -0.00196     -0.0076952       123.6455      -0.031400         6.2929         6.2929        77.2720       0.057970         4.2354         4.2354       352.6807      3854.5876       361.1371        83.3380
    3497.73240       -0.00201     -0.0075725       124.4686       0.043550         6.1949         6.1949        77.7094       0.031040         4.1970         4.1970       352.6774      3830.0183       361.1421        83.3337
    3497.88480       -0.00226     -0.0075005       124.5498      -0.006140         6.2839         6.2839        79.4905      -0.036280         4.1943         4.1943       352.6730      3771.2466       361.1559        83.3335
    3498.03720       -0.00234     -0.0072052       125.6444       0.160820         6.2861         6.2861        75.9018       0.025980         4.1661         4.1661       352.8275      3815.9993       361.1674        83.3275
    3498.18960       -0.00390     -0.0075458       129.2224      -0.117740         6.2246         6.2246        80.5241       0.032970         4.1654         4.1654       352.8723      3822.6086       361.1790        83.3205
    3498.34200        0.00119     -0.0075705       130.4068       0.019900         6.2548         6.2548        86.4967       0.055590         4.1499         4.1499       352.6673      3940.5500       361.1908        83.3147
    3498.49440       -0.00357     -0.0077240       132.2085       0.030420         6.0452         6.0452        90.3463       0.031790         4.1611         4.1611       352.5603      3896.4695       361.2022        83.3123
