~Version Information Block
VERS .                 2.00:  CWLS LOG ASCII STANDARD - VERSION 2.00
WRAP .                   NO:  One line per depth step
~Well Information Block
#MNEM.UNIT        Data Type   Information
#---------- ----------------  -----------
STRT .M          3445.61160:  START DEPTH
STOP .M          3638.55000:  STOP DEPTH
STEP .M             0.15240:  STEP
NULL .              -999.25:  NULL VALUE
COMP .              Statoil:  COMPANY
WELL .          NO_15/9-F-5:  WELL
FLD  .                VOLVE:  FIELD
LOC  .            North Sea:  LOCATION
CTRY .                     :  COUNTRY
STAT .                     :  STATE
CNTY .                     :  COUNTY
SRVC .         Schlumberger:  SERVICE COMPANY
DATE .          16-Sep-2012:  DATE
API  .                     :  API NUMBER
UWI  .             15/9-F-5:  UNIQUE WELL ID
~Curve Information Block
#MNEM.UNIT         API CODE   Curve Description
#---------- ----------------  -----------------
DEPTH.M                    :  DEPTH (BOREHOLE)
CCLC .V                    :  CCL
CCLD .V                    :  CCL Discriminated Amplitude
CRRA .                     :  Near-Far Count Rate Ratio
CS   .F/MN                 :  Cable Speed
CVEL .M/MIN                 :  Cable Velocity
DEVI .DEG                  :  Hole Deviation
FBEF .UA                   :  RST Far Effective Beam Current
FCOR .                     :  RST Far Carbon/Oxygen Ratio
FERD .                     :  RST Far IC Mode Capture Optimization Resolution Degradation Factor
FIRD .                     :  RST Far Inelastic Optimization Resolution Degradation Factor
GR   .GAPI                 :  Gamma Ray
NCOR .                     :  RST Near Carbon/Oxygen Ratio
NERD .                     :  RST Near IC Mode Capture Optimization Resolution Degradation Factor
NIRD .                     :  RST Near Inelastic Optimization Resolution Degradation Factor
RB_PCMS.DEG                  :  Relative Bearing
TENS .LBF                  :  Cable Tension
WPRE .PSI                  :  Well Pressure
WTEP .DEGC                 :  Well Temperature
~Parameter Information Block
#MNEM.UNIT            Value   Description
#---------- ----------------  -----------
APD  .M           54.900002:  Elevation of Depth Reference (LMF) above Permanent Datum
RUN  .                Run 1:  RUN NUMBER
PROJECT.     SLEIPNER_OST@st-vlinapp01:  
SET  .        RSTD_0912_IC2:  
~Other Information Block
# 
~A       DEPTH           CCLC           CCLD           CRRA             CS           CVEL           DEVI           FBEF           FCOR           FERD           FIRD             GR           NCOR           NERD           NIRD        RB_PCMS           TENS           WPRE           WTEP 
# ...
    3494.22720        -0.0060         0.0000         2.8113         1.4150      -0.425900        48.9296       103.5990     0.16350000         5.1123         5.1123        38.1430    -0.00210000         2.6390         2.6390         8.0956      2810.4629      5029.2227        95.6041
    3494.37960        -0.0099         0.0000         2.7913         1.3816      -0.425200        48.9475       104.3708     0.15620001         5.1518         5.1518        38.3235     0.03790000         2.6588         2.6588         8.0999      2807.7578      5029.3745        95.5930
    3494.53200        -0.0204         0.0000         2.8127         1.4006      -0.426600        48.9602       104.6530    -0.00140000         5.4125         5.4125        38.7689     0.04390000         2.7055         2.7055         8.0441      2804.9597      5029.5132        95.5878
    3494.68440         0.0527         0.0000         2.8102         1.4147      -0.428800        48.9716       105.1444    -0.03190000         5.4513         5.4513        39.2060     0.03810000         2.7129         2.7129         8.0675      2805.2751      5029.6562        95.5785
    3494.83680        -0.0092         0.0000         2.8207         1.4055      -0.428500        49.0018       106.0368     0.00300000         5.4692         5.4692        38.9537     0.03410000         2.7468         2.7468         8.0700      2796.9155      5029.7891        95.5652
    3494.98920        -0.0079         0.0000         2.8436         1.4150      -0.428600        49.0092       106.7518     0.14489999         5.4779         5.4779        38.7085    -0.02740000         2.7267         2.7267         8.1204      2808.6729      5029.9531        95.5561
    3495.14160        -0.0089         0.0000         2.8498         1.3898      -0.427100        49.0373       105.5194    -0.22020000         5.6364         5.6364        37.9822    -0.03330000         2.7317         2.7317         8.2697      2804.4067      5030.1035        95.5493
    3495.29400         0.0851         0.0000         2.8252         1.4003      -0.425900        49.0388       104.7359     0.05180000         5.9013         5.9013        37.5692     0.05930000         2.6879         2.6879         8.2971      2798.4268      5030.2266        95.5413
    3495.44640         0.0166         0.0000         2.8081         1.3661      -0.423700        49.0476       103.6167     0.04460000         5.7447         5.7447        36.2387    -0.01000000         2.7168         2.7168         8.3099      2799.5803      5030.3701        95.5338
    3495.59880        -0.0049         0.0000         2.7910         1.3819      -0.424000        49.0458       103.0053     0.12470000         5.7735         5.7735        36.2054     0.02350000         2.7056         2.7056         8.2480      2808.8081      5030.5083        95.5209
    3495.75120        -0.0478         0.0000         2.7667         1.4140      -0.428500        49.0428       101.7008     0.05890000         5.8165         5.8165        35.5761     0.03800000         2.7559         2.7559         8.2127      2807.6282      5030.6484        95.5191
    3495.90360        -0.0195         0.0000         2.7483         1.3865      -0.424900        49.0463       101.6176     0.02740000         5.9404         5.9404        35.1143     0.08410000         2.7366         2.7366         8.2225      2827.0063      5030.8013        95.5062
    3496.05600         0.1262         0.0000         2.7461         1.4114      -0.426700        49.0754       101.7334     0.13580000         5.7713         5.7713        34.8857    -0.03230000         2.7318         2.7318         8.3610      2809.0750      5030.9395        95.4999
    3496.20840        -0.0086         0.0000         2.7455         1.3957      -0.425400        49.0944       101.4934    -0.12600000         5.7624         5.7624        35.0767     0.01900000         2.6732         2.6732         8.5813      2797.7485      5031.0786        95.4923
    3496.36080        -0.0898         0.0000         2.7364         1.4150      -0.428300        49.1298       101.1430     0.14270000         5.7735         5.7735        35.3625     0.09730000         2.7091         2.7091         8.6841      2806.9534      5031.2061        95.4848
    3496.51320        -0.0057         0.0000         2.7286         1.4052      -0.426000        49.1295       102.0157     0.03390000         6.0745         6.0745        35.7823     0.02460000         2.6705         2.6705         8.7439      2809.6409      5031.3613        95.4769
    3496.66560        -0.1526         0.0000         2.7530         1.3888      -0.423000        49.1489       102.6212     0.17219999         5.8968         5.8968        36.0616     0.06240000         2.6578         2.6578         8.6801      2802.6082      5031.4946        95.4636
    3496.81800         0.1205         0.0000         2.7572         1.3937      -0.424000        49.1638       103.0701     0.08700000         6.1272         6.1272        36.0434    -0.03020000         2.6400         2.6400         8.6897      2811.1482      5031.6353        95.4600
    3496.97040        -0.0098         0.0000         2.7752         1.3773      -0.422700        49.1635       103.4552     0.12490000         6.1158         6.1158        37.1040     0.05460000         2.6142         2.6142         8.6167      2810.2756      5031.7593        95.4532
    3497.12280        -0.0347         0.0000         2.7787         1.4026      -0.425500        49.1659       103.7136     0.01750000         6.0106         6.0106        38.2412     0.03800000         2.6425         2.6425         8.5154      2812.0032      5031.9087        95.4488
    3497.27520        -0.0109         0.0000         2.7723         1.3911      -0.423900        49.1802       106.1108    -0.17209999         6.1917         6.1917        40.3016     0.00030000         2.6344         2.6344         8.4530      2816.5356      5032.0537        95.4445
    3497.42760        -0.0313         0.0000         2.8302         1.4334      -0.429400        49.1675       107.3015    -0.02580000         6.3279         6.3279        43.5548     0.03860000         2.6035         2.6035         8.4348      2807.2126      5032.1963        95.4379
    3497.58000         0.0780         0.0000         2.8358         1.3747      -0.420800        49.1938       110.2836     0.03660000         6.3432         6.3432        47.5928    -0.01850000         2.5357         2.5357         8.3141      2810.2754      5032.3252        95.4311
    3497.73240        -0.0525         0.0000         2.9019         1.3960      -0.428200        49.2036       111.7870     0.03880000         6.4153         6.4153        50.4141     0.01700000         2.5425         2.5425         8.4012      2806.9216      5032.4678        95.4256
    3497.88480         0.0438         0.0000         2.9384         1.3816      -0.418900        49.2333       111.0975    -0.07860000         6.5857         6.5857        53.1633     0.02090000         2.5737         2.5737         8.3318      2797.6667      5032.6216        95.4201
    3498.03720        -0.0078         0.0000         2.9174         1.4124      -0.425700        49.2500       112.2500     0.17420000         6.3678         6.3678        55.4792     0.02690000         2.5887         2.5887         8.3203      2806.7332      5032.7681        95.4169
    3498.18960        -0.0323         0.0000         2.9475         1.3983      -0.424300        49.2678       112.2660    -0.09740000         6.2320         6.2320        56.9380    -0.04100000         2.5743         2.5743         8.2563      2803.1394      5032.8926        95.4067
    3498.34200         0.0850         0.0000         2.9396         1.3868      -0.422500        49.2542       112.0756    -0.01830000         6.2872         6.2872        57.5865    -0.05280000         2.5687         2.5687         8.2674      2804.1421      5033.0337        95.4023
    3498.49440        -0.0062         0.0000         2.9574         1.3701      -0.410900        49.2454       112.4748    -0.04200000         6.2417         6.2417        58.6339     0.08040000         2.5364         2.5364         8.2519      2807.9792      5033.1733        95.3974
