~Version Information Block
VERS .                 2.00:  CWLS LOG ASCII STANDARD - VERSION 2.00
WRAP .                   NO:  One line per depth step
~Well Information Block
#MNEM.UNIT        Data Type   Information
#---------- ----------------  -----------
STRT .M          3460.24200:  START DEPTH
STOP .M          3530.19360:  STOP DEPTH
STEP .M             0.15240:  STEP
NULL .              -999.25:  NULL VALUE
COMP .              Statoil:  COMPANY
WELL .          NO_15/9-F-5:  WELL
FLD  .                Volve:  FIELD
LOC  .                Volve:  LOCATION
CTRY .               Norway:  COUNTRY
STAT .                     :  STATE
CNTY .                     :  COUNTY
SRVC .         Schlumberger:  SERVICE COMPANY
DATE .           11/03/2015:  DATE
API  .                     :  API NUMBER
UWI  .             15/9-F-5:  UNIQUE WELL ID
LATI .     58° 26' 29.66" N:  LATITUDE
LONG .      1° 53' 14.99" E:  LONGITUDE
~Curve Information Block
#MNEM.UNIT         API CODE   Curve Description
#---------- ----------------  -----------------
DEPTH.M                    :  Depth Index
CCLC .V                    :  (PSTP-B)                (1in)                   CCL Computed Amplitude
CVEL .M/SEC                 :  (WLWorkflow)            (1in)                   Cable Velocity
FBEF .UA                   :  (RST-D)                 (6in)                   Far Effective Beam Curre
FCOR .                     :  (RST-D)                 (6in)                   Far Carbon/Oxygen Ratio
FERD .                     :  (RST-D)                 (6in)                   Far IC Mode Capture Opti
FIRD .                     :  (RST-D)                 (6in)                   Far Inelastic Optimizati
GR   .GAPI                 :  (PSTP-B)                (6in)                   Gamma Ray
NCOR .                     :  (RST-D)                 (6in)                   Near Carbon/Oxygen Ratio
NERD .                     :  (RST-D)                 (6in)                   Near IC Mode Capture Opt
NIRD .                     :  (RST-D)                 (6in)                   Near Inelastic Optimizat
RB_PCMS.DEG                  :  (PCMS-A)                (6in)                   Relative Bearing
TENS .LBF                  :  (WLWorkflow)            (1in)                   Cable Tension
WPRE .BAR                  :  (PSTP-B)                (6in)                   Well Pressure
WTEP .DEGC                 :  (PSTP-B)                (6in)                   Well Temperature
~Parameter Information Block
#MNEM.UNIT            Value   Description
#---------- ----------------  -----------
APD  .M                  54:  Elevation of Depth Reference (LMF) Above Permanent Datum
CLAB .              Country:  :County Label
ECF  .M             -999.25:  Elevation of Casing Flange above Permanent Datum
EDF  .M                  54:  Elevation of Drill Floor Above Permanent Datum
EGL  .M                 -91:  Elevation of Ground Level Above Permanent Datum
EKB  .M             -999.25:  Elevation of Kelly Bushing Above Permanent Datum
EPD  .M                   0:  Elevation of Permanent Datum (PDAT) above Mean Sea Level
FL1  .            North Sea:  Field Location Line 1
FL2  .     Norwegian Sector:  Field Location Line 2
LMF  .                   DF:  Logging Measured From
LUL  .                 NOBO:  Logging Unit Location
LUN  .          ONCC-A 3837:  Logging Unit Number
PDAT .                  MSL:  Local Permanent Datum
RIGN .      Maersk Inspirer:  Rig Name
RIGTYP.               Jackup:  Rig Type
SON  .           C2TQ-00038:  Service Order Number
TAPE_NAME.     RST_IC_Pass-2___03Nov15_214110.las:  
TOOL_STRING.              UNKNOWN:  
WN   .             15/9-F-5:  WELL NAME
PROJECT.     SLEIPNER_OST@st-vlinapp01:  
SET  .        RSTD_1115_IC2:  
~Other Information Block
# 
~A       DEPTH           CCLC           CVEL           FBEF           FCOR           FERD           FIRD             GR           NCOR           NERD           NIRD        RB_PCMS           TENS           WPRE           WTEP 
# ...
    3520.59240       -0.01587     -0.0078943       136.9336       0.086130         5.5753         5.5753      -999.2500      -0.023060         4.2119         4.2119       349.9711      3964.3147       362.8172        81.8464
    3520.74480       -0.01780     -0.0082697       136.7053      -0.003550         5.5932         5.5932      -999.2500       0.028050         4.2161         4.2161       349.9675      3921.4885       362.8193        81.8467
    3520.89720       -0.01998     -0.0081727       136.7181      -0.070670         5.5869         5.5869      -999.2500       0.044520         4.2375         4.2375       349.9627      4006.9563       362.8217        81.8469
    3521.04960       -0.02241     -0.0082148       136.7872      -0.066160         5.6296         5.6296      -999.2500       0.064170         4.2217         4.2217       349.9651      3907.4897       362.8221        81.8463
    3521.20200       -0.02515     -0.0078537       136.2920       0.033060         5.6044         5.6044      -999.2500       0.072920         4.2366         4.2366       349.9696      3923.5500       362.8242        81.8462
    3521.35440       -0.02821     -0.0076965       135.7289       0.072910         5.6750         5.6750      -999.2500       0.058870         4.2388         4.2388       349.9680      3938.2009       362.8264        81.8459
    3521.50680       -0.03166     -0.0081792       136.6694      -0.020500         5.7479         5.7479      -999.2500       0.033700         4.2317         4.2317       349.9664      3954.5400       362.8284      -999.2500
    3521.65920     -999.25000     -0.0082418       137.9511       0.068260         5.7462         5.7462      -999.2500       0.037010         4.2533         4.2533       349.9702      3886.0430      -999.2500      -999.2500
    3521.81160     -999.25000     -0.0081608       136.9624       0.199450         5.7401         5.7401      -999.2500       0.053100         4.2519         4.2519       349.9700      3990.6599      -999.2500      -999.2500
    3521.96400     -999.25000     -0.0077897       135.8498       0.018130         5.8507         5.8507      -999.2500      -0.020600         4.2637         4.2637       349.9682      3838.9116      -999.2500      -999.2500
    3522.11640     -999.25000     -0.0081762       135.6651      -0.078950         5.7293         5.7293      -999.2500       0.048750         4.2866         4.2866       349.9702      3940.7930      -999.2500      -999.2500
    3522.26880     -999.25000     -0.0082688       135.9209      -0.083680         5.6939         5.6939      -999.2500      -0.044550         4.3007         4.3007       349.9712      3930.6809      -999.2500      -999.2500
    3522.42120     -999.25000     -0.0081230       136.2579       0.033560         5.6931         5.6931      -999.2500      -0.027430         4.2880         4.2880       349.9656      3883.6465      -999.2500      -999.2500
    3522.57360     -999.25000     -0.0082148       136.4351      -0.116810         5.6803         5.6803      -999.2500      -0.005620         4.3009         4.3009       349.9758      3993.3823      -999.2500      -999.2500
    3522.72600     -999.25000     -0.0080897       135.3107       0.016250         5.7641         5.7641      -999.2500      -0.008370         4.2683         4.2683      -999.2500      3975.2830      -999.2500      -999.2500
    3522.87840     -999.25000     -0.0079717       135.3329       0.023810         5.7107         5.7107      -999.2500       0.072840         4.2687         4.2687      -999.2500      3967.2979      -999.2500      -999.2500
    3523.03080     -999.25000     -0.0083383       133.9716       0.080350         5.8083         5.8083      -999.2500       0.075250         4.2415         4.2415      -999.2500      4004.4790      -999.2500      -999.2500
    3523.18320     -999.25000     -0.0082130       133.9874       0.113890         5.8798         5.8798      -999.2500       0.031890         4.2016         4.2016      -999.2500      3924.9551      -999.2500      -999.2500
    3523.33560     -999.25000     -0.0082702       134.3825       0.112870         5.9398         5.9398      -999.2500      -0.036460         4.1984         4.1984      -999.2500      3894.2102      -999.2500      -999.2500
    3523.48800     -999.25000     -0.0080967       134.0847       0.052530         6.0381         6.0381      -999.2500       0.011380         4.1545         4.1545      -999.2500      3935.7302      -999.2500      -999.2500
    3523.64040     -999.25000     -0.0081282       134.8525       0.099390         5.9180         5.9180      -999.2500      -0.018940         4.1495         4.1495      -999.2500      3899.5337      -999.2500      -999.2500
    3523.79280     -999.25000     -0.0081173       133.7898      -0.062480         6.0012         6.0012      -999.2500      -0.029310         4.1107         4.1107      -999.2500      3987.4790      -999.2500      -999.2500
    3523.94520     -999.25000     -0.0083770       133.6539      -0.081600         5.9540         5.9540      -999.2500       0.060530         4.1136         4.1136      -999.2500      3920.2769      -999.2500      -999.2500
    3524.09760     -999.25000     -0.0085235       133.9606       0.030500         5.9718         5.9718      -999.2500       0.029000         4.1607         4.1607      -999.2500      3924.6448      -999.2500      -999.2500
    3524.25000     -999.25000     -0.0084105       133.9055       0.057280         6.1306         6.1306      -999.2500       0.071090         4.1914         4.1914      -999.2500      4008.6448      -999.2500      -999.2500
    3524.40240     -999.25000     -0.0083132       133.9263       0.059170         6.2680         6.2680      -999.2500      -0.048810         4.2341         4.2341      -999.2500      3982.3420      -999.2500      -999.2500
    3524.55480     -999.25000     -0.0085038       134.3589       0.128880         6.3831         6.3831      -999.2500       0.016100         4.2632         4.2632      -999.2500      3892.2837      -999.2500      -999.2500
    3524.70720     -999.25000     -0.0084670       133.4501       0.048410         6.3231         6.3231      -999.2500      -0.008530         4.2547         4.2547      -999.2500      3989.9338      -999.2500      -999.2500
    3524.85960     -999.25000     -0.0084487       133.7432       0.031140         6.2918         6.2918      -999.2500      -0.000680         4.2853         4.2853      -999.2500      3940.5005      -999.2500      -999.2500
    3525.01200     -999.25000     -0.0083658       133.6886       0.075010         6.4181         6.4181      -999.2500      -0.022970         4.2929         4.2929      -999.2500      3960.3040      -999.2500      -999.2500
    3525.16440     -999.25000     -0.0082148       133.5818      -0.067800         6.3615         6.3615      -999.2500       0.004380         4.2859         4.2859      -999.2500      3823.0222      -999.2500      -999.2500
    3525.31680     -999.25000     -0.0079832       134.7479      -0.063900         6.3344         6.3344      -999.2500      -0.023520         4.3251         4.3251      -999.2500      3871.8777      -999.2500      -999.2500
    3525.46920     -999.25000     -0.0081068       133.2468       0.009630         6.4148         6.4148      -999.2500      -0.082500         4.3108         4.3108      -999.2500      3968.5950      -999.2500      -999.2500
    3525.62160     -999.25000     -0.0079380       133.7427      -0.089420         6.4305         6.4305      -999.2500       0.040110         4.3128         4.3128      -999.2500      3907.8135      -999.2500      -999.2500
    3525.77400     -999.25000     -0.0081173       133.5025      -0.039680         6.5817         6.5817      -999.2500      -0.083580         4.3120         4.3120      -999.2500      3948.6746      -999.2500      -999.2500
    3525.92640     -999.25000     -0.0082148       134.1057       0.086220         6.5490         6.5490      -999.2500      -0.042200         4.3410         4.3410      -999.2500      3926.3826      -999.2500      -999.2500
