~Version Information Block
VERS .                 2.00:  CWLS LOG ASCII STANDARD - VERSION 2.00
WRAP .                   NO:  One line per depth step
~Well Information Block
#MNEM.UNIT        Data Type   Information
#---------- ----------------  -----------
STRT .M          3201.31440:  START DEPTH
STOP .M          3410.40720:  STOP DEPTH
STEP .M             0.15240:  STEP
NULL .              -999.25:  NULL VALUE
COMP .              Statoil:  COMPANY
WELL .          NO_15/9-F-4:  WELL
FLD  .                VOLVE:  FIELD
LOC  .            North Sea:  LOCATION
CTRY .                     :  COUNTRY
STAT .                     :  STATE
CNTY .                     :  COUNTY
SRVC .         Schlumberger:  SERVICE COMPANY
DATE .          13-Sep-2012:  DATE
API  .                     :  API NUMBER
UWI  .             15/9-F-4:  UNIQUE WELL ID
~Curve Information Block
#MNEM.UNIT         API CODE   Curve Description
#---------- ----------------  -----------------
DEPTH.M                    :  DEPTH (BOREHOLE)
CCLC .V                    :  CCL
CCLD .V                    :  CCL Discriminated Amplitude
CRRA .                     :  Near-Far Count Rate Ratio
CVEL .M/MIN                 :  Cable Velocity
DEVI .DEG                  :  Hole Deviation
FBEF .UA                   :  RST Far Effective Beam Current
FCOR .                     :  RST Far Carbon/Oxygen Ratio
FERD .                     :  RST Far IC Mode Capture Optimization Resolution Degradation Factor
FIRD .                     :  RST Far Inelastic Optimization Resolution Degradation Factor
GR   .GAPI                 :  Gamma Ray
NCOR .                     :  RST Near Carbon/Oxygen Ratio
NERD .                     :  RST Near IC Mode Capture Optimization Resolution Degradation Factor
NIRD .                     :  RST Near Inelastic Optimization Resolution Degradation Factor
RB_PCMS.DEG                  :  Relative Bearing
TENS .LBF                  :  Cable Tension
WPRE .PSI                  :  Well Pressure
WTEP .DEGC                 :  Well Temperature
WTPE .MS                   :  Well Temperature Period
~Parameter Information Block
#MNEM.UNIT            Value   Description
#---------- ----------------  -----------
APD  .M                  54:  Elevation of Depth Reference (LMF) above Permanent Datum
RUN  .                    1:  RUN NUMBER
PROJECT.     SLEIPNER_OST@st-vlinapp01:  
SET  .        RSTD_0912_IC2:  
~Other Information Block
# 
~A       DEPTH           CCLC           CCLD           CRRA           CVEL           DEVI           FBEF           FCOR           FERD           FIRD             GR           NCOR           NERD           NIRD        RB_PCMS           TENS           WPRE           WTEP           WTPE 
# ...
    3391.35720       -0.01130        0.00000         2.7941       -0.47080        55.8824       112.9721         0.1443         4.2393         4.2393        40.9677    -0.08320000         1.9537         1.9537       356.0951      2338.5774      5022.3320        69.6810         3.7915
    3391.50960       -0.01080        0.00000         2.8454       -0.47420        55.8669       119.8763         0.1982         4.2161         4.2161        42.5776    -0.01400000         1.9544         1.9544       356.0970      2328.0793      5022.5752        69.2296         3.7875
    3391.66200       -0.01450        0.00000         2.9621       -0.46050        55.8439       125.4727         0.3198         4.1648         4.1648        44.6514     0.07350000         1.9531         1.9531       355.9578      2340.2905      5022.8047        68.7185         3.7830
    3391.81440       -0.01390        0.00000         3.0038       -0.45370        55.8406       135.5225         0.8722         4.1487         4.1487        44.8900     0.06420000         1.9637         1.9637       355.8144      2331.4404      5023.0864        68.3151         3.7794
    3391.96680       -0.01050        0.00000         3.0916       -0.45310        55.8142       139.5507         1.1871         4.2227         4.2227        47.1135     0.23890001         1.9489         1.9489       355.8472      2338.1362      5023.2949        68.0189         3.7768
    3392.11920       -0.00980        0.00000         3.1222       -0.44630        55.8151       141.8563         0.8099         4.2086         4.2086        46.8737     0.13630000         1.9652         1.9652       355.8185      2338.0388      5023.5049        67.6374         3.7734
    3392.27160       -0.00790        0.00000         3.1436       -0.44910        55.7801       141.5684         0.6424         4.1452         4.1452        43.7900     0.20690000         1.9628         1.9628       355.7838      2337.4543      5023.7329        67.2927         3.7704
    3392.42400       -0.01070        0.00000         3.2027       -0.44320        55.7232       139.3723         0.3745         4.1126         4.1126        40.6084     0.13670000         1.9277         1.9277       355.7690      2336.3635      5023.9463        66.9639         3.7675
    3392.57640        0.01960        0.00000         3.3018       -0.45310        55.6788       132.7958         0.2424         4.2052         4.2052        39.0614     0.13259999         1.9305         1.9305       355.7820      2343.2239      5024.1436        66.5735         3.7640
    3392.72880       -0.17410        0.00000         3.2300       -0.45560        55.6577       125.9685         0.0313         4.2043         4.2043        35.5341     0.08250000         1.9727         1.9727       355.8571      2338.8667      5024.3315        66.2979         3.7616
    3392.88120        0.08930        0.00000         3.0719       -0.45340        55.6328       121.5555         0.0647         4.2296         4.2296        32.1935    -0.00900000         1.9812         1.9812       355.8348      2338.8711      5024.4946        66.2036         3.7607
    3393.03360       -0.02960        0.00000         2.9802       -0.43320        55.6183       119.5837        -0.0515         4.2443         4.2443        29.9975     0.04880000         1.9807         1.9807       355.7939      2347.9873      5024.6479        66.1900         3.7606
    3393.18600       -0.13340        0.00000         2.9281       -0.46330        55.6031       118.0603        -0.0309         4.3067         4.3067        29.0339     0.08450000         1.9952         1.9952       355.8112      2336.3525      5024.7910        66.1590         3.7603
    3393.33840        0.08310        0.00000         2.8967       -0.46520        55.5891       118.1671        -0.0479         4.2195         4.2195        27.9928     0.07940000         1.9787         1.9787       355.7352      2351.6655      5024.9355        66.1363         3.7601
    3393.49080       -0.01210        0.00000         2.9168       -0.46270        55.5868       118.8101         0.0926         4.1752         4.1752        27.6081    -0.02050000         2.0247         2.0247       355.7407      2337.9932      5025.0791        66.1591         3.7603
    3393.64320       -0.01140        0.00000         2.9324       -0.46230        55.5581       118.4416         0.0490         4.1350         4.1350        27.3853    -0.00080000         2.0507         2.0507       355.9523      2344.9294      5025.2212        66.1358         3.7601
    3393.79560       -0.01700        0.00000         2.9025       -0.46760        55.5612       118.0580        -0.0149         4.1846         4.1846        27.3922     0.06290000         2.0271         2.0271       356.1306      2343.9248      5025.3643        66.1067         3.7599
    3393.94800       -0.02120        0.00000         2.9077       -0.46930        55.5663       117.2874        -0.0844         4.1919         4.1919        27.3130    -0.02820000         2.0838         2.0838       356.0210      2343.2244      5025.5112        66.1183         3.7600
    3394.10040       -0.01820        0.00000         2.8985       -0.46930        55.5786       117.6347        -0.0144         4.1792         4.1792        27.2503    -0.04570000         2.0786         2.0786       355.8879      2335.5527      5025.6343        66.1406         3.7602
    3394.25280       -0.01390        0.00000         2.9108       -0.46220        55.5845       116.6736         0.0255         4.2657         4.2657        26.5662    -0.08800000         2.0717         2.0717       355.7479      2358.9763      5025.7881        66.1360         3.7601
    3394.40520        0.06780        0.00000         2.8998       -0.43180        55.5842       116.6958         0.0651         4.2290         4.2290        27.0695     0.04060000         2.1236         2.1236       355.6658      2334.9717      5025.9141        66.1554         3.7603
    3394.55760        0.01860        0.00000         2.8933       -0.46340        55.5872       116.3429         0.0629         4.2067         4.2067        27.4796     0.02510000         2.1414         2.1414       355.6694      2339.6892      5026.0503        66.2022         3.7607
    3394.71000       -0.01460        0.00000         2.8917       -0.46250        55.5851       117.0791        -0.0845         4.1149         4.1149        27.8685    -0.03320000         2.1470         2.1470       355.6541      2337.7932      5026.1846        66.1891         3.7606
    3394.86240       -0.03190        0.00000         2.8921       -0.46480        55.5892       116.5296        -0.0017         4.1435         4.1435        27.8556    -0.02900000         2.1997         2.1997       355.6272      2330.4797      5026.3506        66.2057         3.7608
    3395.01480        0.08940        0.00000         2.8748       -0.46340        55.5969       117.1457        -0.0583         4.1271         4.1271        28.8900    -0.05350000         2.1612         2.1612       355.6276      2342.0640      5026.4907        66.2674         3.7613
    3395.16720       -0.01450        0.00000         2.9019       -0.46310        55.6074       116.3779         0.0283         4.0638         4.0638        28.6863    -0.03600000         2.1821         2.1821       355.7456      2349.9395      5026.6108        66.2576         3.7612
    3395.31960       -0.01800        0.00000         2.8932       -0.46070        55.6248       115.2302         0.0878         4.0800         4.0800        28.9344    -0.01840000         2.1607         2.1607       355.7212      2335.9797      5026.7739        66.2772         3.7614
    3395.47200        0.04430        0.00000         2.8701       -0.46030        55.6325       113.4916         0.0336         4.1386         4.1386        29.1769    -0.04820000         2.1478         2.1478       355.5666      2355.9966      5026.9248        66.2862         3.7615
    3395.62440       -0.01800        0.00000         2.8282       -0.46090        55.6543       112.9881         0.0261         4.1723         4.1723        28.7825     0.01440000         2.1971         2.1971       355.6185      2344.4128      5027.0972        66.3573         3.7621
