~Version Information Block
VERS .                 2.00:  CWLS LOG ASCII STANDARD - VERSION 2.00
WRAP .                   NO:  One line per depth step
~Well Information Block
#MNEM.UNIT        Data Type   Information
#---------- ----------------  -----------
STRT .M          3439.51560:  START DEPTH
STOP .M          3642.36000:  STOP DEPTH
STEP .M             0.15240:  STEP
NULL .              -999.25:  NULL VALUE
COMP .              Statoil:  COMPANY
WELL .          NO_15/9-F-5:  WELL
FLD  .                VOLVE:  FIELD
LOC  .            North Sea:  LOCATION
CTRY .                     :  COUNTRY
STAT .                     :  STATE
CNTY .                     :  COUNTY
SRVC .         Schlumberger:  SERVICE COMPANY
DATE .          16-Sep-2012:  DATE
API  .                     :  API NUMBER
UWI  .             15/9-F-5:  UNIQUE WELL ID
~Curve Information Block
#MNEM.UNIT         API CODE   Curve Description
#---------- ----------------  -----------------
DEPTH.M                    :  DEPTH (BOREHOLE)
BSAL .PPM                  :  Borehole Salinity
CCLC .V                    :  CCL
CIRF .                     :  RST Capture to Inelastic Ratio Far
CIRN .                     :  RST Capture to Inelastic Ratio Near
CVEL .M/MIN                 :  Cable Velocity
DSIG .CU                   :  Sigma Difference
FBEF .UA                   :  RST Far Effective Beam Current
GR   .GAPI                 :  Gamma Ray
IRAT .                     :  RST Inelastic Ratio
RSCF .                     :  RST Far Detector Effective Unregulated Capture Count Rate
RSCN .                     :  RST Near Detector Effective Unregulated Capture Count Rate
SFFA .CU                   :  RST Sigma Formation Far Apparent
SIBF .CU                   :  RST Sigma Borehole Fluid
SIGM .CU                   :  Formation Sigma (Neutron Capture Cross Section)
TENS .LBF                  :  Cable Tension
TPHI .V/V                  :  Thermal Decay Porosity
~Parameter Information Block
#MNEM.UNIT            Value   Description
#---------- ----------------  -----------
APD  .M           54.900002:  Elevation of Depth Reference (LMF) above Permanent Datum
BHS  .                 CASE:  Borehole Status (Open or Cased Hole)
BS   .IN                8.5:  Bit Size
BSAL .PPM       34972.17188:  Borehole Salinity
BSALOPT.              UNKNOWN:  Borehole Salinity Option
CSID .IN              6.184:  Casing Inner Diameter
CSIZ .IN                  7:  Current Casing Size
CWEI .LB/F               29:  Casing Weight
MATR .                 SAND:  Rock Matrix for Neutron Porosity Corrections
RUN  .                Run 1:  RUN NUMBER
PROJECT.     SLEIPNER_OST@st-vlinapp01:  
SET  .       RSTD_0912_SIG1:  
~Other Information Block
# 
~A       DEPTH           BSAL           CCLC           CIRF           CIRN           CVEL           DSIG           FBEF             GR           IRAT           RSCF           RSCN           SFFA           SIBF           SIGM           TENS           TPHI 
    3439.51560     38888.5000        -0.2009         1.6134     0.59320003       -0.39360      -999.2500        74.7312        27.6143     0.32789999         7.2940         8.3599        24.0378        35.7622      -999.2500      2484.8628     0.25549999
    3439.66800     38888.5000        -0.2009         1.6134     0.59320003       -0.39360      -999.2500        74.7312        27.6143     0.32789999         7.2940         8.3599        24.0378        35.7622      -999.2500      2484.8628     0.25549999
    3439.82040     38888.5000        -0.2009         1.6134     0.59320003       -0.39360      -999.2500        74.7312        27.6143     0.32789999         7.2940         8.3599        24.0378        35.7622      -999.2500      2484.8628     0.25549999
    3439.97280     38888.5000        -0.2009         1.6134     0.59320003       -0.39360      -999.2500        74.7312        27.6143     0.32789999         7.2940         8.3599        24.0378        35.7622      -999.2500      2484.8628     0.25549999
    3440.12520     38888.5000        -0.2009         1.6134     0.59320003       -0.39360      -999.2500        74.7312        27.6143     0.32789999         7.2940         8.3599        24.0378        35.7622      -999.2500      2484.8628     0.25549999
    3440.27760     38888.5000        -0.2009         1.6134     0.59320003       -0.39360      -999.2500        74.7312        27.6143     0.32789999         7.2940         8.3599        24.0378        35.7622      -999.2500      2484.8628     0.25549999
    3440.43000     38888.5000        -0.2009         1.6134     0.59320003       -0.39360      -999.2500        74.7312        27.6143     0.32789999         7.2940         8.3599        24.0378        35.7622      -999.2500      2484.8628     0.25549999
    3440.58240     38888.5000        -0.2009         1.6134     0.59320003       -0.39360      -999.2500        74.7312        27.6143     0.32789999         7.2940         8.3599        24.0378        35.7622      -999.2500      2484.8628     0.25549999
    3440.73480     38888.5000        -0.2009         1.6134     0.59320003       -0.39360      -999.2500        74.7312        27.6143     0.32789999         7.2940         8.3599        24.0378        35.7622      -999.2500      2484.8628     0.25549999
    3440.88720     38888.5000        -0.2009         1.6134     0.59320003       -0.39360      -999.2500        74.7312        27.6143     0.32789999         7.2940         8.3599        24.0378        35.7622      -999.2500      2484.8628     0.25549999
    3441.03960     38888.5000        -0.2009         1.6134     0.59320003       -0.39360      -999.2500        74.7312        27.6143     0.32789999         7.2940         8.3599        24.0378        35.7622      -999.2500      2484.8628     0.25549999
    3441.19200     38888.5000        -0.2009         1.6134     0.59320003       -0.39360      -999.2500        74.7312        27.6143     0.32789999         7.2940         8.3599        24.0378        35.7622      -999.2500      2484.8628     0.25549999
    3441.34440     38888.5000        -0.2009         1.6134     0.59320003       -0.39360      -999.2500        74.7312        27.6143     0.32789999         7.2940         8.3599        24.0378        35.7622      -999.2500      2484.8628     0.25549999
    3441.49680     38888.5000        -0.2009         1.6134     0.59320003       -0.39360      -999.2500        74.7312        27.6143     0.32789999         7.2940         8.3599        24.0378        35.7622      -999.2500      2484.8628     0.25549999
    3441.64920     38888.5000        -0.2009         1.6134     0.59320003       -0.39360      -999.2500        74.7312        27.6143     0.32789999         7.2940         8.3599        24.0378        35.7622      -999.2500      2484.8628     0.25549999
    3441.80160     38888.5000        -0.2009         1.6134     0.59320003       -0.39360      -999.2500        74.7312        27.6143     0.32789999         7.2940         8.3599        24.0378        35.7622      -999.2500      2484.8628     0.25549999
    3441.95400     38888.5000        -0.2009         1.6134     0.59320003       -0.39360      -999.2500        74.7312        27.6143     0.32789999         7.2940         8.3599        24.0378        35.7622      -999.2500      2484.8628     0.25549999
    3442.10640     38888.5000        -0.2009         1.6134     0.59320003       -0.39360      -999.2500        74.7312        27.6143     0.32789999         7.2940         8.3599        24.0378        35.7622      -999.2500      2484.8628     0.25549999
    3442.25880     38888.5000        -0.2009         1.6134     0.59320003       -0.39360      -999.2500        74.7312        27.6143     0.32789999         7.2940         8.3599        24.0378        35.7622      -999.2500      2484.8628     0.25549999
    3442.41120     38888.5000        -0.2009         1.6134     0.59320003       -0.39360      -999.2500        74.7312        27.6143     0.32789999         7.2940         8.3599        24.0378        35.7622      -999.2500      2484.8628     0.25549999
    3442.56360     38888.5000        -0.2009         1.6134     0.59320003       -0.39360      -999.2500        74.7312        27.6143     0.32789999         7.2940         8.3599        24.0378        35.7622      -999.2500      2484.8628     0.25549999
    3442.71600     38888.5000        -0.2009         1.6134     0.59320003       -0.39360      -999.2500        74.7312        27.6143     0.32789999         7.2940         8.3599        24.0378        35.7622      -999.2500      2484.8628     0.25549999
    3442.86840     38888.5000        -0.2009         1.6134     0.59320003       -0.39360      -999.2500        74.7312        27.6143     0.32789999         7.2940         8.3599        24.0378        35.7622      -999.2500      2484.8628     0.25549999
    3443.02080     38888.5000        -0.2009         1.6134     0.59320003       -0.39360      -999.2500        74.7312        27.6143     0.32789999         7.2940         8.3599        24.0378        35.7622      -999.2500      2484.8628     0.25549999
    3443.17320     38888.5000        -0.2009         1.6134     0.59320003       -0.39360      -999.2500        74.7312        27.6143     0.32789999         7.2940         8.3599        24.0378        35.7622      -999.2500      2484.8628     0.25549999
    3443.32560     38888.5000        -0.2009         1.6134     0.59320003       -0.39360      -999.2500        74.7312        27.6143     0.32789999         7.2940         8.3599        24.0378        35.7622      -999.2500      2484.8628     0.25549999
    3443.47800     38888.5000        -0.2009         1.6134     0.59320003       -0.39360      -999.2500        74.7312        27.6143     0.32789999         7.2940         8.3599        24.0378        35.7622      -999.2500      2484.8628     0.25549999
    3443.63040     38888.5000        -0.2009         1.6134     0.59320003       -0.39360      -999.2500        74.7312        27.6143     0.32789999         7.2940         8.3599        24.0378        35.7622      -999.2500      2484.8628     0.25549999
    3443.78280     38888.5000        -0.2009         1.6134     0.59320003       -0.39360      -999.2500        74.7312        27.6143     0.32789999         7.2940         8.3599        24.0378        35.7622      -999.2500      2484.8628     0.25549999
    3443.93520     38888.5000        -0.2009         1.6134     0.59320003       -0.39360      -999.2500        74.7312        27.6143     0.32789999         7.2940         8.3599        24.0378        35.7622      -999.2500      2484.8628     0.25549999
    3444.08760     38888.5000        -0.2009         1.6134     0.59320003       -0.39360      -999.2500        74.7312        27.6143     0.32789999         7.2940         8.3599        24.0378        35.7622      -999.2500      2484.8628     0.25549999
    3444.24000     38888.5000        -0.2009         1.6134     0.59320003       -0.39360      -999.2500        74.7312        27.6143     0.32789999         7.2940         8.3599        24.0378        35.7622      -999.2500      2484.8628     0.25549999
