~Version Information Block
VERS .                 2.00:  CWLS LOG ASCII STANDARD - VERSION 2.00
WRAP .                   NO:  One line per depth step
~Well Information Block
#MNEM.UNIT        Data Type   Information
#---------- ----------------  -----------
STRT .M          3460.24200:  START DEPTH
STOP .M          3530.19360:  STOP DEPTH
STEP .M             0.15240:  STEP
NULL .              -999.25:  NULL VALUE
COMP .              Statoil:  COMPANY
WELL .          NO_15/9-F-5:  WELL
FLD  .                Volve:  FIELD
LOC  .                Volve:  LOCATION
CTRY .               Norway:  COUNTRY
STAT .                     :  STATE
CNTY .                     :  COUNTY
SRVC .         Schlumberger:  SERVICE COMPANY
DATE .           11/03/2015:  DATE
API  .                     :  API NUMBER
UWI  .             15/9-F-5:  UNIQUE WELL ID
LATI .     58° 26' 29.66" N:  LATITUDE
LONG .      1° 53' 14.99" E:  LONGITUDE
~Curve Information Block
#MNEM.UNIT         API CODE   Curve Description
#---------- ----------------  -----------------
DEPTH.M                    :  Depth Index
CCLC .V                    :  (PSTP-B)                (1in)                   CCL Computed Amplitude
CVEL .M/SEC                 :  (WLWorkflow)            (1in)                   Cable Velocity
FBEF .UA                   :  (RST-D)                 (6in)                   Far Effective Beam Curre
FCOR .                     :  (RST-D)                 (6in)                   Far Carbon/Oxygen Ratio
FERD .                     :  (RST-D)                 (6in)                   Far IC Mode Capture Opti
FIRD .                     :  (RST-D)                 (6in)                   Far Inelastic Optimizati
GR   .GAPI                 :  (PSTP-B)                (6in)                   Gamma Ray
NCOR .                     :  (RST-D)                 (6in)                   Near Carbon/Oxygen Ratio
NERD .                     :  (RST-D)                 (6in)                   Near IC Mode Capture Opt
NIRD .                     :  (RST-D)                 (6in)                   Near Inelastic Optimizat
RB_PCMS.DEG                  :  (PCMS-A)                (6in)                   Relative Bearing
TENS .LBF                  :  (WLWorkflow)            (1in)                   Cable Tension
WPRE .BAR                  :  (PSTP-B)                (6in)                   Well Pressure
WTEP .DEGC                 :  (PSTP-B)                (6in)                   Well Temperature
~Parameter Information Block
#MNEM.UNIT            Value   Description
#---------- ----------------  -----------
APD  .M                  54:  Elevation of Depth Reference (LMF) Above Permanent Datum
CLAB .              Country:  :County Label
ECF  .M             -999.25:  Elevation of Casing Flange above Permanent Datum
EDF  .M                  54:  Elevation of Drill Floor Above Permanent Datum
EGL  .M                 -91:  Elevation of Ground Level Above Permanent Datum
EKB  .M             -999.25:  Elevation of Kelly Bushing Above Permanent Datum
EPD  .M                   0:  Elevation of Permanent Datum (PDAT) above Mean Sea Level
FL1  .            North Sea:  Field Location Line 1
FL2  .     Norwegian Sector:  Field Location Line 2
LMF  .                   DF:  Logging Measured From
LUL  .                 NOBO:  Logging Unit Location
LUN  .          ONCC-A 3837:  Logging Unit Number
PDAT .                  MSL:  Local Permanent Datum
RIGN .      Maersk Inspirer:  Rig Name
RIGTYP.               Jackup:  Rig Type
SON  .           C2TQ-00038:  Service Order Number
TAPE_NAME.     RST_IC_Pass-2___03Nov15_214110.las:  
TOOL_STRING.              UNKNOWN:  
WN   .             15/9-F-5:  WELL NAME
PROJECT.     SLEIPNER_OST@st-vlinapp01:  
SET  .        RSTD_1115_IC2:  
~Other Information Block
# 
~A       DEPTH           CCLC           CVEL           FBEF           FCOR           FERD           FIRD             GR           NCOR           NERD           NIRD        RB_PCMS           TENS           WPRE           WTEP 
# ...
    3487.67400       -0.00668     -0.0087695       132.9949      -0.020170         5.9695         5.9695        76.3577       0.011940         4.4536         4.4536       353.3609      4030.4041       360.3831        84.1454
    3487.82640       -0.00599     -0.0087172       132.5839       0.002910         5.9134         5.9134        77.1218       0.103320         4.4332         4.4332       353.2352      3975.1370       360.3938        84.1393
    3487.97880       -0.00612     -0.0082555       131.8914       0.052060         5.8902         5.8902        76.6262       0.111250         4.4032         4.4032       353.1946      4021.9780       360.4038        84.1293
    3488.13120        0.00021     -0.0086420       132.5174       0.137050         5.8962         5.8962        76.9060       0.054090         4.4406         4.4406       353.1812      4072.4995       360.4173        84.1201
    3488.28360        0.00861     -0.0085392       132.3235       0.043260         5.8615         5.8615        77.0764       0.019330         4.4189         4.4189       353.0086      3937.2341       360.4271        84.1042
    3488.43600        0.03749     -0.0087775       132.6374       0.036900         5.8544         5.8544        77.3666      -0.002300         4.4571         4.4571       353.0217      3985.6895       360.4384        84.0816
    3488.58840       -0.00641     -0.0083382       131.5116       0.119490         5.8579         5.8579        77.2632       0.046880         4.4236         4.4236       352.8882      3989.5225       360.4521        84.0717
    3488.74080       -0.00620     -0.0079308       131.3627      -0.028700         5.7772         5.7772        77.2453       0.063570         4.4270         4.4270       352.7453      3955.2437       360.4620        84.0598
    3488.89320       -0.00188     -0.0081725       132.4066       0.064150         5.7174         5.7174        77.7919       0.007000         4.4310         4.4310       352.7431      4018.1091       360.4730        84.0460
    3489.04560       -0.00591     -0.0079793       131.9790       0.160190         5.5872         5.5872        76.5073       0.060180         4.4010         4.4010       352.7147      3986.4785       360.4877        84.0333
    3489.19800       -0.00477     -0.0079310       132.8037       0.191050         5.6331         5.6331        76.3421       0.015410         4.3338         4.3338       352.8859      3953.8228       360.4987        84.0121
    3489.35040       -0.00363     -0.0082557       133.0466       0.064890         5.5392         5.5392        75.5456       0.011970         4.3373         4.3373       353.1416      3973.5408       360.5095        83.9923
    3489.50280        0.04006     -0.0081068       132.8991       0.123350         5.4526         5.4526        75.5504       0.062240         4.2659         4.2659       353.2847      3915.8931       360.5220        83.9739
    3489.65520       -0.00303     -0.0083157       132.1140       0.108440         5.4043         5.4043        75.5393       0.135840         4.2421         4.2421       353.3751      4050.9043       360.5329        83.9556
    3489.80760       -0.00351     -0.0082978       132.3584       0.153830         5.4283         5.4283        77.7702       0.034660         4.2034         4.2034       353.4009      3975.8000       360.5450        83.9453
    3489.96000        0.00066     -0.0083500       132.7039       0.044220         5.4948         5.4948        78.5234      -0.030350         4.1861         4.1861       353.3462      4024.9792       360.5557        83.9313
    3490.11240       -0.00414     -0.0087427       133.8301       0.063170         5.5761         5.5761        78.8688       0.105260         4.2186         4.2186       353.3821      4082.7913       360.5691        83.9251
    3490.26480       -0.00212     -0.0090670       133.3548      -0.084350         5.6526         5.6526        78.1329      -0.014940         4.2902         4.2902       353.3428      4065.4180       360.5781        83.9007
    3490.41720       -0.02679     -0.0088057       133.3564       0.193670         5.5958         5.5958        77.4467       0.113790         4.2771         4.2771       353.2468      3991.0444       360.5944        83.8970
    3490.56960       -0.01195     -0.0088603       133.7765       0.117120         5.6376         5.6376        76.8963      -0.012460         4.2959         4.2959       353.3785      4077.6184       360.6013        83.8727
    3490.72200        0.01230     -0.0086363       134.6689       0.082770         5.6482         5.6482        77.4043       0.048980         4.3470         4.3470       353.4894      4044.4500       360.6161        83.8721
    3490.87440       -0.00143     -0.0087247       135.3985       0.007990         5.7915         5.7915        78.7231      -0.068930         4.3243         4.3243       353.4684      3978.8035       360.6281        83.8477
    3491.02680       -0.00141     -0.0084107       135.5634       0.202140         5.7359         5.7359        79.2714       0.019950         4.2766         4.2766       353.3442      3926.9333       360.6386        83.8399
    3491.17920       -0.00070     -0.0079447       134.8501       0.133140         5.8068         5.8068        78.9463       0.031720         4.2596         4.2596       353.3029      3862.5325       360.6478        83.8259
    3491.33160       -0.04473     -0.0080352       134.6606       0.131630         5.7359         5.7359        78.4304       0.058250         4.2441         4.2441       353.3104      3975.3662       360.6625        83.8070
    3491.48400       -0.00030     -0.0078695       133.8856      -0.016180         5.6760         5.6760        78.0306       0.081740         4.2748         4.2748       353.4624      3858.2363       360.6754        83.7942
    3491.63640        0.00022     -0.0075472       134.5560       0.120220         5.5868         5.5868        77.2017      -0.057960         4.2515         4.2515       353.4723      3875.5579       360.6867        83.7862
    3491.78880        0.01099     -0.0075705       133.5758       0.026660         5.4633         5.4633        76.5337       0.049980         4.2324         4.2324       353.5100      3954.2341       360.6970        83.7768
    3491.94120        0.00224     -0.0078137       134.2596      -0.075870         5.4679         5.4679        77.6030       0.057760         4.1714         4.1714       353.5938      3868.3481       360.7089        83.7622
    3492.09360        0.02119     -0.0078635       134.2763       0.063010         5.5308         5.5308        75.8383       0.075870         4.1651         4.1651       353.7765      4047.5525       360.7195        83.7420
    3492.24600        0.00238     -0.0082842       133.7974       0.041980         5.5881         5.5881        75.4843       0.081660         4.1327         4.1327       353.7451      3999.9087       360.7334        83.7379
    3492.39840        0.01322     -0.0080800       133.9804       0.038170         5.6054         5.6054        77.0859       0.009200         4.0941         4.0941       353.5313      4076.2334       360.7431        83.7325
    3492.55080       -0.00076     -0.0078537       135.2010       0.066580         5.6249         5.6249        81.7010       0.088420         4.0936         4.0936       353.6489      4169.9790       360.7539        83.7202
    3492.70320        0.00512     -0.0086540       138.8539       0.058820         5.6731         5.6731        84.1858       0.026720         4.0600         4.0600       353.6996      3937.1396       360.7684        83.7104
    3492.85560        0.01052     -0.0081608       142.9864       0.073790         5.7241         5.7241        87.0693       0.102750         4.0376         4.0376       353.5696      3971.5962       360.7779        83.6922
    3493.00800        0.65449     -0.0085932       148.9066       0.105630         5.8330         5.8330        89.0465       0.111260         4.0517         4.0517       353.5066      3842.1489       360.7877        83.6864
