~Version Information Block
VERS .                 2.00:  CWLS LOG ASCII STANDARD - VERSION 2.00
WRAP .                   NO:  One line per depth step
~Well Information Block
#MNEM.UNIT        Data Type   Information
#---------- ----------------  -----------
STRT .M          3460.08960:  START DEPTH
STOP .M          3530.04120:  STOP DEPTH
STEP .M             0.15240:  STEP
NULL .              -999.25:  NULL VALUE
COMP .              Statoil:  COMPANY
WELL .          NO_15/9-F-5:  WELL
FLD  .                Volve:  FIELD
LOC  .                Volve:  LOCATION
CTRY .               Norway:  COUNTRY
STAT .                     :  STATE
CNTY .                     :  COUNTY
SRVC .         Schlumberger:  SERVICE COMPANY
DATE .           11/04/2015:  DATE
API  .                     :  API NUMBER
UWI  .             15/9-F-5:  UNIQUE WELL ID
LATI .     58° 26' 29.66" N:  LATITUDE
LONG .      1° 53' 14.99" E:  LONGITUDE
~Curve Information Block
#MNEM.UNIT         API CODE   Curve Description
#---------- ----------------  -----------------
DEPTH.M                    :  Depth Index
CCLC .V                    :  (PSTP-B)                (1in)                   CCL Computed Amplitude
CVEL .M/SEC                 :  (WLWorkflow)            (1in)                   Cable Velocity
FBEF .UA                   :  (RST-D)                 (6in)                   Far Effective Beam Curre
FCOR .                     :  (RST-D)                 (6in)                   Far Carbon/Oxygen Ratio
FERD .                     :  (RST-D)                 (6in)                   Far IC Mode Capture Opti
FIRD .                     :  (RST-D)                 (6in)                   Far Inelastic Optimizati
GR   .GAPI                 :  (PSTP-B)                (6in)                   Gamma Ray
NCOR .                     :  (RST-D)                 (6in)                   Near Carbon/Oxygen Ratio
NERD .                     :  (RST-D)                 (6in)                   Near IC Mode Capture Opt
NIRD .                     :  (RST-D)                 (6in)                   Near Inelastic Optimizat
RB_PCMS.DEG                  :  (PCMS-A)                (6in)                   Relative Bearing
TENS .LBF                  :  (WLWorkflow)            (1in)                   Cable Tension
WPRE .BAR                  :  (PSTP-B)                (6in)                   Well Pressure
WTEP .DEGC                 :  (PSTP-B)                (6in)                   Well Temperature
~Parameter Information Block
#MNEM.UNIT            Value   Description
#---------- ----------------  -----------
APD  .M                  54:  Elevation of Depth Reference (LMF) Above Permanent Datum
CLAB .              Country:  :County Label
ECF  .M             -999.25:  Elevation of Casing Flange above Permanent Datum
EDF  .M                  54:  Elevation of Drill Floor Above Permanent Datum
EGL  .M                 -91:  Elevation of Ground Level Above Permanent Datum
EKB  .M             -999.25:  Elevation of Kelly Bushing Above Permanent Datum
EPD  .M                   0:  Elevation of Permanent Datum (PDAT) above Mean Sea Level
FL1  .            North Sea:  Field Location Line 1
FL2  .     Norwegian Sector:  Field Location Line 2
LMF  .                   DF:  Logging Measured From
LUL  .                 NOBO:  Logging Unit Location
LUN  .          ONCC-A 3837:  Logging Unit Number
PDAT .                  MSL:  Local Permanent Datum
RIGN .      Maersk Inspirer:  Rig Name
RIGTYP.               Jackup:  Rig Type
SON  .           C2TQ-00038:  Service Order Number
TAPE_NAME.     RST_IC_Pass_4___04Nov15_021221.las:  
TOOL_STRING.              UNKNOWN:  
WN   .             15/9-F-5:  WELL NAME
PROJECT.     SLEIPNER_OST@st-vlinapp01:  
SET  .        RSTD_1115_IC4:  
~Other Information Block
# 
~A       DEPTH           CCLC           CVEL           FBEF           FCOR           FERD           FIRD             GR           NCOR           NERD           NIRD        RB_PCMS           TENS           WPRE           WTEP 
# ...
    3498.49440       0.000820    -0.00902067       128.4645       0.024280         5.6205         5.6205       141.9580      -0.023930         4.3077         4.3077       352.1812      4123.9492       359.8357        83.7261
    3498.64680      -0.004150    -0.00947400       127.4068      -0.025040         5.6250         5.6250       146.2170       0.012720         4.2476         4.2476       352.1086      4084.2705       359.8472        83.7181
    3498.79920      -0.003760    -0.00937883       128.5266       0.040550         5.5314         5.5314       148.8498       0.099160         4.2862         4.2862       352.0587      4125.7183       359.8601        83.7132
    3498.95160       0.011190    -0.00950917       127.5464       0.037830         5.6668         5.6668       148.5115       0.053830         4.2358         4.2358       351.9826      4061.9492       359.8721        83.7147
    3499.10400      -0.002590    -0.00963400       128.0219       0.209350         5.6717         5.6717       152.9692       0.051910         4.2373         4.2373       352.0599      3968.0981       359.8829        83.7098
    3499.25640       0.012940    -0.00937433       127.5586      -0.203190         5.6165         5.6165       150.9067       0.028000         4.2072         4.2072       352.1840      3899.4753       359.8925        83.7088
    3499.40880       0.018690    -0.00903817       126.7293      -0.115270         5.7364         5.7364       150.6971      -0.007760         4.1928         4.1928       352.1776      3882.1155       359.9018        83.7008
    3499.56120      -0.030230    -0.00900850       126.8850      -0.061780         5.7076         5.7076       148.4775       0.075270         4.1336         4.1336       352.2732      3797.0703       359.9130        83.7011
    3499.71360      -0.000370    -0.00869300       126.3908       0.077170         5.6931         5.6931       146.1292      -0.024220         4.1340         4.1340       352.4143      3780.8884       359.9231        83.6946
    3499.86600       0.000270    -0.00869683       123.9343       0.104230         5.8762         5.8762       137.9700      -0.000490         4.1219         4.1219       352.4842      3844.5005       359.9356        83.6888
    3500.01840       0.015710    -0.00860150       121.6961       0.002850         5.7976         5.7976       137.2455      -0.000050         4.1619         4.1619       352.5450      3873.3638       359.9455        83.6832
    3500.17080       0.025920    -0.00898333       119.1880      -0.003330         5.6598         5.6598       133.7689       0.008960         4.2194         4.2194       352.5053      3790.1462       359.9584        83.6772
    3500.32320       0.029460    -0.00871733       117.8148       0.022490         5.6822         5.6822       126.5833      -0.016880         4.1967         4.1967       352.4694      3978.7947       359.9692        83.6673
    3500.47560       0.011950    -0.00876950       120.2095       0.150910         5.6339         5.6339       122.4239       0.106200         4.1498         4.1498       352.4396      4043.4294       359.9820        83.6594
    3500.62800       0.002680    -0.00889050       121.0238      -0.088580         5.5513         5.5513       123.2212      -0.013350         4.1566         4.1566       352.3670      4156.5396       359.9930        83.6560
    3500.78040       0.007660    -0.00919150       122.1413       0.072800         5.5581         5.5581       120.5630       0.048610         4.1556         4.1556       352.3404      4128.3149       360.0019        83.6499
    3500.93280       0.002730    -0.00918367       123.1890       0.116940         5.5631         5.5631       118.6662       0.012860         4.2024         4.2024       352.2618      4091.3340       360.0131        83.6428
    3501.08520      -0.001650    -0.00949383       122.6718       0.053420         5.3726         5.3726       122.0309       0.020690         4.2033         4.2033       352.2448      4161.3755       360.0222        83.6241
    3501.23760       0.012990    -0.00969600       122.8855      -0.114410         5.2974         5.2974       122.9110       0.097910         4.2344         4.2344       352.2725      4018.4644       360.0321        83.6169
    3501.39000      -0.001250    -0.00957183       123.4464       0.043220         5.3572         5.3572       121.3357      -0.035250         4.2360         4.2360       352.1738      3971.9514       360.0450        83.6128
    3501.54240      -0.001800    -0.00955583       122.5348      -0.040180         5.4393         5.4393       123.5082       0.098220         4.3009         4.3009       351.8813      4009.0000       360.0556        83.6044
    3501.69480       0.056480    -0.00927117       123.0520       0.036370         5.4829         5.4829       125.8959       0.064640         4.2706         4.2706       351.7754      3911.6262       360.0661        83.5932
    3501.84720      -0.001120    -0.00902550       123.3835       0.037510         5.3582         5.3582       122.6496       0.032000         4.2439         4.2439       351.9094      3847.3623       360.0795        83.5836
    3501.99960      -0.001300    -0.00886233       123.3725       0.115410         5.3641         5.3641       121.2753       0.103120         4.2415         4.2415       352.0625      3840.0671       360.0904        83.5812
    3502.15200      -0.002040    -0.00892000       123.7757      -0.123640         5.3430         5.3430       122.9661       0.051590         4.2375         4.2375       352.3045      3769.7200       360.0986        83.5680
    3502.30440      -0.002080    -0.00859517       124.2113       0.050510         5.3623         5.3623       121.4202       0.007570         4.2416         4.2416       352.7460      3855.6733       360.1137        83.5553
    3502.45680      -0.002850    -0.00848633       123.8296       0.066140         5.4621         5.4621       121.3810       0.049500         4.2399         4.2399       352.7274      3975.5461       360.1227        83.5402
    3502.60920      -0.003220    -0.00873917       125.6821       0.051510         5.5624         5.5624       127.4044       0.014940         4.2215         4.2215       352.7697      3890.3816       360.1334        83.5326
    3502.76160       0.001760    -0.00886033       125.4966       0.083850         5.5616         5.5616       133.4037       0.001780         4.1901         4.1901       353.1432      4021.7847       360.1417        83.5048
    3502.91400      -0.003200    -0.00901417       125.6281       0.124660         5.5817         5.5817       132.0495      -0.002150         4.2195         4.2195       353.0408      4140.4639       360.1589        83.4839
    3503.06640       0.011360    -0.00927133       124.9906       0.125660         5.5417         5.5417       131.6147      -0.065990         4.2258         4.2258       352.9591      4096.6753       360.1680        83.4718
    3503.21880       0.025920    -0.00952550       124.8125       0.117310         5.3757         5.3757       131.5909       0.061760         4.1989         4.1989       352.7919      4172.4155       360.1826        83.4698
    3503.37120       0.032490    -0.00949383       125.0514       0.051570         5.3136         5.3136       130.6746       0.123010         4.2496         4.2496       352.7048      4094.1260       360.1903        83.4608
    3503.52360      -0.030260    -0.00957167       125.2701       0.060100         5.3247         5.3247       127.4531       0.040700         4.2269         4.2269       352.8525      4076.5122       360.2020        83.4377
    3503.67600      -0.001420    -0.00949367       125.9375       0.102450         5.4145         5.4145       129.0464       0.048410         4.2218         4.2218       353.0545      3974.8491       360.2138        83.4323
    3503.82840       0.037840    -0.00940450       124.7435       0.156190         5.4498         5.4498       131.1498       0.024450         4.1756         4.1756       353.2474      3896.2852       360.2204        83.4003
