~Version Information Block
VERS .                 2.00:  CWLS LOG ASCII STANDARD - VERSION 2.00
WRAP .                   NO:  One line per depth step
~Well Information Block
#MNEM.UNIT        Data Type   Information
#---------- ----------------  -----------
STRT .M          3454.60320:  START DEPTH
STOP .M          3792.47400:  STOP DEPTH
STEP .M             0.15240:  STEP
NULL .              -999.25:  NULL VALUE
COMP .              Statoil:  COMPANY
WELL .        NO_15/9-F-1_C:  WELL
FLD  .                Volve:  FIELD
LOC  .            North Sea:  LOCATION
CTRY .               Norway:  COUNTRY
STAT .                     :  STATE
CNTY .                     :  COUNTY
SRVC .         Schlumberger:  SERVICE COMPANY
DATE .          27-Nov-2014:  DATE
API  .                     :  API NUMBER
UWI  .           15/9-F-1 C:  UNIQUE WELL ID
LATI .     58° 26' 29.91" N:  LATITUDE
LONG .      1° 53' 14.71" E:  LONGITUDE
~Curve Information Block
#MNEM.UNIT         API CODE   Curve Description
#---------- ----------------  -----------------
DEPTH.M                    :  DEPTH (BOREHOLE)
CVEL .M/SEC                 :  Cable Velocity
DFRB .DEG                  :  Calibrated Relative Bearing
FBEF .UA                   :  RST Far Effective Beam Current
FCOR .                     :  RST Far Carbon/Oxygen Ratio
FERD .                     :  RST Far IC Mode Capture Optimization
FIRD .                     :  RST Far Inelastic Optimization Resolution
GR   .GAPI                 :  Gamma Ray
NCOR .                     :  RST Near Carbon/Oxygen Ratio
NERD .                     :  RST Near IC Mode Capture Optimization
NIRD .                     :  RST Near Inelastic Optimization Resolution
PFC1 .IN                   :  PFCS CaliperX
PFC2 .IN                   :  PFCS CaliperY
TENS .LBF                  :  Cable Tension
~Parameter Information Block
#MNEM.UNIT            Value   Description
#---------- ----------------  -----------
APD  .M           54.900002:  Elevation of Depth Reference (LMF) above Permanent Datum
EPD  .C3                  0:  Elevation of Permanent Datum above Mean Sea Level
LMF  .                   KB:  Logging Measured From (Name of Logging Elevation Reference)
PDAT .                  MSL:  Permanent Datum
RUN  .                Run 1:  RUN NUMBER
TAPE_NAME.     ConCu_R1L19Up_S012_PFCS_PILS_DEFT_RST_PCMS_PSTP.las:  
TOOL_STRING.              UNKNOWN:  
WN   .           15/9-F-1 C:  WELL
PROJECT.     SLEIPNER_OST@st-vlinapp01:  
SET  .        RSTD_1114_IC3:  
~Other Information Block
# 
~A       DEPTH           CVEL           DFRB           FBEF           FCOR           FERD           FIRD             GR           NCOR           NERD           NIRD           PFC1           PFC2           TENS 
# ...
    3567.53160      -0.158248       358.3940       115.5698        -0.6557         5.6619         5.6619        25.9759         0.8585         6.8034         6.8034         6.1905         6.0047      4393.0000
    3567.68400      -0.158988       358.3940       114.0935         0.0439         5.6619         5.6619        25.4611        -9.8638         6.8034         6.8034         6.1884         6.0143      4314.6665
    3567.83640      -0.159627       358.3940       114.0935         0.0439         5.6619         5.6619        31.3452         0.2306         6.8034         6.8034         6.1905         6.0186      4238.0713
    3567.98880      -0.159768       358.3940       115.2864        -0.2083         5.6619         5.6619        34.4343         0.2306         6.8034         6.8034         6.1860         6.0186      4187.4287
    3568.14120      -0.160030       358.3940       113.7877         0.3903         5.6619         5.6619        37.1925        -3.4617         6.8034         6.8034         6.1926         6.0186      4071.3572
    3568.29360      -0.159957       358.3940       115.2495         0.3836         5.6352         5.6352        41.7282         0.7216         6.8034         6.8034         6.2040         5.9862      4032.0002
    3568.44600      -0.159337       356.9830       116.1158        -0.0187         5.6352         5.6352        41.2133         0.5479         6.8299         6.8299         6.2156         5.9862      4305.0713
    3568.59840      -0.158965       358.3940       116.1158        -0.0187         5.6352         5.6352        39.1907         0.7756         6.8299         6.8299         6.2085         5.9862      4347.5713
    3568.75080      -0.158345       358.3940       113.9720         0.2366         5.6352         5.6352        43.2850         0.7756         6.8299         6.8299         6.2093         5.9862      4569.0664
    3568.90320      -0.158488       356.9830       113.5674         0.5193         5.6352         5.6352        43.1011         0.5938         6.8299         6.8299         6.2062         5.9862      4513.1431
    3569.05560      -0.158443       356.9830       111.7361        -0.4073         5.6352         5.6352        42.9295         1.3170         6.8299         6.8299         6.1995         6.0001      4454.7998
    3569.20800      -0.158895       358.3940       113.9153         0.4162         5.6352         5.6352        42.9295         1.0329         6.8299         6.8299         6.2052         6.0186      4404.2856
    3569.36040      -0.160163       356.9830       113.9153         0.4162         5.6352         5.6352        40.1713         1.1156         6.8299         6.8299         6.2197         6.0070      4304.4004
    3569.51280      -0.160507       356.9830       110.4692         0.0531         5.6352         5.6352        33.5027         1.1156         6.8299         6.8299         6.2198         5.9862      4140.9287
    3569.66520      -0.160120       356.9830       108.9114        -0.1494         5.7450         5.7450        31.6639         0.9048         6.8299         6.8299         6.2152         5.9908      4201.7144
    3569.81760      -0.159327       356.9830       112.3822        -0.0347         5.7450         5.7450        28.9180         1.3731         6.8294         6.8294         6.2219         5.9948      4295.5718
    3569.97000      -0.157958       358.3940       111.2653         0.5370         5.7450         5.7450        29.8864         0.3821         6.8294         6.8294         6.2219         6.0024      4596.2002
    3570.12240      -0.158145       358.3940       111.2653         0.5370         5.7450         5.7450        31.1735         0.4321         6.8294         6.8294         6.2219         5.9927      4522.2856
    3570.27480      -0.158948       358.3940       112.7782         0.2926         5.7450         5.7450        30.3154         0.4321         6.8294         6.8294         6.2219         5.9885      4484.1997
    3570.42720      -0.159178       358.3940       112.8021        -0.1467         5.7450         5.7450        29.3961        -0.5552         6.8294         6.8294         6.2219         5.9862      4440.2144
    3570.57960      -0.159105       358.3940       119.5974         1.3249         5.7450         5.7450        28.8812         0.7852         6.8294         6.8294         6.2135         5.9948      4364.3569
    3570.73200      -0.159402       358.3940       113.0741         0.0855         5.7450         5.7450        29.1141         0.4982         6.8294         6.8294         6.2085         6.0047      4285.1333
    3570.88440      -0.159947       358.3940       113.0741         0.0855         5.7450         5.7450        29.2980         0.5198         6.8294         6.8294         6.1884         5.9775      4247.2861
    3571.03680      -0.160442       358.3940       117.5637        -1.8270         5.7815         5.7815        31.7007         0.5198         6.8294         6.8294         6.2017         6.0510      4094.4668
    3571.18920      -0.159862       358.3940       114.6977        -0.1655         5.7815         5.7815        31.7007        -0.1525         6.8183         6.8183         6.2198         6.0510      4052.6431
    3571.34160      -0.158423       358.3940       114.7369         0.4056         5.7815         5.7815        31.7007         0.0958         6.8183         6.8183         6.1972         6.0510      4191.2144
    3571.49400      -0.157678       356.9830       114.6974         0.2738         5.7815         5.7815        31.2839         0.7138         6.8183         6.8183         6.1905         6.0510      4430.7856
    3571.64640      -0.157455       359.8050       114.6974         0.2738         5.7815         5.7815        31.6394         1.5647         6.8183         6.8183         6.1905         6.0510      4592.7334
    3571.79880      -0.158010       358.3940       117.0998         0.3110         5.7815         5.7815        32.1665         1.5647         6.8183         6.8183         6.1905         6.0510      4565.3574
    3571.95120      -0.158888       358.3940       112.9323         1.0663         5.7815         5.7815        35.8073         0.5755         6.8183         6.8183         6.1905         6.0510      4504.7334
    3572.10360      -0.159448       358.3940       114.6886         0.3038         5.7815         5.7815        37.8299         0.4516         6.8183         6.8183         6.1905         6.0510      4464.1431
    3572.25600      -0.159902       358.3940       112.9656         0.2102         5.7378         5.7378        37.3886         0.4252         6.8183         6.8183         6.1947         6.0510      4363.1333
    3572.40840      -0.160435       358.3940       112.9656         0.2089         5.7378         5.7378        38.0751         0.5387         6.7640         6.7640         6.1995         6.0510      4317.5718
    3572.56080      -0.159812       358.3940       115.9410         0.0059         5.7378         5.7378        40.6494         0.5387         6.7640         6.7640         6.2031         6.0467      4222.7144
    3572.71320      -0.159327       358.3940       115.2540         0.4811         5.7378         5.7378        39.4481         2.2330         6.7640         6.7640         6.1972         6.0510      4038.4001
    3572.86560      -0.159517       358.3940       114.2888         0.2839         5.7378         5.7378        40.1836         0.8743         6.7640         6.7640         6.1905         6.0488      4113.5000
    3573.01800      -0.159210       358.3940       113.6433        -1.0003         5.7378         5.7378        40.2571         0.9142         6.7640         6.7640         6.1928         6.0441      4208.8574
    3573.17040      -0.158930       358.3940       113.6433        -1.0003         5.7378         5.7378        38.1977        52.1583         6.7640         6.7640         6.1928         6.0464      4580.6001
    3573.32280      -0.159155       358.3940       115.9237        -1.8031         5.7378         5.7378        33.7846        52.1583         6.7640         6.7640         6.1926         6.0467      4600.6431
