~Version Information Block
VERS .                 2.00:  CWLS LOG ASCII STANDARD - VERSION 2.00
WRAP .                   NO:  One line per depth step
~Well Information Block
#MNEM.UNIT        Data Type   Information
#---------- ----------------  -----------
STRT .M          3470.91000:  START DEPTH
STOP .M          3530.04120:  STOP DEPTH
STEP .M             0.15240:  STEP
NULL .              -999.25:  NULL VALUE
COMP .              Statoil:  COMPANY
WELL .          NO_15/9-F-5:  WELL
FLD  .                Volve:  FIELD
LOC  .                Volve:  LOCATION
CTRY .               Norway:  COUNTRY
STAT .                     :  STATE
CNTY .                     :  COUNTY
SRVC .         Schlumberger:  SERVICE COMPANY
DATE .           11/03/2015:  DATE
API  .                     :  API NUMBER
UWI  .             15/9-F-5:  UNIQUE WELL ID
LATI .     58° 26' 29.66" N:  LATITUDE
LONG .      1° 53' 14.99" E:  LONGITUDE
~Curve Information Block
#MNEM.UNIT         API CODE   Curve Description
#---------- ----------------  -----------------
DEPTH.M                    :  Depth Index
CCLC .V                    :  (PSTP-B)                (1in)                   CCL Computed Amplitude
CVEL .M/SEC                 :  (WLWorkflow)            (1in)                   Cable Velocity
FBEF .UA                   :  (RST-D)                 (6in)                   Far Effective Beam Curre
FCOR .                     :  (RST-D)                 (6in)                   Far Carbon/Oxygen Ratio
FERD .                     :  (RST-D)                 (6in)                   Far IC Mode Capture Opti
FIRD .                     :  (RST-D)                 (6in)                   Far Inelastic Optimizati
GR   .GAPI                 :  (PSTP-B)                (6in)                   Gamma Ray
NCOR .                     :  (RST-D)                 (6in)                   Near Carbon/Oxygen Ratio
NERD .                     :  (RST-D)                 (6in)                   Near IC Mode Capture Opt
NIRD .                     :  (RST-D)                 (6in)                   Near Inelastic Optimizat
RB_PCMS.DEG                  :  (PCMS-A)                (6in)                   Relative Bearing
TENS .LBF                  :  (WLWorkflow)            (1in)                   Cable Tension
WPRE .BAR                  :  (PSTP-B)                (6in)                   Well Pressure
WTEP .DEGC                 :  (PSTP-B)                (6in)                   Well Temperature
~Parameter Information Block
#MNEM.UNIT            Value   Description
#---------- ----------------  -----------
APD  .M                  54:  Elevation of Depth Reference (LMF) Above Permanent Datum
CLAB .              Country:  :County Label
ECF  .M             -999.25:  Elevation of Casing Flange above Permanent Datum
EDF  .M                  54:  Elevation of Drill Floor Above Permanent Datum
EGL  .M                 -91:  Elevation of Ground Level Above Permanent Datum
EKB  .M             -999.25:  Elevation of Kelly Bushing Above Permanent Datum
EPD  .M                   0:  Elevation of Permanent Datum (PDAT) above Mean Sea Level
FL1  .            North Sea:  Field Location Line 1
FL2  .     Norwegian Sector:  Field Location Line 2
LMF  .                   DF:  Logging Measured From
LUL  .                 NOBO:  Logging Unit Location
LUN  .          ONCC-A 3837:  Logging Unit Number
PDAT .                  MSL:  Local Permanent Datum
RIGN .      Maersk Inspirer:  Rig Name
RIGTYP.               Jackup:  Rig Type
SON  .           C2TQ-00038:  Service Order Number
TAPE_NAME.     RST_IC_Pass3___03Nov15_234906.las:  
TOOL_STRING.              UNKNOWN:  
WN   .             15/9-F-5:  WELL NAME
PROJECT.     SLEIPNER_OST@st-vlinapp01:  
SET  .        RSTD_1115_IC3:  
~Other Information Block
# 
~A       DEPTH           CCLC           CVEL           FBEF           FCOR           FERD           FIRD             GR           NCOR           NERD           NIRD        RB_PCMS           TENS           WPRE           WTEP 
    3470.91000      -0.006160  -999.25000000       146.2737       0.095270         6.3428         6.3428       131.1729       0.031870         4.1790         4.1790       352.9724      -999.2500       358.4629        84.6101
    3471.06240      -0.006510    -0.00897917       140.6333       0.031620         6.2035         6.2035       132.5134       0.106370         4.1835         4.1835       352.9160      3992.1641       358.4748        84.6230
    3471.21480      -0.001770    -0.00922300       138.2009       0.166720         6.2351         6.2351       128.4466       0.039830         4.1223         4.1223       352.9328      3929.2151       358.4841        84.6232
    3471.36720      -0.006960    -0.00928350       134.9561       0.066730         6.0404         6.0404       124.3675      -0.014870         4.1458         4.1458       353.0591      4016.2612       358.5000        84.6298
    3471.51960      -0.004830    -0.00908583       135.0633       0.225720         6.0252         6.0252       122.0909       0.062020         4.1737         4.1737       353.2532      3941.8967       358.5102        84.6287
    3471.67200      -0.005720    -0.00909733       134.8953       0.073460         6.1926         6.1926       118.8428       0.098240         4.1909         4.1909       353.2822      3996.6511       358.5181        84.6333
    3471.82440      -0.005910    -0.00891850       132.9615       0.012410         6.2546         6.2546       114.7012       0.037660         4.1928         4.1928       353.4137      4070.5325       358.5333        84.6425
    3471.97680      -0.006330    -0.00915633       129.7229       0.128470         6.3380         6.3380       114.0352      -0.015880         4.1853         4.1853       353.5058      3930.8833       358.5452        84.6582
    3472.12920      -0.006540    -0.00897917       126.1182       0.179480         6.3126         6.3126       114.4220       0.005100         4.1492         4.1492       353.5214      4040.3247       358.5579        84.6568
    3472.28160       0.013260    -0.00922317       123.6473      -0.150340         6.4303         6.4303       110.4016      -0.054410         4.1775         4.1775       353.5045      3966.8101       358.5675        84.6591
    3472.43400      -0.005470    -0.00894683       121.9004       0.144150         6.4998         6.4998       107.3535      -0.128190         4.1390         4.1390       353.7345      3972.8213       358.5773        84.6720
    3472.58640      -0.004940    -0.00910733       118.0186       0.173980         6.4817         6.4817       106.0831      -0.083080         4.1030         4.1030       353.8143      3939.5361       358.5887        84.6800
    3472.73880      -0.005260    -0.00913233       117.5614       0.137450         6.4868         6.4868       105.4824       0.111370         4.0598         4.0598       353.8195      3881.8345       358.5971        84.6808
    3472.89120      -0.044970    -0.00900883       116.7266       0.228730         6.5588         6.5588       103.4713       0.101020         4.1107         4.1107       353.9889      3955.5112       358.6125        84.6909
    3473.04360      -0.006950    -0.00905350       117.7146       0.063260         6.5224         6.5224       104.5735       0.007020         4.1693         4.1693       354.0385      3907.2830       358.6244        84.6983
    3473.19600      -0.007510    -0.00894817       117.7212      -0.341590         6.3911         6.3911       104.9879       0.050280         4.1348         4.1348       354.1235      3990.9771       358.6324        84.7037
    3473.34840      -0.007630    -0.00882850       118.1641      -0.015420         6.4352         6.4352       105.1749       0.109680         4.1595         4.1595       354.0997      4051.9023       358.6464        84.7042
    3473.50080       0.018010    -0.00933650       118.4716       0.115460         6.3696         6.3696       103.7763      -0.057990         4.1734         4.1734       354.1273      3969.8381       358.6560        84.7070
    3473.65320      -0.050610    -0.00874917       118.5552      -0.067070         6.3632         6.3632       102.6154      -0.012800         4.2017         4.2017       353.9839      4002.2444       358.6696        84.7115
    3473.80560      -0.007220    -0.00877217       118.5592       0.008100         6.5208         6.5208        98.1713       0.061370         4.1758         4.1758       353.7896      4022.6975       358.6815        84.7134
    3473.95800       0.008500    -0.00916250       120.3525      -0.027060         6.5071         6.5071        97.6473       0.005210         4.1634         4.1634       353.9940      3886.1194       358.6896        84.7207
    3474.11040      -0.006070    -0.00919283       120.7237       0.125890         6.4785         6.4785        95.9907       0.026080         4.1330         4.1330       353.7799      3959.3328       358.7011        84.7271
    3474.26280      -0.004790    -0.00897900       121.0763      -0.007310         6.4265         6.4265        93.2980      -0.068560         4.1592         4.1592       353.6707      4055.5105       358.7138        84.7401
    3474.41520       0.021710    -0.00932400       121.0290       0.080720         6.5240         6.5240        94.7713       0.058480         4.1496         4.1496       353.8197      3872.1946       358.7239        84.7432
    3474.56760      -0.002020    -0.00901133       121.1806       0.179260         6.3965         6.3965        99.3907       0.066870         4.1521         4.1521       353.8957      3958.9753       358.7355        84.7479
    3474.72000      -0.002290    -0.00879967       122.1173       0.195890         6.4087         6.4087        99.3504      -0.029210         4.1667         4.1667       353.9720      3936.5237       358.7475        84.7501
    3474.87240      -0.002090    -0.00874600       122.6999      -0.030140         6.4281         6.4281       101.1718       0.052420         4.1996         4.1996       353.9215      3935.3638       358.7579        84.7543
    3475.02480       0.036150    -0.00904150       123.1172       0.080180         6.3793         6.3793       105.2462      -0.003920         4.1816         4.1816       353.8699      3995.3337       358.7713        84.7550
    3475.17720       0.041730    -0.00907200       123.1754       0.159570         6.2201         6.2201       104.3239       0.048930         4.1852         4.1852       353.7060      4000.3335       358.7814        84.7636
    3475.32960      -0.029940    -0.00910233       122.6469       0.039680         6.2869         6.2869       102.8109       0.094240         4.1870         4.1870       353.7999      3903.4521       358.7938        84.7691
    3475.48200       0.019500    -0.00907183       122.9270       0.075880         6.2311         6.2311       104.2162       0.058790         4.2190         4.2190       353.9261      4039.7627       358.8055        84.7673
    3475.63440       0.005450    -0.00904183       123.5365       0.143120         6.2628         6.2628       105.6772       0.029210         4.2832         4.2832       354.0109      4005.8098       358.8118        84.7717
    3475.78680       0.000740    -0.00915600       124.0332       0.040370         6.1834         6.1834       105.4554      -0.036900         4.2620         4.2620       353.8274      3959.5576       358.8303        84.7768
    3475.93920      -0.002230    -0.00898117       122.9001       0.091630         6.2543         6.2543       106.1289       0.085120         4.3159         4.3159       353.5153      3991.2378       358.8398        84.7865
    3476.09160      -0.004020    -0.00923117       122.6448       0.089100         6.2206         6.2206       106.5271       0.080320         4.3593         4.3593       353.3294      3870.7559       358.8496        84.7893
    3476.24400       0.006700    -0.00918567       121.9129       0.051490         6.1732         6.1732       104.7952       0.055090         4.3202         4.3202       353.2512      3987.0225       358.8604        84.7941
