~Version Information Block
VERS .                 2.00:  CWLS LOG ASCII STANDARD - VERSION 2.00
WRAP .                   NO:  One line per depth step
~Well Information Block
#MNEM.UNIT        Data Type   Information
#---------- ----------------  -----------
STRT .M          3451.70760:  START DEPTH
STOP .M          3790.03560:  STOP DEPTH
STEP .M             0.15240:  STEP
NULL .              -999.25:  NULL VALUE
COMP .              Statoil:  COMPANY
WELL .        NO_15/9-F-1_C:  WELL
FLD  .                Volve:  FIELD
LOC  .            North Sea:  LOCATION
CTRY .               Norway:  COUNTRY
STAT .                     :  STATE
CNTY .                     :  COUNTY
SRVC .         Schlumberger:  SERVICE COMPANY
DATE .          27-Nov-2014:  DATE
API  .                     :  API NUMBER
UWI  .           15/9-F-1 C:  UNIQUE WELL ID
LATI .     58° 26' 29.91" N:  LATITUDE
LONG .      1° 53' 14.71" E:  LONGITUDE
~Curve Information Block
#MNEM.UNIT         API CODE   Curve Description
#---------- ----------------  -----------------
DEPTH.M                    :  DEPTH (BOREHOLE)
CVEL .M/SEC                 :  Cable Velocity
DFRB .DEG                  :  Calibrated Relative Bearing
FBEF .UA                   :  RST Far Effective Beam Current
FCOR .                     :  RST Far Carbon/Oxygen Ratio
FERD .                     :  RST Far IC Mode Capture Optimization
FIRD .                     :  RST Far Inelastic Optimization Resolution
GR   .GAPI                 :  Gamma Ray
NCOR .                     :  RST Near Carbon/Oxygen Ratio
NERD .                     :  RST Near IC Mode Capture Optimization
NIRD .                     :  RST Near Inelastic Optimization Resolution
PFC1 .IN                   :  PFCS CaliperX
PFC2 .IN                   :  PFCS CaliperY
TENS .LBF                  :  Cable Tension
~Parameter Information Block
#MNEM.UNIT            Value   Description
#---------- ----------------  -----------
APD  .M           54.900002:  Elevation of Depth Reference (LMF) above Permanent Datum
EPD  .C3                  0:  Elevation of Permanent Datum above Mean Sea Level
LMF  .                   KB:  Logging Measured From (Name of Logging Elevation Reference)
PDAT .                  MSL:  Permanent Datum
RUN  .                Run 1:  RUN NUMBER
TAPE_NAME.     Statoil_Volve_15-9-F-1 C_PLT-RST_28Nov14_ConCu_R1L18Up_IC2.las:  
TOOL_STRING.              UNKNOWN:  
WN   .           15/9-F-1 C:  WELL
PROJECT.     SLEIPNER_OST@st-vlinapp01:  
SET  .        RSTD_1114_IC2:  
~Other Information Block
# 
~A       DEPTH           CVEL           DFRB           FBEF           FCOR           FERD           FIRD             GR           NCOR           NERD           NIRD           PFC1           PFC2           TENS 
# ...
    3582.46680     -0.1676900       356.9830       106.2279         0.2051         5.1167         5.1167        18.9678         0.7924         6.7010         6.7010         6.2466         6.0510      4446.7144
    3582.61920     -0.1675017       356.9830       108.8906        -0.5342         5.1167         5.1167        16.9310         0.2185         6.7010         6.7010         6.2557         6.0510      4355.6924
    3582.77160     -0.1684400       356.9830       109.3402         0.6466         5.1167         5.1167        16.7471         0.0229         6.7010         6.7010         6.2667         6.0510      4278.7861
    3582.92400     -0.1694667       356.9830       109.3402         0.6466         5.1167         5.1167        15.9833         0.5138         6.7010         6.7010         6.2354         6.0510      4226.0771
    3583.07640     -0.1689517       356.9830       112.3890         0.4396         5.1167         5.1167        17.0724         0.5138         6.7010         6.7010         6.1636         5.9885      4127.4287
    3583.22880     -0.1680400       356.9830       110.2215         0.0272         5.2193         5.2193        17.0724         1.5897         6.7010         6.7010         6.0964         5.9413      4337.9229
    3583.38120     -0.1668433       356.9830       108.0093         0.0613         5.2193         5.2193        18.7273         0.9739         6.7744         6.7744         6.0964         5.9329      4451.5005
    3583.53360     -0.1669550       356.9830       108.0093         0.0613         5.2193         5.2193        18.8263         0.3013         6.7744         6.7744         6.0964         5.9422      4595.7861
    3583.68600     -0.1670033       355.5720       110.0275        -0.0819         5.2193         5.2193        19.5901         0.3013         6.7744         6.7744         6.0964         5.9399      4576.0000
    3583.83840     -0.1670583       355.5720       113.0363        -0.5326         5.2193         5.2193        20.5095         0.4593         6.7744         6.7744         6.0964         5.9388      4539.2144
    3583.99080     -0.1674150       355.5720       111.3437         0.4090         5.2193         5.2193        20.6085         0.7437         6.7744         6.7744         6.0964         5.9399      4407.4287
    3584.14320     -0.1672017       355.5720       111.3437         0.4090         5.2193         5.2193        21.1602         0.5802         6.7744         6.7744         6.2085         6.0232      4417.4614
    3584.29560     -0.1675350       355.5720       110.6634         0.4318         5.2193         5.2193        22.9000         0.5802         6.7744         6.7744         6.2340         6.0410      4261.0000
    3584.44800     -0.1685283       355.5720       112.4957        -0.0994         5.2193         5.2193        23.7203         0.5839         6.7744         6.7744         6.2667         6.0603      4219.9287
    3584.60040     -0.1689450       355.5720       111.4395        -0.5367         5.2669         5.2669        25.0075         0.4613         6.7744         6.7744         6.2847         6.0533      4079.8462
    3584.75280     -0.1686733       355.5720       114.4407         0.2380         5.2669         5.2669        25.2762         0.8132         6.7643         6.7643         6.2847         6.0510      4127.0000
    3584.90520     -0.1678633       356.9830       114.4407         0.2380         5.2669         5.2669        24.9085         0.1677         6.7643         6.7643         6.2847         6.0510      4417.9233
    3585.05760     -0.1670367       356.9830       113.0422         0.5185         5.2669         5.2669        24.1730         0.1677         6.7643         6.7643         6.2847         6.0510      4631.0000
    3585.21000     -0.1667650       356.9830       111.2509         0.1372         5.2669         5.2669        26.1532         0.4894         6.7643         6.7643         6.2847         6.0510      4637.6431
    3585.36240     -0.1680583       356.9830       111.9830         0.2815         5.2669         5.2669        25.0499         0.6146         6.7643         6.7643         6.2847         6.0510      4607.0000
    3585.51480     -0.1688550       356.9830       111.9830         0.2815         5.2669         5.2669        25.4177         0.8275         6.7643         6.7643         6.2824         6.0510      4507.9287
    3585.66720     -0.1688700       356.9830       108.8802         0.2468         5.2669         5.2669        27.7940         0.8275         6.7643         6.7643         6.2798         6.0510      4447.0000
    3585.81960     -0.1688600       356.9830       112.0140         0.2273         5.2669         5.2669        26.6907         0.8430         6.7643         6.7643         6.2712         6.0510      4371.3076
    3585.97200     -0.1689800       356.9830       113.2079         0.9998         5.1680         5.1680        26.4644         0.5560         6.7643         6.7643         6.2623         6.0510      4191.7144
    3586.12440     -0.1686750       356.9830       113.2079         1.0004         5.1680         5.1680        26.0966         0.7437         6.8128         6.8128         6.2774         6.0510      4182.0767
    3586.27680     -0.1676900       355.5720       110.8027        -0.3450         5.1680         5.1680        26.4644         0.7437         6.8128         6.8128         6.2690         6.0510      4304.7144
    3586.42920     -0.1666700       356.9830       112.6113         0.5853         5.1680         5.1680        25.2762         0.6483         6.8128         6.8128         6.2645         6.0510      4529.9287
    3586.58160     -0.1666717       358.3940       111.8938         0.8656         5.1680         5.1680        28.4022         0.5165         6.8128         6.8128         6.2847         6.0510      4592.0771
    3586.73400     -0.1666767       358.3940       111.8938         0.8656         5.1680         5.1680        28.5860         0.4688         6.8128         6.8128         6.2757         6.0510      4556.1431
    3586.88640     -0.1671417       358.3940       113.4915        -1.8319         5.1680         5.1680        29.3357         0.4688         6.8128         6.8128         6.2847         6.0510      4455.5005
    3587.03880     -0.1676850       358.3940       110.4103         0.1647         5.1680         5.1680        30.6229         0.6133         6.8128         6.8128         6.2623         6.0510      4432.2310
    3587.19120     -0.1687767       358.3940       111.5986         0.5993         5.1680         5.1680        31.4574         0.9835         6.8128         6.8128         6.2485         6.0510      4315.0000
    3587.34360     -0.1703233       358.3940       111.5986         0.5993         5.1680         5.1680        31.0896         0.6755         6.8128         6.8128         6.2398         6.0533      4237.0718
    3587.49600     -0.1692650       358.3940       113.1256        -0.4081         5.1352         5.1352        30.5380         0.6755         6.8128         6.8128         6.2331         6.0510      4099.5386
    3587.64840     -0.1683067       358.3940       111.6069         0.1299         5.1352         5.1352        30.1561         0.6543         6.7898         6.7898         6.2241         6.0510      4169.7695
    3587.80080     -0.1667033       358.3940       109.4035        -0.1118         5.1352         5.1352        29.6045         0.5421         6.7898         6.7898         6.2376         6.0510      4439.0000
    3587.95320     -0.1654117       358.3940       111.0957         0.2896         5.1352         5.1352        28.3173         0.3545         6.7898         6.7898         6.2291         6.0510      4598.1431
    3588.10560     -0.1659983       358.3940       111.0957         0.2896         5.1352         5.1352        27.6384         0.8625         6.7898         6.7898         6.2398         6.0510      4562.7144
    3588.25800     -0.1671017       358.3940       113.0950        -0.4198         5.1352         5.1352        29.2933         0.8625         6.7898         6.7898         6.2510         6.0510      4527.8569
