~Version Information Block
VERS .                 2.00:  CWLS LOG ASCII STANDARD - VERSION 2.00
WRAP .                   NO:  One line per depth step
~Well Information Block
#MNEM.UNIT        Data Type   Information
#---------- ----------------  -----------
STRT .M          3230.11800:  START DEPTH
STOP .M          3389.98560:  STOP DEPTH
STEP .M             0.15240:  STEP
NULL .              -999.25:  NULL VALUE
COMP .              Statoil:  COMPANY
WELL .          NO_15/9-F-4:  WELL
FLD  .                VOLVE:  FIELD
LOC  .            North Sea:  LOCATION
CTRY .                     :  COUNTRY
STAT .                     :  STATE
CNTY .                     :  COUNTY
SRVC .         Schlumberger:  SERVICE COMPANY
DATE .          13-Sep-2012:  DATE
API  .                     :  API NUMBER
UWI  .             15/9-F-4:  UNIQUE WELL ID
~Curve Information Block
#MNEM.UNIT         API CODE   Curve Description
#---------- ----------------  -----------------
DEPTH.M                    :  DEPTH (BOREHOLE)
CCLC .V                    :  CCL
CCLD .V                    :  CCL Discriminated Amplitude
CRRA .                     :  Near-Far Count Rate Ratio
CS   .F/MN                 :  Cable Speed
CVEL .M/MIN                 :  Cable Velocity
FBEF .UA                   :  RST Far Effective Beam Current
FCOR .                     :  RST Far Carbon/Oxygen Ratio
FERD .                     :  RST Far IC Mode Capture Optimization Resolution Degradation Factor
FIRD .                     :  RST Far Inelastic Optimization Resolution Degradation Factor
GR   .GAPI                 :  Gamma Ray
NCOR .                     :  RST Near Carbon/Oxygen Ratio
NERD .                     :  RST Near IC Mode Capture Optimization Resolution Degradation Factor
NIRD .                     :  RST Near Inelastic Optimization Resolution Degradation Factor
RB_PCMS.DEG                  :  Relative Bearing
TENS .LBF                  :  Cable Tension
WTEP .DEGC                 :  Well Temperature
WTPE .MS                   :  Well Temperature Period
~Parameter Information Block
#MNEM.UNIT            Value   Description
#---------- ----------------  -----------
APD  .M                  54:  Elevation of Depth Reference (LMF) above Permanent Datum
RUN  .                    1:  RUN NUMBER
PROJECT.     SLEIPNER_OST@st-vlinapp01:  
SET  .        RSTD_0912_IC3:  
~Other Information Block
# 
~A       DEPTH           CCLC           CCLD           CRRA             CS           CVEL           FBEF           FCOR           FERD           FIRD             GR           NCOR           NERD           NIRD        RB_PCMS           TENS           WTEP           WTPE 
# ...
    3385.56600        -0.0013         0.0000         2.8965         1.6788       -0.51170       113.3041        -0.1596         4.8337         4.8337        38.6117       0.021000         1.9603         1.9603       355.5808      2335.8030        78.8431         3.8725
    3385.71840         0.0000         0.0000         2.8690         1.6719       -0.50960       114.4435        -0.1112         4.7072         4.7072        37.2000       0.006600         2.0166         2.0166       355.6346      2344.4519        78.8057         3.8722
    3385.87080         0.0035         0.0000         2.9072         1.6768       -0.51110       113.3887         0.0024         4.6526         4.6526        35.8533       0.023600         1.9999         1.9999       355.7216      2321.3210        78.7639         3.8718
    3386.02320         0.0081         0.0000         2.9009         1.6637       -0.50710       113.1844        -0.0530         4.7815         4.7815        34.7714      -0.113000         1.9732         1.9732       355.7554      2340.2039        78.6768         3.8711
    3386.17560         0.1406         0.1406         2.9457         1.6814       -0.51250       116.8147        -0.1298         4.6601         4.6601        35.4849       0.036700         1.9561         1.9561       355.6693      2333.1125        78.6457         3.8708
    3386.32800         0.0693         0.0693         3.0988         1.6749       -0.51050       117.5401         0.0266         4.6701         4.6701        35.9699       0.014800         1.9486         1.9486       355.5803      2331.9851        78.5771         3.8702
    3386.48040        -1.7343        -1.7343         3.0596         1.6647       -0.50740       114.1876        -0.1213         4.7441         4.7441        37.9898       0.020000         1.9254         1.9254       355.5116      2334.2410        78.4985         3.8695
    3386.63280         0.0782         0.0000         2.8930         1.6686       -0.50860       114.8334         0.0612         4.6816         4.6816        39.4663       0.007000         1.9129         1.9129       355.3036      2334.3521        78.4444         3.8690
    3386.78520        -0.0124         0.0000         2.9009         1.6555       -0.50460       114.6534        -0.0798         4.6391         4.6391        41.8246       0.013500         1.9348         1.9348       355.2179      2338.6863        78.3648         3.8683
    3386.93760        -0.0097         0.0000         2.8924         1.6677       -0.50830       115.2219         0.0583         4.5175         4.5175        42.5731      -0.078400         1.9362         1.9362       355.2852      2333.5852        78.2579         3.8674
    3387.09000         0.0196         0.0000         2.8988         1.6824       -0.51280       116.3998        -0.0029         4.6279         4.6279        43.4422       0.017800         1.9179         1.9179       355.3954      2329.0076        78.1273         3.8662
    3387.24240        -0.0102         0.0000         2.9221         1.6778       -0.51140       114.9323         0.0458         4.6209         4.6209        44.0793      -0.039900         1.9282         1.9282       355.4821      2326.4851        78.0607         3.8656
    3387.39480        -0.0066         0.0000         2.9021         1.6696       -0.50890       114.3788         0.1015         4.5774         4.5774        45.6443       0.046200         1.8957         1.8957       355.3936      2351.0669        77.9048         3.8642
    3387.54720        -0.0603         0.0000         2.9054         1.6781       -0.51150       112.9010        -0.0305         4.5832         4.5832        47.4229       0.048500         1.9554         1.9554       355.4240      2330.2751        77.7732         3.8631
    3387.69960        -0.0063         0.0000         2.8884         1.6693       -0.50880       111.6690         0.0213         4.6784         4.6784        50.5001       0.038100         1.9625         1.9625       355.3965      2328.4387        77.6605         3.8621
    3387.85200        -0.0073         0.0000         2.8654         1.6854       -0.51370       111.2741        -0.0468         4.6926         4.6926        60.4646      -0.046600         1.9717         1.9717       355.3511      2326.9177        77.4992         3.8607
    3388.00440        -0.0083         0.0000         2.8549         1.6896       -0.51500       112.1631         0.0072         4.5874         4.5874        75.7108       0.033800         1.9861         1.9861       355.3334      2315.6890        77.3812         3.8596
    3388.15680        -0.0069         0.0000         2.8601         1.6686       -0.50860       115.0059        -0.0436         4.4756         4.4756        93.1931      -0.003000         1.9635         1.9635       355.3212      2328.4031        77.1776         3.8578
    3388.30920        -0.0060         0.0000         2.9233         1.6791       -0.51180       117.6508         0.0406         4.5782         4.5782       111.5156      -0.029100         1.9746         1.9746       355.3162      2330.7612        76.8379         3.8548
    3388.46160        -0.0101         0.0000         2.9776         1.6434       -0.50090       118.2918        -0.0599         4.5818         4.5818       127.4123       0.016500         2.0049         2.0049       355.3222      2305.5710        76.5904         3.8526
    3388.61400        -0.0061         0.0000         2.9967         1.6453       -0.50150       119.1658         0.1197         4.5082         4.5082       134.7549      -0.017400         1.9947         1.9947       355.3454      2358.5237        76.4562         3.8514
    3388.76640        -0.0127         0.0000         3.0212         1.6512       -0.50330       119.2230        -0.0102         4.6146         4.6146       132.1405       0.049000         1.9856         1.9856       355.3032      2325.8201        76.1323         3.8486
    3388.91880        -0.0178         0.0000         3.0202         1.6519       -0.50350       118.7216         0.1582         4.6166         4.6166       122.6017       0.013100         2.0347         2.0347       355.3149      2335.3774        75.8693         3.8463
    3389.07120        -0.0115         0.0000         3.0029         1.6444       -0.50120       118.4147         0.0030         4.6554         4.6554       109.0043       0.057400         2.0410         2.0410       355.3485      2339.7290        75.5617         3.8435
    3389.22360        -0.0050         0.0000         2.9904         1.6529       -0.50380       117.6506         0.0086         4.6555         4.6555        93.9936      -0.038000         2.1003         2.1003       355.2399      2331.9744        75.3044         3.8413
    3389.37600        -0.0070         0.0000         2.9706         1.6749       -0.51050       117.0921        -0.1857         4.7093         4.7093        79.8427      -0.021300         2.0661         2.0661       355.2752      2334.6045        74.8796         3.8375
    3389.52840        -0.0020         0.0000         2.9613         1.6578       -0.50530       116.8153         0.0505         4.5482         4.5482        69.1436       0.001300         2.0569         2.0569       355.4332      2336.1370        74.5304         3.8344
    3389.68080        -0.0007         0.0000         2.9499         1.6785       -0.51160       115.9408         0.0486         4.4481         4.4481        61.0073      -0.019400         2.1035         2.1035       355.5036      2335.8630        74.1547         3.8311
    3389.83320        -0.0031         0.0000         2.9327         1.6644       -0.50730       115.1624        -0.0549         4.3997         4.3997        54.3741       0.049100         2.1109         2.1109       355.6647      2330.9407        73.8040         3.8280
    3389.98560        -0.0034         0.0000         2.9273         1.6709       -0.50930       112.2730        -0.0849         4.4025         4.4025        49.8573      -0.052600         2.1325         2.1325       355.7110      2329.4016        73.3917         3.8243
