~Version Information Block
VERS .                 2.00:  CWLS LOG ASCII STANDARD - VERSION 2.00
WRAP .                  YES:  Multiple lines per depth step
~Well Information Block
#MNEM.UNIT        Data Type   Information
#---------- ----------------  -----------
STRT .M          3438.44880:  START DEPTH
STOP .M          3636.26400:  STOP DEPTH
STEP .M             0.15240:  STEP
NULL .              -999.25:  NULL VALUE
COMP .              Statoil:  COMPANY
WELL .          NO_15/9-F-5:  WELL
FLD  .                Volve:  FIELD
LOC  .                Volve:  LOCATION
CTRY .               Norway:  COUNTRY
STAT .                     :  STATE
CNTY .                     :  COUNTY
SRVC .         Schlumberger:  SERVICE COMPANY
DATE .           11/03/2015:  DATE
API  .                     :  API NUMBER
UWI  .             15/9-F-5:  UNIQUE WELL ID
LATI .     58° 26' 29.66" N:  LATITUDE
LONG .      1° 53' 14.99" E:  LONGITUDE
~Curve Information Block
#MNEM.UNIT         API CODE   Curve Description
#---------- ----------------  -----------------
DEPTH.M                    :  Depth Index
BSAL .PPM                  :  (RST-D)                 (6in)                   Borehole Salinity
CCLC .V                    :  (PSTP-B)                (1in)                   CCL Computed Amplitude
CIRF .                     :  (RST-D)                 (6in)                   Capture to Inelastic Rat
CIRN .                     :  (RST-D)                 (6in)                   Capture to Inelastic Rat
CVEL .M/SEC                 :  (WLWorkflow)            (1in)                   Cable Velocity
DSIG .CU                   :  (RST-D)                 (6in)                   Sigma Difference
FBEF .UA                   :  (RST-D)                 (6in)                   Far Effective Beam Curre
GR   .GAPI                 :  (PSTP-B)                (6in)                   Gamma Ray
IRAT .                     :  (RST-D)                 (6in)                   Inelastic Ratio
RB_PCMS.DEG                  :  (PCMS-A)                (6in)                   Relative Bearing
RSCF .                     :  (RST-D)                 (6in)                   Far Detector Effective U
RSCN .                     :  (RST-D)                 (6in)                   Near Detector Effective
SFFA .CU                   :  (RST-D)                 (6in)                   Sigma Formation Far Appa
SIBF .CU                   :  (RST-D)                 (6in)                   Sigma Borehole Fluid
SIGM .CU                   :  (RST-D)                 (6in)                   Formation Sigma (Neutron
TENS .LBF                  :  (WLWorkflow)            (1in)                   Cable Tension
TPHI .V/V                  :  (RST-D)                 (6in)                   Thermal Decay Porosity
WPRE .BAR                  :  (PSTP-B)                (6in)                   Well Pressure
WTEP .DEGC                 :  (PSTP-B)                (6in)                   Well Temperature
~Parameter Information Block
#MNEM.UNIT            Value   Description
#---------- ----------------  -----------
APD  .M                  54:  Elevation of Depth Reference (LMF) Above Permanent Datum
CLAB .              Country:  :County Label
ECF  .M             -999.25:  Elevation of Casing Flange above Permanent Datum
EDF  .M                  54:  Elevation of Drill Floor Above Permanent Datum
EGL  .M                 -91:  Elevation of Ground Level Above Permanent Datum
EKB  .M             -999.25:  Elevation of Kelly Bushing Above Permanent Datum
EPD  .M                   0:  Elevation of Permanent Datum (PDAT) above Mean Sea Level
FL1  .            North Sea:  Field Location Line 1
FL2  .     Norwegian Sector:  Field Location Line 2
LMF  .                   DF:  Logging Measured From
LUL  .                 NOBO:  Logging Unit Location
LUN  .          ONCC-A 3837:  Logging Unit Number
PDAT .                  MSL:  Local Permanent Datum
RIGN .      Maersk Inspirer:  Rig Name
RIGTYP.               Jackup:  Rig Type
SON  .           C2TQ-00038:  Service Order Number
TAPE_NAME.     RST_SIGMA__03Nov15_171237.las:  
TOOL_STRING.              UNKNOWN:  
WN   .             15/9-F-5:  WELL NAME
PROJECT.     SLEIPNER_OST@st-vlinapp01:  
SET  .       RSTD_1115_SIG1:  
~Other Information Block
~Ascii Log Data
# ...
    3467.25240 
    52114.3672        -0.0203         0.9449       0.447180     -0.0787498 
        1.6397       106.4555        36.0728       0.308400       354.7283 
        3.1328         4.6168        33.0056        40.5393        30.5125 
     3930.7507       0.376970       360.1945        83.5714
    3467.40480 
    52215.7773         0.0033         0.9704       0.449720     -0.0795060 
        1.8440       109.9199        36.0402       0.303920       354.6583 
        3.1185         4.7330        33.7373        40.5762        30.5224 
     3920.4004       0.390350       360.2011        83.5773
    3467.55720 
    52377.5781         0.0080         0.9999       0.427410     -0.0792480 
        1.8906       108.7052        37.9931       0.303660       354.4105 
        3.2058         4.3676        31.2809        40.6351        29.8930 
     3908.4001       0.392310       360.2158        83.5768
    3467.70960 
    52306.9609        -0.0027         1.0013       0.450060     -0.0792560 
        1.9627       106.9761        39.1856       0.306340       354.2666 
        3.2311         4.6557        31.1782        40.6094        29.6479 
     3936.8003       0.388670       360.2202        83.5809
    3467.86200 
    52095.4102        -0.0405         1.0195       0.456090     -0.0792480 
        2.0584       109.3498        43.2690       0.311370       354.1381 
        3.2142         4.7330        33.0540        40.5323        30.5610 
     3908.6003       0.380920       360.2349        83.5806
    3468.01440 
    52402.9805        -0.0765         0.9422       0.429390     -0.0790058 
        2.3508       107.4705        45.0443       0.310930       354.0177 
        3.0327         4.3548        34.0621        40.6443        31.4613 
     3898.0005       0.373450       360.2448        83.5816
    3468.16680 
    52833.2422        -0.0466         0.9195       0.415900     -0.0782360 
        2.7751       110.2936        47.7074       0.311900       354.2632 
        2.8015         3.9765        33.9184        40.8010        32.1855 
     3952.1997       0.365760       360.2533        83.5858
    3468.31920 
    52924.0195         0.0413         0.9545       0.405740     -0.0792480 
        3.3424       112.2776        47.0860       0.311320       354.2566 
        2.9873         4.2010        35.2659        40.8341        32.3953 
     3946.9998       0.360830       360.2619        83.5885
    3468.47160 
    53044.7500        -0.0414         0.9176       0.410690     -0.0790177 
        2.9979       108.0495        48.1157       0.313780       354.0330 
        2.9189         4.1950        34.6994        40.8781        32.3417 
     3933.6013       0.365890       360.2747        83.5943
    3468.62400 
    53141.8125         0.0640         0.9484       0.439970     -0.0792322 
        2.6905       105.5311        46.8730       0.312530       354.0266 
        3.1205         4.4916        33.7274        40.9135        32.1355 
     4006.2009       0.376810       360.2851        83.5978
    3468.77640 
    53731.9922        -0.0011         0.9095       0.420030     -0.0796975 
        2.7414       108.9813        46.8523       0.299310       354.1003 
        2.9412         4.3291        34.6176        41.1287        32.6802 
     3910.0007       0.389640       360.2934        83.6084
    3468.92880 
    54244.3633         0.0298         0.8853       0.374950     -0.0787440 
        2.4520       118.0269        47.6480       0.283990       354.2264 
        2.7401         4.1829        36.2981        41.3156        34.3390 
     3958.1997       0.399150       360.3043        83.6214
    3469.08120 
    53771.9297         0.2951         0.7200       0.331470     -0.0774738 
        1.8921       113.9350        49.6897       0.280260       354.1302 
        2.3276         3.7531        38.6602        41.1432        36.1626 
     4016.0005       0.408690       360.3157        83.6323
    3469.23360 
    53972.4688        -0.0287         0.6590       0.369450     -0.0774778 
        1.8482       112.2105        52.9505       0.288610       354.1405 
        2.0346         3.8254        40.0305        41.2164        37.5566 
     3889.1992       0.415810       360.3243        83.6309
    3469.38600 
    54325.5898        -0.0149         0.7171       0.392770     -0.0774700 
        1.4748       113.8570        56.2349       0.297680       354.1531 
        2.1992         4.0990        40.4485        41.3452        37.7168 
     3970.8003       0.420300       360.3360        83.6337
    3469.53840 
    53523.6289         0.0030         0.7171       0.393030     -0.0774778 
        1.3902       111.1155        58.6524       0.299750       354.0331 
        2.1910         3.8345        39.1025        41.0527        37.5832 
     3977.8010       0.422490       360.3451        83.6390
    3469.69080 
    53552.6328         0.0082         0.7093       0.377620     -0.0774700 
        0.9901       112.7235        58.2295       0.296890       353.9383 
        2.2264         3.9571        39.5902        41.0632        38.5085 
     3927.0007       0.416810       360.3565        83.6504
    3469.84320 
    53205.0273         0.0024         0.6667       0.379800     -0.0772198 
        0.6142       116.6387        56.8092       0.297950       353.7868 
        1.9311         3.7297        43.1835        40.9365        38.7633 
     3937.4004       0.418690       360.3661        83.6653
    3469.99560 
    53214.7305        -0.0045         0.6806       0.387440     -0.0774700 
        0.5292       111.7647        54.3444       0.292370       354.0201 
        2.0317         3.7083        39.8422        40.9401        39.8316 
     4014.8000       0.413950       360.3750        83.6678
    3470.14800 
    52958.1289        -0.0123         0.6262       0.367460     -0.0769735 
        1.2019       113.1703        49.2845       0.293270       354.0290 
        1.9217         3.8921        42.8221        40.8465        39.6687 
     3981.6001       0.416240       360.3851        83.6660
    3470.30040 
    52323.6016         0.1034         0.6620       0.367930     -0.0764148 
        1.5127       114.2981        46.4439       0.292700       353.9582 
        2.0084         3.7680        42.7115        40.6154        41.2934 
     3904.3333       0.403270       360.3970        83.6668
    3470.45280 
    51565.9727         0.0009         0.6580       0.367300     -0.0756958 
        1.4352       108.5640        45.6273       0.297420       353.9173 
        2.0598         3.6180        44.7004        40.3397        40.8585 
     3931.2002       0.402400       360.4062        83.6761
    3470.60520 
    50547.3906         0.0097         0.6628       0.350410     -0.0772160 
        1.6289       108.0210        44.3845       0.300390       353.8090 
        2.1239         3.5853        41.4773        39.9694        41.0109 
     3971.0005       0.399010       360.4175        83.6840
    3470.75760 
    49722.6797         0.0379         0.6507       0.364460     -0.0764578 
        1.9542       107.8874        43.3311       0.296860       353.6085 
        2.0541         3.7381        43.1544        39.6699        39.6137 
     3901.7998       0.408860       360.4272        83.6838
    3470.91000 
    48798.5977         0.0507         0.6238       0.356630     -0.0769620 
        2.1695       111.8133        43.2423       0.293280       353.7322 
        1.9364         3.7053        40.4962        39.3346        39.9947 
     3888.2012       0.408070       360.4371        83.6855
    3471.06240 
    48396.2422        -0.0013         0.6681       0.371960     -0.0762075 
        2.4461       114.9869        42.9760       0.289020       353.9518 
        2.0684         4.0248        42.6006        39.1888        39.0264 
     3975.8000       0.408190       360.4472        83.6871
    3471.21480 
    48212.8398        -0.0290         0.7099       0.372160     -0.0764578 
        3.0016       117.0485        41.9995       0.291270       353.9747 
        2.1851         4.0709        40.2337        39.1223        38.1634 
     3925.0000       0.396950       360.4566        83.6917
