~Version Information Block
VERS .                 2.00:  CWLS LOG ASCII STANDARD - VERSION 2.00
WRAP .                   NO:  One line per depth step
~Well Information Block
#MNEM.UNIT        Data Type   Information
#---------- ----------------  -----------
STRT .M          3230.11800:  START DEPTH
STOP .M          3389.98560:  STOP DEPTH
STEP .M             0.15240:  STEP
NULL .              -999.25:  NULL VALUE
COMP .              Statoil:  COMPANY
WELL .          NO_15/9-F-4:  WELL
FLD  .                VOLVE:  FIELD
LOC  .            North Sea:  LOCATION
CTRY .                     :  COUNTRY
STAT .                     :  STATE
CNTY .                     :  COUNTY
SRVC .         Schlumberger:  SERVICE COMPANY
DATE .          13-Sep-2012:  DATE
API  .                     :  API NUMBER
UWI  .             15/9-F-4:  UNIQUE WELL ID
~Curve Information Block
#MNEM.UNIT         API CODE   Curve Description
#---------- ----------------  -----------------
DEPTH.M                    :  DEPTH (BOREHOLE)
CCLC .V                    :  CCL
CCLD .V                    :  CCL Discriminated Amplitude
CRRA .                     :  Near-Far Count Rate Ratio
CS   .F/MN                 :  Cable Speed
CVEL .M/MIN                 :  Cable Velocity
FBEF .UA                   :  RST Far Effective Beam Current
FCOR .                     :  RST Far Carbon/Oxygen Ratio
FERD .                     :  RST Far IC Mode Capture Optimization Resolution Degradation Factor
FIRD .                     :  RST Far Inelastic Optimization Resolution Degradation Factor
GR   .GAPI                 :  Gamma Ray
NCOR .                     :  RST Near Carbon/Oxygen Ratio
NERD .                     :  RST Near IC Mode Capture Optimization Resolution Degradation Factor
NIRD .                     :  RST Near Inelastic Optimization Resolution Degradation Factor
RB_PCMS.DEG                  :  Relative Bearing
TENS .LBF                  :  Cable Tension
WTEP .DEGC                 :  Well Temperature
WTPE .MS                   :  Well Temperature Period
~Parameter Information Block
#MNEM.UNIT            Value   Description
#---------- ----------------  -----------
APD  .M                  54:  Elevation of Depth Reference (LMF) above Permanent Datum
RUN  .                    1:  RUN NUMBER
PROJECT.     SLEIPNER_OST@st-vlinapp01:  
SET  .        RSTD_0912_IC3:  
~Other Information Block
# 
~A       DEPTH           CCLC           CCLD           CRRA             CS           CVEL           FBEF           FCOR           FERD           FIRD             GR           NCOR           NERD           NIRD        RB_PCMS           TENS           WTEP           WTPE 
# ...
    3303.27000        -0.0093        -0.0093         2.9463        12.4108       -3.78280       112.9301        -0.0416         5.5869         5.5869        31.5163      -0.026500         2.5325         2.5325       356.6443      2243.8611        96.6976         4.0301
    3303.42240        -0.0388        -0.0388         3.0391        12.3593       -3.76710       113.7768         0.0732         5.5802         5.5802        31.5286      -0.088300         2.5267         2.5267       356.5357      2311.9714        96.6870         4.0300
    3303.57480        -0.0150         0.0000         3.0052         8.3274       -2.53820       109.0575        -0.0357         5.5890         5.5890        31.2663      -0.038600         2.6425         2.6425       356.5483      2277.1064        96.6840         4.0300
    3303.72720        -0.0061         0.0000         2.8348         7.6453       -2.33030       107.8970        -0.0099         5.4922         5.4922        33.1238       0.038400         2.6296         2.6296       356.6198      2305.8833        96.6560         4.0297
    3303.87960        -0.0068         0.0000         2.7982         7.4514       -2.27120       108.1449        -0.1031         5.3678         5.3678        35.4219       0.029700         2.5905         2.5905       356.6884      2278.1035        96.6467         4.0296
    3304.03200        -0.0108         0.0000         2.8039         6.6184       -2.01730       107.4711        -0.1276         5.3036         5.3036        38.1085      -0.047100         2.5506         2.5506       356.6978      2318.6865        96.6346         4.0295
    3304.18440        -0.0101         0.0000         2.7840         6.3629       -1.93940       107.4325         0.0528         5.4949         5.4949        38.7483      -0.033600         2.6242         2.6242       356.7132      2296.9307        96.6426         4.0296
    3304.33680        -0.0117         0.0000         2.7900         1.6637       -0.50710       106.8220        -0.1458         5.4849         5.4849        40.3368       0.011900         2.5624         2.5624       356.6544      2315.1086        96.6391         4.0296
    3304.48920        -0.0131         0.0000         2.7836         1.4390       -0.43860       106.1107        -0.0396         5.5709         5.5709        40.2984       0.046200         2.5398         2.5398       356.6077      2314.3708        96.5908         4.0292
    3304.64160         0.0678         0.0000         2.7539         1.3701       -0.41760       105.6138        -0.0019         5.5786         5.5786        39.6435      -0.078800         2.5852         2.5852       356.5430      2293.8203        96.5710         4.0290
    3304.79400         0.2801         0.0000         2.7415         1.3684       -0.41710       105.8688        -0.0849         5.5705         5.5705        38.7737      -0.049200         2.5699         2.5699       356.4482      2324.4343        96.5746         4.0290
    3304.94640        -0.0045         0.0000         2.7583         1.3419       -0.40900       105.4846         0.0673         5.4944         5.4944        37.2310      -0.026100         2.5273         2.5273       356.4456      2304.1636        96.5333         4.0287
    3305.09880        -0.0099         0.0000         2.7386         1.3366       -0.40740       105.8262         0.1020         5.5802         5.5802        35.6733      -0.098500         2.4853         2.4853       356.4378      2310.8960        96.5423         4.0287
    3305.25120        -0.0050         0.0000         2.7525         1.3163       -0.40120       106.3121        -0.0304         5.5806         5.5806        34.6091       0.002200         2.4619         2.4619       356.4414      2291.5688        96.5080         4.0284
    3305.40360        -0.0048         0.0000         2.7521         1.3104       -0.39940       106.3993         0.0801         5.6270         5.6270        34.3062       0.083000         2.4239         2.4239       356.4424      2320.7288        96.4929         4.0283
    3305.55600        -0.0095         0.0000         2.7686         1.2871       -0.39230       106.7717        -0.0299         5.6751         5.6751        34.2577       0.037300         2.4102         2.4102       356.4257      2312.4512        96.4670         4.0281
    3305.70840        -0.0157         0.0000         2.7722         1.2972       -0.39540       106.4509         0.0863         5.7777         5.7777        34.4534       0.077700         2.4239         2.4239       356.3119      2309.1294        96.4350         4.0278
    3305.86080        -0.0022         0.0000         2.7729         1.2720       -0.38770       105.9911        -0.0529         5.8825         5.8825        34.4625       0.021600         2.4058         2.4058       356.1300      2307.4436        96.4103         4.0276
    3306.01320        -0.0010         0.0000         2.7697         1.2753       -0.38870       105.1996         0.0495         5.8611         5.8611        34.8626       0.014900         2.4357         2.4357       356.0153      2317.0737        96.3917         4.0274
    3306.16560        -0.0011         0.0000         2.7511         1.2579       -0.38340       104.6353         0.0733         5.8806         5.8806        35.2892      -0.024200         2.4565         2.4565       356.1641      2306.1484        96.3431         4.0270
    3306.31800        -0.0032         0.0000         2.7370         1.2730       -0.38800       104.9022        -0.1640         5.8234         5.8234        33.8501       0.003900         2.4430         2.4430       356.1050      2313.8726        96.3254         4.0268
    3306.47040        -0.0011         0.0000         2.7401         1.2608       -0.38430       104.9083        -0.0997         5.8015         5.8015        33.8084      -0.105700         2.4308         2.4308       356.1270      2317.3167        96.3270         4.0268
    3306.62280        -0.0091         0.0000         2.7432         1.2746       -0.38850       105.8080        -0.0112         5.8109         5.8109        32.6930      -0.027700         2.5022         2.5022       356.1273      2281.5637        96.2980         4.0266
    3306.77520        -0.0049         0.0000         2.7499         1.2388       -0.37760       105.2905         0.0135         5.7609         5.7609        32.7865       0.019900         2.5448         2.5448       356.1695      2323.0276        96.2200         4.0259
    3306.92760         0.4750         0.0000         2.7420         1.2238       -0.37300       106.2157         0.1416         5.8465         5.8465        32.9945       0.103600         2.5556         2.5556       356.2411      2316.6594        96.2022         4.0257
    3307.08000         0.1285         0.0000         2.7681         1.2326       -0.37570       106.0161        -0.1134         5.7919         5.7919        35.5322       0.008600         2.5931         2.5931       356.2740      2312.4536        96.1797         4.0255
    3307.23240        -0.1138         0.0000         2.7585         1.2287       -0.37450       106.5709        -0.0151         5.8067         5.8067        36.1278       0.007000         2.5941         2.5941       356.2567      2323.0083        96.1410         4.0252
    3307.38480        -0.0604         0.0000         2.7682         1.2113       -0.36920       107.0108         0.0172         5.7825         5.7825        38.1093       0.092000         2.5995         2.5995       356.1874      2327.1052        96.0910         4.0248
    3307.53720         0.0048         0.0000         2.7757         1.2218       -0.37240       106.4824        -0.1137         5.7413         5.7413        39.0820      -0.090900         2.5943         2.5943       356.1963      2310.1467        96.0750         4.0246
    3307.68960         0.0559         0.0000         2.7711         1.2369       -0.37700       106.5075        -0.0353         5.5357         5.5357        38.9801       0.031000         2.6144         2.6144       356.2091      2336.2417        96.0302         4.0242
