~Version Information Block
VERS .                 2.00:  CWLS LOG ASCII STANDARD - VERSION 2.00
WRAP .                   NO:  One line per depth step
~Well Information Block
#MNEM.UNIT        Data Type   Information
#---------- ----------------  -----------
STRT .M          3457.23500:  START DEPTH
STOP .M          3635.08580:  STOP DEPTH
STEP .M             0.15240:  STEP
NULL .              -999.25:  NULL VALUE
COMP .                     :  COMPANY
WELL .          NO_15/9-F-5:  WELL
FLD  .                     :  FIELD
LOC  .                     :  LOCATION
CTRY .                     :  COUNTRY
STAT .                     :  STATE
CNTY .                     :  COUNTY
SRVC .                     :  SERVICE COMPANY
DATE .                     :  DATE
API  .                     :  API NUMBER
UWI  .                     :  UNIQUE WELL ID
~Curve Information Block
#MNEM.UNIT         API CODE   Curve Description
#---------- ----------------  -----------------
DEPTH.M                    :  
SAT201IC_BHOF.                     :  
SAT201IC_BVW.                     :  
SAT201IC_CRRA.                     :  Near-Far Count Rate Ratio
SAT201IC_FBEF.UA                   :  RST Far Effective Beam Current
SAT201IC_FCOR.                     :  
SAT201IC_GR.GAPI                 :  Gamma Ray
SAT201IC_NCOR.                     :  
SAT201IC_SO.                     :  
SAT201IC_SW.                     :  
SAT201IC_WPRE.PSI                  :  Well Pressure
SAT201IC_WTEP.DEGC                 :  Well Temperature
SAT201SI_BSAL.PPM                  :  Borehole Salinity
SAT201SI_GR.GAPI                 :  Gamma Ray
SAT201SI_IRAT.                     :  RST Inelastic Ratio
SAT201SI_RSCF.                     :  RST Far Detector Effective Unregulated Capture Count Rate
SAT201SI_RSCN.                     :  RST Near Detector Effective Unregulated Capture Count Rate
SAT201SI_SIGR.CU                   :  Formation Sigma (Neutron Capture Cross Section)
SAT201SI_TPHI.V/V                  :  Thermal Decay Porosity
~Parameter Information Block
#MNEM.UNIT            Value   Description
#---------- ----------------  -----------
CUR_INT_BOT.M           3635.2382:  
PROJECT.     SLEIPNER_OST@st-vlinapp01:  
SET  .            RSTD_0912:  
~Other Information Block
# 
~A       DEPTH  SAT201IC_BHOF   SAT201IC_BVW  SAT201IC_CRRA  SAT201IC_FBEF  SAT201IC_FCOR    SAT201IC_GR  SAT201IC_NCOR    SAT201IC_SO    SAT201IC_SW  SAT201IC_WPRE  SAT201IC_WTEP  SAT201SI_BSAL    SAT201SI_GR  SAT201SI_IRAT  SAT201SI_RSCF  SAT201SI_RSCN  SAT201SI_SIGR  SAT201SI_TPHI 
# ...
    3558.88580     -0.0276600       0.161300         2.9021       111.7467      0.0081600        42.5723      0.0126800       0.081900         0.7926      5086.6621        87.1003     27508.4004        25.9091       0.323600        10.2208         9.7049        15.1437       0.190400
    3559.03820     -0.0300000       0.172180         2.8831       110.7496      0.0082300        42.4387      0.0134500       0.081600         0.7985      5086.7710        87.0901     27817.9004        23.0026       0.326200        10.6409        10.5174        14.6769       0.187800
    3559.19060     -0.0314200       0.176830         2.8522       110.4678      0.0008400        41.3321      0.0066200       0.061600         0.7771      5086.9131        87.0492     28293.1992        21.6220       0.328200        11.0589        10.2999        14.1865       0.187200
    3559.34300     -0.0327000       0.171490         2.8574       111.7099      0.0089700        39.9878     -0.0051500       0.083000         0.7462      5087.0591        87.0262     28283.5996        21.1238       0.325000        11.1712        10.0956        14.1049       0.188800
    3559.49540     -0.0342200       0.155240         2.8762       111.9454      0.0227400        38.7493     -0.0165500       0.118900         0.6879      5087.1636        87.0151     28499.3984        19.7951       0.325100        10.3373         9.9531        13.9866       0.195800
    3559.64780     -0.0358100       0.143900         2.8669       113.2485      0.0280700        38.2942     -0.0239200       0.132900         0.6431      5087.2808        86.9889     29054.5000        19.7121       0.322700         9.4522         9.6830        14.0671       0.200900
    3559.80020     -0.0367500       0.129480         2.9142       111.4333      0.0151100        37.6675     -0.0173000       0.101400         0.5947      5087.4170        86.9665     29145.0000        19.9612       0.323200        10.4111         9.6346        14.0046       0.203500
    3559.95260     -0.0372100       0.134460         2.8580       111.5167      0.0036000        36.8404     -0.0095500       0.071000         0.5966      5087.5527        86.9385     29541.5996        18.9336       0.322500        10.6660        10.4036        14.0614       0.202900
    3560.10500     -0.0366900       0.141350         2.8663       110.9474     -0.0086400        36.1497      0.0026400       0.037600         0.6014      5087.6812        86.9127     29368.7988        18.6014       0.323000        10.7396        10.4740        14.2626       0.198000
    3560.25740     -0.0356400       0.150880         2.8539       111.3069     -0.0076900        36.1581      0.0079300       0.039600         0.6305      5087.8130        86.8880     29138.0000        18.6014       0.322000        10.5296        10.3711        14.5002       0.190500
    3560.40980     -0.0344200       0.157110         2.8575       110.6947     -0.0087800        35.6643      0.0092600       0.036600         0.6763      5087.9497        86.8642     29182.9004        17.7710       0.323400        10.8956        10.2086        14.3020       0.183800
    3560.56220     -0.0333500       0.160770         2.8677       110.4005      0.0041700        35.3466      0.0089400       0.071700         0.7334      5088.0557        86.8366     28820.2988        18.2692       0.323900        10.5999        10.1824        13.9723       0.178900
    3560.71460     -0.0327500       0.169540         2.8436       109.5532      0.0150400        34.7205      0.0141000       0.100300         0.7914      5088.1685        86.8186     29079.7988        18.6844       0.325300        11.3325        10.5702        13.4853       0.176800
    3560.86700     -0.0325900       0.182170         2.8303       110.1473      0.0172100        34.6879      0.0070200       0.105300         0.8345      5088.2915        86.7899     28917.6992        16.4423       0.324600        11.1559        10.1411        13.1159       0.176700
    3561.01940     -0.0323600       0.195780         2.8641       110.4803     -0.0051600        33.8291      0.0028300       0.046000         0.8672      5088.4111        86.7651     29124.0996        15.8610       0.324900        11.2699        10.5394        12.9940       0.179100
    3561.17180     -0.0321800       0.197510         2.8622       110.1662     -0.0147000        33.6622      0.0030700       0.020000         0.8745      5088.5312        86.7569     30092.5000        15.3628       0.324000        11.4834        10.3016        12.9526       0.183300
    3561.32420     -0.0316300       0.187900         2.8435       110.3495     -0.0132500        33.8137     -0.0089900       0.024100         0.8511      5088.6626        86.7124     30889.2012        14.6154       0.321500        11.4694        10.3393        13.4301       0.185100
    3561.47660     -0.0310300       0.177030         2.8705       111.6443     -0.0177200        34.5442     -0.0209100       0.011400         0.7958      5088.8335        86.7013     30677.0000        14.7451       0.319500        11.1446        10.5533        13.5342       0.190000
    3561.62900     -0.0303300       0.154690         2.9219       111.8303     -0.0178300        35.4799     -0.0212100       0.011100         0.7137      5088.9429        86.6773     30170.6016        16.1818       0.317900        10.1823         9.7363        13.9272       0.192900
    3561.78140     -0.0292200       0.127760         2.9278       111.8765     -0.0052700        36.5909     -0.0164400       0.046000         0.6162      5089.0688        86.6516     29873.3008        17.5104       0.319300        10.3570        10.1001        13.8634       0.197600
    3561.93380     -0.0281000       0.096890         2.9441       111.4067     -0.0041800        37.8485     -0.0127000       0.049800         0.5038      5089.1899        86.6341     29517.0996        18.2241       0.323300        10.1736         9.6630        14.3132       0.195900
    3562.08620     -0.0274900       0.080830         2.9280       110.4000     -0.0008700        38.9369     -0.0081000       0.059300         0.4362      5089.3213        86.6182     29989.9004        19.9680       0.325900        10.3825         9.7606        14.3523       0.192000
    3562.23860     -0.0267100       0.079020         2.8825       109.7029      0.0079800        40.6530     -0.0108600       0.083400         0.4312      5089.4443        86.5840     30282.1992        20.8347       0.328400        10.4168         9.7736        14.4694       0.184300
    3562.39100     -0.0260000       0.093290         2.8669       109.2995      0.0107200        42.0821     -0.0120300       0.089800         0.4938      5089.5610        86.5785     30288.9004        23.3841       0.330800        10.7495        10.0165        14.2470       0.178100
    3562.54340     -0.0263100       0.116260         2.8523       109.3682      0.0174300        43.3804     -0.0144200       0.106900         0.5976      5089.6919        86.5517     30215.5000        25.2941       0.333300         9.9759         9.3620        14.0785       0.171000
    3562.69580     -0.0269500       0.137010         2.8560       109.0746      0.0151400        43.2888     -0.0172100       0.101000         0.7009      5089.8203        86.5242     30364.7988        25.9091       0.329100        10.5967         9.6445        13.9030       0.163100
    3562.84820     -0.0276100       0.149580         2.8519       108.5734      0.0113900        43.0506     -0.0162500       0.091800         0.7789      5089.9219        86.5029     30277.2012        25.5120       0.327000        11.3524         9.9840        13.4364       0.152800
    3563.00060     -0.0281000       0.146640         2.8324       107.4032      0.0158800        42.0757     -0.0093500       0.104500         0.7824      5090.0488        86.4891     30466.8008        25.9272       0.328100        11.8759         9.9002        13.1035       0.143400
    3563.15300     -0.0284200       0.125670         2.8165       107.5770      0.0187200        40.2332     -0.0095000       0.112600         0.6827      5090.1763        86.4632     30555.2988        23.7682       0.327600        12.1535         9.9094        12.7106       0.135300
