~Version Information Block
VERS .                 2.00:  CWLS LOG ASCII STANDARD - VERSION 2.00
WRAP .                  YES:  Multiple lines per depth step
~Well Information Block
#MNEM.UNIT        Data Type   Information
#---------- ----------------  -----------
STRT .M          3450.03120:  START DEPTH
STOP .M          3948.83640:  STOP DEPTH
STEP .M             0.15240:  STEP
NULL .              -999.25:  NULL VALUE
COMP .              Statoil:  COMPANY
WELL .        NO_15/9-F-1_C:  WELL
FLD  .                Volve:  FIELD
LOC  .            North Sea:  LOCATION
CTRY .               Norway:  COUNTRY
STAT .                     :  STATE
CNTY .                     :  COUNTY
SRVC .         Schlumberger:  SERVICE COMPANY
DATE .          27-Nov-2014:  DATE
API  .                     :  API NUMBER
UWI  .           15/9-F-1 C:  UNIQUE WELL ID
LATI .     58° 26' 29.91" N:  LATITUDE
LONG .      1° 53' 14.71" E:  LONGITUDE
~Curve Information Block
#MNEM.UNIT         API CODE   Curve Description
#---------- ----------------  -----------------
DEPTH.M                    :  DEPTH (BOREHOLE)
BSAL .PPM                  :  Borehole Salinity
CCLC .V                    :  CCL
CIRF .                     :  RST Capture to Inelastic Ratio Far
CIRN .                     :  RST Capture to Inelastic Ratio Near
CVEL .M/SEC                 :  Cable Velocity
DFRB .DEG                  :  Calibrated Relative Bearing
DSIG .CU                   :  Sigma Difference
FBEF .UA                   :  RST Far Effective Beam Current
GR   .GAPI                 :  Gamma Ray
IRAT .                     :  RST Inelastic Ratio
PFC1 .IN                   :  PFCS CaliperX
PFC2 .IN                   :  PFCS CaliperY
RSCF .                     :  RST Far Detector Effective Unregulated
RSCN .                     :  RST Near Detector Effective
SFFA .CU                   :  RST Sigma Formation Far Apparent
SIBF .CU                   :  RST Sigma Borehole Fluid
SIGM .CU                   :  Formation Sigma (Neutron Capture Cross
TENS .LBF                  :  Cable Tension
TPHI .V/V                  :  Thermal Decay Porosity
~Parameter Information Block
#MNEM.UNIT            Value   Description
#---------- ----------------  -----------
APD  .M           54.900002:  Elevation of Depth Reference (LMF) above Permanent Datum
BHS  .                 CASE:  Borehole Status (Open or Cased Hole)
BS   .IN                8.5:  Bit Size
BSAL .PPM                 0:  Borehole Salinity
BSALOPT.              UNKNOWN:  Borehole Salinity Option
CSIZ .IN                  7:  Current Casing Size
CWEI .LB/F               29:  Casing Weight
EPD  .C3                  0:  Elevation of Permanent Datum above Mean Sea Level
LMF  .                   KB:  Logging Measured From (Name of Logging Elevation Reference)
MATR .                 SAND:  Rock Matrix for Neutron Porosity Corrections
PDAT .                  MSL:  Permanent Datum
RUN  .                Run 1:  RUN NUMBER
TAPE_NAME.     Statoil_Volve_15-9-F-1 C_PLT-RST_28Nov14_ConCu_R1L16Up_SigmaMain.las:  
TOOL_STRING.              UNKNOWN:  
WN   .           15/9-F-1 C:  WELL
PROJECT.     SLEIPNER_OST@st-vlinapp01:  
SET  .       RSTD_1114_SIG1:  
~Other Information Block
~Ascii Log Data
# ...
    3742.18200 
    67923.7969        -0.0327         2.8279         0.8113      -0.161853 
      325.9410        -2.2953        80.9970        10.4811     0.35040000 
        6.1659         6.0579        12.4413        10.1779        11.5829 
       46.3475         9.9475      4585.5718     0.19520000
    3742.33440 
    67252.5000        -0.0233         2.8384         0.8023      -0.162210 
      325.9410        -2.2584        77.4916        10.6650     0.35080001 
        6.1905         6.0811        12.7621         9.6019        11.9806 
       46.0987         9.8416      4564.8569     0.17450000
    3742.48680 
    66922.0938        -0.0056         3.0616         0.8089      -0.162830 
      325.9410        -2.2247        80.6549         8.7649     0.35220000 
        6.1905         6.0510        12.6667         9.2559        11.5424 
       45.9763         9.8497      4478.8667     0.15640000
    3742.63920 
    66909.3984         0.0087         3.1604         0.8167      -0.163122 
      325.9410        -2.1743        79.5008        10.7875     0.34220001 
        6.1905         6.0510        13.9908        10.1589        11.5308 
       45.9716         9.6134      4547.2144     0.14640000
    3742.79160 
    66556.3984        -0.0015         3.1706         0.7990      -0.163582 
      325.9410        -2.1999        84.3537        10.6037     0.33690000 
        6.1905         6.0510        13.1510         9.7743        11.1949 
       45.8409         9.5446      4566.2144     0.14710000
    3742.94400 
    67024.2031        -0.0068         3.2156         0.7961      -0.163125 
      325.9410        -2.0836        83.9401         9.1326     0.33669999 
        6.1905         6.0510        13.5463         9.9201        11.2891 
       46.0141         9.4251      4720.9287     0.15200000
    3743.09640 
    66987.0000        -0.0072         3.1669         0.8410      -0.161768 
      325.9410        -2.1405        81.8806         8.7649     0.33939999 
        6.1905         6.0510        13.4858        10.1441        11.1290 
       46.0003         9.4039      4681.7856     0.15850000
    3743.24880 
    67047.0000        -0.0153         3.0199         0.8138      -0.160798 
      325.9410        -2.1145        75.5297         9.5617     0.34549999 
        6.1905         6.0510        14.6583        11.0376        11.1169 
       46.0226         9.3463      4720.9287     0.16060001
    3743.40120 
    66542.7031         0.1105         3.0894         0.8386      -0.160183 
      325.9410        -2.2555        85.2092         8.6423     0.34850001 
        6.1950         6.0672        12.9359        10.2398        11.1097 
       45.8358         9.4765      4596.2856     0.15680000
    3743.55360 
    65779.7969         0.0033         3.1776         0.8265      -0.161100 
      325.9410        -2.3631        82.5947         7.7229     0.35260001 
        6.1928         6.0834        13.4336         9.8634        11.5570 
       45.5535         9.6224      4535.4287     0.14950000
    3743.70600 
    66303.1016         0.0368         3.0117         0.8205      -0.163155 
      325.9410        -2.5604        76.6690         9.7456     0.35490000 
        6.1905         6.0834        13.6511         9.7827        11.6121 
       45.7471         9.7349      4426.5332     0.14810000
    3743.85840 
    66111.1016         0.0062         3.0802         0.8205      -0.163452 
      325.9410        -2.5175        80.9513        10.1501     0.35600001 
        6.1989         6.0877        13.3814        10.0186        11.5203 
       45.6761         9.7863      4432.7144     0.14920001
    3744.01080 
    65551.9062         0.0064         3.1139         0.8518      -0.163010 
      325.9410        -2.5838        82.8546        10.7017     0.35210001 
        6.1905         6.0834        12.9682        10.0684        11.7677 
       45.4693         9.8034      4537.0771     0.15560000
    3744.16320 
    66901.1016        -0.0029         3.1600         0.8280      -0.162450 
      325.9410        -2.5460        81.5209         9.5985     0.33899999 
        6.1905         6.0834        13.7033        10.2659        11.6917 
       45.9685         9.7964      4688.9336     0.16020000
    3744.31560 
    68067.5938         0.0019         3.2652         0.8334      -0.162507 
      325.9410        -2.5465        82.9015        11.0817     0.33329999 
        6.1905         6.0834        14.0067        10.7695        11.4706 
       46.4008         9.7812      4703.7856     0.16520000
    3744.46800 
    69083.5000         0.0017         3.0752         0.8242      -0.162413 
      324.5300        -2.4999        82.0525         9.7946     0.33329999 
        6.1905         6.0834        13.3359        10.2317        11.6757 
       46.7778         9.4759      4757.6431     0.16960000
    3744.62040 
    69227.7031        -0.0033         3.1428         0.8218      -0.161675 
      324.5300        -2.4519        81.7264         9.2062     0.34290001 
        6.1905         6.0834        13.7426        10.3164        10.7304 
       46.8313         9.6164      4691.7144     0.16970000
    3744.77280 
    69185.7031        -0.0593         3.1246         0.8712      -0.160838 
      324.5300        -2.4248        81.3061         8.2868     0.33910000 
        6.1905         6.0788        13.1164        10.0694        11.8455 
       46.8157         9.5124      4644.1431     0.16990000
    3744.92520 
    69018.5000         0.0113         2.9631         0.7668      -0.160937 
      324.5300        -2.3268        84.4077         8.8384     0.33890000 
        6.1905         6.0626        12.5669         9.7852        11.3467 
       46.7536         9.9166      4569.5713     0.16380000
    3745.07760 
    69037.8047        -0.0699         2.9495         0.7648      -0.162052 
      324.5300        -2.2818        86.0414         9.1817     0.33820000 
        6.1905         6.0695        12.2497         9.4564        11.9306 
       46.7608         9.8728      4452.7144     0.16170000
    3745.23000 
    69564.3984        -0.0563         2.9857         0.7799      -0.163377 
      324.5300        -2.2020        80.4428         9.7333     0.34480000 
        6.1905         6.0510        13.3565         9.9838        11.7080 
       46.9564        10.0175      4470.0669     0.16140001
    3745.38240 
    69520.3984         0.0042         3.0031         0.8126      -0.163153 
      324.5300        -2.0880        81.4216        11.5721     0.34570000 
        6.1905         6.0510        12.6666         9.5794        11.7507 
       46.9400         9.9172      4599.2856     0.16590001
    3745.53480 
    69047.5000         0.0042         2.9606         0.7994      -0.162798 
      324.5300        -2.0844        80.6598        11.5721     0.34959999 
        6.1905         6.0510        13.3125        10.4786        11.5781 
       46.7644        10.0161      4761.5386     0.16810000
    3745.68720 
    69057.7969         0.0001         3.0404         0.8344      -0.162612 
      324.5300        -2.0183        81.3859        11.9398     0.34990001 
        6.1905         6.0510        12.6378         9.5886        11.9502 
       46.7682        10.0727      4823.4668     0.17039999
    3745.83960 
    69370.2969         0.0247         2.9741         0.7934      -0.162527 
      324.5300        -1.9030        80.5894        11.9521     0.34520000 
        6.1905         6.0510        13.4538        10.5046        11.8722 
       46.8843        10.2976      4807.5000     0.17219999
    3745.99200 
    69864.3047         0.0330         2.9667         0.7989      -0.162435 
      324.5300        -1.6985        86.0339        11.7682     0.34470001 
        6.1905         6.0510        12.0031         9.7591        12.2116 
       47.0678        10.6236      4693.0000     0.17630000
    3746.14440 
    69549.3984         0.0907         2.7891         0.7977      -0.162337 
      324.5300        -1.5847        84.8774        10.6650     0.34119999 
        6.1905         6.0510        11.0965         9.0699        12.8947 
       46.9508        11.2671      4639.7139     0.17760000
