~Version Information Block
VERS .                 2.00:  CWLS LOG ASCII STANDARD - VERSION 2.00
WRAP .                  YES:  Multiple lines per depth step
~Well Information Block
#MNEM.UNIT        Data Type   Information
#---------- ----------------  -----------
STRT .M          3438.44880:  START DEPTH
STOP .M          3636.26400:  STOP DEPTH
STEP .M             0.15240:  STEP
NULL .              -999.25:  NULL VALUE
COMP .              Statoil:  COMPANY
WELL .          NO_15/9-F-5:  WELL
FLD  .                Volve:  FIELD
LOC  .                Volve:  LOCATION
CTRY .               Norway:  COUNTRY
STAT .                     :  STATE
CNTY .                     :  COUNTY
SRVC .         Schlumberger:  SERVICE COMPANY
DATE .           11/03/2015:  DATE
API  .                     :  API NUMBER
UWI  .             15/9-F-5:  UNIQUE WELL ID
LATI .     58° 26' 29.66" N:  LATITUDE
LONG .      1° 53' 14.99" E:  LONGITUDE
~Curve Information Block
#MNEM.UNIT         API CODE   Curve Description
#---------- ----------------  -----------------
DEPTH.M                    :  Depth Index
BSAL .PPM                  :  (RST-D)                 (6in)                   Borehole Salinity
CCLC .V                    :  (PSTP-B)                (1in)                   CCL Computed Amplitude
CIRF .                     :  (RST-D)                 (6in)                   Capture to Inelastic Rat
CIRN .                     :  (RST-D)                 (6in)                   Capture to Inelastic Rat
CVEL .M/SEC                 :  (WLWorkflow)            (1in)                   Cable Velocity
DSIG .CU                   :  (RST-D)                 (6in)                   Sigma Difference
FBEF .UA                   :  (RST-D)                 (6in)                   Far Effective Beam Curre
GR   .GAPI                 :  (PSTP-B)                (6in)                   Gamma Ray
IRAT .                     :  (RST-D)                 (6in)                   Inelastic Ratio
RB_PCMS.DEG                  :  (PCMS-A)                (6in)                   Relative Bearing
RSCF .                     :  (RST-D)                 (6in)                   Far Detector Effective U
RSCN .                     :  (RST-D)                 (6in)                   Near Detector Effective
SFFA .CU                   :  (RST-D)                 (6in)                   Sigma Formation Far Appa
SIBF .CU                   :  (RST-D)                 (6in)                   Sigma Borehole Fluid
SIGM .CU                   :  (RST-D)                 (6in)                   Formation Sigma (Neutron
TENS .LBF                  :  (WLWorkflow)            (1in)                   Cable Tension
TPHI .V/V                  :  (RST-D)                 (6in)                   Thermal Decay Porosity
WPRE .BAR                  :  (PSTP-B)                (6in)                   Well Pressure
WTEP .DEGC                 :  (PSTP-B)                (6in)                   Well Temperature
~Parameter Information Block
#MNEM.UNIT            Value   Description
#---------- ----------------  -----------
APD  .M                  54:  Elevation of Depth Reference (LMF) Above Permanent Datum
CLAB .              Country:  :County Label
ECF  .M             -999.25:  Elevation of Casing Flange above Permanent Datum
EDF  .M                  54:  Elevation of Drill Floor Above Permanent Datum
EGL  .M                 -91:  Elevation of Ground Level Above Permanent Datum
EKB  .M             -999.25:  Elevation of Kelly Bushing Above Permanent Datum
EPD  .M                   0:  Elevation of Permanent Datum (PDAT) above Mean Sea Level
FL1  .            North Sea:  Field Location Line 1
FL2  .     Norwegian Sector:  Field Location Line 2
LMF  .                   DF:  Logging Measured From
LUL  .                 NOBO:  Logging Unit Location
LUN  .          ONCC-A 3837:  Logging Unit Number
PDAT .                  MSL:  Local Permanent Datum
RIGN .      Maersk Inspirer:  Rig Name
RIGTYP.               Jackup:  Rig Type
SON  .           C2TQ-00038:  Service Order Number
TAPE_NAME.     RST_SIGMA__03Nov15_171237.las:  
TOOL_STRING.              UNKNOWN:  
WN   .             15/9-F-5:  WELL NAME
PROJECT.     SLEIPNER_OST@st-vlinapp01:  
SET  .       RSTD_1115_SIG1:  
~Other Information Block
~Ascii Log Data
# ...
    3578.35200 
    37352.6367        -0.0085         2.3516       0.707980     -0.0765272 
        0.3914       109.1604        33.7884       0.314660       354.4073 
        7.7590         7.4191        16.9868        35.2123        15.5307 
     4072.4995       0.211630       367.3322        74.8663
    3578.50440 
    36995.5273         0.0163         2.3013       0.718500     -0.0784860 
        0.3978       110.1837        33.9660       0.311870       354.2726 
        7.2762         7.1087        17.5036        35.0846        15.8086 
     3972.7988       0.217640       367.3358        74.8156
    3578.65680 
    37232.2695         0.0075         2.2534       0.710160     -0.0782358 
        0.2163       110.4257        33.8151       0.313620       354.0661 
        6.8661         6.8033        18.2085        35.1693        15.9629 
     4019.5996       0.223460       367.3391        74.7839
    3578.80920 
    37372.8789        -0.0244         2.1618       0.691320     -0.0774748 
        0.3049       104.4255        33.2144       0.315040       354.0209 
        7.2099         7.0945        17.4447        35.2196        16.2815 
     4025.7505       0.225810       367.3627        74.7285
    3578.96160 
    38040.7305        -0.0000         2.2055       0.709820     -0.0774700 
        0.2941       106.2654        34.2352       0.314700       354.0471 
        7.2953         7.1434        18.4589        35.4585        16.2784 
     3904.4009       0.229610       367.3609        74.6636
    3579.11400 
    37135.9414        -0.0880         2.2238       0.699100     -0.0767118 
        0.2814       110.4447        36.8095       0.310450       354.3735 
        7.2178         7.2166        18.1990        35.1348        16.3624 
     4037.6001       0.232710       367.3752        74.6441
    3579.26640 
    37443.5898        -0.0531         2.2078       0.699570     -0.0782398 
        0.1672       112.8996        33.0812       0.307350       354.3571 
        6.8733         7.1351        17.7009        35.2449        15.9977 
     3928.9995       0.236900       367.3906        74.6206
    3579.41880 
    37242.6992         0.0046         2.2443       0.709800     -0.0777240 
        0.3246       111.0313        34.2974       0.309340       354.1084 
        7.0679         7.2414        17.3718        35.1730        15.6356 
     4015.6003       0.234900       367.3909        74.6102
    3579.57120 
    37164.2812        -0.0331         2.2808       0.717580     -0.0774778 
        0.5579       109.3085        34.5548       0.311570       353.8973 
        7.2675         7.2213        17.1186        35.1450        15.6707 
     4034.5989       0.226730       367.4063        74.5846
    3579.72360 
    36614.1719         0.0034         2.3324       0.710950     -0.0774732 
        0.3513       111.8314        33.3623       0.312740       353.8896 
        7.3305         7.0948        17.8109        34.9483        15.7224 
     3933.9990       0.219650       367.4148        74.5284
    3579.87600 
    36835.6719         0.0134         2.2699       0.707470     -0.0772198 
        0.3584       110.3242        30.8886       0.313200       353.9873 
        7.3377         7.2653        17.5269        35.0275        15.8669 
     4026.6001       0.216780       367.4181        74.4931
    3580.02840 
    36255.4570        -0.0486         2.2584       0.708560     -0.0783167 
        0.5071       106.5436        32.6374       0.315270       354.0386 
        7.5096         7.3635        17.5600        34.8201        15.7337 
     4005.0005       0.214760       367.4345        74.4371
    3580.18080 
    36504.2617        -0.0082         2.2599       0.713010     -0.0777278 
        0.4596       110.7132        29.7909       0.318750       353.8600 
        6.9924         7.0590        17.4150        34.9090        15.5203 
     4035.9995       0.211920       367.4376        74.3604
    3580.33320 
    37332.7422         0.0603         2.2566       0.690240     -0.0792480 
        0.5331       105.7540        27.8024       0.316190       353.7100 
        7.4880         7.1263        16.8849        35.2052        15.6729 
     3964.2000       0.203050       367.4488        74.3387
    3580.48560 
    36745.8320         0.0208         2.3600       0.701040     -0.0782242 
        0.4516       108.2360        26.7757       0.318390       353.5505 
        7.7105         7.1966        18.0159        34.9953        15.7095 
     4045.6011       0.200950       367.4620        74.2809
    3580.63800 
    37203.6289         0.0591         2.2432       0.696210     -0.0787440 
        0.3285       107.1330        26.4979       0.318500       353.1140 
        7.3028         6.8602        17.5188        35.1590        15.8088 
     4025.7998       0.201780       367.4662        74.2433
    3580.79040 
    37290.1484        -0.0218         2.2519       0.714870     -0.0787450 
        0.3073       105.3217        25.9919       0.319020       352.8210 
        7.4952         7.1834        17.1747        35.1900        15.5665 
     4027.7490       0.211210       367.4790        74.2094
    3580.94280 
    38088.8906        -0.0223         2.3126       0.706490     -0.0777973 
        0.3840       109.7639        26.7642       0.318340       352.6912 
        7.2816         7.0485        17.2834        35.4758        15.3865 
     3986.5010       0.215760       367.4889        74.1754
    3581.09520 
    37437.2227        -0.0606         2.2335       0.717440     -0.0795060 
        0.3112       105.6369        27.3797       0.315780       352.6477 
        7.3937         7.2374        16.9694        35.2426        15.3784 
     3927.6011       0.217300       367.4979        74.1499
    3581.24760 
    37805.7109        -0.0077         2.3807       0.724410     -0.0784275 
        0.1745       110.5002        28.0011       0.315730       352.5413 
        7.7609         7.6189        17.1431        35.3744        15.5735 
     4079.2505       0.210770       367.5079        74.0974
    3581.40000 
    38015.5000         0.0169         2.3096       0.701140     -0.0774700 
        0.1923       107.4571        29.0363       0.313310       352.5714 
        7.8096         7.4373        17.8634        35.4495        15.5536 
     4015.4001       0.208350       367.5161        74.0603
    3581.55240 
    37779.9297        -0.0319         2.3823       0.711170     -0.0795100 
        0.1803       109.7808        29.3707       0.313300       352.2611 
        7.6231         7.1890        16.9067        35.3652        15.6633 
     3953.4001       0.206100       367.5284        74.0131
    3581.70480 
    37908.4297         0.0079         2.3143       0.715500     -0.0782360 
        0.2119       109.0821        28.2552       0.314600       352.1518 
        7.2928         7.0408        17.4702        35.4112        15.3481 
     4146.2007       0.210490       367.5340        73.9624
    3581.85720 
    38055.0195        -0.0550         2.2699       0.709770     -0.0779820 
        0.1223       107.1949        28.1723       0.314470       352.2296 
        7.6804         7.6781        16.9165        35.4637        15.5937 
     4027.8008       0.210330       367.5444        73.9438
    3582.00960 
    38190.1094        -0.0221         2.3321       0.694040     -0.0784275 
        0.0362       105.3694        27.8054       0.315410       352.3557 
        7.8820         7.2465        17.6440        35.5120        15.6047 
     4035.9995       0.211340       367.5542        73.9279
    3582.16200 
    38065.6406         0.0592         2.3037       0.719240     -0.0784860 
        0.0811       106.0953        28.3203       0.314430       352.4232 
        7.7483         7.3460        17.5016        35.4675        15.8035 
     4066.4004       0.214880       367.5637        73.9038
    3582.31440 
    37309.4805        -0.0127         2.2657       0.705760     -0.0777357 
        0.0976       109.9163        28.8736       0.315370       352.2707 
        7.3337         7.2385        17.5140        35.1969        15.6905 
     3968.5994       0.222260       367.5721        73.8714
