~Version Information Block
VERS .                 2.00:  CWLS LOG ASCII STANDARD - VERSION 2.00
WRAP .                   NO:  One line per depth step
~Well Information Block
#MNEM.UNIT        Data Type   Information
#---------- ----------------  -----------
STRT .M          3470.91000:  START DEPTH
STOP .M          3530.04120:  STOP DEPTH
STEP .M             0.15240:  STEP
NULL .              -999.25:  NULL VALUE
COMP .              Statoil:  COMPANY
WELL .          NO_15/9-F-5:  WELL
FLD  .                Volve:  FIELD
LOC  .                Volve:  LOCATION
CTRY .               Norway:  COUNTRY
STAT .                     :  STATE
CNTY .                     :  COUNTY
SRVC .         Schlumberger:  SERVICE COMPANY
DATE .           11/03/2015:  DATE
API  .                     :  API NUMBER
UWI  .             15/9-F-5:  UNIQUE WELL ID
LATI .     58° 26' 29.66" N:  LATITUDE
LONG .      1° 53' 14.99" E:  LONGITUDE
~Curve Information Block
#MNEM.UNIT         API CODE   Curve Description
#---------- ----------------  -----------------
DEPTH.M                    :  Depth Index
CCLC .V                    :  (PSTP-B)                (1in)                   CCL Computed Amplitude
CVEL .M/SEC                 :  (WLWorkflow)            (1in)                   Cable Velocity
FBEF .UA                   :  (RST-D)                 (6in)                   Far Effective Beam Curre
FCOR .                     :  (RST-D)                 (6in)                   Far Carbon/Oxygen Ratio
FERD .                     :  (RST-D)                 (6in)                   Far IC Mode Capture Opti
FIRD .                     :  (RST-D)                 (6in)                   Far Inelastic Optimizati
GR   .GAPI                 :  (PSTP-B)                (6in)                   Gamma Ray
NCOR .                     :  (RST-D)                 (6in)                   Near Carbon/Oxygen Ratio
NERD .                     :  (RST-D)                 (6in)                   Near IC Mode Capture Opt
NIRD .                     :  (RST-D)                 (6in)                   Near Inelastic Optimizat
RB_PCMS.DEG                  :  (PCMS-A)                (6in)                   Relative Bearing
TENS .LBF                  :  (WLWorkflow)            (1in)                   Cable Tension
WPRE .BAR                  :  (PSTP-B)                (6in)                   Well Pressure
WTEP .DEGC                 :  (PSTP-B)                (6in)                   Well Temperature
~Parameter Information Block
#MNEM.UNIT            Value   Description
#---------- ----------------  -----------
APD  .M                  54:  Elevation of Depth Reference (LMF) Above Permanent Datum
CLAB .              Country:  :County Label
ECF  .M             -999.25:  Elevation of Casing Flange above Permanent Datum
EDF  .M                  54:  Elevation of Drill Floor Above Permanent Datum
EGL  .M                 -91:  Elevation of Ground Level Above Permanent Datum
EKB  .M             -999.25:  Elevation of Kelly Bushing Above Permanent Datum
EPD  .M                   0:  Elevation of Permanent Datum (PDAT) above Mean Sea Level
FL1  .            North Sea:  Field Location Line 1
FL2  .     Norwegian Sector:  Field Location Line 2
LMF  .                   DF:  Logging Measured From
LUL  .                 NOBO:  Logging Unit Location
LUN  .          ONCC-A 3837:  Logging Unit Number
PDAT .                  MSL:  Local Permanent Datum
RIGN .      Maersk Inspirer:  Rig Name
RIGTYP.               Jackup:  Rig Type
SON  .           C2TQ-00038:  Service Order Number
TAPE_NAME.     RST_IC_Pass3___03Nov15_234906.las:  
TOOL_STRING.              UNKNOWN:  
WN   .             15/9-F-5:  WELL NAME
PROJECT.     SLEIPNER_OST@st-vlinapp01:  
SET  .        RSTD_1115_IC3:  
~Other Information Block
# 
~A       DEPTH           CCLC           CVEL           FBEF           FCOR           FERD           FIRD             GR           NCOR           NERD           NIRD        RB_PCMS           TENS           WPRE           WTEP 
# ...
    3509.31480       0.015630    -0.00883117       133.2175       0.068840         5.4218         5.4218       113.1294       0.104830         4.2270         4.2270       352.7991      3962.6982       361.3162        82.6460
    3509.46720      -0.002280    -0.00891967       133.6357       0.068560         5.6226         5.6226       113.5022       0.102570         4.2027         4.2027       352.7759      3847.7444       361.3296        82.6287
    3509.61960       0.007480    -0.00882517       134.3151       0.016850         5.4824         5.4824       113.7243       0.036330         4.2088         4.2088       352.7012      3973.6936       361.3379        82.6149
    3509.77200      -0.065320    -0.00885933       132.6526      -0.055000         5.4194         5.4194       116.0716       0.009530         4.2207         4.2207       352.5988      3978.9990       361.3490        82.6035
    3509.92440      -0.003730    -0.00898350       133.5444       0.116400         5.4932         5.4932       113.1532      -0.033570         4.2825         4.2825       352.4331      3942.1462       361.3594        82.5863
    3510.07680      -0.003010    -0.00910717       133.5220      -0.031390         5.5554         5.5554       113.2500       0.063510         4.3180         4.3180       352.4659      4020.8293       361.3723        82.5736
    3510.22920      -0.002800    -0.00913233       133.3836       0.088450         5.4506         5.4506       114.4178       0.053510         4.3248         4.3248       352.4736      3985.2849       361.3830        82.5581
    3510.38160       0.001180    -0.00907183       134.6395      -0.026620         5.5078         5.5078       117.1741       0.085020         4.3479         4.3479       352.4872      4059.8091       361.3944        82.5511
    3510.53400      -0.003850    -0.00907633       133.6180      -0.005640         5.5282         5.5282       120.9250       0.034540         4.3502         4.3502       352.5817      4049.3418       361.4052        82.5438
    3510.68640       0.015300    -0.00932433       135.8871       0.055140         5.5177         5.5177       128.9581       0.056160         4.3407         4.3407       352.7398      3908.9509       361.4168        82.5364
    3510.83880       0.020770    -0.00906750       136.2764      -0.040010         5.6167         5.6167       134.5838      -0.033140         4.3731         4.3731       352.8392      3878.3723       361.4275        82.5326
    3510.99120      -0.003290    -0.00905983       136.1186       0.026430         5.6550         5.6550       137.8534       0.029800         4.3861         4.3861       352.8704      3865.7561       361.4372        82.5213
    3511.14360       0.011380    -0.00903883       135.9884       0.090380         5.6598         5.6598       141.0754       0.154780         4.3692         4.3692       352.8714      3894.3025       361.4505        82.5130
    3511.29600      -0.026970    -0.00906383       135.8328      -0.044300         5.4997         5.4997       141.5806       0.071820         4.3353         4.3353       352.8959      3945.3184       361.4613        82.5074
    3511.44840      -0.002690    -0.00883017       135.3813       0.009760         5.4359         5.4359       142.7791       0.096880         4.3388         4.3388       352.9902      3960.8098       361.4732        82.4976
    3511.60080      -0.003040    -0.00880183       134.6798       0.104310         5.3487         5.3487       140.4320      -0.003790         4.2795         4.2795       352.9205      3998.5352       361.4845        82.4925
    3511.75320      -0.002540    -0.00913250       134.3916      -0.051710         5.5959         5.5959       139.4473       0.041760         4.2863         4.2863       352.8163      3913.6426       361.4927        82.4809
    3511.90560      -0.002350    -0.00906767       134.6962      -0.117100         5.4510         5.4510       137.7343       0.050110         4.2499         4.2499       352.9225      3935.4648       361.5089        82.4794
    3512.05800      -0.003050    -0.00922333       133.6056       0.075710         5.6517         5.6517       140.3183       0.114570         4.2710         4.2710       352.9738      4013.9998       361.5151        82.4708
    3512.21040       0.050390    -0.00910733       134.2612      -0.097290         5.6539         5.6539       138.9920      -0.024260         4.2685         4.2685       353.0544      3996.4150       361.5291        82.4711
    3512.36280      -0.002590    -0.00922333       133.2894      -0.188210         5.6838         5.6838       137.8318      -0.025070         4.2504         4.2504       353.0459      3938.1423       361.5421        82.4670
    3512.51520      -0.002240    -0.00928367       133.9341      -0.091100         5.7378         5.7378       140.2451       0.059770         4.2444         4.2444       352.8654      4065.3796       361.5520        82.4559
    3512.66760      -0.002730    -0.00922300       134.3396      -0.058080         5.7405         5.7405       143.2667      -0.022410         4.2126         4.2126       352.7080      3967.5002       361.5661        82.4532
    3512.82000       0.014180    -0.00916250       134.2372      -0.061060         5.8846         5.8846       142.4150       0.003460         4.2587         4.2587       352.5650      3878.9277       361.5738        82.4538
    3512.97240      -0.049050    -0.00892067       136.0354      -0.099250         6.0579         6.0579       145.7498      -0.138180         4.2557         4.2557       352.6109      3914.8342       361.5833        82.4529
    3513.12480      -0.001000    -0.00901150       136.8542       0.157920         6.0544         6.0544       149.3207      -0.022830         4.2509         4.2509       352.6101      3838.5723       361.5975        82.4520
    3513.27720      -0.001520    -0.00883267       136.2974      -0.013220         6.1054         6.1054       147.2166      -0.060120         4.2197         4.2197       352.7342      3950.3181       361.6071        82.4480
    3513.42960      -0.002280    -0.00880383       135.4965      -0.030340         6.0697         6.0697       146.0169       0.013050         4.1889         4.1889       352.8346      3970.7734       361.6187        82.4473
    3513.58200      -0.001970    -0.00889033       133.4718       0.083210         6.2129         6.2129       145.3301       0.129330         4.1958         4.1958       353.0313      3901.1433       361.6309        82.4469
    3513.73440      -0.000550    -0.00913217       133.6659       0.085440         6.0918         6.0918       146.3027       0.058410         4.1699         4.1699       353.2792      3996.8333       361.6432        82.4447
    3513.88680       0.000250    -0.00916250       133.9689       0.141080         6.2184         6.2184       147.4343      -0.013250         4.1047         4.1047       353.3639      3867.9053       361.6554        82.4404
    3514.03920       0.034460    -0.00904517       134.6925      -0.093970         6.4224         6.4224       150.5409       0.070060         4.0843         4.0843       353.5750      4025.5862       361.6663        82.4344
    3514.19160       0.011490    -0.00903817       136.9454       0.042260         6.4456         6.4456       150.4893       0.066240         4.0915         4.0915       353.7302      4061.8591       361.6752        82.4192
    3514.34400      -0.022470    -0.00913250       136.7828       0.041840         6.5055         6.5055       151.4632      -0.006580         4.0589         4.0589       353.9500      3979.6421       361.6880        82.4199
    3514.49640      -0.017570    -0.00904550       138.3264      -0.034320         6.7060         6.7060       152.5966       0.057240         4.0927         4.0927       353.7632      4009.2449       361.6954        82.4152
    3514.64880       0.001990    -0.00913900       139.9005       0.096390         6.5077         6.5077       154.2453      -0.036070         4.0770         4.0770       353.8228      3986.8044       361.7123        82.4150
