~Version Information Block
VERS .                 2.00:  CWLS LOG ASCII STANDARD - VERSION 2.00
WRAP .                   NO:  One line per depth step
~Well Information Block
#MNEM.UNIT        Data Type   Information
#---------- ----------------  -----------
STRT .M          3454.60320:  START DEPTH
STOP .M          3792.47400:  STOP DEPTH
STEP .M             0.15240:  STEP
NULL .              -999.25:  NULL VALUE
COMP .              Statoil:  COMPANY
WELL .        NO_15/9-F-1_C:  WELL
FLD  .                Volve:  FIELD
LOC  .            North Sea:  LOCATION
CTRY .               Norway:  COUNTRY
STAT .                     :  STATE
CNTY .                     :  COUNTY
SRVC .         Schlumberger:  SERVICE COMPANY
DATE .          27-Nov-2014:  DATE
API  .                     :  API NUMBER
UWI  .           15/9-F-1 C:  UNIQUE WELL ID
LATI .     58° 26' 29.91" N:  LATITUDE
LONG .      1° 53' 14.71" E:  LONGITUDE
~Curve Information Block
#MNEM.UNIT         API CODE   Curve Description
#---------- ----------------  -----------------
DEPTH.M                    :  DEPTH (BOREHOLE)
CVEL .M/SEC                 :  Cable Velocity
DFRB .DEG                  :  Calibrated Relative Bearing
FBEF .UA                   :  RST Far Effective Beam Current
FCOR .                     :  RST Far Carbon/Oxygen Ratio
FERD .                     :  RST Far IC Mode Capture Optimization
FIRD .                     :  RST Far Inelastic Optimization Resolution
GR   .GAPI                 :  Gamma Ray
NCOR .                     :  RST Near Carbon/Oxygen Ratio
NERD .                     :  RST Near IC Mode Capture Optimization
NIRD .                     :  RST Near Inelastic Optimization Resolution
PFC1 .IN                   :  PFCS CaliperX
PFC2 .IN                   :  PFCS CaliperY
TENS .LBF                  :  Cable Tension
~Parameter Information Block
#MNEM.UNIT            Value   Description
#---------- ----------------  -----------
APD  .M           54.900002:  Elevation of Depth Reference (LMF) above Permanent Datum
EPD  .C3                  0:  Elevation of Permanent Datum above Mean Sea Level
LMF  .                   KB:  Logging Measured From (Name of Logging Elevation Reference)
PDAT .                  MSL:  Permanent Datum
RUN  .                Run 1:  RUN NUMBER
TAPE_NAME.     ConCu_R1L19Up_S012_PFCS_PILS_DEFT_RST_PCMS_PSTP.las:  
TOOL_STRING.              UNKNOWN:  
WN   .           15/9-F-1 C:  WELL
PROJECT.     SLEIPNER_OST@st-vlinapp01:  
SET  .        RSTD_1114_IC3:  
~Other Information Block
# 
~A       DEPTH           CVEL           DFRB           FBEF           FCOR           FERD           FIRD             GR           NCOR           NERD           NIRD           PFC1           PFC2           TENS 
# ...
    3585.36240      -0.160443       358.3940       113.0780         0.5081         5.6706         5.6706        32.5220         0.5406         6.8247         6.8247         6.2303         6.0510      4172.3569
    3585.51480      -0.160698       358.3940       114.8926        -0.1819         5.7843         5.7843        30.9529         0.4886         6.8247         6.8247         6.2240         6.0510      4238.4287
    3585.66720      -0.159547       358.3940       114.8926        -0.1776         5.7843         5.7843        27.8392         0.6248         6.8324         6.8324         6.2219         6.0510      4498.8667
    3585.81960      -0.158327       277.9670       113.6766        -0.9590         5.7843         5.7843        26.2824         0.6248         6.8324         6.8324         6.2219         6.0510      4575.9287
    3585.97200      -0.157998       300.5430       114.1893        -0.2364         5.7843         5.7843        24.5662         0.8026         6.8324         6.8324         6.2241         6.0510      4588.9287
    3586.12440      -0.158152       359.8050       111.1861         0.3431         5.7843         5.7843        24.1984         0.0670         6.8324         6.8324         6.2219         6.0510      4524.2002
    3586.27680      -0.158038       359.8050       113.9980         0.1603         5.7843         5.7843        24.2229         0.4680         6.8324         6.8324         6.2264         6.0510      4451.1431
    3586.42920      -0.158837       359.8050       113.9980         0.1603         5.7843         5.7843        24.5784         1.0072         6.8324         6.8324         6.2264         6.0510      4384.6665
    3586.58160      -0.159502       359.8050       112.1884         0.3008         5.7843         5.7843        25.6817         1.0072         6.8324         6.8324         6.2261         6.0510      4174.7861
    3586.73400      -0.159973       359.8050       115.0698        -0.1329         5.7843         5.7843        27.5695         0.5013         6.8324         6.8324         6.2219         6.0510      4280.5000
    3586.88640      -0.159303       359.8050       110.6500         0.0028         5.8581         5.8581        29.0773         1.4832         6.8324         6.8324         6.2219         6.0510      4384.0669
    3587.03880      -0.158670       358.3940       113.2780         0.2121         5.8581         5.8581        30.5238         0.6362         6.8648         6.8648         6.2219         6.0510      4604.3574
    3587.19120      -0.157747       358.3940       113.2780         0.2121         5.8581         5.8581        30.5238         0.7820         6.8648         6.8648         6.2219         6.0510      4580.4668
    3587.34360      -0.157057       358.3940       112.8191         0.3642         5.8581         5.8581        28.5747         0.7820         6.8648         6.8648         6.2219         6.0510      4550.9287
    3587.49600      -0.156777       358.3940       113.2314        -1.3606         5.8581         5.8581        31.8355         0.4074         6.8648         6.8648         6.2219         6.0510      4421.7998
    3587.64840      -0.158265       358.3940       117.4603        -0.4637         5.8581         5.8581        30.1438         0.6691         6.8648         6.8648         6.2241         6.0510      4416.0000
    3587.80080      -0.158885       358.3940       122.5482         0.0048         5.8581         5.8581        31.6149         0.3300         6.8648         6.8648         6.2093         6.0380      4275.0000
    3587.95320      -0.159428       358.3940       122.5482         0.0048         5.8581         5.8581        33.1472         0.0202         6.8648         6.8648         6.1905         6.0186      4215.4287
    3588.10560      -0.160248       358.3940       125.3559         0.0635         5.8581         5.8581        35.4640         0.0202         6.8648         6.8648         6.1905         6.0186      4148.5000
    3588.25800      -0.160153       358.3940       126.0628         0.6386         5.8670         5.8670        35.4640        -0.3863         6.8648         6.8648         6.1905         6.0186      4303.7998
    3588.41040      -0.159618       358.3940       125.2285         0.0950         5.8670         5.8670        37.1557        -0.0201         6.8809         6.8809         6.1905         6.0186      4589.2856
    3588.56280      -0.158878       358.3940       124.9538        -7.0946         5.8670         5.8670        35.6847         0.1992         6.8809         6.8809         6.1905         6.0186      4667.7856
    3588.71520      -0.158238       358.3940       124.9538        -7.0946         5.8670         5.8670        35.5131         0.0149         6.8809         6.8809         6.1926         6.0186      4604.4004
    3588.86760      -0.157367       358.3940       124.5498        -0.6100         5.8670         5.8670        34.7776         0.0149         6.8809         6.8809         6.1703         5.9931      4564.6431
    3589.02000      -0.157832       358.3940       130.2236         6.0965         5.8670         5.8670        31.5168         0.0975         6.8809         6.8809         6.2345         6.0748      4458.3999
    3589.17240      -0.159077       358.3940       124.0928         0.3589         5.8670         5.8670        32.7672        -0.4690         6.8809         6.8809         6.2466         6.0626      4352.6426
    3589.32480      -0.159320       358.3940       122.6596         0.0471         5.8670         5.8670        34.7898         0.1513         6.8809         6.8809         6.2533         6.0769      4402.1997
    3589.47720      -0.158512       356.9830       122.6596         0.0471         5.8670         5.8670        36.6776         0.1582         6.8809         6.8809         6.2533         6.0510      4471.5000
    3589.62960      -0.158690       356.9830       124.8282         0.1504         5.8954         5.8954        40.5391         0.1582         6.8809         6.8809         6.2533         6.0510      4561.2144
    3589.78200      -0.158817       356.9830       124.6059        -0.9117         5.8954         5.8954        44.8296         0.1290         6.8885         6.8885         6.2533         6.0510      4553.0664
    3589.93440      -0.158467       356.9830       119.9322         0.5384         5.8954         5.8954        44.8296         0.1062         6.8885         6.8885         6.2491         6.0683      4497.7144
    3590.08680      -0.158125       356.9830       120.4630        -0.1211         5.8954         5.8954        45.6509         0.0585         6.8885         6.8885         6.2398         6.0834      4423.5337
    3590.23920      -0.158593       356.9830       120.4630        -0.1211         5.8954         5.8954        46.4477        -0.0760         6.8885         6.8885         6.2282         6.0834      4302.5005
    3590.39160      -0.158485       356.9830       125.2750         0.0047         5.8954         5.8954        43.9225        -0.0760         6.8885         6.8885         6.2129         6.0834      4200.4668
    3590.54400      -0.158210       356.9830       124.6285        -0.0098         5.8954         5.8954        42.9785        -0.3157         6.8885         6.8885         6.2135         6.0834      4392.5713
    3590.69640      -0.157943       356.9830       124.4617        -0.0185         5.8954         5.8954        40.8701        -0.1200         6.8885         6.8885         6.2073         6.0834      4473.5713
    3590.84880      -0.157878       356.9830       125.9584        -0.1060         6.0051         6.0051        38.5777        -0.0534         6.8885         6.8885         6.2085         6.0811      4600.5332
    3591.00120      -0.158012       356.9830       125.9584        -0.1080         6.0051         6.0051        36.9228         0.2338         6.8733         6.8733         6.2174         6.0788      4577.1333
    3591.15360      -0.158508       356.9830       122.2262         0.3328         6.0051         6.0051        36.9228         0.2338         6.8733         6.8733         6.2198         6.0813      4451.5713
