~Version Information Block
VERS .                 2.00:  CWLS LOG ASCII STANDARD - VERSION 2.00
WRAP .                  YES:  Multiple lines per depth step
~Well Information Block
#MNEM.UNIT        Data Type   Information
#---------- ----------------  -----------
STRT .M          3513.58200:  START DEPTH
STOP .M          3649.06560:  STOP DEPTH
STEP .M             0.15240:  STEP
NULL .              -999.25:  NULL VALUE
COMP .              Statoil:  COMPANY
WELL .        NO_15/9-F-1_C:  WELL
FLD  .                Volve:  FIELD
LOC  .            North Sea:  LOCATION
CTRY .               Norway:  COUNTRY
STAT .                     :  STATE
CNTY .                     :  COUNTY
SRVC .         Schlumberger:  SERVICE COMPANY
DATE .          27-Nov-2014:  DATE
API  .                     :  API NUMBER
UWI  .           15/9-F-1 C:  UNIQUE WELL ID
LATI .     58° 26' 29.91" N:  LATITUDE
LONG .      1° 53' 14.71" E:  LONGITUDE
~Curve Information Block
#MNEM.UNIT         API CODE   Curve Description
#---------- ----------------  -----------------
DEPTH.M                    :  DEPTH (BOREHOLE)
BSAL .PPM                  :  Borehole Salinity
CCLC .V                    :  CCL
CIRF .                     :  RST Capture to Inelastic Ratio Far
CIRN .                     :  RST Capture to Inelastic Ratio Near
CVEL .M/SEC                 :  Cable Velocity
DFRB .DEG                  :  Calibrated Relative Bearing
DSIG .CU                   :  Sigma Difference
FBEF .UA                   :  RST Far Effective Beam Current
GR   .GAPI                 :  Gamma Ray
IRAT .                     :  RST Inelastic Ratio
PFC1 .IN                   :  PFCS CaliperX
PFC2 .IN                   :  PFCS CaliperY
RSCF .                     :  RST Far Detector Effective Unregulated
RSCN .                     :  RST Near Detector Effective
SFFA .CU                   :  RST Sigma Formation Far Apparent
SIBF .CU                   :  RST Sigma Borehole Fluid
SIGM .CU                   :  Formation Sigma (Neutron Capture Cross
TENS .LBF                  :  Cable Tension
TPHI .V/V                  :  Thermal Decay Porosity
~Parameter Information Block
#MNEM.UNIT            Value   Description
#---------- ----------------  -----------
APD  .M           54.900002:  Elevation of Depth Reference (LMF) above Permanent Datum
BHS  .                 CASE:  Borehole Status (Open or Cased Hole)
BS   .IN                8.5:  Bit Size
BSAL .PPM                 0:  Borehole Salinity
BSALOPT.              UNKNOWN:  Borehole Salinity Option
CSIZ .IN                  7:  Current Casing Size
CWEI .LB/F               29:  Casing Weight
EPD  .C3                  0:  Elevation of Permanent Datum above Mean Sea Level
LMF  .                   KB:  Logging Measured From (Name of Logging Elevation Reference)
MATR .                 SAND:  Rock Matrix for Neutron Porosity Corrections
PDAT .                  MSL:  Permanent Datum
RUN  .                Run 1:  RUN NUMBER
TAPE_NAME.     Statoil_Volve_15-9-F-1 C_PLT-RST_28Nov14_ConCu_R1L15Up_SigmaRepeat.las:  
TOOL_STRING.              UNKNOWN:  
WN   .           15/9-F-1 C:  WELL
PROJECT.     SLEIPNER_OST@st-vlinapp01:  
SET  .       RSTD_1114_SIG2:  
~Other Information Block
~Ascii Log Data
# ...
    3538.27080 
    13934.5996        -0.0036         2.2468       0.791300      -0.223052 
      355.5720        -1.0611        76.4885        27.6676         0.3599 
        6.1905         5.9862        10.9531        10.9235        18.2414 
       26.9551        17.1682      4506.0000       0.152200
    3538.42320 
    14049.0996         0.1954         2.2654       0.808100      -0.205258 
      355.5720        -1.3699        76.3257        27.5818         0.3640 
        6.1905         6.0011        10.4574        10.0534        20.0188 
       26.9949        17.3282      4496.5005       0.157000
    3538.57560 
    14158.5996         0.0137         2.2026       0.825200      -0.189372 
      355.5720        -1.4772        74.6048        25.7430         0.3646 
        6.1905         5.9916        10.4303        10.5157        19.2166 
       27.0329        17.8154      4492.0000       0.161900
    3538.72800 
    14669.2002         0.1152         2.1947       0.821000      -0.181768 
      355.5720        -1.5994        73.5148        27.0302         0.3640 
        6.1905         5.9862        10.7747        11.1024        19.7069 
       27.2105        17.5780      4460.5000       0.170700
    3538.88040 
    15656.3994         0.0151         2.1982       0.772300      -0.180883 
      355.5720        -1.6742        73.1162        27.0301         0.3705 
        6.1905         5.9862        10.9965        10.4701        19.2762 
       27.5540        17.8204      4293.3335       0.171500
    3539.03280 
    15462.5996        -0.0092         2.0923       0.829300      -0.181747 
      355.5720        -1.4724        70.6683        26.8463         0.3711 
        6.1905         5.9862        10.6700        10.8756        19.9156 
       27.4865        17.9401      4323.0000       0.175500
    3539.18520 
    14546.8994        -0.0001         2.0551       0.795200      -0.183017 
      355.5720        -1.6016        72.6997        26.8463         0.3721 
        6.1905         5.9862        10.1442        10.2665        20.0396 
       27.1679        17.7339      4177.5000       0.175800
    3539.33760 
    14414.4004        -0.0007         2.1273       0.791300      -0.183033 
      355.5720        -1.5855        74.4746        31.3084         0.3661 
        6.1905         5.9862        10.1258        10.0975        18.6450 
       27.1218        17.8082      4124.0000       0.175500
    3539.49000 
    14027.7998         0.0035         2.2489       0.833700      -0.183040 
      355.5720        -1.6460        78.7561        31.6761         0.3629 
        6.1905         5.9862         9.8117         9.8698        20.1143 
       26.9875        17.8861      4009.5000       0.171400
    3539.64240 
    13739.7002         0.0375         2.1843       0.833700      -0.182170 
      355.5720        -1.7329        79.9538        31.6761         0.3637 
        6.1905         5.9862         9.7214        10.4366        20.2534 
       26.8874        18.4304      4118.3335       0.172300
    3539.79480 
    13870.0996        -0.0240         2.2844       0.836600      -0.178547 
      355.5720        -1.8004        75.9740        34.4343         0.3638 
        6.1905         5.9862        10.5298        10.3487        20.2453 
       26.9327        18.1299      4417.0000       0.177900
    3539.94720 
    12682.2002        -0.0113         2.1436       0.829300      -0.172835 
      354.1610        -1.5178        79.0642        34.4343         0.3676 
        6.1905         5.9862         9.2925         9.8110        19.1724 
       26.5203        18.6813      4567.0005       0.185600
    3540.09960 
    12130.9004         0.0282         2.0076       0.825000      -0.168175 
      354.1610        -1.4154        78.0811        35.1208         0.3636 
        6.1905         5.9862         8.8524         9.8301        21.8836 
       26.3292        18.9408      4425.0000       0.196400
    3540.25200 
    11323.5000         0.0419         2.0224       0.798000      -0.166515 
      354.1610        -1.3681        80.5818        32.9143         0.3575 
        6.1905         5.9862         8.6585         9.6916        20.9851 
       26.0495        19.7118      4464.0000       0.196800
    3540.40440 
     9963.8008        -0.0059         2.1132       0.826400      -0.166932 
      354.1610        -1.2355        77.4625        33.0981         0.3571 
        6.1905         5.9862         9.3805         9.9305        21.4627 
       25.5791        19.3263      4362.3335       0.196100
    3540.55680 
    10890.8994        -0.0062         2.1603       0.820700      -0.166515 
      354.1610        -1.0370        76.3014        30.3400         0.3575 
        6.1905         5.9862         9.8154        10.1571        20.7062 
       25.8997        18.7440      4275.0000       0.189000
    3540.70920 
    10666.8994        -0.0019         2.0831       0.791500      -0.166495 
      354.1610        -1.0508        75.4146        30.4258         0.3548 
        6.1905         5.9862        10.0033        10.2769        19.2408 
       25.8222        18.5521      4239.0000       0.189400
    3540.86160 
    10820.0996         0.0127         2.1855       0.813800      -0.167152 
      354.1610        -0.9025        81.3378        29.8741         0.3490 
        6.1905         5.9862        10.1362        11.4806        20.8717 
       25.8752        18.6045      4010.0000       0.192700
    3541.01400 
    11395.7002         0.0028         2.1420       0.818800      -0.166072 
      354.1610        -0.8935        76.4519        30.2419         0.3507 
        6.1883         5.9862        10.2132        11.0843        20.8483 
       26.0745        19.2172      4098.6665       0.192000
    3541.16640 
    10746.6006         0.0211         2.1315       0.841000      -0.165223 
      354.1610        -0.9741        77.5279        28.9547         0.3574 
        6.1815         5.9862         9.7586        10.4805        21.0770 
       25.8498        18.7702      4276.0000       0.196500
    3541.31880 
    10686.7998         0.0722         2.0959       0.810900      -0.163318 
      355.5720        -1.0073        74.4195        30.9774         0.3602 
        6.1905         5.9862        10.0082        10.1881        19.5141 
       25.8291        18.9173      4380.0000       0.197600
    3541.47120 
    11237.8994        -0.0116         2.0253       0.801800      -0.163297 
      355.5720        -0.9964        76.2123        29.9722         0.3546 
        6.1883         5.9862         9.6491        10.6192        21.2877 
       26.0198        18.8256      4504.0000       0.207900
    3541.62360 
    11758.0000        -0.0238         2.0591       0.792000      -0.163317 
      355.5720        -1.2577        80.6915        27.9495         0.3491 
        6.1883         5.9862         9.2469        10.2275        20.7976 
       26.1999        19.7926      4338.0000       0.212000
    3541.77600 
    12020.2002        -0.0209         2.1038       0.824500      -0.163317 
      355.5720        -1.2514        82.8191        30.0212         0.3453 
        6.1905         5.9862         8.5007         9.5655        22.3911 
       26.2908        20.1141      4341.0000       0.218600
    3541.92840 
    12174.7002        -0.0390         1.9379       0.776900      -0.163912 
      355.5720        -1.3711        77.7656        31.8176         0.3478 
        6.1883         5.9862         8.9374        10.4416        22.2427 
       26.3443        20.4815      4249.0000       0.218000
    3542.08080 
    12240.9004        -0.0123         1.9969       0.791500      -0.165203 
      355.5720        -1.4427        80.7603        31.5234         0.3537 
        6.1905         5.9862         8.3262         9.2464        21.8736 
       26.3673        20.2523      4075.4998       0.217900
    3542.23320 
    11125.5996         0.0079         2.0047       0.808000      -0.165142 
      354.1610        -1.3966        80.4322        32.9944         0.3587 
        6.1860         5.9862         8.6528         9.8941        21.6986 
       25.9809        20.4915      4189.5000       0.215100
