~Version Information Block
VERS .                 2.00:  CWLS LOG ASCII STANDARD - VERSION 2.00
WRAP .                   NO:  One line per depth step
~Well Information Block
#MNEM.UNIT        Data Type   Information
#---------- ----------------  -----------
STRT .M          3230.11800:  START DEPTH
STOP .M          3389.98560:  STOP DEPTH
STEP .M             0.15240:  STEP
NULL .              -999.25:  NULL VALUE
COMP .              Statoil:  COMPANY
WELL .          NO_15/9-F-4:  WELL
FLD  .                VOLVE:  FIELD
LOC  .            North Sea:  LOCATION
CTRY .                     :  COUNTRY
STAT .                     :  STATE
CNTY .                     :  COUNTY
SRVC .         Schlumberger:  SERVICE COMPANY
DATE .          13-Sep-2012:  DATE
API  .                     :  API NUMBER
UWI  .             15/9-F-4:  UNIQUE WELL ID
~Curve Information Block
#MNEM.UNIT         API CODE   Curve Description
#---------- ----------------  -----------------
DEPTH.M                    :  DEPTH (BOREHOLE)
CCLC .V                    :  CCL
CCLD .V                    :  CCL Discriminated Amplitude
CRRA .                     :  Near-Far Count Rate Ratio
CS   .F/MN                 :  Cable Speed
CVEL .M/MIN                 :  Cable Velocity
FBEF .UA                   :  RST Far Effective Beam Current
FCOR .                     :  RST Far Carbon/Oxygen Ratio
FERD .                     :  RST Far IC Mode Capture Optimization Resolution Degradation Factor
FIRD .                     :  RST Far Inelastic Optimization Resolution Degradation Factor
GR   .GAPI                 :  Gamma Ray
NCOR .                     :  RST Near Carbon/Oxygen Ratio
NERD .                     :  RST Near IC Mode Capture Optimization Resolution Degradation Factor
NIRD .                     :  RST Near Inelastic Optimization Resolution Degradation Factor
RB_PCMS.DEG                  :  Relative Bearing
TENS .LBF                  :  Cable Tension
WTEP .DEGC                 :  Well Temperature
WTPE .MS                   :  Well Temperature Period
~Parameter Information Block
#MNEM.UNIT            Value   Description
#---------- ----------------  -----------
APD  .M                  54:  Elevation of Depth Reference (LMF) above Permanent Datum
RUN  .                    1:  RUN NUMBER
PROJECT.     SLEIPNER_OST@st-vlinapp01:  
SET  .        RSTD_0912_IC3:  
~Other Information Block
# 
~A       DEPTH           CCLC           CCLD           CRRA             CS           CVEL           FBEF           FCOR           FERD           FIRD             GR           NCOR           NERD           NIRD        RB_PCMS           TENS           WTEP           WTPE 
# ...
    3335.27400        -0.0122         0.0000         2.8283         1.7887       -0.54520       110.7535        -0.0246         4.9245         4.9245        32.8452      -0.059800         2.3601         2.3601       356.0128      2319.7322        86.7834         3.9427
    3335.42640        -0.0139         0.0000         2.8326         1.7694       -0.53930       110.4293         0.0789         4.9509         4.9509        32.1465      -0.047800         2.3694         2.3694       356.0103      2321.9021        86.7388         3.9423
    3335.57880        -0.0144         0.0000         2.8340         1.7526       -0.53420       110.1324         0.1483         5.0100         5.0100        31.8429      -0.040600         2.3617         2.3617       356.0673      2313.7539        86.6954         3.9419
    3335.73120        -0.0077         0.0000         2.8291         1.7497       -0.53330       110.0376        -0.0339         5.0066         5.0066        31.4879      -0.079900         2.3548         2.3548       355.9931      2307.3992        86.6501         3.9415
    3335.88360         0.0024         0.0000         2.8310         1.7697       -0.53940       110.0144         0.0139         4.9786         4.9786        31.5926      -0.034100         2.3417         2.3417       355.7790      2303.4250        86.6277         3.9413
    3336.03600        -0.0178         0.0000         2.8393         1.7684       -0.53900       109.2854        -0.2670         4.9850         4.9850        32.1468      -0.034500         2.3577         2.3577       355.7158      2305.2117        86.5760         3.9408
    3336.18840         0.0828         0.0000         2.8198         1.7644       -0.53780       108.5562        -0.1541         4.9536         4.9536        32.7022      -0.023800         2.3392         2.3392       355.7009      2320.1536        86.5390         3.9405
    3336.34080         0.1166         0.0000         2.8232         1.7520       -0.53400       107.8390        -0.0619         5.0033         5.0033        31.9230       0.017700         2.3450         2.3450       355.7510      2302.4514        86.4936         3.9401
    3336.49320         0.2076         0.0000         2.8048         1.7484       -0.53290       107.4951        -0.0458         4.9797         4.9797        31.6537      -0.021600         2.3755         2.3755       355.8293      2318.0740        86.4522         3.9397
    3336.64560        -0.0428         0.0000         2.7971         1.7438       -0.53150       106.7558        -0.0434         5.0024         5.0024        31.3386      -0.016300         2.3711         2.3711       355.8092      2318.5427        86.4349         3.9396
    3336.79800         0.1406         0.0000         2.7789         1.7362       -0.52920       105.8742        -0.1425         5.1471         5.1471        29.4593      -0.030500         2.4014         2.4014       355.7595      2310.9575        86.3887         3.9392
    3336.95040         0.0003         0.0000         2.7610         1.7119       -0.52180       107.7711        -0.1285         5.1066         5.1066        28.8537      -0.045900         2.4274         2.4274       355.7702      2314.6731        86.3582         3.9389
    3337.10280        -0.0001         0.0000         2.7993         1.6804       -0.51220       106.8518        -0.1795         5.1214         5.1214        29.2447      -0.008300         2.4076         2.4076       355.9104      2317.3296        86.2883         3.9383
    3337.25520        -0.0238         0.0000         2.7913         1.6467       -0.50190       107.7961        -0.1011         5.2025         5.2025        29.2819       0.078800         2.4155         2.4155       355.9637      2317.8613        86.3042         3.9384
    3337.40760         0.0048         0.0000         2.8011         1.5525       -0.47320       107.5598         0.1222         5.2478         5.2478        29.3253       0.020100         2.3970         2.3970       356.0985      2313.6677        86.2383         3.9378
    3337.56000         0.0000         0.0000         2.7920         1.8507       -0.56410       107.9601        -0.0429         5.3220         5.3220        30.2235      -0.041400         2.4004         2.4004       356.3989      2293.0322        86.2197         3.9377
    3337.71240        -0.0033         0.0000         2.8090         1.5420       -0.42420       107.1994        -0.0158         5.1233         5.1233        30.1444       0.026000         2.3573         2.3573       356.4803      2297.7747        86.1768         3.9373
    3337.86480         0.1501         0.0000         2.7870         1.8993       -0.57890       106.7962        -0.1322         5.0888         5.0888        29.9703       0.056000         2.3534         2.3534       356.4735      2303.6301        86.1442         3.9370
    3338.01720        -0.0715         0.0000         2.7704         1.9180       -0.58460       106.9957         0.0054         5.0736         5.0736        30.0212      -0.001600         2.3781         2.3781       356.4538      2317.4617        86.1193         3.9368
    3338.16960        -0.0581         0.0000         2.7786         1.9157       -0.58390       108.1383        -0.0597         5.0728         5.0728        29.5563      -0.023100         2.3979         2.3979       356.5313      2315.4746        86.0579         3.9362
    3338.32200        -0.0242        -0.0242         2.8571         1.9278       -0.58760       109.4349        -0.3440         5.0008         5.0008        29.4249       0.006500         2.3976         2.3976       356.3492      2301.3777        86.0187         3.9359
    3338.47440        -0.0003        -0.0003         2.9226         1.9127       -0.58300       109.9995        -0.1302         5.0210         5.0210        30.7806      -0.050600         2.4282         2.4282       356.2659      2337.9148        85.9871         3.9356
    3338.62680         0.0329         0.0329         2.9399         1.9278       -0.58760       107.8193        -0.1274         5.0537         5.0537        30.9852      -0.004500         2.4255         2.4255       356.3344      2332.5537        85.9555         3.9353
    3338.77920        -0.0016         0.0000         2.7796         1.9291       -0.58800       108.0759         0.0599         5.0604         5.0604        30.0103      -0.008600         2.4114         2.4114       356.3429      2317.4292        85.9218         3.9350
    3338.93160        -0.0025         0.0000         2.7923         1.9268       -0.58730       108.0015        -0.2007         5.0291         5.0291        30.5099      -0.019300         2.4565         2.4565       356.3309      2311.4102        85.8746         3.9346
    3339.08400        -0.0031         0.0000         2.8004         1.9278       -0.58760       108.3588        -0.1456         5.0408         5.0408        30.8651      -0.008700         2.4218         2.4218       356.3409      2313.7810        85.8390         3.9343
    3339.23640        -0.0041         0.0000         2.7991         1.9442       -0.59260       108.8148        -0.0541         5.0193         5.0193        30.1229      -0.003400         2.4359         2.4359       356.3251      2308.6841        85.8019         3.9340
    3339.38880        -0.0083         0.0000         2.8051         1.9409       -0.59160       108.7916        -0.1594         5.0802         5.0802        30.4024       0.002800         2.4502         2.4502       356.3705      2322.5820        85.7827         3.9338
    3339.54120        -0.0107         0.0000         2.8064         1.9406       -0.59150       108.8158         0.1286         5.1627         5.1627        31.1347      -0.002400         2.4638         2.4638       356.4857      2333.0688        85.7390         3.9334
    3339.69360        -0.0099         0.0000         2.8041         1.9403       -0.59140       108.5579        -0.2945         5.2150         5.2150        31.3385      -0.034300         2.4665         2.4665       356.5122      2311.0259        85.7079         3.9332
