~Version Information Block
VERS .                 2.00:  CWLS LOG ASCII STANDARD - VERSION 2.00
WRAP .                   NO:  One line per depth step
~Well Information Block
#MNEM.UNIT        Data Type   Information
#---------- ----------------  -----------
STRT .M          3460.24200:  START DEPTH
STOP .M          3530.19360:  STOP DEPTH
STEP .M             0.15240:  STEP
NULL .              -999.25:  NULL VALUE
COMP .              Statoil:  COMPANY
WELL .          NO_15/9-F-5:  WELL
FLD  .                Volve:  FIELD
LOC  .                Volve:  LOCATION
CTRY .               Norway:  COUNTRY
STAT .                     :  STATE
CNTY .                     :  COUNTY
SRVC .         Schlumberger:  SERVICE COMPANY
DATE .           11/03/2015:  DATE
API  .                     :  API NUMBER
UWI  .             15/9-F-5:  UNIQUE WELL ID
LATI .     58° 26' 29.66" N:  LATITUDE
LONG .      1° 53' 14.99" E:  LONGITUDE
~Curve Information Block
#MNEM.UNIT         API CODE   Curve Description
#---------- ----------------  -----------------
DEPTH.M                    :  Depth Index
CCLC .V                    :  (PSTP-B)                (1in)                   CCL Computed Amplitude
CVEL .M/SEC                 :  (WLWorkflow)            (1in)                   Cable Velocity
FBEF .UA                   :  (RST-D)                 (6in)                   Far Effective Beam Curre
FCOR .                     :  (RST-D)                 (6in)                   Far Carbon/Oxygen Ratio
FERD .                     :  (RST-D)                 (6in)                   Far IC Mode Capture Opti
FIRD .                     :  (RST-D)                 (6in)                   Far Inelastic Optimizati
GR   .GAPI                 :  (PSTP-B)                (6in)                   Gamma Ray
NCOR .                     :  (RST-D)                 (6in)                   Near Carbon/Oxygen Ratio
NERD .                     :  (RST-D)                 (6in)                   Near IC Mode Capture Opt
NIRD .                     :  (RST-D)                 (6in)                   Near Inelastic Optimizat
RB_PCMS.DEG                  :  (PCMS-A)                (6in)                   Relative Bearing
TENS .LBF                  :  (WLWorkflow)            (1in)                   Cable Tension
WPRE .BAR                  :  (PSTP-B)                (6in)                   Well Pressure
WTEP .DEGC                 :  (PSTP-B)                (6in)                   Well Temperature
~Parameter Information Block
#MNEM.UNIT            Value   Description
#---------- ----------------  -----------
APD  .M                  54:  Elevation of Depth Reference (LMF) Above Permanent Datum
CLAB .              Country:  :County Label
ECF  .M             -999.25:  Elevation of Casing Flange above Permanent Datum
EDF  .M                  54:  Elevation of Drill Floor Above Permanent Datum
EGL  .M                 -91:  Elevation of Ground Level Above Permanent Datum
EKB  .M             -999.25:  Elevation of Kelly Bushing Above Permanent Datum
EPD  .M                   0:  Elevation of Permanent Datum (PDAT) above Mean Sea Level
FL1  .            North Sea:  Field Location Line 1
FL2  .     Norwegian Sector:  Field Location Line 2
LMF  .                   DF:  Logging Measured From
LUL  .                 NOBO:  Logging Unit Location
LUN  .          ONCC-A 3837:  Logging Unit Number
PDAT .                  MSL:  Local Permanent Datum
RIGN .      Maersk Inspirer:  Rig Name
RIGTYP.               Jackup:  Rig Type
SON  .           C2TQ-00038:  Service Order Number
TAPE_NAME.     RST_IC_Pass-2___03Nov15_214110.las:  
TOOL_STRING.              UNKNOWN:  
WN   .             15/9-F-5:  WELL NAME
PROJECT.     SLEIPNER_OST@st-vlinapp01:  
SET  .        RSTD_1115_IC2:  
~Other Information Block
# 
~A       DEPTH           CCLC           CVEL           FBEF           FCOR           FERD           FIRD             GR           NCOR           NERD           NIRD        RB_PCMS           TENS           WPRE           WTEP 
# ...
    3471.21480       -0.03065     -0.0092230       144.8348       0.075650         6.2195         6.2195        92.0030      -0.019740         4.2143         4.2143       354.5175      4026.5957       359.1300        84.3749
    3471.36720       -0.00670     -0.0093242       142.1125       0.147590         6.3052         6.3052        88.7128      -0.021910         4.2201         4.2201       354.3072      3898.8301       359.1429        84.3810
    3471.51960       -0.02724     -0.0090635       140.1892       0.232440         6.3583         6.3583        86.4111       0.050370         4.2565         4.2565       354.4664      3985.1365       359.1535        84.3827
    3471.67200        0.00254     -0.0090973       140.2675       0.185830         6.7926         6.7926        84.0647       0.025410         4.2459         4.2459       354.5981      4033.6501       359.1636        84.3794
    3471.82440       -0.03192     -0.0091928       138.2552       0.181000         6.7660         6.7660        81.4679       0.009000         4.2321         4.2321       354.6100      3926.0723       359.1768        84.3782
    3471.97680       -0.01346     -0.0093983       136.7099      -0.166790         6.8657         6.8657        79.6320       0.113570         4.1718         4.1718       354.7548      3994.2253       359.1879        84.3804
    3472.12920       -0.00909     -0.0091023       133.7182      -0.048780         6.8695         6.8695        78.3661       0.070880         4.1791         4.1791       355.1013      3997.8809       359.1989        84.3883
    3472.28160        0.01060     -0.0090637       130.7305      -0.032450         6.5736         6.5736        78.2670      -0.047750         4.2109         4.2109       354.9053      3975.9080       359.2099        84.3929
    3472.43400       -0.00894     -0.0090058       127.5756       0.171520         6.4667         6.4667        75.9044       0.040900         4.2619         4.2619       354.7495      4035.1812       359.2227        84.4052
    3472.58640        0.02056     -0.0090968       125.4463       0.039760         6.3124         6.3124        73.7953       0.015380         4.2187         4.2187       354.5815      3987.2788       359.2326        84.4108
    3472.73880        0.01623     -0.0091692       123.0595      -0.243240         6.2647         6.2647        71.7593       0.081650         4.2293         4.2293       354.5575      3829.9756       359.2438        84.4171
    3472.89120       -0.02299     -0.0088905       120.8634       0.045040         6.0679         6.0679        68.4929       0.063840         4.2022         4.2022       354.5410      4006.2864       359.2572        84.4209
    3473.04360        0.00157     -0.0087800       121.8327       0.008660         6.1435         6.1435        66.0843       0.111150         4.1888         4.1888       354.7071      3929.7817       359.2689        84.4251
    3473.19600        0.00214     -0.0091928       122.4337       0.237920         5.9695         5.9695        66.2878       0.128430         4.1850         4.1850       354.5869      4009.6675       359.2800        84.4250
    3473.34840        0.01169     -0.0089232       122.7006       0.129860         6.2235         6.2235        66.0591       0.054010         4.2161         4.2161       354.4509      4041.7703       359.2911        84.4305
    3473.50080        0.03690     -0.0087603       122.4286      -0.061010         6.2007         6.2007        64.5632      -0.079870         4.2795         4.2795       354.5446      3990.7700       359.3025        84.4395
    3473.65320       -0.00835     -0.0088613       123.1494       0.090400         6.0105         6.0105        65.0747      -0.016160         4.3134         4.3134       354.6306      4085.2102       359.3150        84.4530
    3473.80560       -0.06625     -0.0088602       123.3524      -0.032640         6.1759         6.1759        64.5966       0.011820         4.3279         4.3279       354.5493      3966.0952       359.3261        84.4524
    3473.95800       -0.00762     -0.0087998       123.7628       0.015210         6.0615         6.0615        62.5283       0.076140         4.3241         4.3241       354.5051      3952.9280       359.3370        84.4613
    3474.11040       -0.00839     -0.0089813       124.2074       0.027970         6.0195         6.0195        62.7794       0.051140         4.3646         4.3646       354.3585      4031.4043       359.3496        84.4633
    3474.26280        0.00620     -0.0090417       125.0705      -0.107250         6.0290         6.0290        63.7883      -0.087570         4.3795         4.3795       354.2616      4024.9050       359.3596        84.4664
    3474.41520       -0.00857     -0.0092833       125.2963       0.129620         6.2325         6.2325        64.4454      -0.036470         4.3664         4.3664       354.2105      4040.4529       359.3738        84.4799
    3474.56760        0.04576     -0.0088902       125.9117       0.150980         6.0588         6.0588        66.5448      -0.064550         4.3718         4.3718       354.4617      4056.8459       359.3812        84.4822
    3474.72000       -0.00717     -0.0090173       126.2136      -0.127540         5.9852         5.9852        70.2319      -0.004870         4.3538         4.3538       354.7708      3980.9011       359.3975        84.4814
    3474.87240       -0.03766     -0.0089792       127.2571       0.061630         5.7789         5.7789        70.5221       0.068740         4.3487         4.3487       355.1627      4005.5356       359.4071        84.4851
    3475.02480       -0.02320     -0.0088608       127.7823       0.045920         5.7550         5.7550        72.0958       0.095510         4.3546         4.3546       355.1936      3982.6050       359.4190        84.4889
    3475.17720        0.00539     -0.0080068       127.5689      -0.180930         5.5946         5.5946        73.6981       0.006690         4.3435         4.3435       355.2688      3955.0659       359.4316        84.4927
    3475.32960        0.01533     -0.0085065       128.0709      -0.014220         5.6709         5.6709        73.0207       0.031980         4.3232         4.3232       355.4141      4018.8376       359.4429        84.5006
    3475.48200       -0.04205     -0.0090718       127.0213       0.097490         5.6875         5.6875        73.4182      -0.021250         4.3163         4.3163       355.6767      3936.6204       359.4541        84.5112
    3475.63440        0.01193     -0.0088905       127.9987       0.068940         5.7451         5.7451        74.6587       0.039370         4.2841         4.2841       355.7484      3980.0693       359.4654        84.5137
    3475.78680       -0.00716     -0.0086307       128.1548       0.062750         5.8448         5.8448        75.0915       0.063870         4.2617         4.2617       355.5270      4022.7268       359.4758        84.5146
    3475.93920       -0.09053     -0.0089482       128.0053       0.129500         5.7312         5.7312        76.2016       0.008510         4.2189         4.2189       355.1117      3914.2498       359.4859        84.5242
    3476.09160       -0.00962     -0.0088905       128.5901       0.122190         5.7725         5.7725        75.1641       0.015990         4.1968         4.1968       355.0068      3974.2849       359.5000        84.5282
    3476.24400       -0.00905     -0.0088610       127.8460       0.128590         5.5125         5.5125        73.8303       0.048010         4.1590         4.1590       354.8774      4029.7454       359.5112        84.5337
    3476.39640       -0.00847     -0.0092153       126.2467      -0.095230         5.3692         5.3692        72.7911      -0.024490         4.1846         4.1846       355.0756      3906.6982       359.5220        84.5336
    3476.54880       -0.00717     -0.0090677       126.4013       0.146460         5.3836         5.3836        72.1478       0.047320         4.1702         4.1702       354.9246      3971.2095       359.5341        84.5333
