~Version Information Block
VERS .                 2.00:  CWLS LOG ASCII STANDARD - VERSION 2.00
WRAP .                   NO:  One line per depth step
~Well Information Block
#MNEM.UNIT        Data Type   Information
#---------- ----------------  -----------
STRT .M          3457.23500:  START DEPTH
STOP .M          3635.08580:  STOP DEPTH
STEP .M             0.15240:  STEP
NULL .              -999.25:  NULL VALUE
COMP .                     :  COMPANY
WELL .          NO_15/9-F-5:  WELL
FLD  .                     :  FIELD
LOC  .                     :  LOCATION
CTRY .                     :  COUNTRY
STAT .                     :  STATE
CNTY .                     :  COUNTY
SRVC .                     :  SERVICE COMPANY
DATE .                     :  DATE
API  .                     :  API NUMBER
UWI  .                     :  UNIQUE WELL ID
~Curve Information Block
#MNEM.UNIT         API CODE   Curve Description
#---------- ----------------  -----------------
DEPTH.M                    :  
SAT201IC_BHOF.                     :  
SAT201IC_BVW.                     :  
SAT201IC_CRRA.                     :  Near-Far Count Rate Ratio
SAT201IC_FBEF.UA                   :  RST Far Effective Beam Current
SAT201IC_FCOR.                     :  
SAT201IC_GR.GAPI                 :  Gamma Ray
SAT201IC_NCOR.                     :  
SAT201IC_SO.                     :  
SAT201IC_SW.                     :  
SAT201IC_WPRE.PSI                  :  Well Pressure
SAT201IC_WTEP.DEGC                 :  Well Temperature
SAT201SI_BSAL.PPM                  :  Borehole Salinity
SAT201SI_GR.GAPI                 :  Gamma Ray
SAT201SI_IRAT.                     :  RST Inelastic Ratio
SAT201SI_RSCF.                     :  RST Far Detector Effective Unregulated Capture Count Rate
SAT201SI_RSCN.                     :  RST Near Detector Effective Unregulated Capture Count Rate
SAT201SI_SIGR.CU                   :  Formation Sigma (Neutron Capture Cross Section)
SAT201SI_TPHI.V/V                  :  Thermal Decay Porosity
~Parameter Information Block
#MNEM.UNIT            Value   Description
#---------- ----------------  -----------
CUR_INT_BOT.M           3635.2382:  
PROJECT.     SLEIPNER_OST@st-vlinapp01:  
SET  .            RSTD_0912:  
~Other Information Block
# 
~A       DEPTH  SAT201IC_BHOF   SAT201IC_BVW  SAT201IC_CRRA  SAT201IC_FBEF  SAT201IC_FCOR    SAT201IC_GR  SAT201IC_NCOR    SAT201IC_SO    SAT201IC_SW  SAT201IC_WPRE  SAT201IC_WTEP  SAT201SI_BSAL    SAT201SI_GR  SAT201SI_IRAT  SAT201SI_RSCF  SAT201SI_RSCN  SAT201SI_SIGR  SAT201SI_TPHI 
# ...
    3514.68980     -0.0153800       0.000000         3.0774       119.7802      0.0078300        73.6601      0.0150400       0.098100         0.0000      5048.0957        93.8036     35603.1992        56.2038       0.308900         3.8153         5.6516        31.6290       0.333400
    3514.84220     -0.0127800       0.000000         3.0952       118.0916      0.0277300        69.7083      0.0184500       0.164800         0.0000      5048.2207        93.7885     35888.1016        54.8751       0.312900         4.2099         5.8219        27.4858       0.294800
    3514.99460     -0.0104300       0.000000         3.0891       116.0421      0.0493200        64.9711      0.0166600       0.240000         0.0000      5048.3564        93.7700     34811.1016        50.9722       0.318000         5.9708         6.3936        22.8262       0.238700
    3515.14700     -0.0086300       0.000000         3.0044       114.0813      0.0659000        60.7430      0.0177500       0.304800         0.0000      5048.5151        93.7451     34509.3008        45.9897       0.322500         6.8975         6.8370        19.2486       0.204300
    3515.29940     -0.0078600       0.000000         2.9596       113.4690      0.0852300        53.5236      0.0231900       0.372200         0.0000      5048.6431        93.7368     34230.3008        39.0297       0.319700         7.9942         7.4746        18.3518       0.180900
    3515.45180     -0.0082100       0.000000         2.9502       115.7499      0.0974200        46.8198      0.0273900       0.391600         0.0000      5048.7642        93.7181     33643.3984        30.9850       0.311200         8.0844         8.1542        19.1543       0.180100
    3515.60420     -0.0094800       0.000000         3.1162       118.7047      0.0963000        42.2236      0.0264700       0.345700         0.0000      5048.9102        93.6967     33860.1992        24.2586       0.306400         7.6124         7.3074        19.3935       0.192500
    3515.75660     -0.0105100       0.000000         3.1861       116.1235      0.0925700        38.2093      0.0279900       0.308500         0.0000      5049.0488        93.6744     32970.6992        19.0436       0.310600         7.4373         7.7417        19.3393       0.206400
    3515.90900     -0.0116800       0.000000         3.0319       112.5644      0.0792500        35.2134      0.0280800       0.260500         0.0000      5049.2124        93.6443     32954.3984        15.8620       0.319100         8.1896         9.0502        18.0834       0.217700
    3516.06140     -0.0131100       0.000000         2.9269       110.5877      0.0713800        33.9098      0.0200700       0.236600         0.0000      5049.3608        93.6214     32748.0996        16.0281       0.324700         9.4198         9.0033        17.4490       0.211700
    3516.21380     -0.0142800       0.000000         2.8712       110.4208      0.0587800        33.7816      0.0081200       0.205900         0.0000      5049.4858        93.6018     31921.1992        17.5125       0.325900         9.4792         9.5661        16.7119       0.210500
    3516.36620     -0.0147700       0.022980         2.8558       110.6690      0.0464500        34.6747      0.0048600       0.173200         0.1105      5049.6182        93.5826     31083.0996        18.6959       0.327400         9.9366        10.0283        16.7259       0.207800
    3516.51860     -0.0151000       0.086020         2.8494       111.6202      0.0273400        36.0532      0.0043200       0.123100         0.3688      5049.7637        93.5619     30618.6992        18.9533       0.322300         9.5988         9.7916        16.6682       0.205800
    3516.67100     -0.0155200       0.116520         2.8798       112.9077      0.0174700        36.1500      0.0081200       0.098700         0.5032      5049.8726        93.5390     30201.5000        19.2284       0.319200         9.6416         9.6055        16.3545       0.194900
    3516.82340     -0.0157700       0.129400         2.9105       112.5540      0.0034200        35.8116      0.0132200       0.063700         0.5902      5050.0317        93.5183     29561.7012        17.6558       0.316900         9.8843         9.3244        15.2123       0.184300
    3516.97580     -0.0150800       0.138460         2.8974       111.6391     -0.0129800        35.5756      0.0157600       0.019600         0.6613      5050.1768        93.4948     29386.6992        16.9084       0.320000        11.1465         9.8437        14.1367       0.173300
    3517.12820     -0.0144400       0.156660         2.8712       110.6329     -0.0175800        34.0425      0.0138100       0.006400         0.7300      5050.3320        93.4898     28698.4004        15.4759       0.322800        11.8633        11.0096        13.2742       0.173100
    3517.28060     -0.0141500       0.186560         2.8533       110.4575     -0.0149000        31.8761      0.0125700       0.013200         0.8044      5050.4419        93.4709     28664.5996        14.7036       0.325600        11.8923        10.9128        13.0153       0.172600
    3517.43300     -0.0135900       0.208280         2.8585       109.5454     -0.0029200        30.7074      0.0009200       0.044600         0.8493      5050.5674        93.4516     28075.8984        13.6241       0.326800        12.2905        11.1272        12.5560       0.177900
    3517.58540     -0.0130200       0.223470         2.8195       110.4628     -0.0005100        29.6610     -0.0116900       0.050300         0.8682      5050.7295        93.4347     27469.6016        13.0376       0.329400        11.8807        10.9667        12.3854       0.179900
    3517.73780     -0.0132700       0.227820         2.8428       111.4113      0.0022000        28.4557     -0.0131100       0.057000         0.8604      5050.8550        93.4152     27405.7012        12.6224       0.329100        12.0566        10.8440        12.3691       0.183900
    3517.89020     -0.0139500       0.227900         2.8506       110.8692      0.0046500        28.4023     -0.0178200       0.063200         0.8448      5050.9941        93.4027     26337.6992        12.1241       0.327900        11.8541        11.0958        12.5412       0.189400
    3518.04260     -0.0147800       0.218150         2.8434       112.0045      0.0163600        28.1843     -0.0222700       0.093000         0.8231      5051.1392        93.3799     25531.7988        11.5915       0.324700        12.1353        11.6058        12.6434       0.192200
    3518.19500     -0.0159300       0.214810         2.8777       111.2665      0.0147200        28.2299     -0.0150100       0.089400         0.8169      5051.2495        93.3662     25121.2988        11.2483       0.323300        12.0975        11.5091        12.5333       0.193700
    3518.34740     -0.0170600       0.217230         2.8542       111.4807      0.0073700        28.4309     -0.0045200       0.071300         0.8221      5051.3584        93.3528     24245.0996        11.3313       0.319700        12.2548        11.3421        12.4868       0.195400
    3518.49980     -0.0182500       0.222490         2.8542       111.6446      0.0036200        29.2332     -0.0005800       0.062100         0.8330      5051.5107        93.3367     24351.8008        12.0787       0.317900        11.6802        11.3942        12.5701       0.199800
    3518.65220     -0.0185300       0.229790         2.8534       111.4637     -0.0017100        29.0079      0.0039500       0.048400         0.8480      5051.6367        93.3172     24209.1992        12.3200       0.319200        11.9257        11.3491        12.7365       0.204300
    3518.80460     -0.0181700       0.222800         2.8586       111.7512     -0.0111200        29.5889      0.0018100       0.023900         0.8463      5051.8037        93.2971     24429.4004        12.8526       0.320000        11.7510        11.3364        12.9497       0.205500
    3518.95700     -0.0168900       0.219220         2.8594       112.3135     -0.0142700        29.8158     -0.0025500       0.015200         0.8449      5051.9385        93.2761     24334.5996        13.1128       0.322300        11.7885        11.5252        13.0347       0.206900
