~Version Information Block
VERS .                 2.00:  CWLS LOG ASCII STANDARD - VERSION 2.00
WRAP .                   NO:  One line per depth step
~Well Information Block
#MNEM.UNIT        Data Type   Information
#---------- ----------------  -----------
STRT .M          3457.23500:  START DEPTH
STOP .M          3635.08580:  STOP DEPTH
STEP .M             0.15240:  STEP
NULL .              -999.25:  NULL VALUE
COMP .                     :  COMPANY
WELL .          NO_15/9-F-5:  WELL
FLD  .                     :  FIELD
LOC  .                     :  LOCATION
CTRY .                     :  COUNTRY
STAT .                     :  STATE
CNTY .                     :  COUNTY
SRVC .                     :  SERVICE COMPANY
DATE .                     :  DATE
API  .                     :  API NUMBER
UWI  .                     :  UNIQUE WELL ID
~Curve Information Block
#MNEM.UNIT         API CODE   Curve Description
#---------- ----------------  -----------------
DEPTH.M                    :  
SAT201IC_BHOF.                     :  
SAT201IC_BVW.                     :  
SAT201IC_CRRA.                     :  Near-Far Count Rate Ratio
SAT201IC_FBEF.UA                   :  RST Far Effective Beam Current
SAT201IC_FCOR.                     :  
SAT201IC_GR.GAPI                 :  Gamma Ray
SAT201IC_NCOR.                     :  
SAT201IC_SO.                     :  
SAT201IC_SW.                     :  
SAT201IC_WPRE.PSI                  :  Well Pressure
SAT201IC_WTEP.DEGC                 :  Well Temperature
SAT201SI_BSAL.PPM                  :  Borehole Salinity
SAT201SI_GR.GAPI                 :  Gamma Ray
SAT201SI_IRAT.                     :  RST Inelastic Ratio
SAT201SI_RSCF.                     :  RST Far Detector Effective Unregulated Capture Count Rate
SAT201SI_RSCN.                     :  RST Near Detector Effective Unregulated Capture Count Rate
SAT201SI_SIGR.CU                   :  Formation Sigma (Neutron Capture Cross Section)
SAT201SI_TPHI.V/V                  :  Thermal Decay Porosity
~Parameter Information Block
#MNEM.UNIT            Value   Description
#---------- ----------------  -----------
CUR_INT_BOT.M           3635.2382:  
PROJECT.     SLEIPNER_OST@st-vlinapp01:  
SET  .            RSTD_0912:  
~Other Information Block
# 
~A       DEPTH  SAT201IC_BHOF   SAT201IC_BVW  SAT201IC_CRRA  SAT201IC_FBEF  SAT201IC_FCOR    SAT201IC_GR  SAT201IC_NCOR    SAT201IC_SO    SAT201IC_SW  SAT201IC_WPRE  SAT201IC_WTEP  SAT201SI_BSAL    SAT201SI_GR  SAT201SI_IRAT  SAT201SI_RSCF  SAT201SI_RSCN  SAT201SI_SIGR  SAT201SI_TPHI 
# ...
    3629.59940     -0.0176300       0.161970         2.9196       112.8164     -0.0098300        51.9687      0.0067800       0.031800         0.9749      5146.7817        73.4495     37591.8008        24.1937       0.326800        10.9195        10.5937        13.6202       0.225400
    3629.75180     -0.0179600       0.158010         2.8858       111.3457     -0.0275700        51.9687      0.0051700      -0.020700         0.9083      5146.8584        73.4495     38070.2031        19.1254       0.328000        11.8305        10.9621        12.9611       0.220600
    3629.90420     -0.0175200       0.160060         2.8479       110.8464     -0.0423100        51.9687      0.0061700      -0.065400         0.8458      5146.8584        73.4495     38312.3008        16.1073       0.326900        11.8925        11.1498        12.9796       0.218100
    3630.05660     -0.0166100       0.162840         2.8411       110.3307     -0.0427900        51.9687      0.0094800      -0.066900         0.8307      5146.8584        73.4495     38098.0977        14.1945       0.329100        11.1249        10.7522        13.1880       0.220500
    3630.20900     -0.0154600       0.173540         2.8259       110.7431     -0.0394200        51.9687      0.0024200      -0.057000         0.8833      5146.8584        73.4495     37699.3008        15.7036       0.327300        10.6421        10.3154        13.6329       0.221900
    3630.36140     -0.0142900       0.178650         2.8303       111.4627     -0.0348100        51.9687     -0.0125700      -0.043700         0.9563      5146.8584        73.4495     37498.5000        15.5172       0.328700        10.6144        10.2721        13.9341       0.221600
    3630.51380     -0.0136000       0.175360         2.8471       112.3320     -0.0235500        51.9687     -0.0169500      -0.010200         0.9975      5146.8584        73.4495     37027.0000        15.1736       0.332300        11.1229        10.3813        14.1183       0.219300
    3630.66620     -0.0136600       0.173240         2.8730       113.3637     -0.0113300        51.9687     -0.0242200       0.025600         1.0000      5146.8584        73.4495     36520.8008        15.5760       0.331000        10.4630        10.0181        14.0440       0.216400
    3630.81860     -0.0136400       0.176170         2.8999       112.8016     -0.0003400        51.9687     -0.0342300       0.056500         1.0000      5146.8584        73.4495     35962.0000        16.5199       0.334500        10.4886        10.1818        14.3477       0.215200
    3630.97100     -0.0119700       0.168840         2.8768       112.6147     -0.0020400        51.9687     -0.0348400       0.050800         0.9318      5146.8584        73.4495     36296.0000        15.8689       0.327100        10.0686         9.7451        14.8611       0.217000
    3631.12340     -0.0095600       0.158940         2.8783       111.8249     -0.0136900        51.9687     -0.0222300       0.016700         0.8588      5146.8584        73.4495     36323.3008        16.6412       0.328900         9.7570         9.5471        15.5967       0.225300
    3631.27580     -0.0069900       0.151490         2.8626       113.0813     -0.0090100        51.9687     -0.0121300       0.029200         0.8208      5146.8584        73.4495     36186.0000        17.7952       0.325100         9.6888         9.8073        16.3143       0.234500
    3631.42820     -0.0028900       0.143860         2.9030       113.4261     -0.0123000        51.9687     -0.0073700       0.018700         0.8198      5146.8584        73.4495     36537.1016        17.4520       0.326800         9.2302         9.4494        16.7379       0.242700
    3631.58060      0.0063800       0.144910         2.8905       113.4994     -0.0094100        51.9687     -0.0018300       0.024100         0.8779      5146.8584        73.4495     37001.2031        17.3040       0.324700         8.5947         8.8225        17.1418       0.244800
    3631.73300      0.0074100       0.137790         2.9006       114.0965      0.0011100        51.9687     -0.0050100       0.055600         0.9611      5146.8584        73.4495     36781.6016        17.2182       0.323900         8.3708         8.7876        17.4541       0.243900
    3631.88540      0.0075200       0.126020         2.9246       115.0616      0.0135300        51.9687     -0.0153900       0.093000         0.9686      5146.8584        73.4495     37094.1992        17.1324       0.324500         8.2749         8.7468        17.4958       0.242800
    3632.03780      0.0074700       0.124820         2.9373       115.0104      0.0049400        51.9687     -0.0224500       0.067600         0.9296      5146.8584        73.4495     37254.1016        17.0921       0.320700         8.1810         8.8525        17.5852       0.237500
    3632.19020      0.0082600       0.093020         2.9410       114.5280      0.0088900        51.9687     -0.0259900       0.081000         0.7856      5146.8584        73.4495     37662.5000        15.5319       0.323700         8.3510         8.4532        17.2503       0.231200
    3632.34260      0.0097200       0.089720         2.9264       114.4274      0.0051800        51.9687     -0.0268700       0.068600         0.7260      5146.8584        73.4495     37682.2031        15.3093       0.319900         7.9738         8.2989        17.3131       0.221800
    3632.49500      0.0111300       0.083040         2.9232       115.0146     -0.0099400        51.9687     -0.0229000       0.021700         0.6174      5146.8584        73.4495     37745.3984        15.3093       0.318900         8.6206         8.3819        17.0701       0.218100
    3632.64740      0.0129900       0.091940         2.9397       114.4029     -0.0157500        51.9687     -0.0158200       0.003100         0.5929      5146.8584        73.4495     37859.9023        15.3093       0.313900         9.3481         9.1407        16.6039       0.221300
    3632.79980      0.0154600       0.118900         2.9216       115.3803     -0.0059200        51.9687     -0.0062800       0.029700         0.6447      5146.8584        73.4495     37993.6992        15.3093       0.313900         9.1141         8.9595        16.2888       0.225900
    3632.95220      0.0176600       0.139870         2.9555       114.6204      0.0080100        51.9687      0.0071400       0.066000         0.7018      5146.8584        73.4495     37534.0977        15.3093       0.318400         8.8652         9.1426        16.0140       0.229100
    3633.10460      0.0191700       0.156770         2.9182       114.1399      0.0069800        51.9687      0.0161100       0.062100         0.7561      5146.8584        73.4495     37765.8984        15.3093       0.316300         9.4232         9.1719        16.1052       0.229400
    3633.25700      0.0200700       0.160850         2.9293       114.7444      0.0131100        51.9687      0.0246400       0.078400         0.7967      5146.8584        73.4495     37098.8008        15.3093       0.315800         8.9770         9.0082        16.4322       0.229200
    3633.40940      0.0202300       0.165660         2.9383       114.3487      0.0079500        51.9687      0.0252500       0.065100         0.8348      5146.8584        73.4495     37212.1992        15.3093       0.313900         8.4704         8.6646        16.4468       0.235000
    3633.56180      0.0199400       0.170190         2.9369       114.9915     -0.0054100        51.9687      0.0203700       0.028800         0.8474      5146.8584        73.4495     37401.7969        15.3093       0.316600         8.4858         8.8396        16.5532       0.237800
    3633.71420      0.0190400       0.166880         2.9357       115.1949     -0.0323200        51.9687      0.0118400      -0.047700         0.8044      5146.8584        73.4495     38305.0000        15.3093       0.317900         8.7649         8.8766        15.8699       0.242600
    3633.86660      0.0173400       0.163670         2.9647       113.7031     -0.0385200        51.9687      0.0048900      -0.065200         0.7760      5146.8584        73.4495     38667.0000        15.3093       0.317300         9.3150         9.3122        15.6562       0.237400
