~Version Information Block
VERS .                 2.00:  CWLS LOG ASCII STANDARD - VERSION 2.00
WRAP .                   NO:  One line per depth step
~Well Information Block
#MNEM.UNIT        Data Type   Information
#---------- ----------------  -----------
STRT .M          3460.08960:  START DEPTH
STOP .M          3530.04120:  STOP DEPTH
STEP .M             0.15240:  STEP
NULL .              -999.25:  NULL VALUE
COMP .              Statoil:  COMPANY
WELL .          NO_15/9-F-5:  WELL
FLD  .                Volve:  FIELD
LOC  .                Volve:  LOCATION
CTRY .               Norway:  COUNTRY
STAT .                     :  STATE
CNTY .                     :  COUNTY
SRVC .         Schlumberger:  SERVICE COMPANY
DATE .           11/04/2015:  DATE
API  .                     :  API NUMBER
UWI  .             15/9-F-5:  UNIQUE WELL ID
LATI .     58° 26' 29.66" N:  LATITUDE
LONG .      1° 53' 14.99" E:  LONGITUDE
~Curve Information Block
#MNEM.UNIT         API CODE   Curve Description
#---------- ----------------  -----------------
DEPTH.M                    :  Depth Index
CCLC .V                    :  (PSTP-B)                (1in)                   CCL Computed Amplitude
CVEL .M/SEC                 :  (WLWorkflow)            (1in)                   Cable Velocity
FBEF .UA                   :  (RST-D)                 (6in)                   Far Effective Beam Curre
FCOR .                     :  (RST-D)                 (6in)                   Far Carbon/Oxygen Ratio
FERD .                     :  (RST-D)                 (6in)                   Far IC Mode Capture Opti
FIRD .                     :  (RST-D)                 (6in)                   Far Inelastic Optimizati
GR   .GAPI                 :  (PSTP-B)                (6in)                   Gamma Ray
NCOR .                     :  (RST-D)                 (6in)                   Near Carbon/Oxygen Ratio
NERD .                     :  (RST-D)                 (6in)                   Near IC Mode Capture Opt
NIRD .                     :  (RST-D)                 (6in)                   Near Inelastic Optimizat
RB_PCMS.DEG                  :  (PCMS-A)                (6in)                   Relative Bearing
TENS .LBF                  :  (WLWorkflow)            (1in)                   Cable Tension
WPRE .BAR                  :  (PSTP-B)                (6in)                   Well Pressure
WTEP .DEGC                 :  (PSTP-B)                (6in)                   Well Temperature
~Parameter Information Block
#MNEM.UNIT            Value   Description
#---------- ----------------  -----------
APD  .M                  54:  Elevation of Depth Reference (LMF) Above Permanent Datum
CLAB .              Country:  :County Label
ECF  .M             -999.25:  Elevation of Casing Flange above Permanent Datum
EDF  .M                  54:  Elevation of Drill Floor Above Permanent Datum
EGL  .M                 -91:  Elevation of Ground Level Above Permanent Datum
EKB  .M             -999.25:  Elevation of Kelly Bushing Above Permanent Datum
EPD  .M                   0:  Elevation of Permanent Datum (PDAT) above Mean Sea Level
FL1  .            North Sea:  Field Location Line 1
FL2  .     Norwegian Sector:  Field Location Line 2
LMF  .                   DF:  Logging Measured From
LUL  .                 NOBO:  Logging Unit Location
LUN  .          ONCC-A 3837:  Logging Unit Number
PDAT .                  MSL:  Local Permanent Datum
RIGN .      Maersk Inspirer:  Rig Name
RIGTYP.               Jackup:  Rig Type
SON  .           C2TQ-00038:  Service Order Number
TAPE_NAME.     RST_IC_Pass_4___04Nov15_021221.las:  
TOOL_STRING.              UNKNOWN:  
WN   .             15/9-F-5:  WELL NAME
PROJECT.     SLEIPNER_OST@st-vlinapp01:  
SET  .        RSTD_1115_IC4:  
~Other Information Block
# 
~A       DEPTH           CCLC           CVEL           FBEF           FCOR           FERD           FIRD             GR           NCOR           NERD           NIRD        RB_PCMS           TENS           WPRE           WTEP 
# ...
    3482.03520      -0.004690    -0.00923100       123.2378      -0.025160         6.0052         6.0052       115.4614       0.047670         4.0765         4.0765       352.1378      3939.0730       358.6249        85.1113
    3482.18760       0.010740    -0.00922467       123.3021      -0.070240         5.9772         5.9772       115.9186       0.041650         4.0971         4.0971       352.0212      4046.7903       358.6355        85.1113
    3482.34000      -0.022030    -0.00922383       122.8638      -0.067130         5.9925         5.9925       113.8455       0.019190         4.0600         4.0600       352.0072      3997.0469       358.6451        85.1063
    3482.49240       0.008310    -0.00911133       123.0039       0.140950         5.9999         5.9999       117.5957       0.014120         4.1394         4.1394       352.1461      3995.8914       358.6572        85.1013
    3482.64480       0.003530    -0.00935517       124.0786       0.090350         6.0180         6.0180       117.5572       0.030610         4.1253         4.1253       352.0057      3939.8779       358.6668        85.0967
    3482.79720       0.026940    -0.00913850       122.9784       0.086420         6.0432         6.0432       114.7460       0.110250         4.1496         4.1496       351.8217      3957.3657       358.6791        85.0958
    3482.94960       0.017230    -0.00909100       124.2213      -0.037370         6.2267         6.2267       114.4713       0.017540         4.1488         4.1488       351.6708      4047.5793       358.6883        85.0921
    3483.10200      -0.046110    -0.00904917       123.4219       0.138150         6.2683         6.2683       113.8086       0.087690         4.1490         4.1490       351.6672      4069.6758       358.6998        85.0912
    3483.25440      -0.001950    -0.00904167       123.5962      -0.036360         6.2021         6.2021       114.6496      -0.006520         4.1422         4.1422       351.6643      4019.2625       358.7118        85.0816
    3483.40680      -0.002610    -0.00910200       122.8737       0.037060         6.1573         6.1573       115.5987       0.027630         4.1530         4.1530       351.7522      3941.4043       358.7227        85.0708
    3483.55920      -0.005340    -0.00920017       122.3317       0.122470         6.2318         6.2318       118.4740       0.032520         4.1498         4.1498       351.8338      3933.0730       358.7344        85.0689
    3483.71160       0.013720    -0.00904183       122.6268       0.021120         6.2339         6.2339       116.4628       0.020300         4.1667         4.1667       351.9214      3981.9756       358.7421        85.0440
    3483.86400      -0.006100    -0.00911283       121.6579      -0.047210         6.2654         6.2654       116.5636       0.157600         4.1599         4.1599       351.9512      4032.9509       358.7602        85.0339
    3484.01640       0.004970    -0.00936667       121.4434       0.029320         6.3053         6.3053       116.7460       0.057010         4.1496         4.1496       351.8490      3905.9744       358.7679        85.0277
    3484.16880       0.000010    -0.00910217       121.7531       0.089760         6.2142         6.2142       116.9101       0.058620         4.1403         4.1403       351.6104      3952.4761       358.7787        85.0181
    3484.32120      -0.005260    -0.00935500       122.1976       0.060590         6.1434         6.1434       115.0528       0.014550         4.1210         4.1210       351.7083      4027.6343       358.7922        84.9964
    3484.47360       0.010640    -0.00938583       121.2175       0.174450         6.1056         6.1056       115.3539      -0.009360         4.0702         4.0702       351.7902      3980.0737       358.8033        84.9782
    3484.62600      -0.003820    -0.00905750       121.9094       0.062980         6.0970         6.0970       114.9681       0.045610         4.0956         4.0956       351.8958      4048.4741       358.8142        84.9622
    3484.77840       0.030100    -0.00925333       121.7653      -0.021710         6.0652         6.0652       113.7485       0.064870         4.1190         4.1190       351.8742      3970.6677       358.8230        84.9278
    3484.93080      -0.003850    -0.00904183       120.8914      -0.186380         6.1204         6.1204       114.4974       0.079070         4.1146         4.1146       351.6947      3981.2383       358.8382        84.9132
    3485.08320      -0.004240    -0.00951000       121.0561       0.021600         6.1795         6.1795       116.0379       0.052830         4.1501         4.1501       351.5989      3933.7563       358.8492        84.8928
    3485.23560      -0.004190    -0.00917267       121.7729       0.071950         6.2510         6.2510       116.6635      -0.042750         4.1540         4.1540       351.4410      3947.1775       358.8596        84.8583
    3485.38800      -0.006310    -0.00904167       122.5944      -0.100470         6.1952         6.1952       116.1955      -0.031860         4.1563         4.1563       351.4865      3925.0945       358.8728        84.8532
    3485.54040      -0.006220    -0.00915617       122.1136      -0.005390         6.1769         6.1769       115.2723       0.028660         4.1732         4.1732       351.4357      3931.4182       358.8820        84.8392
    3485.69280      -0.000350    -0.00874233       122.0812      -0.017330         6.1920         6.1920       114.9126       0.035350         4.1764         4.1764       351.3003      3963.4424       358.8906        84.8082
    3485.84520      -0.005770    -0.00880217       120.6423       0.011150         6.1924         6.1924       116.1885      -0.119730         4.1820         4.1820       351.0866      3994.6055       358.9064        84.7978
    3485.99760      -0.003770    -0.00889050       121.0095       0.029340         6.2903         6.2903       119.9790       0.046020         4.2463         4.2463       350.8431      3991.2085       358.9160        84.7912
    3486.15000      -0.005120    -0.00892000       121.8982      -0.089740         6.2326         6.2326       124.3674       0.007110         4.2601         4.2601       350.7549      3953.6743       358.9248        84.7705
    3486.30240      -0.005540    -0.00897900       125.3712      -0.376420         6.2230         6.2230       126.8250       0.051110         4.2698         4.2698       350.8056      4049.7217       358.9404        84.7471
    3486.45480      -0.006560    -0.00910200       126.5455      -0.076610         6.2417         6.2417       126.7326      -0.027370         4.2566         4.2566       351.0063      3947.9531       358.9518        84.7247
    3486.60720      -0.005790    -0.00923117       126.5109       0.031510         6.3019         6.3019       128.6836       0.066730         4.2428         4.2428       351.0835      4006.9990       358.9614        84.6971
    3486.75960      -0.010150    -0.00922300       126.2407       0.011150         6.2289         6.2289       127.3747       0.070400         4.2333         4.2333       351.3299      4004.9287       358.9745        84.6740
    3486.91200      -0.000560    -0.00962067       127.5391       0.066980         6.2526         6.2526       126.3034       0.124270         4.1818         4.1818       351.4863      4066.8748       358.9825        84.6555
    3487.06440      -0.006110    -0.00931383       127.0405       0.113570         6.3885         6.3885       127.7868       0.012160         4.1703         4.1703       351.3628      3984.0708       358.9960        84.6411
    3487.21680      -0.006440    -0.00937433       127.3203       0.043120         6.3147         6.3147       129.3994       0.059250         4.1689         4.1689       351.0097      3996.0959       359.0073        84.6280
    3487.36920       0.004650    -0.00918583       127.1578       0.080820         6.3917         6.3917       128.6082       0.102740         4.1867         4.1867       351.4558      3915.6052       359.0162        84.5994
