~Version Information Block
VERS .                 2.00:  CWLS LOG ASCII STANDARD - VERSION 2.00
WRAP .                   NO:  One line per depth step
~Well Information Block
#MNEM.UNIT        Data Type   Information
#---------- ----------------  -----------
STRT .M          3457.23500:  START DEPTH
STOP .M          3635.08580:  STOP DEPTH
STEP .M             0.15240:  STEP
NULL .              -999.25:  NULL VALUE
COMP .                     :  COMPANY
WELL .          NO_15/9-F-5:  WELL
FLD  .                     :  FIELD
LOC  .                     :  LOCATION
CTRY .                     :  COUNTRY
STAT .                     :  STATE
CNTY .                     :  COUNTY
SRVC .                     :  SERVICE COMPANY
DATE .                     :  DATE
API  .                     :  API NUMBER
UWI  .                     :  UNIQUE WELL ID
~Curve Information Block
#MNEM.UNIT         API CODE   Curve Description
#---------- ----------------  -----------------
DEPTH.M                    :  
SAT201IC_BHOF.                     :  
SAT201IC_BVW.                     :  
SAT201IC_CRRA.                     :  Near-Far Count Rate Ratio
SAT201IC_FBEF.UA                   :  RST Far Effective Beam Current
SAT201IC_FCOR.                     :  
SAT201IC_GR.GAPI                 :  Gamma Ray
SAT201IC_NCOR.                     :  
SAT201IC_SO.                     :  
SAT201IC_SW.                     :  
SAT201IC_WPRE.PSI                  :  Well Pressure
SAT201IC_WTEP.DEGC                 :  Well Temperature
SAT201SI_BSAL.PPM                  :  Borehole Salinity
SAT201SI_GR.GAPI                 :  Gamma Ray
SAT201SI_IRAT.                     :  RST Inelastic Ratio
SAT201SI_RSCF.                     :  RST Far Detector Effective Unregulated Capture Count Rate
SAT201SI_RSCN.                     :  RST Near Detector Effective Unregulated Capture Count Rate
SAT201SI_SIGR.CU                   :  Formation Sigma (Neutron Capture Cross Section)
SAT201SI_TPHI.V/V                  :  Thermal Decay Porosity
~Parameter Information Block
#MNEM.UNIT            Value   Description
#---------- ----------------  -----------
CUR_INT_BOT.M           3635.2382:  
PROJECT.     SLEIPNER_OST@st-vlinapp01:  
SET  .            RSTD_0912:  
~Other Information Block
# 
~A       DEPTH  SAT201IC_BHOF   SAT201IC_BVW  SAT201IC_CRRA  SAT201IC_FBEF  SAT201IC_FCOR    SAT201IC_GR  SAT201IC_NCOR    SAT201IC_SO    SAT201IC_SW  SAT201IC_WPRE  SAT201IC_WTEP  SAT201SI_BSAL    SAT201SI_GR  SAT201SI_IRAT  SAT201SI_RSCF  SAT201SI_RSCN  SAT201SI_SIGR  SAT201SI_TPHI 
# ...
    3616.34060     -0.0108500       0.149540         2.8976       112.6381      0.0018700        28.1888     -0.0212600       0.059100         0.7309      5135.3389        69.2600     31404.9004        12.1761       0.326200        12.0725        10.7659        11.6604       0.171200
    3616.49300     -0.0124600       0.159590         2.8749       111.1455     -0.0103200        26.4749     -0.0141400       0.026800         0.8167      5135.4556        69.2105     31128.5996        13.5787       0.328100        12.1631        10.4999        11.4376       0.159500
    3616.64540     -0.0134400       0.158560         2.8355       110.3228     -0.0153600        25.7816     -0.0049900       0.013400         0.8665      5135.5308        69.2710     32043.2012        14.3599       0.328000        13.3362        11.3821        11.0762       0.152500
    3616.79780     -0.0140200       0.151470         2.8203       109.9911     -0.0236100        24.8877     -0.0030000      -0.010300         0.8568      5135.6577        69.4286     31757.2988        14.1024       0.328200        13.3679        11.2182        10.8032       0.151200
    3616.95020     -0.0145500       0.144190         2.8099       110.5366     -0.0222500        24.3164      0.0008900      -0.006100         0.7931      5135.8267        69.4032     31864.9004        13.5018       0.329100        12.6445        10.8502        10.6190       0.155000
    3617.10260     -0.0149700       0.139470         2.7780       112.3465     -0.0096400        23.9621      0.0014200       0.029800         0.7268      5135.9341        69.4485     31848.3008        12.6437       0.327700        12.4892        10.7779        10.6583       0.159400
    3617.25500     -0.0152200       0.138600         2.8154       113.1272     -0.0012200        24.3272      0.0041300       0.052800         0.6979      5136.0371        69.5491     31693.1992        11.9335       0.325200        12.3819        10.9070        10.8306       0.163700
    3617.40740     -0.0162600       0.138050         2.8300       113.5411     -0.0022900        24.1791      0.0060000       0.050100         0.6889      5136.1846        69.5798     31883.6992        11.7619       0.324600        12.5330        10.9536        10.9239       0.168300
    3617.55980     -0.0175200       0.139560         2.8404       113.5747      0.0057900        23.1415      0.0138600       0.071800         0.6782      5136.3184        69.6143     31911.6992        12.7058       0.330700        12.7648        10.9569        11.0943       0.171000
    3617.71220     -0.0186000       0.139690         2.8448       113.1154      0.0109000        22.5355      0.0219800       0.085100         0.6609      5136.4365        69.6901     31747.6992        13.4781       0.329100        12.2359        10.4912        11.2169       0.171200
    3617.86460     -0.0192800       0.139700         2.8448       112.7857      0.0097000        22.6873      0.0245100       0.081700         0.6468      5136.5605        69.7123     31696.5996        14.6913       0.330000        12.6439        11.1433        11.2619       0.169700
    3618.01700     -0.0195200       0.137580         2.8370       112.1012      0.0128900        22.4274      0.0203000       0.090200         0.6404      5136.6865        69.7708     31266.5996        14.0847       0.330800        12.0328        10.6826        11.3157       0.166500
    3618.16940     -0.0187000       0.141550         2.8385       111.9063      0.0161600        22.3012      0.0151700       0.098400         0.6615      5136.8242        69.8374     31159.2012        14.2563       0.331100        12.3777        10.4707        11.1107       0.165300
    3618.32180     -0.0165400       0.148030         2.8391       112.5749      0.0121400        22.9433      0.0077100       0.087700         0.7016      5136.9766        69.8629     31737.0000        13.2088       0.331600        12.5754        10.8476        11.0878       0.164300
    3618.47420     -0.0135700       0.156750         2.8382       112.4580      0.0112000        23.4410     -0.0012200       0.084300         0.7474      5137.1274        70.0342     31862.0000        12.1791       0.329900        12.3608        10.5600        11.0492       0.165600
    3618.62660     -0.0107100       0.154450         2.8448       112.5673      0.0014500        23.1247     -0.0017100       0.057900         0.7551      5137.2207        70.0516     32558.7988        11.2000       0.332400        12.2704        10.7809        11.1325       0.167300
    3618.77900     -0.0084400       0.150700         2.8493       112.7021      0.0019700        22.8392      0.0004000       0.058600         0.7382      5137.4028        70.0540     31936.7012        10.8301       0.334000        12.1223        10.7109        11.3330       0.167200
    3618.93140     -0.0065300       0.149640         2.8332       112.8577      0.0034600        22.4788     -0.0009700       0.061500         0.7152      5137.5249        70.1011     31398.1992         9.9720       0.330300        11.9290        10.5457        11.4313       0.167700
    3619.08380     -0.0054800       0.151570         2.8263       113.7446     -0.0044400        22.4942     -0.0016800       0.039700         0.7119      5137.6406        70.1823     31529.1992        10.5046       0.326300        12.1315        10.9212        11.4381       0.170600
    3619.23620     -0.0049800       0.158000         2.8311       113.9071     -0.0115000        22.0978     -0.0038400       0.020300         0.7520      5137.7705        70.2908     32002.3008        10.6614       0.325500        12.2845        10.6260        11.3397       0.173800
    3619.38860     -0.0049400       0.172230         2.8407       113.4929     -0.0070000        21.9319     -0.0121000       0.032900         0.8362      5137.9097        70.2821     32013.5996        11.1194       0.330700        11.6387        10.5600        11.4438       0.175400
    3619.54100     -0.0043000       0.188890         2.8175       112.9872     -0.0110200        22.4254     -0.0201200       0.021600         0.9203      5138.0635        70.3773     32896.5000        11.8296       0.332900        11.2279         9.9066        11.5122       0.174500
    3619.69340     -0.0031600       0.206170         2.8114       113.9225     -0.0172700        22.7715     -0.0212100       0.003400         0.9644      5138.1909        70.5092     32640.3008        12.0012       0.331600        11.9137        10.3887        11.7150       0.175100
    3619.84580     -0.0019800       0.208090         2.8362       113.8820     -0.0128500        22.3300     -0.0190200       0.015300         0.9689      5138.3057        70.4831     32375.7012        12.8593       0.330400        11.9505        10.4925        11.7269       0.176700
    3619.99820     -0.0011200       0.202420         2.8456       113.1556     -0.0078300        22.5146     -0.0148200       0.028800         0.9363      5138.4253        70.5947     31923.7988        13.0457       0.332200        11.4567        10.2799        11.7758       0.180100
    3620.15060     -0.0002100       0.193830         2.8408       113.6339     -0.0043500        22.5459     -0.0104800       0.037800         0.8850      5138.5425        70.5960     31486.9004        14.4131       0.334100        11.6186        10.1592        11.6866       0.181600
    3620.30300     -0.0002000       0.175070         2.8498       113.6359     -0.0072000        21.7676     -0.0052800       0.030200         0.8096      5138.6768        70.6241     31760.2988        13.9012       0.334900        11.5455        10.8766        11.6824       0.183900
    3620.45540     -0.0016900       0.163560         2.8438       113.1031     -0.0103700        21.9168     -0.0010600       0.022000         0.7563      5138.8184        70.6811     31793.9004        13.2739       0.333100        11.8033        10.2299        11.6912       0.182300
    3620.60780     -0.0034600       0.154740         2.8427       113.0255     -0.0065900        21.8988     -0.0007100       0.033100         0.7248      5138.9761        70.7962     32472.5996        11.3003       0.329400        11.5101        10.4070        12.0058       0.180800
