~Version Information Block
VERS .                 2.00:  CWLS LOG ASCII STANDARD - VERSION 2.00
WRAP .                  YES:  Multiple lines per depth step
~Well Information Block
#MNEM.UNIT        Data Type   Information
#---------- ----------------  -----------
STRT .M          3174.64440:  START DEPTH
STOP .M          3422.90400:  STOP DEPTH
STEP .M             0.15240:  STEP
NULL .              -999.25:  NULL VALUE
COMP .         StatoilHydro:  COMPANY
WELL .          NO_15/9-F-4:  WELL
FLD  .                VOLVE:  FIELD
LOC  .            North Sea:  LOCATION
CTRY .                     :  COUNTRY
STAT .                     :  STATE
CNTY .                     :  COUNTY
SRVC .         Schlumberger:  SERVICE COMPANY
DATE .          13-Sep-2012:  DATE
API  .                     :  API NUMBER
UWI  .             15/9-F-4:  UNIQUE WELL ID
~Curve Information Block
#MNEM.UNIT         API CODE   Curve Description
#---------- ----------------  -----------------
DEPTH.M                    :  DEPTH (BOREHOLE)
BSAL .PPM                  :  Borehole Salinity
CCLC .V                    :  CCL
CCLD .V                    :  CCL Discriminated Amplitude
CIRF .                     :  RST Capture to Inelastic Ratio Far
CIRN .                     :  RST Capture to Inelastic Ratio Near
CVEL .M/MIN                 :  Cable Velocity
DEVI .DEG                  :  Hole Deviation
DSIG .CU                   :  Sigma Difference
FBEF .UA                   :  RST Far Effective Beam Current
GR   .GAPI                 :  Gamma Ray
IRAT .                     :  RST Inelastic Ratio
RB_PCMS.DEG                  :  Relative Bearing
RSCF .                     :  RST Far Detector Effective Unregulated Capture Count Rate
RSCN .                     :  RST Near Detector Effective Unregulated Capture Count Rate
SFFA .CU                   :  RST Sigma Formation Far Apparent
SIBF .CU                   :  RST Sigma Borehole Fluid
SIGM .CU                   :  Formation Sigma (Neutron Capture Cross Section)
TPHI .V/V                  :  Thermal Decay Porosity
WPRE .PSI                  :  Well Pressure
WTEP .DEGC                 :  Well Temperature
~Parameter Information Block
#MNEM.UNIT            Value   Description
#---------- ----------------  -----------
APD  .M                  54:  Elevation of Depth Reference (LMF) above Permanent Datum
BHS  .                 CASE:  Borehole Status (Open or Cased Hole)
BS   .IN                8.5:  Bit Size
BSAL .PPM       34972.17188:  Borehole Salinity
BSALOPT.              UNKNOWN:  Borehole Salinity Option
CSID .IN              6.184:  Casing Inner Diameter
CSIZ .IN                  7:  Current Casing Size
CWEI .LB/F               29:  Casing Weight
MATR .                 SAND:  Rock Matrix for Neutron Porosity Corrections
RUN  .                    4:  RUN NUMBER
PROJECT.     SLEIPNER_OST@st-vlinapp01:  
SET  .       RSTD_0912_SIG1:  
~Other Information Block
~Ascii Log Data
# ...
    3222.19320 
    46125.7031         0.4972         0.0000         1.4629     0.50120002 
      -4.69200        49.3119         4.1941        79.0982        50.8321 
    0.32339999       356.7793         6.4937         6.6873        24.8997 
       38.3669        22.8788     0.26080000      4878.2480        92.8140
    3222.34560 
    46351.1016        -0.0688         0.0000         1.5733     0.54159999 
      -4.71210        49.2848         3.9544        81.3749        44.8550 
    0.32220000       356.6335         7.0486         7.4585        23.5988 
       38.4484        21.6565     0.24240001      4878.3711        92.8273
    3222.49800 
    46388.5000         0.1727         0.0000         1.6705     0.56290001 
      -4.73290        49.2166         3.4052        80.9494        38.4843 
    0.32749999       356.5602         7.2884         7.5837        22.7647 
       38.4619        20.5411     0.23119999      4878.4956        92.8347
    3222.65040 
    45817.3008        -0.2200         0.0000         1.7039     0.57179999 
      -4.73660        49.2936         2.6738        74.9197        30.9123 
    0.33039999       356.4058         8.0600         7.8921        21.3941 
       38.2555        19.8245     0.22620000      4878.6572        92.8476
    3222.80280 
    45796.0000         0.0436         0.0000         1.7478     0.58730000 
      -4.70690        49.2531         2.0705        77.4707        26.6514 
    0.33390000       356.3575         8.2154         8.5211        21.2941 
       38.2478        19.4507     0.23019999      4878.8213        92.8538
    3222.95520 
    45568.0000         0.3651         0.0000         1.7430     0.59410000 
      -4.68610        49.3612         1.5899        79.0942        24.8760 
    0.33170000       356.3523         7.7947         8.0156        21.5173 
       38.1654        19.9681     0.23720001      4878.9150        92.8604
    3223.10760 
    45336.3008        -0.1542         0.0000         1.6508     0.60229999 
      -4.69250        49.2575         1.1952        78.1712        23.3019 
    0.32879999       356.2522         7.4697         8.0628        22.8406 
       38.0817        20.7524     0.25250000      4879.0854        92.8659
    3223.26000 
    45024.3984        -0.0111         0.0000         1.7089     0.60380000 
      -4.71340        49.2594         1.1317        77.4867        23.0148 
    0.32330000       356.2914         7.4874         7.8301        23.5590 
       37.9691        21.4277     0.27000001      4879.2559        92.8802
    3223.41240 
    44752.1992        -0.0292         0.0000         1.6394     0.59829998 
      -4.69830        49.4265         1.2972        80.5728        21.8342 
    0.31760001       356.2678         6.9907         7.9317        23.4937 
       37.8709        22.5810     0.28990000      4879.3306        92.8937
    3223.56480 
    44636.9023         0.1088         0.0000         1.5297     0.59380001 
      -4.70040        49.3203         1.3226        80.4572        20.4139 
    0.31490001       356.2276         6.7366         8.1597        26.2783 
       37.8293        23.8706     0.30820000      4879.5088        92.9023
    3223.71720 
    43711.8984         0.5423         0.0000         1.3672     0.54990000 
      -4.69110        49.2048         1.1221        83.5847        18.9048 
    0.31330001       356.2727         5.7059         7.2483        27.4385 
       37.4957        25.2273     0.31850001      4879.6348        92.9049
    3223.86960 
    43596.8008        -0.1888         0.0000         1.3590     0.54879999 
      -4.69260        49.3036         1.1372        85.7948        18.8812 
    0.31250000       356.4337         5.5752         7.2388        27.6002 
       37.4542        25.2986     0.31779999      4879.7832        92.9212
    3224.02200 
    43065.3984        -0.2119         0.0000         1.4586     0.56580001 
      -4.68710        49.4345         1.0719        83.5238        18.6533 
    0.31279999       356.6020         5.8896         7.0128        26.5452 
       37.2628        24.2658     0.30630001      4879.9497        92.9254
    3224.17440 
    43392.6016        -0.0725         0.0000         1.5241     0.54850000 
      -4.69300        49.3130         1.3855        81.1846        18.4136 
    0.31259999       356.6041         6.4747         7.1966        24.3989 
       37.3806        22.8748     0.28569999      4880.0586        92.9316
    3224.32680 
    43380.4023        -0.0749         0.0000         1.6462     0.57529998 
      -4.73350        49.2535         1.5190        79.5433        18.2953 
    0.31490001       356.4787         7.3560         7.8996        23.4786 
       37.3762        21.3098     0.27200001      4880.2051        92.9403
    3224.47920 
    43767.5000         0.3934         0.0000         1.7813     0.61059999 
      -4.71450        49.3476         1.6634        81.2089        18.5616 
    0.31709999       356.6522         7.6063         8.1224        21.8815 
       37.5157        20.4027     0.26550001      4880.3369        92.9480
    3224.63160 
    43749.4023        -0.0006         0.0000         1.7891     0.62080002 
      -4.69040        49.2867         1.7125        79.5348        17.4964 
    0.31680000       356.9316         8.0418         8.4689        21.7043 
       37.5092        20.2474     0.26550001      4880.4648        92.9455
    3224.78400 
    43900.9023         0.1439         0.0000         1.7582     0.62610000 
      -4.69810        49.3420         1.6543        81.9528        15.7713 
    0.31950000       357.1826         7.2389         7.9968        23.0287 
       37.5638        20.1943     0.26809999      4880.6523        92.9545
    3224.93640 
    44052.0000        -0.0374         0.0000         1.7250     0.60479999 
      -4.67790        49.3825         1.6149        78.7150        16.7477 
    0.31999999       357.2603         7.3420         7.9368        21.7265 
       37.6183        20.6628     0.26249999      4880.7720        92.9719
    3225.08880 
    44426.3008         0.0832         0.0000         1.8179     0.63639998 
      -4.70560        49.3667         1.2587        79.0420        17.1768 
    0.32159999       357.2151         7.7797         8.1775        23.1118 
       37.7533        20.7933     0.25860000      4880.8599        92.9806
    3225.24120 
    44302.1992         0.1070         0.0000         1.8506     0.63489997 
      -4.69720        49.2849         1.1944        81.4117        18.3308 
    0.32120001       357.2007         7.8490         8.5576        23.3908 
       37.7085        21.3113     0.25600001      4881.0435        92.9904
    3225.39360 
    43927.8984         0.2023         0.0000         1.7621     0.62050003 
      -4.69910        49.3233         1.1431        77.6552        18.5971 
    0.32010001       357.1909         7.8081         8.0789        23.2306 
       37.5736        21.7451     0.26560000      4881.1958        92.9975
    3225.54600 
    43068.5000        -0.2043         0.0000         1.6940     0.62650001 
      -4.70210        49.4150         0.9523        85.9539        21.0945 
    0.32220000       357.1254         6.5905         7.6485        24.3689 
       37.2639        22.5945     0.28169999      4881.2764        93.0003
    3225.69840 
    43467.2031         0.2490         0.0000         1.4425     0.57410002 
      -4.69390        49.4411         0.9420        80.2853        21.3608 
    0.31970000       357.0769         6.2602         7.4958        25.9103 
       37.4075        23.6580     0.29440001      4881.4741        93.0021
    3225.85080 
    43796.5000         0.0191         0.0000         1.4311     0.55449998 
      -4.71280        49.4208         0.7775        83.4936        22.3816 
    0.32100001       357.1325         6.2336         7.4816        26.4227 
       37.5262        23.3869     0.29809999      4881.5962        93.0132
    3226.00320 
    43417.3008        -0.1993         0.0000         1.5197     0.58050001 
      -4.72150        49.3951         0.7344        82.9976        23.4261 
    0.32300001       357.1594         6.6865         7.7954        23.5762 
       37.3895        23.0574     0.28830001      4881.7236        93.0226
