~Version Information Block
VERS .                 2.00:  CWLS LOG ASCII STANDARD - VERSION 2.00
WRAP .                  YES:  Multiple lines per depth step
~Well Information Block
#MNEM.UNIT        Data Type   Information
#---------- ----------------  -----------
STRT .M          3513.58200:  START DEPTH
STOP .M          3649.06560:  STOP DEPTH
STEP .M             0.15240:  STEP
NULL .              -999.25:  NULL VALUE
COMP .              Statoil:  COMPANY
WELL .        NO_15/9-F-1_C:  WELL
FLD  .                Volve:  FIELD
LOC  .            North Sea:  LOCATION
CTRY .               Norway:  COUNTRY
STAT .                     :  STATE
CNTY .                     :  COUNTY
SRVC .         Schlumberger:  SERVICE COMPANY
DATE .          27-Nov-2014:  DATE
API  .                     :  API NUMBER
UWI  .           15/9-F-1 C:  UNIQUE WELL ID
LATI .     58° 26' 29.91" N:  LATITUDE
LONG .      1° 53' 14.71" E:  LONGITUDE
~Curve Information Block
#MNEM.UNIT         API CODE   Curve Description
#---------- ----------------  -----------------
DEPTH.M                    :  DEPTH (BOREHOLE)
BSAL .PPM                  :  Borehole Salinity
CCLC .V                    :  CCL
CIRF .                     :  RST Capture to Inelastic Ratio Far
CIRN .                     :  RST Capture to Inelastic Ratio Near
CVEL .M/SEC                 :  Cable Velocity
DFRB .DEG                  :  Calibrated Relative Bearing
DSIG .CU                   :  Sigma Difference
FBEF .UA                   :  RST Far Effective Beam Current
GR   .GAPI                 :  Gamma Ray
IRAT .                     :  RST Inelastic Ratio
PFC1 .IN                   :  PFCS CaliperX
PFC2 .IN                   :  PFCS CaliperY
RSCF .                     :  RST Far Detector Effective Unregulated
RSCN .                     :  RST Near Detector Effective
SFFA .CU                   :  RST Sigma Formation Far Apparent
SIBF .CU                   :  RST Sigma Borehole Fluid
SIGM .CU                   :  Formation Sigma (Neutron Capture Cross
TENS .LBF                  :  Cable Tension
TPHI .V/V                  :  Thermal Decay Porosity
~Parameter Information Block
#MNEM.UNIT            Value   Description
#---------- ----------------  -----------
APD  .M           54.900002:  Elevation of Depth Reference (LMF) above Permanent Datum
BHS  .                 CASE:  Borehole Status (Open or Cased Hole)
BS   .IN                8.5:  Bit Size
BSAL .PPM                 0:  Borehole Salinity
BSALOPT.              UNKNOWN:  Borehole Salinity Option
CSIZ .IN                  7:  Current Casing Size
CWEI .LB/F               29:  Casing Weight
EPD  .C3                  0:  Elevation of Permanent Datum above Mean Sea Level
LMF  .                   KB:  Logging Measured From (Name of Logging Elevation Reference)
MATR .                 SAND:  Rock Matrix for Neutron Porosity Corrections
PDAT .                  MSL:  Permanent Datum
RUN  .                Run 1:  RUN NUMBER
TAPE_NAME.     Statoil_Volve_15-9-F-1 C_PLT-RST_28Nov14_ConCu_R1L15Up_SigmaRepeat.las:  
TOOL_STRING.              UNKNOWN:  
WN   .           15/9-F-1 C:  WELL
PROJECT.     SLEIPNER_OST@st-vlinapp01:  
SET  .       RSTD_1114_SIG2:  
~Other Information Block
~Ascii Log Data
# ...
    3620.56680 
    68623.8047        -0.0082         2.9894       0.750900      -0.158908 
        1.4110        -1.7249        84.8270         9.8559         0.3403 
        6.1591         5.9862        12.3933         8.9809        12.3439 
       46.6071        10.7005      4480.0000       0.159600
    3620.71920 
    69373.7031        -0.0377         2.9019       0.768600      -0.159545 
        1.4110        -1.7485        83.2273        10.7753         0.3285 
        6.1636         5.9862        12.3121         9.3670        12.5833 
       46.8855        10.7457      4636.5000       0.160900
    3620.87160 
    69106.5000         0.0000         2.9885       0.750200      -0.160193 
        1.4110        -1.7957        86.2428        11.6702         0.3236 
        6.1591         5.9840        12.0179         8.8822        12.6615 
       46.7863        10.8910      4545.0000       0.161200
    3621.02400 
    69631.0000         0.0002         2.9597       0.703200      -0.160200 
        1.4110        -1.7946        86.6514        11.5108         0.3237 
        6.1591         5.9862        12.1334         8.7782        12.7675 
       46.9811        10.9210      4582.5000       0.155600
    3621.17640 
    68884.9062         0.0339         2.7739       0.711600      -0.158888 
        1.4110        -1.7563        83.1975        11.6089         0.3287 
        6.1703         5.9792        11.5781         8.7009        12.6764 
       46.7041        10.7292      4521.0000       0.150200
    3621.32880 
    69301.2031         0.1131         3.0496       0.754200      -0.157585 
        1.4110        -1.7478        82.5373        11.2779         0.3363 
        6.1675         5.9819        13.2341         9.7785        12.1007 
       46.8586        10.4219      4573.3335       0.143300
    3621.48120 
    69975.5000         0.0129         3.2276       0.787900      -0.156923 
        1.4110        -1.9209        84.1114        12.1973         0.3344 
        6.1703         5.9769        13.4761         9.6183        11.8607 
       47.1091        10.0329      4480.0000       0.144400
    3621.63360 
    71487.5000        -0.0322         3.1628       0.786500      -0.157995 
        1.4110        -1.8705        83.3334        10.6159         0.3281 
        6.1654         5.9840        13.0093         9.1409        11.5403 
       47.6716         9.8129      4626.3335       0.147600
    3621.78600 
    71760.6953         0.0023         3.2106       0.779700      -0.158850 
        1.4110        -1.7922        83.1728        10.9592         0.3357 
        6.1726         5.9862        13.7123         9.6191        11.4472 
       47.7733         9.7366      4521.0000       0.154300
    3621.93840 
    72516.8984         0.0023         3.0368       0.814900      -0.158857 
        1.4110        -1.6933        81.0219        12.2341         0.3427 
        6.1860         5.9862        13.2889         9.9977        11.6388 
       48.0550         9.7295      4674.0000       0.157300
    3622.09080 
    73027.7031        -0.0028         3.0930       0.822000      -0.160160 
        1.4110        -1.6438        83.6104        12.1973         0.3450 
        6.1863         5.9862        13.0412         9.9488        11.5187 
       48.2455         9.7743      4627.0000       0.159200
    3622.24320 
    73190.8047         0.0271         3.2341       0.813300      -0.159757 
        1.4110        -1.5768        85.6942        11.4618         0.3366 
        6.1905         5.9862        13.1434         9.6035        11.5837 
       48.3063         9.6020      4594.3335       0.162200
    3622.39560 
    73015.0000        -0.0157         3.2715       0.823300      -0.160815 
        1.4110        -1.6328        91.5872        12.1237         0.3315 
        6.1905         5.9862        12.5745         9.9524        11.1156 
       48.2407         9.5634      4607.0000       0.164400
    3622.54800 
    72927.2031        -0.0392         3.1391       0.796100      -0.160775 
        1.4110        -1.6096        84.0637        11.9521         0.3348 
        6.1905         5.9862        13.5395        10.3557        11.3911 
       48.2080         9.4528      4621.5000       0.166200
    3622.70040 
    72666.1016        -0.0161         3.1493       0.817800      -0.158233 
        1.4110        -1.6569        83.1899        11.9521         0.3303 
        6.1905         5.9862        13.2256        10.0064        11.2418 
       48.1106         9.5375      4596.0000       0.164400
    3622.85280 
    72059.6016        -0.0024         3.3071       0.802500      -0.158868 
      359.8050        -1.6213        88.1864        12.3428         0.3328 
        6.1905         5.9862        12.7784         9.3880        11.3502 
       47.8846         9.6789      4692.3335       0.162000
    3623.00520 
    71157.0000        -0.0023         3.1191       0.799300      -0.158868 
      358.3940        -1.6790        83.4070        11.6993         0.3291 
        6.1905         5.9862        13.2118         9.8740        11.7796 
       47.5485        10.0368      4733.5000       0.159900
    3623.15760 
    71725.0000         0.0023         3.1506       0.798200      -0.158445 
      358.3940        -1.7073        84.0725        11.7452         0.3373 
        6.1905         5.9885        13.1471         9.6443        12.2836 
       47.7600        10.1582      4703.6670       0.159900
    3623.31000 
    72694.3984         0.0024         3.0512       0.812500      -0.158253 
      358.3940        -1.7710        83.3207        11.9169         0.3357 
        6.1905         5.9862        12.7818         9.7322        11.6624 
       48.1212        10.3497      4846.5000       0.160800
    3623.46240 
    72102.3047         0.0574         3.1565       0.784900      -0.158895 
      358.3940        -2.0166        85.4778        12.0313         0.3393 
        6.1905         5.9862        13.2840         9.8587        12.3149 
       47.9005        10.5313      4732.0000       0.160100
    3623.61480 
    72751.7969        -0.0616         2.9545       0.793300      -0.160160 
      358.3940        -2.3235        86.5624        11.3792         0.3374 
        6.1905         5.9862        11.6580         8.9931        12.7851 
       48.1426        10.9114      4772.0000       0.161100
    3623.76720 
    72356.7969        -0.0003         2.9475       0.753600      -0.159505 
      358.3940        -2.5827        81.7522        12.1515         0.3347 
        6.1905         5.9862        13.0806         9.6440        12.7466 
       47.9953        11.2775      4636.0005       0.163000
    3623.91960 
    71468.9062        -0.0196         3.0464       0.772900      -0.159717 
      358.3940        -2.5570        84.1555        11.5249         0.3301 
        6.1905         5.9862        12.8976         9.6891        13.3523 
       47.6646        11.5460      4614.3335       0.172500
    3624.07200 
    72219.2969        -0.0335         2.8407       0.754100      -0.160120 
      358.3940        -2.4306        85.8660        10.1700         0.3274 
        6.2010         5.9862        11.2926         8.8673        13.5356 
       47.9441        12.3703      4504.5005       0.183000
    3624.22440 
    72800.6016        -0.0007         2.8238       0.785500      -0.159485 
      358.3940        -2.3803        87.2792         9.8840         0.3233 
        6.1905         5.9862        10.8843         9.0237        15.1567 
       48.1608        13.7655      4578.0000       0.199900
    3624.37680 
    72784.3984        -0.0107         2.2833       0.642800      -0.158407 
      358.3940        -2.2052        85.9811        10.6969         0.3197 
        6.1884         5.9862         9.3517         8.1162        17.4785 
       48.1548        15.1217      4531.6665       0.205500
    3624.52920 
    72554.2969        -0.0066         2.2128       0.585200      -0.158830 
      358.3940        -2.0386        84.9441        11.1101         0.3289 
        6.1771         5.9862         9.2024         7.3795        17.5570 
       48.0690        15.7108      4711.5000       0.202500
