~Version Information Block
VERS .                 2.00:  CWLS LOG ASCII STANDARD - VERSION 2.00
WRAP .                   NO:  One line per depth step
~Well Information Block
#MNEM.UNIT        Data Type   Information
#---------- ----------------  -----------
STRT .M          3199.94280:  START DEPTH
STOP .M          3410.40720:  STOP DEPTH
STEP .M             0.15240:  STEP
NULL .              -999.25:  NULL VALUE
COMP .              Statoil:  COMPANY
WELL .          NO_15/9-F-4:  WELL
FLD  .                VOLVE:  FIELD
LOC  .            North Sea:  LOCATION
CTRY .                     :  COUNTRY
STAT .                     :  STATE
CNTY .                     :  COUNTY
SRVC .         Schlumberger:  SERVICE COMPANY
DATE .          13-Sep-2012:  DATE
API  .                     :  API NUMBER
UWI  .             15/9-F-4:  UNIQUE WELL ID
~Curve Information Block
#MNEM.UNIT         API CODE   Curve Description
#---------- ----------------  -----------------
DEPTH.M                    :  DEPTH (BOREHOLE)
CCLC .V                    :  CCL
CRRA .                     :  Near-Far Count Rate Ratio
CVEL .M/MIN                 :  Cable Velocity
FBEF .UA                   :  RST Far Effective Beam Current
FCOR .                     :  RST Far Carbon/Oxygen Ratio
FERD .                     :  RST Far IC Mode Capture Optimization Resolution Degradation Factor
FIRD .                     :  RST Far Inelastic Optimization Resolution Degradation Factor
GR   .GAPI                 :  Gamma Ray
NCOR .                     :  RST Near Carbon/Oxygen Ratio
NERD .                     :  RST Near IC Mode Capture Optimization Resolution Degradation Factor
NIRD .                     :  RST Near Inelastic Optimization Resolution Degradation Factor
RB_PCMS.DEG                  :  Relative Bearing
TENS .LBF                  :  Cable Tension
~Parameter Information Block
#MNEM.UNIT            Value   Description
#---------- ----------------  -----------
APD  .M                  54:  Elevation of Depth Reference (LMF) above Permanent Datum
RUN  .                    4:  RUN NUMBER
PROJECT.     SLEIPNER_OST@st-vlinapp01:  
SET  .        RSTD_0912_IC1:  
~Other Information Block
# 
~A       DEPTH           CCLC           CRRA           CVEL           FBEF           FCOR           FERD           FIRD             GR           NCOR           NERD           NIRD        RB_PCMS           TENS 
# ...
    3390.13800         0.0961         2.9375      -0.481500       116.1082        -0.1911         4.1946         4.1946        37.4619      -0.037800         1.8334         1.8334       355.9163      2292.3523
    3390.29040        -0.0044         2.8959      -0.485800       113.5623        -0.0757         4.2591         4.2591        34.4896       0.018100         1.8425         1.8425       355.9778      2297.8618
    3390.44280        -0.0096         2.8537      -0.483900       110.6712        -0.1931         4.2672         4.2672        31.2985       0.021700         1.8660         1.8660       356.0061      2293.2622
    3390.59520        -0.0408         2.8024      -0.484500       108.4239        -0.0844         4.3205         4.3205        29.4372       0.085400         1.8878         1.8878       355.9344      2284.2871
    3390.74760        -0.0062         2.7632      -0.483500       107.2610        -0.0456         4.2929         4.2929        29.7984      -0.025000         1.9149         1.9149       355.8793      2282.3535
    3390.90000        -0.0045         2.7199      -0.484300       108.9836         0.1060         4.4253         4.4253        28.5248       0.037600         1.9222         1.9222       355.9102      2291.1025
    3391.05240         0.1029         2.7380      -0.481200       110.7011         0.0929         4.4522         4.4522        27.7157      -0.039100         1.9059         1.9059       355.8397      2286.2817
    3391.20480         0.0183         2.7938      -0.486900       110.4638        -0.0721         4.4348         4.4348        27.6890       0.042100         1.9456         1.9456       355.8349      2288.5569
    3391.35720         0.2124         2.7832      -0.484800       111.4008         0.0643         4.3482         4.3482        27.2911       0.045100         1.9570         1.9570       355.9871      2278.3159
    3391.50960        -0.0147         2.8036      -0.482300       118.1786         0.1077         4.4370         4.4370        28.2420       0.029300         1.9812         1.9812       355.9337      2286.4363
    3391.66200        -0.0140         2.9143      -0.475300       125.0267         0.3721         4.4173         4.4173        30.1842      -0.049000         2.0063         2.0063       355.7498      2297.8445
    3391.81440        -0.0127         2.9936      -0.474200       129.6354         0.5803         4.4551         4.4551        30.7531       0.114600         2.0490         2.0490       355.5873      2305.5071
    3391.96680        -0.0076         2.9691      -0.475600       138.4275         0.8501         4.4852         4.4852        31.1165       0.071000         2.0405         2.0405       355.4508      2304.5903
    3392.11920        -0.0064         3.0669      -0.475800       143.8874         0.9362         4.5297         4.5297        32.1539       0.155200         2.0372         2.0372       355.5231      2301.6152
    3392.27160        -0.0091         3.1301      -0.478000       144.9295         0.7693         4.4963         4.4963        29.9770       0.262600         2.1111         2.1111       355.4879      2304.0281
    3392.42400        -0.0026         3.1589      -0.469700       143.9601         0.6236         4.4841         4.4841        26.7984       0.208100         2.1686         2.1686       355.4056      2291.5259
    3392.57640        -0.0302         3.2437      -0.475600       142.3645         0.2851         4.3838         4.3838        24.9516       0.188900         2.1644         2.1644       355.3245      2304.8171
    3392.72880        -0.1716         3.3546      -0.481700       134.1134         0.1882         4.2377         4.2377        22.7707      -0.015600         2.1942         2.1942       355.3610      2291.0671
    3392.88120         0.0878         3.2032      -0.481000       125.8731         0.0737         4.2595         4.2595        19.9536       0.019200         2.1843         2.1843       355.3175      2298.4373
    3393.03360         0.0166         3.0236      -0.480200       122.4899        -0.0584         4.2430         4.2430        17.3732       0.040800         2.1731         2.1731       355.4145      2300.9861
    3393.18600         0.1914         2.9543      -0.480400       121.3759        -0.1300         4.2170         4.2170        15.8850       0.046400         2.1350         2.1350       355.4041      2296.0105
    3393.33840        -0.0086         2.9233      -0.466600       120.0229         0.0753         4.1660         4.1660        14.7089      -0.063500         2.1726         2.1726       355.3089      2301.4490
    3393.49080        -0.0082         2.8816      -0.475500       120.3767        -0.0929         4.1444         4.1444        13.5524       0.017900         2.2150         2.2150       355.3389      2301.3862
    3393.64320        -0.0067         2.9174      -0.473200       120.8726         0.1190         4.1714         4.1714        13.0273       0.038300         2.1780         2.1780       355.3058      2310.8408
    3393.79560        -0.0049         2.9279      -0.477600       120.3646        -0.0826         4.2110         4.2110        13.3851       0.101800         2.1914         2.1914       355.4260      2299.0210
    3393.94800         0.1589         2.9035      -0.477100       119.3314         0.0659         4.2433         4.2433        13.9112      -0.004900         2.1985         2.1985       355.3570      2304.0627
    3394.10040        -0.0094         2.8820      -0.477900       120.4456         0.0122         4.2961         4.2961        14.0877       0.017300         2.2226         2.2226       355.3764      2300.7354
    3394.25280        -0.2433         2.9351      -0.473700       120.1743         0.0413         4.4298         4.4298        14.7197       0.032400         2.2417         2.2417       355.2788      2308.7649
    3394.40520        -0.0118         2.9126      -0.481100       119.3897        -0.0336         4.2916         4.2916        14.9396      -0.058200         2.2746         2.2746       355.1277      2303.0593
    3394.55760         0.0755         2.9011      -0.478900       119.5628         0.0363         4.3690         4.3690        14.6162       0.006300         2.2729         2.2729       355.0918      2306.1785
    3394.71000        -0.0166         2.9124      -0.481000       119.7472        -0.0572         4.4176         4.4176        14.7687      -0.002800         2.2288         2.2288       355.1723      2306.6162
    3394.86240         0.1189         2.9064      -0.484400       119.0541         0.0503         4.2206         4.2206        14.8022       0.031800         2.2471         2.2471       355.0779      2304.5300
    3395.01480        -0.0150         2.8891      -0.477500       118.8463        -0.0447         4.1860         4.1860        14.6366      -0.003000         2.2417         2.2417       354.9166      2299.9758
    3395.16720        -0.0150         2.8710      -0.477600       118.7600        -0.0920         4.1839         4.1839        14.6366      -0.025600         2.2490         2.2490       354.9421      2304.3438
    3395.31960        -0.0457         2.8856      -0.476000       118.0026         0.0761         4.2127         4.2127        14.6564      -0.079300         2.2630         2.2630       355.0069      2311.2300
    3395.47200        -0.0186         2.8750      -0.478300       116.2719        -0.0181         4.1649         4.1649        14.5961      -0.034400         2.2845         2.2845       354.8942      2305.2964
    3395.62440        -0.0680         2.8296      -0.479600       115.8191         0.0127         4.1976         4.1976        14.7660      -0.125300         2.2963         2.2963       354.7778      2318.6877
    3395.77680        -0.0188         2.8287      -0.479300       115.3321         0.0017         4.1644         4.1644        15.3551      -0.013100         2.2447         2.2447       354.7785      2313.3208
    3395.92920         0.1209         2.8161      -0.469200       115.7426        -0.0346         4.2235         4.2235        15.3067       0.024500         2.2151         2.2151       354.8691      2305.4275
