~Version Information Block
VERS .                 2.00:  CWLS LOG ASCII STANDARD - VERSION 2.00
WRAP .                  YES:  Multiple lines per depth step
~Well Information Block
#MNEM.UNIT        Data Type   Information
#---------- ----------------  -----------
STRT .M          3174.64440:  START DEPTH
STOP .M          3422.90400:  STOP DEPTH
STEP .M             0.15240:  STEP
NULL .              -999.25:  NULL VALUE
COMP .         StatoilHydro:  COMPANY
WELL .          NO_15/9-F-4:  WELL
FLD  .                VOLVE:  FIELD
LOC  .            North Sea:  LOCATION
CTRY .                     :  COUNTRY
STAT .                     :  STATE
CNTY .                     :  COUNTY
SRVC .         Schlumberger:  SERVICE COMPANY
DATE .          13-Sep-2012:  DATE
API  .                     :  API NUMBER
UWI  .             15/9-F-4:  UNIQUE WELL ID
~Curve Information Block
#MNEM.UNIT         API CODE   Curve Description
#---------- ----------------  -----------------
DEPTH.M                    :  DEPTH (BOREHOLE)
BSAL .PPM                  :  Borehole Salinity
CCLC .V                    :  CCL
CCLD .V                    :  CCL Discriminated Amplitude
CIRF .                     :  RST Capture to Inelastic Ratio Far
CIRN .                     :  RST Capture to Inelastic Ratio Near
CVEL .M/MIN                 :  Cable Velocity
DEVI .DEG                  :  Hole Deviation
DSIG .CU                   :  Sigma Difference
FBEF .UA                   :  RST Far Effective Beam Current
GR   .GAPI                 :  Gamma Ray
IRAT .                     :  RST Inelastic Ratio
RB_PCMS.DEG                  :  Relative Bearing
RSCF .                     :  RST Far Detector Effective Unregulated Capture Count Rate
RSCN .                     :  RST Near Detector Effective Unregulated Capture Count Rate
SFFA .CU                   :  RST Sigma Formation Far Apparent
SIBF .CU                   :  RST Sigma Borehole Fluid
SIGM .CU                   :  Formation Sigma (Neutron Capture Cross Section)
TPHI .V/V                  :  Thermal Decay Porosity
WPRE .PSI                  :  Well Pressure
WTEP .DEGC                 :  Well Temperature
~Parameter Information Block
#MNEM.UNIT            Value   Description
#---------- ----------------  -----------
APD  .M                  54:  Elevation of Depth Reference (LMF) above Permanent Datum
BHS  .                 CASE:  Borehole Status (Open or Cased Hole)
BS   .IN                8.5:  Bit Size
BSAL .PPM       34972.17188:  Borehole Salinity
BSALOPT.              UNKNOWN:  Borehole Salinity Option
CSID .IN              6.184:  Casing Inner Diameter
CSIZ .IN                  7:  Current Casing Size
CWEI .LB/F               29:  Casing Weight
MATR .                 SAND:  Rock Matrix for Neutron Porosity Corrections
RUN  .                    4:  RUN NUMBER
PROJECT.     SLEIPNER_OST@st-vlinapp01:  
SET  .       RSTD_0912_SIG1:  
~Other Information Block
~Ascii Log Data
# ...
    3269.74200 
    25236.5000        -0.1503         0.0000         2.4979     0.84439999 
      -4.70200        52.3982        -0.7146        83.5078        19.0279 
    0.33050001       356.6141        10.1211         9.9750        15.7760 
       30.9102        14.0313     0.20350000      4919.7188        94.3538
    3269.89440 
    25905.5000         0.2179         0.0000         2.6143     0.82609999 
      -4.70030        52.5211        -0.6981        81.0669        20.4052 
    0.32460001       356.6108        10.9859        10.2159        16.0245 
       31.1461        14.0138     0.20590000      4919.8130        94.3612
    3270.04680 
    26389.5000         0.0058         0.0000         2.6491     0.83020002 
      -4.72310        52.5645        -0.7131        82.6371        19.0323 
    0.32150000       356.6564        10.9799        10.6406        15.7620 
       31.3168        14.2736     0.20829999      4919.9136        94.3659
    3270.19920 
    25615.4004        -0.0000         0.0000         2.5834     0.85020000 
      -4.73690        52.3841        -0.7621        83.0948        19.7436 
    0.31959999       356.5374        10.7351        10.7664        16.5488 
       31.0437        14.3058     0.20960000      4920.0923        94.3646
    3270.35160 
    25334.9004        -0.0525         0.0000         2.6134     0.82440001 
      -4.73340        52.4198        -0.7865        81.9864        19.8295 
    0.32420000       356.4819        11.2006        10.7184        16.1172 
       30.9449        14.5839     0.20730001      4920.2124        94.3665
    3270.50400 
    24588.9004         0.1531         0.0000         2.4899     0.82550001 
      -4.71540        52.5674        -0.8664        82.6996        19.5010 
    0.32330000       356.6489        10.3826        10.4503        16.5892 
       30.6820        14.6562     0.20810001      4920.3159        94.3726
    3270.65640 
    24582.5000         0.0119         0.0000         2.5404     0.81860000 
      -4.70200        52.5588        -0.8550        81.5343        18.7066 
    0.32530001       356.6150        10.7584        10.5126        16.7495 
       30.6798        15.0093     0.20490000      4920.4590        94.3749
    3270.80880 
    24332.5000         0.1257         0.0000         2.4500     0.81029999 
      -4.70960        52.4673        -0.8921        80.7349        20.5944 
    0.32580000       356.5872        10.4340        10.5322        17.1580 
       30.5918        15.2564     0.20420000      4920.5820        94.3758
    3270.96120 
    23789.0000        -0.0238         0.0000         2.4746     0.81180000 
      -4.71640        52.5562        -0.9064        83.6145        21.7099 
    0.32470000       356.5756        10.0903        10.3254        17.3095 
       30.4005        15.4957     0.20389999      4920.7202        94.3757
    3271.11360 
    23830.9004        -0.4352         0.0000         2.4032     0.77410001 
      -4.71510        52.5827        -0.6042        81.7897        20.9376 
    0.32040000       356.4269        10.3372        10.3015        17.4385 
       30.4152        15.9863     0.20840000      4920.8359        94.3786
    3271.26600 
    24275.2988         0.3844         0.0000         2.3810     0.78210002 
      -4.67640        52.4257        -0.5433        85.3345        22.7397 
    0.32220000       356.3000         9.7380        10.1474        18.6146 
       30.5716        16.8670     0.21410000      4920.9751        94.3817
    3271.41840 
    24400.6992         0.0945         0.0000         2.0668     0.74280000 
      -4.60220        52.6039        -0.2689        78.6892        26.4295 
    0.32269999       356.3234         9.1943         9.8149        19.9376 
       30.6158        17.9945     0.22070000      4921.0996        94.3822
    3271.57080 
    24306.9004        -0.0751         0.0000         1.9537     0.67110002 
      -4.56340        52.6465         0.1609        78.0374        29.3470 
    0.32499999       356.3650         8.7677         9.0303        20.8111 
       30.5827        19.1807     0.22360000      4921.2041        94.3856
    3271.72320 
    23532.5000         0.0437         0.0000         1.7173     0.62080002 
      -4.58960        52.4972         0.4753        78.1328        32.0071 
    0.32310000       356.4436         8.0494         8.8809        22.1713 
       30.3102        19.3951     0.23140000      4921.3540        94.3858
    3271.87560 
    22972.2988         0.1556         0.0000         1.5878     0.58450001 
      -4.57900        52.5086         0.6455        77.4582        35.7828 
    0.32310000       356.5436         7.4170         8.2023        20.5780 
       30.1133        19.2517     0.22810000      4921.5117        94.3841
    3272.02800 
    22863.5996         0.1933         0.0000         1.7076     0.60039997 
      -4.61180        52.6003         0.8331        80.6108        36.2976 
    0.32980001       356.7269         7.5905         8.0509        20.3880 
       30.0751        18.4788     0.21430001      4921.5591        94.3877
    3272.18040 
    22914.9004         0.1581         0.0000         1.8133     0.62629998 
      -4.60670        52.6858         0.9843        75.8615        34.6672 
    0.32929999       356.7829         8.4172         8.3537        19.8508 
       30.0931        17.7803     0.19149999      4921.7456        94.3860
    3272.33280 
    23144.5996         0.2812         0.0000         2.0984     0.64399999 
      -4.56880        52.6007         1.0053        79.9394        33.1227 
    0.33100000       356.5530         9.0698         8.3063        18.4851 
       30.1738        17.2360     0.17540000      4921.8589        94.3856
    3272.48520 
    23708.5000         0.3052         0.0000         2.1443     0.68849999 
      -4.57000        52.5842         0.9912        80.0279        31.8829 
    0.32690001       356.3680         9.5633         9.2535        18.7656 
       30.3721        17.1695     0.17140000      4921.9253        94.3901
    3272.63760 
    24473.5996         0.1566         0.0000         2.1337     0.70039999 
      -4.56990        52.6852         1.0252        80.8182        30.0725 
    0.32929999       356.3442         9.5091         9.3578        19.6767 
       30.6414        17.0508     0.17670000      4922.1201        94.3905
    3272.79000 
    24345.9004         0.1236         0.0000         2.1759     0.70520002 
      -4.62180        52.6508         0.6652        82.4368        28.0989 
    0.32920000       356.2183         9.4669         9.3019        18.1761 
       30.5964        16.8435     0.18510000      4922.2671        94.3883
    3272.94240 
    23733.9004         0.0930         0.0000         2.2010     0.72770000 
      -4.60070        52.5814         0.6480        81.9112        27.7645 
    0.32550001       356.1293         9.4728         9.5759        18.1582 
       30.3811        16.3489     0.19390000      4922.3315        94.3889
    3273.09480 
    24501.4004        -0.0337         0.0000         2.2251     0.72920001 
      -4.60260        52.8579         0.4304        82.1853        26.1701 
    0.32600001       356.1448         9.1772         9.0392        18.2091 
       30.6512        16.1702     0.19450000      4922.4717        94.3910
    3273.24720 
    24184.7988        -0.0934         0.0000         2.1876     0.71579999 
      -4.59010        52.4806         0.0289        79.2350        24.3948 
    0.32609999       356.0991         9.9062         9.8376        17.6516 
       30.5397        15.4790     0.19360000      4922.6426        94.3881
    3273.39960 
    24606.5000        -0.0909         0.0000         2.4100     0.76510000 
      -4.59520        52.6796        -0.2999        80.3614        22.9443 
    0.32679999       356.0266        10.6037        10.0997        16.0910 
       30.6882        15.0787     0.18820000      4922.7402        94.3898
    3273.55200 
    24490.4004         0.2070         0.0000         2.5171     0.78420001 
      -4.59190        52.8300        -0.4783        86.3552        23.7055 
    0.32249999       355.9486        10.1726         9.8878        17.0188 
       30.6473        14.6221     0.18640000      4922.8594        94.3944
