~Version Information Block
VERS .                 2.00:  CWLS LOG ASCII STANDARD - VERSION 2.00
WRAP .                  YES:  Multiple lines per depth step
~Well Information Block
#MNEM.UNIT        Data Type   Information
#---------- ----------------  -----------
STRT .M          3513.58200:  START DEPTH
STOP .M          3649.06560:  STOP DEPTH
STEP .M             0.15240:  STEP
NULL .              -999.25:  NULL VALUE
COMP .              Statoil:  COMPANY
WELL .        NO_15/9-F-1_C:  WELL
FLD  .                Volve:  FIELD
LOC  .            North Sea:  LOCATION
CTRY .               Norway:  COUNTRY
STAT .                     :  STATE
CNTY .                     :  COUNTY
SRVC .         Schlumberger:  SERVICE COMPANY
DATE .          27-Nov-2014:  DATE
API  .                     :  API NUMBER
UWI  .           15/9-F-1 C:  UNIQUE WELL ID
LATI .     58° 26' 29.91" N:  LATITUDE
LONG .      1° 53' 14.71" E:  LONGITUDE
~Curve Information Block
#MNEM.UNIT         API CODE   Curve Description
#---------- ----------------  -----------------
DEPTH.M                    :  DEPTH (BOREHOLE)
BSAL .PPM                  :  Borehole Salinity
CCLC .V                    :  CCL
CIRF .                     :  RST Capture to Inelastic Ratio Far
CIRN .                     :  RST Capture to Inelastic Ratio Near
CVEL .M/SEC                 :  Cable Velocity
DFRB .DEG                  :  Calibrated Relative Bearing
DSIG .CU                   :  Sigma Difference
FBEF .UA                   :  RST Far Effective Beam Current
GR   .GAPI                 :  Gamma Ray
IRAT .                     :  RST Inelastic Ratio
PFC1 .IN                   :  PFCS CaliperX
PFC2 .IN                   :  PFCS CaliperY
RSCF .                     :  RST Far Detector Effective Unregulated
RSCN .                     :  RST Near Detector Effective
SFFA .CU                   :  RST Sigma Formation Far Apparent
SIBF .CU                   :  RST Sigma Borehole Fluid
SIGM .CU                   :  Formation Sigma (Neutron Capture Cross
TENS .LBF                  :  Cable Tension
TPHI .V/V                  :  Thermal Decay Porosity
~Parameter Information Block
#MNEM.UNIT            Value   Description
#---------- ----------------  -----------
APD  .M           54.900002:  Elevation of Depth Reference (LMF) above Permanent Datum
BHS  .                 CASE:  Borehole Status (Open or Cased Hole)
BS   .IN                8.5:  Bit Size
BSAL .PPM                 0:  Borehole Salinity
BSALOPT.              UNKNOWN:  Borehole Salinity Option
CSIZ .IN                  7:  Current Casing Size
CWEI .LB/F               29:  Casing Weight
EPD  .C3                  0:  Elevation of Permanent Datum above Mean Sea Level
LMF  .                   KB:  Logging Measured From (Name of Logging Elevation Reference)
MATR .                 SAND:  Rock Matrix for Neutron Porosity Corrections
PDAT .                  MSL:  Permanent Datum
RUN  .                Run 1:  RUN NUMBER
TAPE_NAME.     Statoil_Volve_15-9-F-1 C_PLT-RST_28Nov14_ConCu_R1L15Up_SigmaRepeat.las:  
TOOL_STRING.              UNKNOWN:  
WN   .           15/9-F-1 C:  WELL
PROJECT.     SLEIPNER_OST@st-vlinapp01:  
SET  .       RSTD_1114_SIG2:  
~Other Information Block
~Ascii Log Data
# ...
    3521.81160 
    -5971.3999         0.0020         2.3447       0.939600      -0.000168 
      355.5720        -0.4094        80.2138        22.7006         0.3600 
        6.2026         6.0487         9.9599        10.7291        19.2844 
       20.1296        16.6534      3761.2288       0.192400
    3521.96400 
    -5298.7998         0.0069         2.2509       0.927700      -0.000168 
      355.5720        -0.4157        77.2402        24.3973         0.3664 
        6.2026         6.0487        10.0506        10.8333        18.3315 
       20.3572        17.1670      3761.2288       0.184600
    3522.11640 
    -4351.1001        -0.0032         2.2626       0.918500      -0.000168 
      355.5720        -0.6455        78.9712        24.3973         0.3658 
        6.2026         6.0487        10.1442        11.3795        19.2520 
       20.6783        17.1022      3761.2288       0.190200
    3522.26880 
    -2836.2998        -0.0188         2.3301       0.897700      -0.000168 
      355.5720        -0.5588        77.8061        25.6455         0.3593 
        6.2026         6.0487        10.3304        10.4662        19.0669 
       21.1924        17.2175      3761.2288       0.195700
    3522.42120 
    -2769.8000        -0.0006         2.2884       0.960400      -0.000168 
      355.5720        -0.4133        84.8672        26.1720         0.3551 
        6.2026         6.0487         8.9939        10.3070        18.6746 
       21.2150        17.1771      3761.2288       0.210300
    3522.57360 
    -1731.2000         0.1120         2.2227       0.914600      -0.000168 
      355.5720        -0.6237        81.1053        26.0940         0.3537 
        6.2026         6.0487         9.5296        10.7821        19.1268 
       21.5681        17.1981      3761.2288       0.220900
    3522.72600 
     -228.1000         0.0532         2.3460       0.928900      -0.000168 
      355.5720        -0.5815        86.0043        27.2525         0.3587 
        6.2026         6.0487         9.4432        10.8820        19.1050 
       22.0801        17.2844      3761.2288       0.223600
    3522.87840 
     -197.6000         0.1289         2.1024       0.920300      -0.000168 
      355.5720        -0.6959        79.8064        29.7332         0.3620 
        6.2026         6.0487         8.7846         9.9763        18.9435 
       22.0905        17.2779      3761.2288       0.222600
    3523.03080 
      536.5000         0.0039         2.2899       0.928700      -0.000168 
      355.5720        -0.6440        83.7894        26.9872         0.3660 
        6.2026         6.0487         9.3833        10.5133        19.0963 
       22.3409        17.1983      3761.2288       0.216700
    3523.18320 
      416.0000         0.0146         2.2393       0.928100      -0.000168 
      355.5720        -0.6216        81.3334        26.4867         0.3592 
        6.2026         6.0487         9.5534        10.8148        18.8654 
       22.2998        17.5041      3761.2288       0.210300
    3523.33560 
      502.9000        -0.0106         2.2772       0.897100      -0.000168 
      355.5720        -0.7895        77.5924        26.3307         0.3564 
        6.2026         6.0487        10.4157        11.0399        19.8626 
       22.3294        17.4051      3761.2288       0.206500
    3523.48800 
      809.4000        -0.0071         2.3321       0.910300      -0.000168 
      355.5720        -0.7824        82.3734        26.0138         0.3535 
        6.2026         6.0487         9.7649        10.5457        18.7868 
       22.4341        17.5413      3761.2288       0.205400
    3523.64040 
      729.8000        -0.0136         2.3296       0.936900      -0.000168 
      355.5720        -0.8520        78.5034        24.4692         0.3573 
        6.2026         6.0487        10.2606        11.1102        19.2628 
       22.4069        17.4361      3761.2288       0.207700
    3523.79280 
      619.5000        -0.0153         2.1831       0.913900      -0.000168 
      355.5720        -0.6657        80.0477        25.4990         0.3525 
        6.2026         6.0487         9.9183        11.8066        19.5500 
       22.3693        17.5101      3761.2288       0.213000
    3523.94520 
      819.7000         0.0229         2.3865       0.901100      -0.000168 
      355.5720        -0.7771        80.1958        28.4253         0.3554 
        6.2026         6.0487        10.4224        10.7681        19.0182 
       22.4376        17.6010      3761.2288       0.214700
    3524.09760 
     1420.2000        -0.0948         2.1642       0.942000      -0.000168 
      355.5720        -0.8205        81.3398        26.4361         0.3473 
        6.2026         6.0487         9.0320        10.4540        19.5377 
       22.6427        17.8339      3761.2288       0.216700
    3524.25000 
     1425.1000         2.4243         2.1199       0.780000      -0.000168 
      355.5720        -0.6571        83.4458        26.4361         0.3477 
        6.2026         6.0487         9.6126        10.7821        20.2475 
       22.6444        17.8269      3761.2288       0.214300
    3524.40240 
     1795.3000         0.0029         2.3436       0.904000      -0.000168 
      355.5720        -0.6153        87.4881        26.2381         0.3443 
        6.2026         6.0487         9.4759        11.1205        19.0026 
       22.7709        17.3524      3761.2288       0.217700
    3524.55480 
     1768.9000         0.0456         2.3246       0.932900      -0.000168 
      355.5720        -0.5576        81.0354        26.4526         0.3501 
        6.2026         6.0487        10.1497        11.0509        18.1118 
       22.7619        17.1165      3761.2288       0.214100
    3524.70720 
      975.6000         0.0896         2.2924       0.916600      -0.000168 
      355.5720        -0.5380        82.5632        24.6704         0.3516 
        6.2026         6.0487         9.6828        10.5655        19.5389 
       22.4908        17.1006      3761.2288       0.211900
    3524.85960 
      114.0000         0.0037         2.3607       0.894100      -0.000168 
      355.5720        -0.5337        83.3437        26.6930         0.3521 
        6.2026         6.0487        10.0414        10.8644        18.9592 
       22.1968        17.3951      3761.2288       0.203700
    3525.01200 
      -26.6000         0.0051         2.2539       0.917500      -0.000168 
      355.5720        -0.3981        84.0350        26.0990         0.3518 
        6.2026         6.0487         9.2878        10.8145        18.9902 
       22.1488        17.1219      3761.2288       0.204300
    3525.16440 
    -1172.6000        -0.0044         2.3403       0.896600      -0.000168 
      355.5720        -0.5421        84.9344        26.8486         0.3522 
        6.2026         6.0487         9.4436        10.4051        18.7210 
       21.7583        17.3165      3761.2288       0.198900
    3525.31680 
    -2007.2999         0.0150         2.3105       0.907600      -0.000168 
      355.5720        -0.4732        84.0261        27.1857         0.3550 
        6.2026         6.0487         9.4340        10.7013        19.5535 
       21.4742        17.2592      3761.2288       0.203800
    3525.46920 
     -811.0000         0.0002         2.2645       0.944300      -0.000168 
      355.5720        -0.6713        79.9179        27.0019         0.3569 
        6.2026         6.0487         9.3915        10.5152        18.8227 
       21.8814        17.5177      3761.2288       0.198000
    3525.62160 
     -780.8000        -0.0103         2.3114       0.938900      -0.000168 
      355.5720        -0.6711        82.2868        26.6624         0.3617 
        6.2026         6.0487         9.6334        10.7998        19.4795 
       21.8917        17.4488      3761.2288       0.195000
    3525.77400 
     -265.3000        -0.1105         2.3623       0.888200      -0.000168 
      355.5720        -0.8075        79.7556        24.8519         0.3605 
        6.2026         6.0487        10.1322        10.2068        19.3447 
       22.0674        17.5546      3761.2288       0.180200
