~Version Information Block
VERS .                 2.00:  CWLS LOG ASCII STANDARD - VERSION 2.00
WRAP .                  YES:  Multiple lines per depth step
~Well Information Block
#MNEM.UNIT        Data Type   Information
#---------- ----------------  -----------
STRT .M          3438.44880:  START DEPTH
STOP .M          3636.26400:  STOP DEPTH
STEP .M             0.15240:  STEP
NULL .              -999.25:  NULL VALUE
COMP .              Statoil:  COMPANY
WELL .          NO_15/9-F-5:  WELL
FLD  .                Volve:  FIELD
LOC  .                Volve:  LOCATION
CTRY .               Norway:  COUNTRY
STAT .                     :  STATE
CNTY .                     :  COUNTY
SRVC .         Schlumberger:  SERVICE COMPANY
DATE .           11/03/2015:  DATE
API  .                     :  API NUMBER
UWI  .             15/9-F-5:  UNIQUE WELL ID
LATI .     58° 26' 29.66" N:  LATITUDE
LONG .      1° 53' 14.99" E:  LONGITUDE
~Curve Information Block
#MNEM.UNIT         API CODE   Curve Description
#---------- ----------------  -----------------
DEPTH.M                    :  Depth Index
BSAL .PPM                  :  (RST-D)                 (6in)                   Borehole Salinity
CCLC .V                    :  (PSTP-B)                (1in)                   CCL Computed Amplitude
CIRF .                     :  (RST-D)                 (6in)                   Capture to Inelastic Rat
CIRN .                     :  (RST-D)                 (6in)                   Capture to Inelastic Rat
CVEL .M/SEC                 :  (WLWorkflow)            (1in)                   Cable Velocity
DSIG .CU                   :  (RST-D)                 (6in)                   Sigma Difference
FBEF .UA                   :  (RST-D)                 (6in)                   Far Effective Beam Curre
GR   .GAPI                 :  (PSTP-B)                (6in)                   Gamma Ray
IRAT .                     :  (RST-D)                 (6in)                   Inelastic Ratio
RB_PCMS.DEG                  :  (PCMS-A)                (6in)                   Relative Bearing
RSCF .                     :  (RST-D)                 (6in)                   Far Detector Effective U
RSCN .                     :  (RST-D)                 (6in)                   Near Detector Effective
SFFA .CU                   :  (RST-D)                 (6in)                   Sigma Formation Far Appa
SIBF .CU                   :  (RST-D)                 (6in)                   Sigma Borehole Fluid
SIGM .CU                   :  (RST-D)                 (6in)                   Formation Sigma (Neutron
TENS .LBF                  :  (WLWorkflow)            (1in)                   Cable Tension
TPHI .V/V                  :  (RST-D)                 (6in)                   Thermal Decay Porosity
WPRE .BAR                  :  (PSTP-B)                (6in)                   Well Pressure
WTEP .DEGC                 :  (PSTP-B)                (6in)                   Well Temperature
~Parameter Information Block
#MNEM.UNIT            Value   Description
#---------- ----------------  -----------
APD  .M                  54:  Elevation of Depth Reference (LMF) Above Permanent Datum
CLAB .              Country:  :County Label
ECF  .M             -999.25:  Elevation of Casing Flange above Permanent Datum
EDF  .M                  54:  Elevation of Drill Floor Above Permanent Datum
EGL  .M                 -91:  Elevation of Ground Level Above Permanent Datum
EKB  .M             -999.25:  Elevation of Kelly Bushing Above Permanent Datum
EPD  .M                   0:  Elevation of Permanent Datum (PDAT) above Mean Sea Level
FL1  .            North Sea:  Field Location Line 1
FL2  .     Norwegian Sector:  Field Location Line 2
LMF  .                   DF:  Logging Measured From
LUL  .                 NOBO:  Logging Unit Location
LUN  .          ONCC-A 3837:  Logging Unit Number
PDAT .                  MSL:  Local Permanent Datum
RIGN .      Maersk Inspirer:  Rig Name
RIGTYP.               Jackup:  Rig Type
SON  .           C2TQ-00038:  Service Order Number
TAPE_NAME.     RST_SIGMA__03Nov15_171237.las:  
TOOL_STRING.              UNKNOWN:  
WN   .             15/9-F-5:  WELL NAME
PROJECT.     SLEIPNER_OST@st-vlinapp01:  
SET  .       RSTD_1115_SIG1:  
~Other Information Block
~Ascii Log Data
# ...
    3627.72960 
    35104.1172      -999.2500         2.0813       0.720650     -0.0736637 
        1.1870       107.5759      -999.2500       0.312980       349.2180 
        6.5380         6.9526        18.8766        34.4091        17.0935 
     4510.6006       0.247690      -999.2500      -999.2500
    3627.88200 
    36189.8906      -999.2500         2.1107       0.703060     -0.0731557 
        1.1630       107.3281      -999.2500       0.314500       349.2276 
        6.9738         7.2449        18.5177        34.7967        16.8406 
     4479.1992       0.251430      -999.2500      -999.2500
    3628.03440 
    36695.5781      -999.2500         2.1134       0.688040     -0.0719637 
        1.0187       107.0277      -999.2500       0.310260       349.2667 
        6.9305         6.9566        18.5046        34.9774        16.5546 
     4706.6675       0.248810      -999.2500      -999.2500
    3628.18680 
    36243.1406      -999.2500         2.1627       0.705330     -0.0716352 
        0.8918       111.7278      -999.2500       0.310530       349.2737 
        6.7908         6.9846        18.0289        34.8157        16.5544 
     4577.6001       0.243720      -999.2500      -999.2500
    3628.33920 
    36288.6523      -999.2500         2.1486       0.680450     -0.0726477 
        0.8955       109.4442      -999.2500       0.310970       349.2421 
        6.7902         6.8804        18.5198        34.8320        16.6261 
     4500.6011       0.237750      -999.2500      -999.2500
    3628.49160 
    36048.5898      -999.2500         2.1038       0.671610     -0.0732367 
        0.9103       108.3634      -999.2500       0.309970       349.2415 
        6.7386         6.6952        18.7126        34.7462        17.1028 
     4586.9995       0.233390      -999.2500      -999.2500
    3628.64400 
    36599.0469      -999.2500         2.0647       0.672400     -0.0711272 
        1.0824       112.6432      -999.2500       0.310960      -999.2500 
        6.4707         6.8036        19.4617        34.9429        17.1843 
     4765.3989       0.231610      -999.2500      -999.2500
    3628.79640 
    36910.4805      -999.2500         2.0868       0.672600     -0.0718855 
        1.0545       106.6223      -999.2500       0.312610      -999.2500 
        6.8526         6.7823        18.7562        35.0542        17.1950 
     4720.6011       0.229710      -999.2500      -999.2500
    3628.94880 
    38023.0234      -999.2500         2.0923       0.650090     -0.0711235 
        1.1381       108.7221      -999.2500       0.313740      -999.2500 
        6.7404         6.7180        18.7432        35.4522        16.7756 
     4641.8013       0.230080      -999.2500      -999.2500
    3629.10120 
    37449.4414      -999.2500         2.0801       0.670780     -0.0723900 
        1.1559       107.3967      -999.2500       0.313940      -999.2500 
        6.8019         6.8084        18.1961        35.2469        17.0931 
     4473.9990       0.224830      -999.2500      -999.2500
    3629.25360 
    37153.5977      -999.2500         2.0540       0.663410     -0.0716280 
        1.0464       107.0105      -999.2500       0.315250      -999.2500 
        6.6300         6.5309        19.7021        35.1411        17.0040 
     4713.6006       0.224880      -999.2500      -999.2500
    3629.40600 
    37665.6602      -999.2500         2.0749       0.654420     -0.0701110 
        1.1683       108.5118      -999.2500       0.310500      -999.2500 
        6.7530         6.6783        18.4651        35.3243        17.4524 
     4810.4009       0.224760      -999.2500      -999.2500
    3629.55840 
    37683.6211      -999.2500         2.1263       0.655130     -0.0751915 
        1.2092       111.3056      -999.2500       0.308250      -999.2500 
        6.6073         6.5801        19.5275        35.3307        17.1163 
     4671.9995       0.230340      -999.2500      -999.2500
    3629.71080 
    37361.2695      -999.2500         2.0669       0.676950     -0.0812800 
        1.2048       106.9235      -999.2500       0.307400      -999.2500 
        6.5937         6.7262        18.6767        35.2154        17.2967 
     4679.2002       0.233370      -999.2500      -999.2500
    3629.86320 
    37235.3281      -999.2500         2.0556       0.647320     -0.0823042 
        1.3440       111.6868      -999.2500       0.309950      -999.2500 
        6.3944         6.5163        18.9959        35.1704        17.0498 
     4600.2002       0.234160      -999.2500      -999.2500
    3630.01560 
    36763.3203      -999.2500         2.0706       0.663430     -0.0807760 
        1.3796       111.9399      -999.2500       0.314540      -999.2500 
        6.4386         6.5647        18.7843        35.0016        17.0035 
     4904.4004       0.236780      -999.2500      -999.2500
    3630.16800 
    37956.6367      -999.2500         2.0026       0.668560     -0.0809625 
        1.4299       104.2889      -999.2500       0.314110      -999.2500 
        6.7442         6.7208        18.5320        35.4284        17.1091 
     4872.5000       0.235330      -999.2500      -999.2500
    3630.32040 
    37188.4180      -999.2500         2.0867       0.681070     -0.0746760 
        1.2809       108.3670      -999.2500       0.315550      -999.2500 
        6.6467         6.9129        19.3092        35.1536        16.9817 
     4737.9990       0.240590      -999.2500      -999.2500
    3630.47280 
    38079.0586      -999.2500         2.0719       0.658820     -0.0713775 
        1.4527       108.2592      -999.2500       0.307240      -999.2500 
        6.7579         6.8662        18.4009        35.4723        17.0105 
     4689.8003       0.240540      -999.2500      -999.2500
    3630.62520 
    38216.4375      -999.2500         2.0713       0.658580     -0.0812882 
        1.3126       110.4733      -999.2500       0.309440      -999.2500 
        6.6721         6.9741        18.6194        35.5215        17.0124 
     4893.4004       0.242790      -999.2500      -999.2500
    3630.77760 
    39990.4297      -999.2500         2.0294       0.668700     -0.0768398 
        1.1965       110.5221      -999.2500       0.310770      -999.2500 
        6.5018         6.8785        19.3202        36.1573        17.0807 
     4812.7505       0.246790      -999.2500      -999.2500
    3630.93000 
    42017.0898      -999.2500         2.0881       0.664610     -0.0693490 
        1.2575       112.3853      -999.2500       0.314110      -999.2500 
        6.6132         6.9285        18.6078        36.8855        17.2667 
     4747.0005       0.249910      -999.2500      -999.2500
    3631.08240 
    41136.2930      -999.2500         1.9456       0.675120     -0.0767080 
        1.1257       108.6666      -999.2500       0.309980      -999.2500 
        6.1998         6.8523        19.1920        36.5688        17.0891 
     4748.4009       0.258330      -999.2500      -999.2500
    3631.23480 
    40743.2227      -999.2500         2.1621       0.679660     -0.0800100 
        1.0930       108.6387      -999.2500       0.306460      -999.2500 
        6.9369         6.8830        18.7977        36.4276        17.3204 
     4915.6006       0.254820      -999.2500      -999.2500
    3631.38720 
    41741.6602      -999.2500         2.1072       0.678560     -0.0800140 
        1.1112       109.6843      -999.2500       0.306090      -999.2500 
        6.7903         7.0160        19.3213        36.7864        17.4098 
     4924.5996       0.251570      -999.2500      -999.2500
    3631.53960 
    42176.0000      -999.2500         2.0497       0.665260     -0.0812800 
        0.9670       104.8447      -999.2500       0.308510      -999.2500 
        6.9697         6.9033        19.4828        36.9426        17.3057 
     4736.6006       0.245220      -999.2500      -999.2500
    3631.69200 
    41305.0977      -999.2500         2.1218       0.663270     -0.0782398 
        0.9204       112.5742      -999.2500       0.308190      -999.2500 
        6.5094         6.5150        18.4969        36.6295        17.1173 
     4963.1992       0.245900      -999.2500      -999.2500
