~Version Information Block
VERS .                 2.00:  CWLS LOG ASCII STANDARD - VERSION 2.00
WRAP .                   NO:  One line per depth step
~Well Information Block
#MNEM.UNIT        Data Type   Information
#---------- ----------------  -----------
STRT .M          3445.30680:  START DEPTH
STOP .M          3639.15960:  STOP DEPTH
STEP .M             0.15240:  STEP
NULL .              -999.25:  NULL VALUE
COMP .              Statoil:  COMPANY
WELL .          NO_15/9-F-5:  WELL
FLD  .                VOLVE:  FIELD
LOC  .            North Sea:  LOCATION
CTRY .                     :  COUNTRY
STAT .                     :  STATE
CNTY .                     :  COUNTY
SRVC .         Schlumberger:  SERVICE COMPANY
DATE .          16-Sep-2012:  DATE
API  .                     :  API NUMBER
UWI  .             15/9-F-5:  UNIQUE WELL ID
~Curve Information Block
#MNEM.UNIT         API CODE   Curve Description
#---------- ----------------  -----------------
DEPTH.M                    :  DEPTH (BOREHOLE)
CCLC .V                    :  CCL
CRRA .                     :  Near-Far Count Rate Ratio
CVEL .M/MIN                 :  Cable Velocity
FBEF .UA                   :  RST Far Effective Beam Current
FCOR .                     :  RST Far Carbon/Oxygen Ratio
FERD .                     :  RST Far IC Mode Capture Optimization Resolution Degradation Factor
FIRD .                     :  RST Far Inelastic Optimization Resolution Degradation Factor
GR   .GAPI                 :  Gamma Ray
NCOR .                     :  RST Near Carbon/Oxygen Ratio
NERD .                     :  RST Near IC Mode Capture Optimization Resolution Degradation Factor
NIRD .                     :  RST Near Inelastic Optimization Resolution Degradation Factor
RB_PCMS.DEG                  :  Relative Bearing
TENS .LBF                  :  Cable Tension
~Parameter Information Block
#MNEM.UNIT            Value   Description
#---------- ----------------  -----------
APD  .M           54.900002:  Elevation of Depth Reference (LMF) above Permanent Datum
RUN  .                Run 1:  RUN NUMBER
PROJECT.     SLEIPNER_OST@st-vlinapp01:  
SET  .        RSTD_0912_IC3:  
~Other Information Block
# 
~A       DEPTH           CCLC           CRRA           CVEL           FBEF           FCOR           FERD           FIRD             GR           NCOR           NERD           NIRD        RB_PCMS           TENS 
# ...
    3635.50200        -0.0240         2.8976       -0.37690       111.9906  -999.25000000      -999.2500      -999.2500        60.4477       0.011400      -999.2500      -999.2500         4.9692      2799.4917
    3635.65440        -0.0240         2.8976       -0.37760       111.9906  -999.25000000      -999.2500      -999.2500        60.4477       0.011400      -999.2500      -999.2500         4.9692      2803.9397
    3635.80680        -0.0240         2.8976       -0.38140       111.9906  -999.25000000      -999.2500      -999.2500        60.4477       0.011400      -999.2500      -999.2500         4.9692      2784.1890
    3635.95920        -0.0240         2.8976       -0.38800       111.9906  -999.25000000      -999.2500      -999.2500        60.4477       0.011400      -999.2500      -999.2500         4.9692      2793.8499
    3636.11160        -0.0240         2.8976       -0.39110       111.9906  -999.25000000      -999.2500      -999.2500        60.4477       0.011400      -999.2500      -999.2500         4.9692      2776.0627
    3636.26400        -0.0240         2.8976       -0.39340       111.9906  -999.25000000      -999.2500      -999.2500        60.4477       0.011400      -999.2500      -999.2500         4.9692      2764.2673
    3636.41640        -0.0240         2.8976       -0.39880       111.9906  -999.25000000      -999.2500      -999.2500        60.4477       0.011400      -999.2500      -999.2500         4.9692      2772.3462
    3636.56880        -0.0240         2.8976       -0.39710       111.9906  -999.25000000      -999.2500      -999.2500        60.4477       0.011400      -999.2500      -999.2500         4.9692      2763.4377
    3636.72120        -0.0240         2.8976       -0.39910       111.9906  -999.25000000      -999.2500      -999.2500        60.4477       0.011400      -999.2500      -999.2500         4.9692      2761.5740
    3636.87360        -0.0240         2.8976       -0.37700       111.9906  -999.25000000      -999.2500      -999.2500        60.4477       0.011400      -999.2500      -999.2500         4.9692      2712.0161
    3637.02600        -0.0240         2.8976       -0.40650       111.9906  -999.25000000      -999.2500      -999.2500        60.4477       0.011400      -999.2500      -999.2500         4.9692      2662.6755
    3637.17840        -0.0240         2.8976       -0.94620       111.9906  -999.25000000      -999.2500      -999.2500        60.4477       0.011400      -999.2500      -999.2500         4.9692      2664.1082
    3637.33080        -0.0240         2.8976       -0.72170       111.9906  -999.25000000      -999.2500      -999.2500        60.4477       0.011400      -999.2500      -999.2500         4.9692      2598.7959
    3637.48320        -0.0240         2.8976       -2.71100       111.9906  -999.25000000      -999.2500      -999.2500        60.4477       0.011400      -999.2500      -999.2500         4.9692      2596.3899
    3637.63560        -0.0240         2.8976       -0.82260       111.9906  -999.25000000      -999.2500      -999.2500        60.4477       0.011400      -999.2500      -999.2500         4.9692      2509.7236
    3637.78800        -0.0240         2.8976       -0.55660       111.9906  -999.25000000      -999.2500      -999.2500        60.4477       0.011400      -999.2500      -999.2500         4.9692      2423.7166
    3637.94040        -0.0240         2.8976       -0.33870       111.9906  -999.25000000      -999.2500      -999.2500        60.4477       0.011400      -999.2500      -999.2500         4.9692      2390.6235
    3638.09280        -0.0240         2.8976       -0.35010       111.9906  -999.25000000      -999.2500      -999.2500        60.4477       0.011400      -999.2500      -999.2500         4.9692      2339.4331
    3638.24520        -0.0240         2.8976       -0.36450       111.9906  -999.25000000      -999.2500      -999.2500        60.4477       0.011400      -999.2500      -999.2500         4.9692      2271.4866
    3638.39760        -0.0240         2.8976       -0.37980       111.9906  -999.25000000      -999.2500      -999.2500        60.4477       0.011400      -999.2500      -999.2500         4.9692      2199.0278
    3638.55000        -0.0240         2.8976       -0.40510       111.9906  -999.25000000      -999.2500      -999.2500        60.4477       0.011400      -999.2500      -999.2500         4.9692      2119.6482
    3638.70240        -0.0240         2.8976       -0.43130       111.9906  -999.25000000      -999.2500      -999.2500        60.4477       0.011400      -999.2500      -999.2500         4.9692      2012.9655
    3638.85480        -0.0240         2.8976       -0.48520       111.9906  -999.25000000      -999.2500      -999.2500        60.4477       0.011400      -999.2500      -999.2500         4.9692      1888.2667
    3639.00720        -0.0240         2.8976       -0.61230       111.9906  -999.25000000      -999.2500      -999.2500        60.4477       0.011400      -999.2500      -999.2500         4.9692      1730.6409
    3639.15960        -0.0240         2.8976       -0.37590       111.9906  -999.25000000      -999.2500      -999.2500        60.4477       0.011400      -999.2500      -999.2500         4.9692      1537.1333
