~Version Information Block
VERS .                 2.00:  CWLS LOG ASCII STANDARD - VERSION 2.00
WRAP .                   NO:  One line per depth step
~Well Information Block
#MNEM.UNIT        Data Type   Information
#---------- ----------------  -----------
STRT .M          3454.60320:  START DEPTH
STOP .M          3792.47400:  STOP DEPTH
STEP .M             0.15240:  STEP
NULL .              -999.25:  NULL VALUE
COMP .              Statoil:  COMPANY
WELL .        NO_15/9-F-1_C:  WELL
FLD  .                Volve:  FIELD
LOC  .            North Sea:  LOCATION
CTRY .               Norway:  COUNTRY
STAT .                     :  STATE
CNTY .                     :  COUNTY
SRVC .         Schlumberger:  SERVICE COMPANY
DATE .          27-Nov-2014:  DATE
API  .                     :  API NUMBER
UWI  .           15/9-F-1 C:  UNIQUE WELL ID
LATI .     58° 26' 29.91" N:  LATITUDE
LONG .      1° 53' 14.71" E:  LONGITUDE
~Curve Information Block
#MNEM.UNIT         API CODE   Curve Description
#---------- ----------------  -----------------
DEPTH.M                    :  DEPTH (BOREHOLE)
CVEL .M/SEC                 :  Cable Velocity
DFRB .DEG                  :  Calibrated Relative Bearing
FBEF .UA                   :  RST Far Effective Beam Current
FCOR .                     :  RST Far Carbon/Oxygen Ratio
FERD .                     :  RST Far IC Mode Capture Optimization
FIRD .                     :  RST Far Inelastic Optimization Resolution
GR   .GAPI                 :  Gamma Ray
NCOR .                     :  RST Near Carbon/Oxygen Ratio
NERD .                     :  RST Near IC Mode Capture Optimization
NIRD .                     :  RST Near Inelastic Optimization Resolution
PFC1 .IN                   :  PFCS CaliperX
PFC2 .IN                   :  PFCS CaliperY
TENS .LBF                  :  Cable Tension
~Parameter Information Block
#MNEM.UNIT            Value   Description
#---------- ----------------  -----------
APD  .M           54.900002:  Elevation of Depth Reference (LMF) above Permanent Datum
EPD  .C3                  0:  Elevation of Permanent Datum above Mean Sea Level
LMF  .                   KB:  Logging Measured From (Name of Logging Elevation Reference)
PDAT .                  MSL:  Permanent Datum
RUN  .                Run 1:  RUN NUMBER
TAPE_NAME.     ConCu_R1L19Up_S012_PFCS_PILS_DEFT_RST_PCMS_PSTP.las:  
TOOL_STRING.              UNKNOWN:  
WN   .           15/9-F-1 C:  WELL
PROJECT.     SLEIPNER_OST@st-vlinapp01:  
SET  .        RSTD_1114_IC3:  
~Other Information Block
# 
~A       DEPTH           CVEL           DFRB           FBEF           FCOR           FERD           FIRD             GR           NCOR           NERD           NIRD           PFC1           PFC2           TENS 
# ...
    3496.20840      -0.007410       358.3940       108.1157         0.0826         5.1825         5.1825        25.5477         0.5884         6.5694         6.5694         6.1932         6.0185      4131.3945
    3496.36080      -0.007133       358.3940       107.8900         0.0466         5.2563         5.2563        26.2595         0.6545         6.5760         6.5760         6.1922         6.0183      4336.3345
    3496.51320      -0.007280       358.3940       110.2069         0.1462         5.3045         5.3045        30.7120         0.5877         6.5826         6.5826         6.1924         6.0177      4287.4272
    3496.66560      -0.007297       358.3940       113.0708         0.1751         5.2228         5.2228        35.9673         0.7248         6.6258         6.6258         6.1911         6.0185      4200.0991
    3496.81800      -0.007227       358.3940       114.0519         0.2760         5.1329         5.1329        41.2654         0.8436         6.6340         6.6340         6.1905         6.0184      4223.4971
    3496.97040      -0.007465       358.3940       113.5360         0.2071         5.0989         5.0989        45.5961         0.8290         6.7064         6.7064         6.1905         6.0186      4116.7729
    3497.12280      -0.007660       358.3940       112.9785         0.2258         5.1808         5.1808        49.9106         0.8070         6.6920         6.6920         6.1905         6.0184      4040.1482
    3497.27520      -0.007357       358.3940       113.1949         0.0839         5.1526         5.1526        49.1981         0.8541         6.6835         6.6835         6.1905         6.0186      4220.4712
    3497.42760      -0.007372       358.3940       112.2581         0.1324         5.1994         5.1994        48.4655         0.6943         6.7262         6.7262         6.1907         6.0181      4162.9551
    3497.58000      -0.007497       358.3940       112.7327         0.1885         5.2479         5.2479        47.8910         0.8002         6.7458         6.7458         6.1906         6.0164      4117.3477
    3497.73240      -0.007502       358.3940       112.7244         0.2263         5.1543         5.1543        47.1988         0.6995         6.7629         6.7629         6.1905         6.0167      4044.8433
    3497.88480      -0.007947       358.3940       111.8628         0.1782         5.1514         5.1514        45.8350         0.6410         6.7918         6.7918         6.1905         6.0157      3934.0244
    3498.03720      -0.007530       358.3940       110.9101         0.0645         5.0543         5.0543        43.7767         0.7506         6.8113         6.8113         6.1907         6.0158      4184.4468
    3498.18960      -0.007055       358.3940       109.6194         0.1959         5.0096         5.0096        42.0218         0.7385         6.8237         6.8237         6.1906         6.0133      4330.1484
    3498.34200      -0.007215       358.3940       110.6003         0.2350         4.9341         4.9341        40.6290         0.7761         6.8504         6.8504         6.1907         6.0165      4276.1816
    3498.49440      -0.007468       358.3940       108.8793         0.2732         4.8502         4.8502        39.6062         0.8585         6.8227         6.8227         6.1908         6.0185      4215.9082
    3498.64680      -0.007387       358.3940       108.8159         0.1702         4.8588         4.8588        38.2346         0.7876         6.8165         6.8165         6.1906         6.0178      4230.6279
    3498.79920      -0.007408       358.3940       109.9100         0.1778         4.9118         4.9118        38.7489         0.8324         6.7794         6.7794         6.1907         6.0181      4164.6797
    3498.95160      -0.007505       358.3940       109.4434         0.2347         4.9437         4.9437        38.5723         0.6909         6.7850         6.7850         6.1928         6.0184      4214.3345
    3499.10400      -0.007273       358.3940       109.7634         0.2539         5.0023         5.0023        38.0552         0.7350         6.8130         6.8130         6.1992         6.0181      4258.2007
    3499.25640      -0.007290       358.3940       109.1714         0.1874         4.9599         4.9599        35.5373         1.0336         6.7902         6.7902         6.2152         6.0180      4213.3345
    3499.40880      -0.007437       358.3940       109.4983         0.1717         4.9630         4.9630        33.3364         0.8279         6.8215         6.8215         6.1908         6.0185      4122.0518
    3499.56120      -0.007205       358.3940       110.2048         0.1495         5.0389         5.0389        30.4479         0.9343         6.7609         6.7609         6.2074         6.0106      4247.6597
    3499.71360      -0.007305       358.3940       111.3528         0.2603         5.0334         5.0334        27.9116         0.8550         6.7510         6.7510         6.2124         5.9981      4224.2363
    3499.86600      -0.007285       358.3940       111.8881         0.1659         5.0631         5.0631        27.6589         0.6717         6.7689         6.7689         6.2129         6.0043      4239.3027
    3500.01840      -0.007360       358.3940       111.4754         0.0653         5.0403         5.0403        29.5901         0.9469         6.7770         6.7770         6.2109         6.0012      4248.8330
    3500.17080      -0.007225       358.3940       111.8727         0.2436         4.9849         4.9849        30.8153         0.7472         6.7979         6.7979         6.2222         6.0197      4257.7480
    3500.32320      -0.007473       358.3940       112.6027        -0.0306         4.8401         4.8401        32.6025         0.7188         6.7904         6.7904         6.2219         6.0201      4162.9937
    3500.47560      -0.007497       358.3940       111.3818         0.0711         4.7357         4.7357        34.2786         0.6907         6.7562         6.7562         6.2220         6.0217      4105.3379
    3500.62800      -0.007320       358.3940       109.6642         0.1338         4.6384         4.6384        33.0949         0.8537         6.7428         6.7428         6.2219         6.0236      4194.9199
    3500.78040      -0.007118       358.3940       109.8293         0.1211         4.7750         4.7750        32.2109         0.7608         6.7133         6.7133         6.2219         6.0275      4259.6416
    3500.93280      -0.007308       358.3940       109.0270         0.2325         4.8898         4.8898        31.6724         0.6441         6.7313         6.7313         6.2219         6.0285      4266.1470
    3501.08520      -0.007340       358.3940       109.6203        -0.0026         4.9183         4.9183        31.7791         0.7113         6.7346         6.7346         6.2219         6.0270      4257.3667
    3501.23760      -0.007402       358.3940       109.8990         0.0817         4.9483         4.9483        31.6885         0.7009         6.7841         6.7841         6.2219         6.0186      4245.1929
    3501.39000      -0.007305       358.3940       109.1187         0.2268         4.9796         4.9796        32.3011         0.6014         6.7415         6.7415         6.2219         6.0187      4241.1030
    3501.54240      -0.007232       358.3940       108.5099         0.0306         4.9896         4.9896        32.1658         0.9214         6.7320         6.7320         6.2218         6.0186      4252.4238
    3501.69480      -0.007348       356.9830       109.4676         0.0365         4.9993         4.9993        32.4277         0.6767         6.7514         6.7514         6.2217         6.0186      4278.1538
    3501.84720      -0.007130       356.9830       108.9875         0.2746         4.9786         4.9786        32.9771         0.6607         6.6913         6.6913         6.2219         6.0187      4290.2212
    3501.99960      -0.007447       356.9830       109.2608         0.2303         5.0719         5.0719        33.7057         0.8835         6.6502         6.6502         6.2220         6.0186      4159.1211
