#------------------------------------------------------------------------------
#
#   Created by   : las_export
#   Created on   : 2009-06-18 13:07:55
#   Project      : VOLVE
#   User         : TONYG
#   Interpreters : *
#
#------------------------------------------------------------------------------
~VERSION INFORMATION
VERS. 2.0 : CWLS Log ASCII Standard - version 2.0
WRAP.  NO : One line per depth step

~WELL INFORMATION
#MNEMONIC   .UNIT                                           VALUE :DESCRIPTION
#------------------------------------------------------------------------------
STRT        .M                                       2560.0412 :START DEPTH
STOP        .M                                       3222.0668 :STOP DEPTH
STEP        .M                                          0.1524 :STEP
NULL        .                                        -999.2500 :NULL VALUE
COMP        .                                                  :COMPANY
WELL        .                                      15/9-F-15 C :WELL
FLD         .                                            VOLVE :FIELD
LOC         .                                          UNKNOWN :LOCATION
CNTY        .                                          UNKNOWN :COUNTY
STAT        .                                          UNKNOWN :STATE
CTRY        .                                           Norway :COUNTRY
SRVC        .                                          UNKNOWN :SERVICE COMPANY
DATE        .                                          UNKNOWN :LOG DATE
UWI         .                                   NO 15/9-F-15 C :UNIQUE WELL ID
XCOORD      .M                                   435053.550000 :SURFACE X
YCOORD      .M                                  6478560.360000 :SURFACE Y
LAT         .                                        58.441585 :LATITUDE
LON         .                                         1.887541 :LONGITUDE
ELEV        .M                                         54.9000 :SURFACE ELEV
ELEV_TYPE   .                                               KB :ELEV TYPE

~CURVE INFORMATION
#MNEMONIC   .UNIT          API CODE       : CURVE DESCRIPTION
#------------------------------------------------------------------------------
DEPTH       .M                            : Measured Depth
DT          .us/ft         UNKNOWN        : DT:UNKNOWN:rC:NONE:v1
GR          .API           UNKNOWN        : GR:UNKNOWN:rC:NONE:v1
~A     DEPTH           DT           GR 
# ...
  2895.32120    67.259773    20.544399 
  2895.47360    67.016373    21.497029 
  2895.62600    67.859032    21.025011 
  2895.77840    67.546188    19.445308 
  2895.93080    64.846046    17.502378 
  2896.08320    63.592369    17.610840 
  2896.23560    61.974979    16.597669 
  2896.38800    63.499519    18.267565 
  2896.54040    65.002060    17.590554 
  2896.69280    65.506943    18.522192 
  2896.84520    66.442253    17.042035 
  2896.99760    65.952660    16.799908 
  2897.15000    63.276371    16.077168 
  2897.30240    62.113602    16.841382 
  2897.45480    62.850140    18.176832 
  2897.60720    64.744858    19.834312 
  2897.75960    66.159950    19.959535 
  2897.91200    66.274071    19.540321 
  2898.06440    65.900841    17.856166 
  2898.21680    65.096077    17.830275 
  2898.36920    64.608177    17.618571 
  2898.52160    64.543312    18.885290 
  2898.67400    64.769218    19.143825 
  2898.82640    65.143288    19.542203 
  2898.97880    65.390640    19.010700 
  2899.13120    66.229729    17.799607 
  2899.28360    67.397278    16.809307 
  2899.43600    67.564667    17.273725 
  2899.58840    66.039970    18.820960 
  2899.74080    65.341789    19.278719 
  2899.89320    65.879417    19.497894 
  2900.04560    67.359703    18.110632 
  2900.19800    68.801224    14.034639 
  2900.35040    69.544662  -999.250000 
  2900.50280    70.039436  -999.250000 
  2900.65520    69.161636  -999.250000 
  2900.80760    68.015717  -999.250000 
  2900.96000    66.954872  -999.250000 
  2901.11240    66.730797  -999.250000 
  2901.26480    67.430412  -999.250000 
  2901.41720    68.293503  -999.250000 
  2901.56960    67.956718  -999.250000 
  2901.72200    65.905830  -999.250000 
  2901.87440    64.449677  -999.250000 
  2902.02680    64.301170  -999.250000 
  2902.17920    64.503792  -999.250000 
  2902.33160    64.825073  -999.250000 
  2902.48400    64.916649  -999.250000 
  2902.63640    64.943077  -999.250000 
  2902.78880    64.755569  -999.250000 
  2902.94120    64.907722  -999.250000 
  2903.09360    65.719009  -999.250000 
  2903.24600    67.056839  -999.250000 
  2903.39840    68.257057  -999.250000 
  2903.55080    69.420998  -999.250000 
  2903.70320    70.282097  -999.250000 
  2903.85560    70.721123  -999.250000 
  2904.00800    70.897713  -999.250000 
  2904.16040    70.790260  -999.250000 
  2904.31280    70.962601  -999.250000 
  2904.46520    71.177254  -999.250000 
  2904.61760    71.128014  -999.250000 
  2904.77000    71.498871  -999.250000 
  2904.92240    71.691727  -999.250000 
  2905.07480    71.432098  -999.250000 
  2905.22720    71.188164  -999.250000 
  2905.37960    71.005768  -999.250000 
  2905.53200    71.102333  -999.250000 
  2905.68440    71.399429  -999.250000 
  2905.83680    71.712448  -999.250000 
  2905.98920    72.292389  -999.250000 
  2906.14160    72.791222  -999.250000 
  2906.29400    73.064903  -999.250000 
  2906.44640    72.221550  -999.250000 
  2906.59880    71.525627  -999.250000 
  2906.75120    71.491692  -999.250000 
  2906.90360    72.282463  -999.250000 
  2907.05600    72.374672  -999.250000 
  2907.20840    71.776421  -999.250000 
  2907.36080    71.056686  -999.250000 
  2907.51320    70.512390  -999.250000 
  2907.66560    70.748978  -999.250000 
  2907.81800    71.278778  -999.250000 
  2907.97040    71.360367  -999.250000 
  2908.12280    71.311996  -999.250000 
  2908.27520    71.493530  -999.250000 
  2908.42760    72.489014  -999.250000 
  2908.58000    73.205208  -999.250000 
  2908.73240    72.906128  -999.250000 
  2908.88480    73.068466  -999.250000 
  2909.03720    73.346046  -999.250000 
  2909.18960    72.983643  -999.250000 
  2909.34200    72.513397  -999.250000 
  2909.49440    72.003799  -999.250000 
  2909.64680    72.146744  -999.250000 
  2909.79920    72.980347  -999.250000 
  2909.95160    73.956718  -999.250000 
  2910.10400    73.912758     8.459200 
  2910.25640    73.338310     8.378965 
  2910.40880    73.071228     8.237214 
  2910.56120    72.336121     9.456086 
  2910.71360    73.173401     9.658681 
  2910.86600    74.538628    10.127037 
  2911.01840    74.681633     8.977915 
  2911.17080    73.715691     8.986128 
  2911.32320    72.627357     8.539016 
  2911.47560    72.906517     8.293803 
  2911.62800    73.891190     7.653495 
  2911.78040    72.704262     7.099574 
  2911.93280    73.161484     7.434667 
  2912.08520    72.614563     9.584263 
  2912.23760    71.132767    12.718390 
  2912.39000    71.149147    14.751152 
  2912.54240    71.705513    14.995788 
  2912.69480    72.092682    13.965527 
  2912.84720    72.381783    13.330916 
  2912.99960    72.816727    12.593555 
  2913.15200    72.620720    12.560493 
  2913.30440    72.724854    13.232751 
  2913.45680    74.385567    13.710224 
  2913.60920    75.233849    13.721762 
  2913.76160    75.146141    12.456819 
  2913.91400    73.987450    12.224079 
  2914.06640    73.367119    13.297066 
  2914.21880    73.366478    14.556826 
  2914.37120    73.911949    15.802611 
  2914.52360    73.424004    16.355211 
  2914.67600    73.623489    16.794129 
  2914.82840    74.070793    15.661286 
  2914.98080    73.866577    13.706179 
  2915.13320    71.531754    13.675640 
  2915.28560    69.356407    15.365286 
  2915.43800    69.706482    16.009663 
  2915.59040    70.951828    14.750993 
  2915.74280    71.676788    14.057751 
  2915.89520    71.253471    15.011905 
  2916.04760    71.732857    15.980950 
  2916.20000    72.840721    14.981214 
  2916.35240    73.422577    14.665248 
  2916.50480    73.672340    15.323456 
  2916.65720    74.523209    15.409181 
  2916.80960    74.312462    14.300240 
  2916.96200    73.179466    13.494160 
  2917.11440    73.651833    13.253476 
  2917.26680    74.316513    13.378786 
  2917.41920    73.469131    12.924682 
  2917.57160    72.322479    13.565653 
  2917.72400    73.350563    14.548458 
  2917.87640    74.307167    14.419527 
  2918.02880    75.257301    13.953877 
  2918.18120    76.420853    12.709300 
  2918.33360    77.692482    13.388600 
  2918.48600    77.804451    15.003779 
  2918.63840    76.434799    17.137868 
  2918.79080    75.927597    16.276198 
  2918.94320    76.732857    14.784930 
  2919.09560    77.223373    14.567387 
  2919.24800    78.130676    16.632304 
  2919.40040    78.766586    18.308165 
  2919.55280    78.564003    18.686442 
  2919.70520    78.238472    19.701829 
  2919.85760    76.326759    20.158092 
  2920.01000    74.996918    19.699923 
  2920.16240    76.897522    17.809779 
  2920.31480    81.794456    17.489125 
  2920.46720    81.254051    17.393493 
  2920.61960    77.542603    17.399699 
  2920.77200    76.447838    17.576967 
  2920.92440    76.428177    16.992602 
  2921.07680    76.692787    15.778742 
  2921.22920    74.937767    13.933421 
  2921.38160    72.828743    12.299510 
  2921.53400    73.682213    11.072668 
  2921.68640    75.129517     9.938642 
  2921.83880    77.557266    10.995136 
  2921.99120    79.088013    13.366795 
  2922.14360    78.613647    14.798608 
  2922.29600    77.698387    14.515634 
  2922.44840    77.172997    13.686366 
  2922.60080    77.190323    13.699632 
  2922.75320    76.597710    14.456322 
  2922.90560    75.587288    14.955147 
  2923.05800    75.487701    15.091982 
  2923.21040    75.178299    14.446504 
  2923.36280    75.940643    13.056435 
  2923.51520    75.493347    12.301512 
  2923.66760    74.835968    12.215440 
  2923.82000    75.606117    12.458591 
  2923.97240    76.067886    11.558092 
  2924.12480    76.833992    11.598793 
  2924.27720    76.890533    12.828137 
  2924.42960    76.659721    14.930037 
  2924.58200    74.891182    16.396272 
  2924.73440    75.613724    16.675360 
  2924.88680    76.460564    15.712412 
  2925.03920    76.222229    14.806744 
  2925.19160    76.979263    13.515774 
  2925.34400    78.127167    13.887032 
  2925.49640    79.011383    14.882739 
  2925.64880    78.479111    17.280157 
