~Version Information Block
VERS .                 2.00:  CWLS LOG ASCII STANDARD - VERSION 2.00
WRAP .                   NO:  One line per depth step
~Well Information Block
#MNEM.UNIT        Data Type   Information
#---------- ----------------  -----------
STRT .M          3451.70760:  START DEPTH
STOP .M          3790.03560:  STOP DEPTH
STEP .M             0.15240:  STEP
NULL .              -999.25:  NULL VALUE
COMP .              Statoil:  COMPANY
WELL .        NO_15/9-F-1_C:  WELL
FLD  .                Volve:  FIELD
LOC  .            North Sea:  LOCATION
CTRY .               Norway:  COUNTRY
STAT .                     :  STATE
CNTY .                     :  COUNTY
SRVC .         Schlumberger:  SERVICE COMPANY
DATE .          27-Nov-2014:  DATE
API  .                     :  API NUMBER
UWI  .           15/9-F-1 C:  UNIQUE WELL ID
LATI .     58° 26' 29.91" N:  LATITUDE
LONG .      1° 53' 14.71" E:  LONGITUDE
~Curve Information Block
#MNEM.UNIT         API CODE   Curve Description
#---------- ----------------  -----------------
DEPTH.M                    :  DEPTH (BOREHOLE)
CVEL .M/SEC                 :  Cable Velocity
DFRB .DEG                  :  Calibrated Relative Bearing
FBEF .UA                   :  RST Far Effective Beam Current
FCOR .                     :  RST Far Carbon/Oxygen Ratio
FERD .                     :  RST Far IC Mode Capture Optimization
FIRD .                     :  RST Far Inelastic Optimization Resolution
GR   .GAPI                 :  Gamma Ray
NCOR .                     :  RST Near Carbon/Oxygen Ratio
NERD .                     :  RST Near IC Mode Capture Optimization
NIRD .                     :  RST Near Inelastic Optimization Resolution
PFC1 .IN                   :  PFCS CaliperX
PFC2 .IN                   :  PFCS CaliperY
TENS .LBF                  :  Cable Tension
~Parameter Information Block
#MNEM.UNIT            Value   Description
#---------- ----------------  -----------
APD  .M           54.900002:  Elevation of Depth Reference (LMF) above Permanent Datum
EPD  .C3                  0:  Elevation of Permanent Datum above Mean Sea Level
LMF  .                   KB:  Logging Measured From (Name of Logging Elevation Reference)
PDAT .                  MSL:  Permanent Datum
RUN  .                Run 1:  RUN NUMBER
TAPE_NAME.     Statoil_Volve_15-9-F-1 C_PLT-RST_28Nov14_ConCu_R1L18Up_IC2.las:  
TOOL_STRING.              UNKNOWN:  
WN   .           15/9-F-1 C:  WELL
PROJECT.     SLEIPNER_OST@st-vlinapp01:  
SET  .        RSTD_1114_IC2:  
~Other Information Block
# 
~A       DEPTH           CVEL           DFRB           FBEF           FCOR           FERD           FIRD             GR           NCOR           NERD           NIRD           PFC1           PFC2           TENS 
# ...
    3719.16960     -0.0075333       354.1610       116.6793         0.1839         5.5113         5.5113        15.6932        -0.0073         6.9530         6.9530         6.2237         6.1057      4433.6558
    3719.32200     -0.0074533       354.1610       115.9074         0.1235         5.4317         5.4317        17.9686         0.0240         7.1072         7.1072         6.2245         6.0837      4456.5923
    3719.47440     -0.0066817       354.1610       115.7565         0.0291         5.3848         5.3848        20.7350        -0.0591         7.1172         7.1172         6.2240         6.0841      4489.1455
    3719.62680     -0.0069233       354.1610       116.2632         0.0022         5.4443         5.4443        23.6451         0.0014         7.0831         7.0831         6.2274         6.0904      4474.7998
    3719.77920     -0.0073050       354.1610       115.0244         0.1294         5.3959         5.3959        24.4134         0.0651         7.0959         7.0959         6.2363         6.0900      4493.5430
    3719.93160     -0.0076133       354.1610       115.5104         0.0223         5.3801         5.3801        23.0187        -0.0513         7.0454         7.0454         6.2452         6.0836      4463.2153
    3720.08400     -0.0078033       354.1610       114.8354        -0.1414         5.3824         5.3824        20.3019        -0.0253         7.0761         7.0761         6.2350         6.0846      4461.1772
    3720.23640     -0.0079067       354.1610       115.9010         0.0657         5.5369         5.5369        20.4867         0.0628         7.1102         7.1102         6.2223         6.1036      4472.3911
    3720.38880     -0.0102283       354.1610       115.7147        -0.0936         5.4287         5.4287        21.9053        -0.0353         7.1150         7.1150         6.2221         6.1025      4455.5044
    3720.54120     -0.0059850       354.1610       115.8696         0.1001         5.5110         5.5110        20.9890        -0.0111         7.1015         7.1015         6.2220         6.1034      4391.2056
    3720.69360     -0.0087067       354.1610       116.2197         0.1258         5.4997         5.4997        20.8226        -0.0480         7.0670         7.0670         6.2221         6.1064      4370.2158
    3720.84600     -0.0077383       352.7500       115.8378         0.0835         5.4251         5.4251        20.7191         0.0768         7.0850         7.0850         6.2219         6.1158      4441.8921
    3720.99840     -0.0076350       352.7500       116.4310         0.0797         5.3867         5.3867        17.4388        -0.0491         7.0448         7.0448         6.2221         6.0853      4389.3960
    3721.15080     -0.0074883       352.7500       116.4294        -0.0123         5.3314         5.3314        17.3362         0.0643         7.0716         7.0716         6.2219         6.0835      4422.2295
    3721.30320     -0.0075550       352.7500       116.9930         0.0122         5.3698         5.3698        21.5367         0.0397         7.1471         7.1471         6.2222         6.0834      4440.0752
    3721.45560     -0.0081333       352.7500       117.3690         0.0221         5.3530         5.3530        24.6323         0.0523         7.1439         7.1439         6.2220         6.0834      4384.6016
    3721.60800     -0.0091817       352.7500       117.4106         0.1692         5.3259         5.3259        24.3951         0.0408         7.1274         7.1274         6.2219         6.0834      4359.1914
    3721.76040     -0.0088417       352.7500       119.0521         0.1397         5.3110         5.3110        25.4010        -0.0557         7.2088         7.2088         6.2219         6.0834      4473.6250
    3721.91280     -0.0075250       352.7500       118.7491         0.0056         5.3720         5.3720        22.6951        -0.0561         7.1959         7.1959         6.2219         6.0834      4448.7500
    3722.06520     -0.0077600       352.7500       118.8670        -0.0020         5.3311         5.3311        19.7116         0.1269         7.1389         7.1389         6.2219         6.0834      4398.4849
    3722.21760     -0.0074483       352.7500       118.3161         0.1377         5.2494         5.2494        18.0889        -0.0341         7.0180         7.0180         6.2220         6.0834      4477.6123
    3722.37000     -0.0074883       352.7500       117.6433         0.0593         5.1889         5.1889        20.1591         0.0755         7.0575         7.0575         6.2219         6.0834      4443.6787
    3722.52240     -0.0074933       352.7500       116.3905         0.1577         5.1939         5.1939        21.3070         0.1119         7.0175         7.0175         6.2220         6.0834      4448.4248
    3722.67480     -0.0077033       352.7500       115.4099         0.1333         5.1917         5.1917        21.2602        -0.0252         7.0066         7.0066         6.2220         6.0834      4366.4399
    3722.82720     -0.0080583       352.7500       116.8729        -0.0082         5.2859         5.2859        20.9676        -0.0129         7.0410         7.0410         6.2220         6.0834      4304.0176
    3722.97960     -0.0088633       352.7500       116.1686         0.1484         5.2113         5.2113        22.0922        -0.0282         6.9980         6.9980         6.2220         6.0834      4337.8843
    3723.13200     -0.0086700       352.7500       115.4677         0.1541         5.2525         5.2525        21.7640        -0.0080         7.1029         7.1029         6.2220         6.0834      4643.4888
    3723.28440     -0.0083833       352.7500       116.9971         0.1593         5.2563         5.2563        21.0847         0.0800         7.0813         7.0813         6.2220         6.0834      4597.7295
    3723.43680     -0.0073783       352.7500       115.9043         0.0963         5.3662         5.3662        20.9117        -0.0217         6.9826         6.9826         6.2219         6.0823      4539.3364
    3723.58920     -0.0072500       354.1610       116.3507         0.0300         5.4975         5.4975        20.5315         0.0346         6.9217         6.9217         6.2219         6.0834      4482.9077
    3723.74160     -0.0073833       352.7500       115.9310         0.0974         5.5351         5.5351        19.5471         0.0607         6.8800         6.8800         6.2219         6.0831      4518.1909
    3723.89400     -0.0075550       352.7500       116.7363         0.0913         5.5537         5.5537        19.9748         0.0926         6.9020         6.9020         6.2219         6.0827      4442.1445
    3724.04640     -0.0088383       354.1610       116.3028         0.1115         5.5518         5.5518        20.0034        -0.0476         6.9015         6.9015         6.2219         6.0686      4525.6553
    3724.19880     -0.0088517       354.1610       116.6467         0.2041         5.4023         5.4023        20.5798         0.1415         6.8764         6.8764         6.2220         6.0560      4511.9961
    3724.35120     -0.0073467       354.1610       116.2455         0.0294         5.4047         5.4047        21.6453        -0.0069         6.8796         6.8796         6.2219         6.0613      4489.3589
    3724.50360     -0.0070933       354.1610       115.9044         0.0717         5.5068         5.5068        22.1880         0.0967         6.8968         6.8968         6.2219         6.0756      4442.9351
    3724.65600     -0.0072117       354.1610       115.9623        -0.0008         5.5137         5.5137        20.3979         0.1580         6.9210         6.9210         6.2219         6.0770      4479.4751
    3724.80840     -0.0074600       354.1610       116.3145         0.1492         5.4807         5.4807        19.2754         0.0302         6.9008         6.9008         6.2219         6.0806      4402.4854
    3724.96080     -0.0073250       354.1610       115.6693         0.0602         5.4960         5.4960        19.2830        -0.0142         6.8655         6.8655         6.2219         6.0787      4484.0771
