~Version Information Block
VERS .                 2.00:  CWLS LOG ASCII STANDARD - VERSION 2.00
WRAP .                   NO:  One line per depth step
~Well Information Block
#MNEM.UNIT        Data Type   Information
#---------- ----------------  -----------
STRT .M          3445.61160:  START DEPTH
STOP .M          3638.55000:  STOP DEPTH
STEP .M             0.15240:  STEP
NULL .              -999.25:  NULL VALUE
COMP .              Statoil:  COMPANY
WELL .          NO_15/9-F-5:  WELL
FLD  .                VOLVE:  FIELD
LOC  .            North Sea:  LOCATION
CTRY .                     :  COUNTRY
STAT .                     :  STATE
CNTY .                     :  COUNTY
SRVC .         Schlumberger:  SERVICE COMPANY
DATE .          16-Sep-2012:  DATE
API  .                     :  API NUMBER
UWI  .             15/9-F-5:  UNIQUE WELL ID
~Curve Information Block
#MNEM.UNIT         API CODE   Curve Description
#---------- ----------------  -----------------
DEPTH.M                    :  DEPTH (BOREHOLE)
CCLC .V                    :  CCL
CCLD .V                    :  CCL Discriminated Amplitude
CRRA .                     :  Near-Far Count Rate Ratio
CS   .F/MN                 :  Cable Speed
CVEL .M/MIN                 :  Cable Velocity
DEVI .DEG                  :  Hole Deviation
FBEF .UA                   :  RST Far Effective Beam Current
FCOR .                     :  RST Far Carbon/Oxygen Ratio
FERD .                     :  RST Far IC Mode Capture Optimization Resolution Degradation Factor
FIRD .                     :  RST Far Inelastic Optimization Resolution Degradation Factor
GR   .GAPI                 :  Gamma Ray
NCOR .                     :  RST Near Carbon/Oxygen Ratio
NERD .                     :  RST Near IC Mode Capture Optimization Resolution Degradation Factor
NIRD .                     :  RST Near Inelastic Optimization Resolution Degradation Factor
RB_PCMS.DEG                  :  Relative Bearing
TENS .LBF                  :  Cable Tension
WPRE .PSI                  :  Well Pressure
WTEP .DEGC                 :  Well Temperature
~Parameter Information Block
#MNEM.UNIT            Value   Description
#---------- ----------------  -----------
APD  .M           54.900002:  Elevation of Depth Reference (LMF) above Permanent Datum
RUN  .                Run 1:  RUN NUMBER
PROJECT.     SLEIPNER_OST@st-vlinapp01:  
SET  .        RSTD_0912_IC2:  
~Other Information Block
# 
~A       DEPTH           CCLC           CCLD           CRRA             CS           CVEL           DEVI           FBEF           FCOR           FERD           FIRD             GR           NCOR           NERD           NIRD        RB_PCMS           TENS           WPRE           WTEP 
# ...
    3622.39560        -0.0434         0.0000         2.8434         1.3632      -0.419300        54.6333       110.1601    -0.27829999         4.3223         4.3223        23.0191     0.00510000         2.0995         2.0995         6.7970      2781.0703      5140.4370        71.4608
    3622.54800        -0.0432         0.0000         2.8113         1.3747      -0.419100        54.6063       110.8298    -0.06990000         4.2545         4.2545        22.7882     0.07260000         2.1098         2.1098         6.8093      2780.2998      5140.5732        71.5244
    3622.70040         0.0741         0.0000         2.8158         1.3753      -0.420100        54.5456       110.8317     0.03390000         4.2967         4.2967        22.7034     0.02680000         2.0868         2.0868         6.7053      2773.4895      5140.7412        71.5614
    3622.85280        -0.0480         0.0000         2.8360         1.3793      -0.418300        54.5339       110.5303     0.01810000         4.2825         4.2825        22.5361     0.02120000         2.0802         2.0802         6.6045      2764.1829      5140.9199        71.5619
    3623.00520        -0.0052         0.0000         2.8363         1.3835      -0.420600        54.5350       109.3522    -0.03160000         4.3817         4.3817        22.3229    -0.00830000         2.1471         2.1471         6.6416      2773.0981      5141.0205        71.6903
    3623.15760        -0.0628         0.0000         2.8041         1.3980      -0.421600        54.5361       109.8246     0.06480000         4.4217         4.4217        22.7086    -0.04370000         2.1298         2.1298         6.5988      2763.7285      5141.1855        71.7697
    3623.31000         0.0265         0.0265         2.8485         1.3501      -0.414400        54.5436       114.1316    -0.05380000         4.5614         4.5614        22.3521     0.04470000         2.0687         2.0687         6.5221      2779.3506      5141.3340        71.7799
    3623.46240         0.4020         0.4020         3.0486         1.3166      -0.410500        54.5579       115.1337     0.14370000         4.5664         4.5664        22.0929    -0.06290000         2.0596         2.0596         6.3339      2780.9075      5141.5010        71.7904
    3623.61480         1.0421         1.0421         3.0746         1.3392      -0.408000        54.5925       113.6350     0.00390000         4.5014         4.5014        22.4106     0.01670000         2.0712         2.0712         6.2212      2790.1965      5141.6543        71.9186
    3623.76720        -0.0356         0.0000         2.9432         1.3438      -0.409300        54.6185       108.4650    -0.01670000         4.4923         4.4923        22.7680     0.04880000         2.0831         2.0831         6.1967      2798.0269      5141.7905        71.9438
    3623.91960         0.0055         0.0000         2.7909         1.3461      -0.409000        54.6097       107.2509    -0.09310000         4.4701         4.4701        23.7190    -0.10280000         2.0759         2.0759         6.2261      2792.8533      5141.9980        72.0137
    3624.07200        -0.0385         0.0000         2.7731         1.3451      -0.408800        54.6135       104.8354    -0.06610000         4.4079         4.4079        24.0722     0.00080000         2.0608         2.0608         6.2542      2793.6072      5142.1138        72.0453
    3624.22440         0.0197         0.0000         2.7674         1.3451      -0.409800        54.6148       102.2598    -0.12470000         4.3693         4.3693        24.0011    -0.02010000         2.0553         2.0553         6.2522      2805.6240      5142.2632        72.1952
    3624.37680         0.0056         0.0000         2.7307         1.3432      -0.409100        54.6242        97.9700    -0.12410000         4.2933         4.2933        23.5304    -0.12320000         2.0551         2.0551         6.2250      2783.1016      5142.4272        72.2017
    3624.52920         0.0906         0.0000         2.6224         1.3586      -0.410900        54.6258        97.5256     0.15880001         4.4127         4.4127        24.1070    -0.07860000         2.1404         2.1404         6.1636      2786.0271      5142.5781        72.3349
    3624.68160        -0.0398         0.0000         2.6152         1.3058      -0.397300        54.6391        97.2390     0.04220000         4.4367         4.4367        23.7822     0.02990000         2.1214         2.1214         6.2053      2797.4060      5142.6934        72.3801
    3624.83400        -0.0390         0.0000         2.6019         1.3245      -0.404900        54.6466        98.9765    -0.17500000         4.5134         4.5134        23.7186    -0.01370000         2.1047         2.1047         6.2525      2783.5972      5142.8047        72.4890
    3624.98640        -0.0447         0.0000         2.6073         1.3100      -0.392400        54.6607       101.6183    -0.06470000         4.3947         4.3947        23.7521     0.05940000         2.1134         2.1134         6.2053      2803.4697      5142.9492        72.5402
    3625.13880        -0.0387         0.0000         2.6364         1.2963      -0.387700        54.6676       103.3563    -0.17960000         4.4642         4.4642        23.6928    -0.01160000         2.1639         2.1639         6.2014      2799.5171      5143.1182        72.5979
    3625.29120        -0.0356         0.0000         2.7034         1.2838      -0.389800        54.6745       103.9495     0.03290000         4.5047         4.5047        23.0158    -0.07990000         2.1297         2.1297         6.0699      2815.1729      5143.2378        72.6361
    3625.44360        -0.0454         0.0000         2.7586         1.2500      -0.384800        54.6846       102.6650    -0.07820000         4.4887         4.4887        22.5705    -0.04590000         2.1484         2.1484         5.9318      2824.8677      5143.3472        72.7095
    3625.59600        -0.0485         0.0000         2.7199         1.2539      -0.385600        54.6959       101.0977    -0.13290000         4.5727         4.5727        22.4139     0.06660000         2.1752         2.1752         5.9079      2806.5701      5143.4922        72.7192
    3625.74840        -0.0353         0.0000         2.6458         1.2972      -0.388500        54.6967       105.0919    -0.04730000         4.6250         4.6250        22.9502     0.01810000         2.1371         2.1371         5.8255      2793.3625      5143.6626        72.7928
    3625.90080        -0.2068         0.0000         2.7389         1.2799      -0.389900        54.6999       106.8593    -0.15770000         4.5562         4.5562        25.7920     0.05580000         2.2470         2.2470         5.6985      2796.6953      5143.8228        72.8515
    3626.05320        -0.0394         0.0000         2.7860         1.2457      -0.381100        54.7035       109.4883     0.02510000         4.3938         4.3938        30.1286    -0.02070000         2.1983         2.1983         5.6326      2792.5679      5143.9316        72.9818
    3626.20560        -0.0388         0.0000         2.8217         1.2457      -0.382000        54.6977       112.3391     0.00940000         4.4845         4.4845        36.1527    -0.05620000         2.2459         2.2459         5.5144      2780.3101      5144.1494        73.0432
    3626.35800        -0.0358         0.0000         2.8944         1.2500      -0.377800        54.6841       113.5536    -0.03290000         4.3634         4.3634        42.5822     0.04530000         2.1787         2.1787         5.5287      2790.2617      5144.2983        73.1896
    3626.51040        -0.0268         0.0000         2.9342         1.2497      -0.364600        54.6623       114.0802     0.08070000         4.4145         4.4145        47.8494     0.04310000         2.2406         2.2406         5.5354      2785.1245      5144.4702        73.2321
    3626.66280        -0.0638         0.0000         2.9511         1.2454      -0.379100        54.6534       113.7718     0.04340000         4.2480         4.2480        50.9195    -0.06130000         2.2594         2.2594         5.5363      2789.0945      5144.6025        73.2016
