#------------------------------------------------------------------------------
#
#   Created by   : las_export
#   Created on   : 2009-06-18 13:07:55
#   Project      : VOLVE
#   User         : TONYG
#   Interpreters : *
#
#------------------------------------------------------------------------------
~VERSION INFORMATION
VERS. 2.0 : CWLS Log ASCII Standard - version 2.0
WRAP.  NO : One line per depth step

~WELL INFORMATION
#MNEMONIC   .UNIT                                           VALUE :DESCRIPTION
#------------------------------------------------------------------------------
STRT        .M                                       2560.0412 :START DEPTH
STOP        .M                                       3222.0668 :STOP DEPTH
STEP        .M                                          0.1524 :STEP
NULL        .                                        -999.2500 :NULL VALUE
COMP        .                                                  :COMPANY
WELL        .                                      15/9-F-15 C :WELL
FLD         .                                            VOLVE :FIELD
LOC         .                                          UNKNOWN :LOCATION
CNTY        .                                          UNKNOWN :COUNTY
STAT        .                                          UNKNOWN :STATE
CTRY        .                                           Norway :COUNTRY
SRVC        .                                          UNKNOWN :SERVICE COMPANY
DATE        .                                          UNKNOWN :LOG DATE
UWI         .                                   NO 15/9-F-15 C :UNIQUE WELL ID
XCOORD      .M                                   435053.550000 :SURFACE X
YCOORD      .M                                  6478560.360000 :SURFACE Y
LAT         .                                        58.441585 :LATITUDE
LON         .                                         1.887541 :LONGITUDE
ELEV        .M                                         54.9000 :SURFACE ELEV
ELEV_TYPE   .                                               KB :ELEV TYPE

~CURVE INFORMATION
#MNEMONIC   .UNIT          API CODE       : CURVE DESCRIPTION
#------------------------------------------------------------------------------
DEPTH       .M                            : Measured Depth
DT          .us/ft         UNKNOWN        : DT:UNKNOWN:rC:NONE:v1
GR          .API           UNKNOWN        : GR:UNKNOWN:rC:NONE:v1
~A     DEPTH           DT           GR 
# ...
  2773.40120  -999.250000    22.113533 
  2773.55360  -999.250000    21.487630 
  2773.70600  -999.250000    20.125185 
  2773.85840  -999.250000    19.573584 
  2774.01080  -999.250000    19.917170 
  2774.16320  -999.250000    19.825371 
  2774.31560  -999.250000    20.665910 
  2774.46800  -999.250000    23.778745 
  2774.62040  -999.250000    24.785906 
  2774.77280  -999.250000    25.743501 
  2774.92520  -999.250000    24.934435 
  2775.07760  -999.250000    25.769375 
  2775.23000  -999.250000    25.318366 
  2775.38240  -999.250000    25.373836 
  2775.53480  -999.250000    25.399727 
  2775.68720  -999.250000    26.027822 
  2775.83960  -999.250000    26.737538 
  2775.99200  -999.250000    26.121852 
  2776.14440  -999.250000    24.616065 
  2776.29680  -999.250000    22.738005 
  2776.44920  -999.250000    24.475720 
  2776.60160  -999.250000    27.334795 
  2776.75400  -999.250000    27.311120 
  2776.90640  -999.250000    25.019138 
  2777.05880  -999.250000    22.291945 
  2777.21120  -999.250000    23.375672 
  2777.36360  -999.250000    25.040516 
  2777.51600  -999.250000    25.797932 
  2777.66840  -999.250000    26.411836 
  2777.82080  -999.250000    26.375506 
  2777.97320  -999.250000    26.476181 
  2778.12560  -999.250000    25.996614 
  2778.27800  -999.250000    24.781544 
  2778.43040  -999.250000    23.102877 
  2778.58280  -999.250000    23.455880 
  2778.73520  -999.250000    24.330970 
  2778.88760  -999.250000    24.875927 
  2779.04000  -999.250000    22.909560 
  2779.19240  -999.250000    20.461344 
  2779.34480  -999.250000    18.576878 
  2779.49720  -999.250000    17.594349 
  2779.64960  -999.250000    16.811975 
  2779.80200  -999.250000    17.552442 
  2779.95440  -999.250000    17.870441 
  2780.10680  -999.250000    19.059726 
  2780.25920  -999.250000    19.558590 
  2780.41160  -999.250000    19.831490 
  2780.56400  -999.250000    20.108252 
  2780.71640  -999.250000    18.483280 
  2780.86880  -999.250000    16.418888 
  2781.02120  -999.250000    15.044746 
  2781.17360  -999.250000    14.826465 
  2781.32600  -999.250000    14.929790 
  2781.47840  -999.250000    14.915530 
  2781.63080  -999.250000    14.054700 
  2781.78320  -999.250000    13.801029 
  2781.93560  -999.250000    12.936321 
  2782.08800  -999.250000    14.952858 
  2782.24040  -999.250000    16.285788 
  2782.39280  -999.250000    17.181082 
  2782.54520  -999.250000    15.858959 
  2782.69760  -999.250000    15.684539 
  2782.85000  -999.250000    15.365584 
  2783.00240  -999.250000    15.517736 
  2783.15480  -999.250000    14.322962 
  2783.30720  -999.250000    13.655781 
  2783.45960  -999.250000    13.353300 
  2783.61200  -999.250000    13.334158 
  2783.76440  -999.250000    13.241100 
  2783.91680  -999.250000    13.288972 
  2784.06920  -999.250000    13.650915 
  2784.22160  -999.250000    14.551896 
  2784.37400  -999.250000    16.131771 
  2784.52640  -999.250000    17.508580 
  2784.67880  -999.250000    18.220948 
  2784.83120  -999.250000    18.501294 
  2784.98360  -999.250000    19.458087 
  2785.13600  -999.250000    18.893011 
  2785.28840  -999.250000    17.394669 
  2785.44080  -999.250000    15.674968 
  2785.59320  -999.250000    15.122826 
  2785.74560  -999.250000    14.233527 
  2785.89800  -999.250000    12.444704 
  2786.05040  -999.250000    12.133365 
  2786.20280  -999.250000    12.456854 
  2786.35520  -999.250000    13.771360 
  2786.50760  -999.250000    14.262625 
  2786.66000  -999.250000    14.617909 
  2786.81240  -999.250000    14.034846 
  2786.96480  -999.250000    13.787836 
  2787.11720  -999.250000    13.588785 
  2787.26960  -999.250000    13.070673 
  2787.42200  -999.250000    13.715873 
  2787.57440  -999.250000    14.538160 
  2787.72680  -999.250000    15.776272 
  2787.87920  -999.250000    14.960629 
  2788.03160  -999.250000    14.823625 
  2788.18400  -999.250000    15.528305 
  2788.33640  -999.250000    16.672558 
  2788.48880  -999.250000    16.517281 
  2788.64120  -999.250000    15.961129 
  2788.79360  -999.250000    14.569972 
  2788.94600  -999.250000    13.596401 
  2789.09840  -999.250000    12.897425 
  2789.25080  -999.250000    14.301081 
  2789.40320  -999.250000    14.032089 
  2789.55560  -999.250000    14.161410 
  2789.70800  -999.250000    14.175670 
  2789.86040  -999.250000    14.935997 
  2790.01280  -999.250000    14.241601 
  2790.16520  -999.250000    13.159739 
  2790.31760  -999.250000    12.893432 
  2790.47000  -999.250000    13.555189 
  2790.62240  -999.250000    14.277973 
  2790.77480  -999.250000    17.655981 
  2790.92720  -999.250000    21.432267 
  2791.07960  -999.250000    24.054811 
  2791.23200  -999.250000    22.618688 
  2791.38440  -999.250000    20.876025 
  2791.53680  -999.250000    18.866148 
  2791.68920  -999.250000    18.854539 
  2791.84160  -999.250000    18.506871 
  2791.99400  -999.250000    19.280413 
  2792.14640  -999.250000    21.943106 
  2792.29880  -999.250000    22.393161 
  2792.45120  -999.250000    23.631255 
  2792.60360  -999.250000    22.829893 
  2792.75600  -999.250000    22.140551 
  2792.90840  -999.250000    19.131318 
  2793.06080  -999.250000    16.738401 
  2793.21320  -999.250000    15.757041 
  2793.36560  -999.250000    15.567716 
  2793.51800  -999.250000    14.261913 
  2793.67040  -999.250000    14.587700 
  2793.82280  -999.250000    14.999298 
  2793.97520  -999.250000    17.096008 
  2794.12760  -999.250000    17.575665 
  2794.28000  -999.250000    17.439701 
  2794.43240  -999.250000    16.309984 
  2794.58480  -999.250000    15.586074 
  2794.73720  -999.250000    14.943613 
  2794.88960  -999.250000    13.824252 
  2795.04200  -999.250000    12.807105 
  2795.19440  -999.250000    14.181093 
  2795.34680  -999.250000    15.271896 
  2795.49920  -999.250000    15.755545 
  2795.65160  -999.250000    16.231445 
  2795.80400  -999.250000    14.874319 
  2795.95640  -999.250000    14.813056 
  2796.10880  -999.250000    13.044700 
  2796.26120  -999.250000    12.982498 
  2796.41360  -999.250000    12.455142 
  2796.56600  -999.250000    11.332787 
  2796.71840  -999.250000    11.159711 
  2796.87080  -999.250000    11.154827 
  2797.02320  -999.250000    11.936965 
  2797.17560  -999.250000    12.150380 
  2797.32800  -999.250000    12.867542 
  2797.48040  -999.250000    13.137687 
  2797.63280  -999.250000    14.190034 
  2797.78520  -999.250000    15.182919 
  2797.93760  -999.250000    15.451894 
  2798.09000  -999.250000    14.953985 
  2798.24240  -999.250000    13.578954 
  2798.39480  -999.250000    14.831242 
  2798.54720  -999.250000    15.005661 
  2798.69960  -999.250000    15.161912 
  2798.85200  -999.250000    13.950729 
  2799.00440  -999.250000    13.718000 
  2799.15680  -999.250000    13.689288 
  2799.30920  -999.250000    13.626284 
  2799.46160  -999.250000    13.807149 
  2799.61400  -999.250000    12.890765 
  2799.76640  -999.250000    13.075467 
  2799.91880  -999.250000    13.662612 
  2800.07120  -999.250000    13.739981 
  2800.22360  -999.250000    13.403993 
  2800.37600  -999.250000    13.355968 
  2800.52840  -999.250000    13.880894 
  2800.68080  -999.250000    13.382986 
  2800.83320  -999.250000    11.802154 
  2800.98560  -999.250000    12.192745 
  2801.13800  -999.250000    12.960600 
  2801.29040  -999.250000    12.864874 
  2801.44280  -999.250000    12.514367 
  2801.59520  -999.250000    13.120654 
  2801.74760  -999.250000    13.319811 
  2801.90000  -999.250000    12.850681 
  2802.05240  -999.250000    11.280139 
  2802.20480  -999.250000    11.205266 
  2802.35720  -999.250000    12.879068 
  2802.50960  -999.250000    13.614587 
  2802.66200  -999.250000    14.298413 
  2802.81440  -999.250000    13.403993 
  2802.96680  -999.250000    13.413393 
  2803.11920  -999.250000    14.298872 
  2803.27160  -999.250000    14.517235 
  2803.42400  -999.250000    14.275107 
  2803.57640  -999.250000    13.423135 
  2803.72880  -999.250000    13.334158 
