~Version Information Block
VERS .                 2.00:  CWLS LOG ASCII STANDARD - VERSION 2.00
WRAP .                   NO:  One line per depth step
~Well Information Block
#MNEM.UNIT        Data Type   Information
#---------- ----------------  -----------
STRT .M          3461.15640:  START DEPTH
STOP .M          3535.07040:  STOP DEPTH
STEP .M             0.15240:  STEP
NULL .              -999.25:  NULL VALUE
COMP .              Statoil:  COMPANY
WELL .          NO_15/9-F-5:  WELL
FLD  .                Volve:  FIELD
LOC  .                Volve:  LOCATION
CTRY .               Norway:  COUNTRY
STAT .                     :  STATE
CNTY .                     :  COUNTY
SRVC .         Schlumberger:  SERVICE COMPANY
DATE .          03-Nov-2015:  DATE
API  .                     :  API NUMBER
UWI  .             15/9-F-5:  UNIQUE WELL ID
LATI .     58° 26' 29.66" N:  LATITUDE
LONG .      1° 53' 14.99" E:  LONGITUDE
~Curve Information Block
#MNEM.UNIT         API CODE   Curve Description
#---------- ----------------  -----------------
DEPTH.M                    :  DEPTH (BOREHOLE)
CRRA .                     :  Near/Far Count Rate Ratio
CVEL .M/SEC                 :  Cable Velocity
FBEF .UA                   :  Far Effective Beam Current
FCOR .                     :  Far Carbon/Oxygen Ratio
FIRD .                     :  Far Inelastic Optimization Resolution Degradation Factor
NCOR .                     :  Near Carbon/Oxygen Ratio
NIRD .                     :  Near Inelastic Optimization Resolution Degradation Factor
RB_PCMS.DEG                  :  Relative Bearing
WPRE .BAR                  :  Well Pressure
WTEP .DEGC                 :  Well Temperature
~Parameter Information Block
#MNEM.UNIT            Value   Description
#---------- ----------------  -----------
APD  .M                  54:  Elevation of Depth Reference (LMF) above Permanent Datum
EPD  .C3                  0:  Elevation of Permanent Datum above Mean Sea Level
LMF  .                   DF:  Logging Measured From (Name of Logging Elevation Reference)
PDAT .                  MSL:  Permanent Datum
RUN  .                Run 1:  RUN NUMBER
TAPE_NAME.     ConCu_R02_L004Up_RST_PCMS_PSTP.las:  
TOOL_STRING.              UNKNOWN:  
WN   .             15/9-F-5:  WELL
PROJECT.     SLEIPNER_OST@st-vlinapp01:  
SET  .        RSTD_1115_IC1:  
~Other Information Block
# 
~A       DEPTH           CRRA           CVEL           FBEF           FCOR           FIRD           NCOR           NIRD        RB_PCMS           WPRE           WTEP 
# ...
    3483.55920         2.8745     -0.0097583       130.4230     0.10770000         5.6746     0.07090000         4.4201       354.1008       360.7977        84.2581
    3483.71160         2.8624     -0.0096983       129.1840     0.01600000         5.7148     0.02210000         4.4574       354.2094       360.8110        84.2516
    3483.86400         2.8533     -0.0097233       128.9333     0.04830000         5.6157    -0.02450000         4.4775       353.9889       360.8214        84.2477
    3484.01640         2.8433     -0.0097350       128.9795     0.10770000         5.6371     0.06790000         4.4813       353.8019       360.8327        84.2440
    3484.16880         2.8436     -0.0097100       129.1062     0.01360000         5.6560     0.06020000         4.4411       353.8329       360.8439        84.2280
    3484.32120         2.8473     -0.0096400       128.7383     0.03960000         5.6426    -0.05360000         4.4698       353.8385       360.8580        84.2201
    3484.47360         2.8532     -0.0097233       129.4274     0.03560000         5.7803    -0.00510000         4.4267       353.8135       360.8691        84.2110
    3484.62600         2.8638     -0.0096650       127.8334     0.05040000         5.7178    -0.00330000         4.4171       353.7177       360.8805        84.2007
    3484.77840         2.8285     -0.0096383       128.3581     0.05980000         5.6730     0.06100000         4.3847       353.6727       360.8905        84.1823
    3484.93080         2.8207     -0.0096350       129.2053     0.04850000         5.7877     0.01210000         4.4279       353.5256       360.9048        84.1828
    3485.08320         2.8477     -0.0096000       128.6597     0.05600000         5.6715    -0.06250000         4.4158       353.2200       360.9125        84.1573
    3485.23560         2.8494     -0.0096083       126.9295     0.14669999         5.6523     0.12460000         4.3936       353.2570       360.9290        84.1637
    3485.38800         2.7989     -0.0096850       127.4325    -0.02170000         5.6125     0.08410000         4.3492       353.2061       360.9373        84.1291
    3485.54040         2.8214     -0.0095917       127.5860    -0.16940001         5.6265    -0.01580000         4.3403       353.1333       360.9495        84.1124
    3485.69280         2.8158     -0.0094333       128.0141     0.20430000         5.5718    -0.00710000         4.3411       352.9629       360.9618        84.1016
    3485.84520         2.8143     -0.0093017       130.0440    -0.03510000         5.5521     0.01150000         4.3504       352.8503       360.9721        84.0735
    3485.99760         2.8600     -0.0094400       128.7888     0.04150000         5.4821     0.03970000         4.2647       352.6502       360.9853        84.0643
    3486.15000         2.8383     -0.0093967       128.0388    -0.09270000         5.4721     0.01600000         4.2388       352.7636       360.9952        84.0448
    3486.30240         2.8503     -0.0094917       126.0402     0.12570000         5.3394     0.05760000         4.2567       352.8306       361.0084        84.0464
    3486.45480         2.8338     -0.0094050       127.4355     0.05340000         5.3274     0.00760000         4.2256       352.7747       361.0174        84.0270
    3486.60720         2.8584     -0.0093817       132.8041     0.04160000         5.3095     0.09210000         4.2068       353.1095       361.0325        84.0197
    3486.75960         2.9407     -0.0093733       133.4835    -0.08050000         5.3678     0.04550000         4.1966       353.5136       361.0422        84.0052
    3486.91200         2.9482     -0.0093367       134.1186     0.08260000         5.3495     0.07260000         4.2127       353.9656       361.0539        83.9892
    3487.06440         2.9328     -0.0093467       134.7383     0.10060000         5.4105     0.00230000         4.2520       354.0546       361.0659        83.9739
    3487.21680         2.9526     -0.0093367       134.8100    -0.04960000         5.4495     0.04700000         4.2539       354.0353       361.0773        83.9580
    3487.36920         2.9347     -0.0092767       134.3467     0.13830000         5.4486    -0.08270000         4.2576       353.8762       361.0878        83.9342
    3487.52160         2.9335     -0.0094567       133.7905     0.16440000         5.4910    -0.03070000         4.3236       353.8621       361.1006        83.9180
    3487.67400         2.9131     -0.0094783       133.9423     0.08520000         5.4050     0.05360000         4.3231       353.9336       361.1125        83.9061
    3487.82640         2.9215     -0.0093033       134.0950    -0.00650000         5.4014     0.00670000         4.3353       353.8504       361.1239        83.9047
    3487.97880         2.9267     -0.0092817       133.1750     0.16069999         5.3357     0.03260000         4.3146       353.6478       361.1318        83.8859
    3488.13120         2.9081     -0.0093150       133.3770     0.09030000         5.2992     0.03900000         4.3548       353.3954       361.1469        83.8738
    3488.28360         2.8975     -0.0093650       132.7784    -0.04740000         5.4077     0.03080000         4.2981       353.1774       361.1602        83.8644
    3488.43600         2.8930     -0.0093633       133.0150     0.05750000         5.3284     0.10790000         4.2562       353.1382       361.1696        83.8580
    3488.58840         2.8888     -0.0093317       133.3784     0.08670000         5.3780    -0.04350000         4.2556       353.0505       361.1794        83.8439
    3488.74080         2.9071     -0.0093567       132.5927     0.09010000         5.3745     0.06610000         4.2305       353.2074       361.1929        83.8346
    3488.89320         2.8941     -0.0094333       133.0591    -0.15440001         5.4569     0.01340000         4.2401       353.2554       361.2033        83.8137
    3489.04560         2.8876     -0.0093500       133.4897    -0.04040000         5.5512    -0.00930000         4.2549       353.2674       361.2172        83.8047
    3489.19800         2.9047     -0.0095300       134.3890     0.08350000         5.5421     0.06230000         4.2440       353.4098       361.2271        83.7875
    3489.35040         2.9180     -0.0095100       131.9930    -0.01570000         5.4257    -0.00310000         4.2278       353.5478       361.2388        83.7772
    3489.50280         2.8853     -0.0095383       133.5467     0.05570000         5.4134     0.06650000         4.2691       353.6770       361.2495        83.7717
    3489.65520         2.9057     -0.0095683       133.3382     0.08120000         5.3812     0.07520000         4.2980       353.4777       361.2589        83.7533
    3489.80760         2.8917     -0.0095417       133.4116    -0.10440000         5.3732     0.02300000         4.2944       353.5699       361.2768        83.7445
    3489.96000         2.9054     -0.0095500       133.8639    -0.02010000         5.4348     0.10150000         4.3546       353.7032       361.2859        83.7368
    3490.11240         2.9103     -0.0094433       133.4786    -0.01020000         5.3893     0.00670000         4.3509       353.8771       361.2957        83.7251
    3490.26480         2.9154     -0.0094000       135.0620     0.09620000         5.3419     0.06850000         4.3919       353.8882       361.3071        83.7119
    3490.41720         2.9363     -0.0093617       134.8069     0.05470000         5.3273    -0.01090000         4.4023       353.7820       361.3199        83.7005
    3490.56960         2.9433     -0.0091850       134.4467    -0.06590000         5.2895     0.07090000         4.3571       353.7855       361.3310        83.6927
    3490.72200         2.9219     -0.0091867       134.5197     0.05840000         5.2958     0.02620000         4.3836       353.8294       361.3405        83.6722
    3490.87440         2.9457     -0.0091650       136.0723    -0.01150000         5.2929    -0.01690000         4.3882       353.5700       361.3551        83.6622
