~Version Information Block
VERS .                 2.00:  CWLS LOG ASCII STANDARD - VERSION 2.00
WRAP .                   NO:  One line per depth step
~Well Information Block
#MNEM.UNIT        Data Type   Information
#---------- ----------------  -----------
STRT .M          3445.30680:  START DEPTH
STOP .M          3639.15960:  STOP DEPTH
STEP .M             0.15240:  STEP
NULL .              -999.25:  NULL VALUE
COMP .              Statoil:  COMPANY
WELL .          NO_15/9-F-5:  WELL
FLD  .                VOLVE:  FIELD
LOC  .            North Sea:  LOCATION
CTRY .                     :  COUNTRY
STAT .                     :  STATE
CNTY .                     :  COUNTY
SRVC .         Schlumberger:  SERVICE COMPANY
DATE .          16-Sep-2012:  DATE
API  .                     :  API NUMBER
UWI  .             15/9-F-5:  UNIQUE WELL ID
~Curve Information Block
#MNEM.UNIT         API CODE   Curve Description
#---------- ----------------  -----------------
DEPTH.M                    :  DEPTH (BOREHOLE)
CCLC .V                    :  CCL
CRRA .                     :  Near-Far Count Rate Ratio
CVEL .M/MIN                 :  Cable Velocity
FBEF .UA                   :  RST Far Effective Beam Current
FCOR .                     :  RST Far Carbon/Oxygen Ratio
FERD .                     :  RST Far IC Mode Capture Optimization Resolution Degradation Factor
FIRD .                     :  RST Far Inelastic Optimization Resolution Degradation Factor
GR   .GAPI                 :  Gamma Ray
NCOR .                     :  RST Near Carbon/Oxygen Ratio
NERD .                     :  RST Near IC Mode Capture Optimization Resolution Degradation Factor
NIRD .                     :  RST Near Inelastic Optimization Resolution Degradation Factor
RB_PCMS.DEG                  :  Relative Bearing
TENS .LBF                  :  Cable Tension
~Parameter Information Block
#MNEM.UNIT            Value   Description
#---------- ----------------  -----------
APD  .M           54.900002:  Elevation of Depth Reference (LMF) above Permanent Datum
RUN  .                Run 1:  RUN NUMBER
PROJECT.     SLEIPNER_OST@st-vlinapp01:  
SET  .        RSTD_0912_IC3:  
~Other Information Block
# 
~A       DEPTH           CCLC           CRRA           CVEL           FBEF           FCOR           FERD           FIRD             GR           NCOR           NERD           NIRD        RB_PCMS           TENS 
# ...
    3599.84040        -0.0365         3.0412       -0.57030       120.0128     0.05450000         3.9151         3.9151        47.8587      -0.069700         1.9316         1.9316         7.8313      2801.8125
    3599.99280        -0.0103         3.1660       -0.57220       119.4285     0.07250000         4.0657         4.0657        46.1836      -0.055600         1.9399         1.9399         7.7513      2802.2793
    3600.14520        -0.0114         3.1037       -0.56900       115.7688    -0.20530000         4.1343         4.1343        45.2329       0.036900         1.9626         1.9626         7.7096      2804.5352
    3600.29760        -0.0109         2.9541       -0.57170       112.6540    -0.12850000         4.1314         4.1314        44.6747       0.009800         1.9863         1.9863         7.7712      2794.1675
    3600.45000        -0.0775         2.8661       -0.56450       112.1714    -0.04070000         4.0320         4.0320        46.4313      -0.024400         2.0044         2.0044         7.7671      2802.6050
    3600.60240        -0.0868         2.8643       -0.56320       112.0457    -0.00250000         3.9235         3.9235        47.9403      -0.040800         2.0716         2.0716         7.6243      2810.5615
    3600.75480         0.0935         2.8606       -0.56340       111.5362     0.02150000         3.8492         3.8492        49.8049       0.014400         2.0600         2.0600         7.6188      2804.5803
    3600.90720        -0.0457         2.8423       -0.56150       111.4125     0.04490000         3.8467         3.8467        52.6181       0.056200         2.0404         2.0404         7.7100      2807.1306
    3601.05960        -0.0258         2.8445       -0.55900       111.5209    -0.04810000         3.9075         3.9075        54.3890       0.015200         2.0160         2.0160         7.7751      2792.8696
    3601.21200        -0.0245         2.8712       -0.56180       111.6907    -0.10910000         4.0044         4.0044        55.5849      -0.058400         2.0317         2.0317         7.6726      2807.3157
    3601.36440        -0.0260         2.8501       -0.55760       111.5488    -0.04560000         4.0818         4.0818        56.1656       0.036200         2.0135         2.0135         7.5597      2811.0571
    3601.51680        -0.0325         2.8585       -0.55600       112.1724     0.09290000         4.1445         4.1445        56.2484       0.074700         2.0480         2.0480         7.5013      2805.8826
    3601.66920        -0.0249         2.8558       -0.55490       112.4176    -0.00780000         4.0979         4.0979        54.5558      -0.047700         2.1026         2.1026         7.5687      2801.5750
    3601.82160        -0.0259         2.8735       -0.55960       113.1655     0.01680000         4.0754         4.0754        53.1519      -0.055700         2.0763         2.0763         7.6148      2801.6897
    3601.97400        -0.0594         2.8835       -0.55840       112.3904     0.04010000         4.0358         4.0358        50.4152      -0.074700         2.0251         2.0251         7.6540      2803.1016
    3602.12640         0.0995         2.8723       -0.55270       112.1415     0.01960000         4.0014         4.0014        47.9441       0.001200         1.9932         1.9932         7.5759      2798.7661
    3602.27880        -0.1253         2.8720       -0.54950       110.5952    -0.11390000         3.9976         3.9976        46.2120       0.038600         1.9995         1.9995         7.5327      2798.7961
    3602.43120         0.0344         2.8524       -0.54610       111.2133    -0.01180000         3.9181         3.9181        43.8613      -0.001600         2.0170         2.0170         7.6062      2793.5618
    3602.58360         0.0634         2.8611       -0.54810       111.0854    -0.09890000         3.8482         3.8482        42.4576       0.004400         2.0748         2.0748         7.6536      2797.7041
    3602.73600        -0.0478         2.8297       -0.55140       111.2319    -0.02500000         3.8184         3.8184        41.6537      -0.033900         2.0965         2.0965         7.6799      2798.5242
    3602.88840        -0.0158         2.8403       -0.55000       111.7589    -0.35580000         3.7555         3.7555        40.0125       0.048700         2.1380         2.1380         7.7244      2796.7639
    3603.04080        -0.0202         2.8467       -0.54760       112.0354     0.01830000         3.7995         3.7995        37.6952      -0.019100         2.1024         2.1024         7.7132      2812.0640
    3603.19320         0.0372         2.8583       -0.54840       111.8139     0.02850000         3.8050         3.8050        37.0317      -0.003200         2.0304         2.0304         7.6203      2815.0916
    3603.34560         0.1784         2.8486       -0.55240       111.4967    -0.08840000         3.8337         3.8337        35.9408      -0.007800         2.0701         2.0701         7.6003      2809.5767
    3603.49800        -0.0138         2.8354       -0.55170       112.0799     0.02820000         3.9208         3.9208        34.6216      -0.052700         2.0433         2.0433         7.5151      2807.7097
    3603.65040        -0.0142         2.8457       -0.55380       111.4771     0.03910000         4.0016         4.0016        34.2525      -0.074500         2.0812         2.0812         7.3337      2799.3589
    3603.80280         0.0968         2.8492       -0.54800       111.3298     0.04140000         4.0570         4.0570        34.2815       0.033800         2.0752         2.0752         7.3081      2810.2439
    3603.95520        -0.0368         2.8182       -0.54570       111.4405    -0.00340000         4.0742         4.0742        34.0602      -0.076300         2.0381         2.0381         7.3722      2804.5022
    3604.10760        -0.0141         2.8340       -0.51870       111.7887    -0.01570000         4.1418         4.1418        33.0862       0.004700         2.0831         2.0831         7.4928      2803.8025
    3604.26000        -0.0030         2.8385       -0.50620       112.0821    -0.00240000         4.0070         4.0070        32.8797       0.013900         2.0468         2.0468         7.5514      2806.6494
    3604.41240        -0.0504         2.8281       -0.50610       112.1771     0.02120000         3.8948         3.8948        32.0349       0.039600         2.0567         2.0567         7.5599      2812.8604
    3604.56480        -0.0098         2.8244       -0.49900       112.8683     0.10070000         3.8702         3.8702        31.5139      -0.077900         2.0492         2.0492         7.6207      2821.5439
    3604.71720        -0.0094         2.8300       -0.50000       113.2181     0.03920000         3.8703         3.8703        30.7060       0.052500         2.0697         2.0697         7.6778      2824.0547
    3604.86960        -0.0588         2.8508       -0.49850       113.9007    -0.12280000         4.0538         4.0538        30.5676       0.032800         2.0565         2.0565         7.6355      2815.5784
    3605.02200        -0.0556         2.8567       -0.50180       113.6299    -0.01320000         4.0070         4.0070        30.6114       0.038800         2.1002         2.1002         7.6224      2818.3188
    3605.17440        -0.0064         2.8467       -0.49980       114.0880    -0.00330000         4.0480         4.0480        30.8646      -0.053100         2.1742         2.1742         7.6076      2818.8618
    3605.32680        -0.0004         2.8598       -0.50090       112.3958    -0.00280000         4.0197         4.0197        30.5215      -0.091000         2.1969         2.1969         7.6102      2817.7473
    3605.47920        -0.0543         2.8370       -0.49740       113.7067    -0.02390000         4.0614         4.0614        30.0801       0.016800         2.1601         2.1601         7.7116      2819.5923
    3605.63160        -0.0055         2.8714       -0.50500       113.6017    -0.01870000         3.8397         3.8397        30.1861       0.040300         2.1509         2.1509         7.6289      2811.5332
