~Version Information Block
VERS .                 2.00:  CWLS LOG ASCII STANDARD - VERSION 2.00
WRAP .                   NO:  One line per depth step
~Well Information Block
#MNEM.UNIT        Data Type   Information
#---------- ----------------  -----------
STRT .M          3445.61160:  START DEPTH
STOP .M          3638.55000:  STOP DEPTH
STEP .M             0.15240:  STEP
NULL .              -999.25:  NULL VALUE
COMP .              Statoil:  COMPANY
WELL .          NO_15/9-F-5:  WELL
FLD  .                VOLVE:  FIELD
LOC  .            North Sea:  LOCATION
CTRY .                     :  COUNTRY
STAT .                     :  STATE
CNTY .                     :  COUNTY
SRVC .         Schlumberger:  SERVICE COMPANY
DATE .          16-Sep-2012:  DATE
API  .                     :  API NUMBER
UWI  .             15/9-F-5:  UNIQUE WELL ID
~Curve Information Block
#MNEM.UNIT         API CODE   Curve Description
#---------- ----------------  -----------------
DEPTH.M                    :  DEPTH (BOREHOLE)
CCLC .V                    :  CCL
CCLD .V                    :  CCL Discriminated Amplitude
CRRA .                     :  Near-Far Count Rate Ratio
CS   .F/MN                 :  Cable Speed
CVEL .M/MIN                 :  Cable Velocity
DEVI .DEG                  :  Hole Deviation
FBEF .UA                   :  RST Far Effective Beam Current
FCOR .                     :  RST Far Carbon/Oxygen Ratio
FERD .                     :  RST Far IC Mode Capture Optimization Resolution Degradation Factor
FIRD .                     :  RST Far Inelastic Optimization Resolution Degradation Factor
GR   .GAPI                 :  Gamma Ray
NCOR .                     :  RST Near Carbon/Oxygen Ratio
NERD .                     :  RST Near IC Mode Capture Optimization Resolution Degradation Factor
NIRD .                     :  RST Near Inelastic Optimization Resolution Degradation Factor
RB_PCMS.DEG                  :  Relative Bearing
TENS .LBF                  :  Cable Tension
WPRE .PSI                  :  Well Pressure
WTEP .DEGC                 :  Well Temperature
~Parameter Information Block
#MNEM.UNIT            Value   Description
#---------- ----------------  -----------
APD  .M           54.900002:  Elevation of Depth Reference (LMF) above Permanent Datum
RUN  .                Run 1:  RUN NUMBER
PROJECT.     SLEIPNER_OST@st-vlinapp01:  
SET  .        RSTD_0912_IC2:  
~Other Information Block
# 
~A       DEPTH           CCLC           CCLD           CRRA             CS           CVEL           DEVI           FBEF           FCOR           FERD           FIRD             GR           NCOR           NERD           NIRD        RB_PCMS           TENS           WPRE           WTEP 
# ...
    3472.12920        -0.0130         0.0000         2.7818         1.1499      -0.351200        47.4300       101.9076     0.19239999         5.8539         5.8539        30.0073    -0.01530000         2.6553         2.6553         8.1199      2791.1765      5008.3774        96.3262
    3472.28160        -0.0124         0.0000         2.7649         1.1637      -0.356100        47.4410       103.4560    -0.12909999         5.5912         5.5912        30.4547    -0.05580000         2.6725         2.6725         8.0949      2795.7112      5008.5415        96.3268
    3472.43400        -0.0091         0.0000         2.7891         1.1499      -0.350900        47.4515       102.6394    -0.16750000         5.6804         5.6804        30.2966     0.06900000         2.7376         2.7376         8.0945      2800.0688      5008.6782        96.3286
    3472.58640         0.0789         0.0000         2.7425         1.1742      -0.355800        47.4561       102.8629     0.13450000         5.6276         5.6276        30.0851    -0.01290000         2.7354         2.7354         7.9579      2809.5947      5008.8472        96.3290
    3472.73880        -0.0118         0.0000         2.7338         1.1614      -0.352800        47.4656       103.5962     0.02440000         5.6411         5.6411        29.4961     0.10380000         2.7493         2.7493         7.8396      2816.4768      5008.9707        96.3302
    3472.89120        -0.0132         0.0000         2.7383         1.1663      -0.354400        47.4728       103.7772     0.20880000         5.6920         5.6920        27.8004    -0.03950000         2.7120         2.7120         7.8180      2812.3472      5009.1191        96.3309
    3473.04360        -0.0116         0.0000         2.7357         1.1437      -0.350200        47.4849       103.6421     0.13420001         5.6233         5.6233        26.4901     0.06110000         2.6643         2.6643         7.6777      2806.2322      5009.2656        96.3332
    3473.19600        -0.0585         0.0000         2.7278         1.1499      -0.345500        47.4986       104.4813     0.24779999         5.3856         5.3856        26.0408    -0.00860000         2.6520         2.6520         7.5058      2809.4121      5009.4019        96.3327
    3473.34840        -0.0128         0.0000         2.7480         1.1434      -0.345300        47.5229       104.3007     0.02770000         5.6251         5.6251        25.5627     0.00290000         2.6588         2.6588         7.3959      2799.7715      5009.5552        96.3330
    3473.50080        -0.0134         0.0000         2.7428         1.1191      -0.342900        47.5115       104.7595    -0.07270000         5.6872         5.6872        25.8689     0.03010000         2.6640         2.6640         7.4011      2800.2581      5009.6831        96.3328
    3473.65320         0.0650         0.0000         2.7435         1.1460      -0.349800        47.5186       104.9616     0.12660000         5.7017         5.7017        27.3753    -0.00320000         2.6147         2.6147         7.9822      2804.1733      5009.8379        96.3333
    3473.80560        -0.0298         0.0000         2.7446         1.1362      -0.349100        47.5116       105.7759     0.05390000         5.7966         5.7966        28.7481    -0.00750000         2.6130         2.6130         8.1556      2803.7144      5009.9883        96.3336
    3473.95800        -0.0389         0.0000         2.7636         1.1493      -0.348900        47.5090       106.4423     0.06020000         5.6729         5.6729        30.7743    -0.01740000         2.6252         2.6252         8.2437      2796.9290      5010.1362        96.3325
    3474.11040        -0.0072         0.0000         2.7792         1.1522      -0.350800        47.5192       106.9070    -0.16010000         5.6939         5.6939        32.0355     0.04000000         2.6576         2.6576         8.2601      2797.3394      5010.2979        96.3317
    3474.26280        -0.0081         0.0000         2.7903         1.1437      -0.347100        47.5249       107.2026     0.12080000         5.7157         5.7157        33.1485     0.07050000         2.6201         2.6201         8.0760      2808.5354      5010.4277        96.3319
    3474.41520         0.0240         0.0000         2.7834         1.1342      -0.347200        47.5290       107.6195    -0.09310000         5.6704         5.6704        33.9017     0.01030000         2.6135         2.6135         7.9237      2806.9062      5010.5591        96.3307
    3474.56760        -0.0081         0.0000         2.8062         1.1421      -0.347700        47.5262       107.0075     0.02030000         5.8052         5.8052        33.9862     0.07720000         2.5735         2.5735         7.6862      2809.5493      5010.7090        96.3298
    3474.72000         0.0119         0.0000         2.7825         1.1440      -0.346800        47.5552       108.1422     0.02090000         5.7092         5.7092        34.7043     0.01520000         2.5606         2.5606         7.6223      2792.4888      5010.8550        96.3288
    3474.87240        -0.0062         0.0000         2.8137         1.1302      -0.342600        47.5801       108.0799    -0.05360000         5.6458         5.6458        35.4271    -0.00420000         2.5549         2.5549         7.5427      2811.7407      5010.9985        96.3277
    3475.02480         0.0637         0.0000         2.8073         1.2831      -0.360000        47.5857       107.8702     0.02440000         5.5726         5.5726        35.6318     0.00280000         2.5466         2.5466         7.3850      2801.0105      5011.1372        96.3269
    3475.17720        -0.0083         0.0000         2.8099         1.2375      -0.378200        47.5893       107.1673    -0.05090000         5.4705         5.4705        35.9665     0.04360000         2.5556         2.5556         7.5692      2805.7708      5011.2886        96.3260
    3475.32960        -0.0098         0.0000         2.7845         1.2500      -0.378400        47.5787       107.3448    -0.06470000         5.2939         5.2939        35.6207     0.02880000         2.5340         2.5340         7.4732      2814.1350      5011.4336        96.3238
    3475.48200        -0.0052         0.0000         2.7831         1.2405      -0.377100        47.5954       107.0341     0.00040000         5.3137         5.3137        33.7546     0.03770000         2.6306         2.6306         7.5031      2790.2122      5011.5879        96.3220
    3475.63440        -0.0052         0.0000         2.7867         1.3077      -0.379100        47.6211       105.9433     0.04300000         5.2813         5.2813        32.8761     0.01750000         2.6091         2.6091         7.5566      2801.6990      5011.7471        96.3209
    3475.78680         0.0077         0.0000         2.7564         1.2933      -0.393600        47.6406       105.2005     0.13470000         5.3401         5.3401        32.6902     0.08500000         2.5966         2.5966         7.6637      2801.0203      5011.8716        96.3209
    3475.93920        -0.0075         0.0000         2.7333         1.2989      -0.397000        47.6537       106.3682    -0.02560000         5.3249         5.3249        33.0099     0.01240000         2.5816         2.5816         7.8508      2807.5232      5012.0259        96.3190
    3476.09160         0.0687         0.0000         2.7574         1.2789      -0.394300        47.6521       107.2678     0.05620000         5.3249         5.3249        33.9192     0.00830000         2.5501         2.5501         7.8649      2818.6140      5012.1699        96.3177
    3476.24400        -0.0760         0.0000         2.7790         1.3074      -0.399100        47.6763       107.9004    -0.07610000         5.3412         5.3412        34.4075     0.00090000         2.5806         2.5806         7.9259      2800.9128      5012.3247        96.3160
    3476.39640         0.1305         0.0000         2.7966         1.2805      -0.394200        47.7043       108.0281     0.01230000         5.4629         5.4629        34.4880     0.07910000         2.5679         2.5679         7.8728      2814.8760      5012.4492        96.3134
