~Version Information Block
VERS .                 2.00:  CWLS LOG ASCII STANDARD - VERSION 2.00
WRAP .                   NO:  One line per depth step
~Well Information Block
#MNEM.UNIT        Data Type   Information
#---------- ----------------  -----------
STRT .M          3445.30680:  START DEPTH
STOP .M          3639.15960:  STOP DEPTH
STEP .M             0.15240:  STEP
NULL .              -999.25:  NULL VALUE
COMP .              Statoil:  COMPANY
WELL .          NO_15/9-F-5:  WELL
FLD  .                VOLVE:  FIELD
LOC  .            North Sea:  LOCATION
CTRY .                     :  COUNTRY
STAT .                     :  STATE
CNTY .                     :  COUNTY
SRVC .         Schlumberger:  SERVICE COMPANY
DATE .          16-Sep-2012:  DATE
API  .                     :  API NUMBER
UWI  .             15/9-F-5:  UNIQUE WELL ID
~Curve Information Block
#MNEM.UNIT         API CODE   Curve Description
#---------- ----------------  -----------------
DEPTH.M                    :  DEPTH (BOREHOLE)
CCLC .V                    :  CCL
CRRA .                     :  Near-Far Count Rate Ratio
CVEL .M/MIN                 :  Cable Velocity
FBEF .UA                   :  RST Far Effective Beam Current
FCOR .                     :  RST Far Carbon/Oxygen Ratio
FERD .                     :  RST Far IC Mode Capture Optimization Resolution Degradation Factor
FIRD .                     :  RST Far Inelastic Optimization Resolution Degradation Factor
GR   .GAPI                 :  Gamma Ray
NCOR .                     :  RST Near Carbon/Oxygen Ratio
NERD .                     :  RST Near IC Mode Capture Optimization Resolution Degradation Factor
NIRD .                     :  RST Near Inelastic Optimization Resolution Degradation Factor
RB_PCMS.DEG                  :  Relative Bearing
TENS .LBF                  :  Cable Tension
~Parameter Information Block
#MNEM.UNIT            Value   Description
#---------- ----------------  -----------
APD  .M           54.900002:  Elevation of Depth Reference (LMF) above Permanent Datum
RUN  .                Run 1:  RUN NUMBER
PROJECT.     SLEIPNER_OST@st-vlinapp01:  
SET  .        RSTD_0912_IC3:  
~Other Information Block
# 
~A       DEPTH           CCLC           CRRA           CVEL           FBEF           FCOR           FERD           FIRD             GR           NCOR           NERD           NIRD        RB_PCMS           TENS 
# ...
    3510.68640        -0.0142         2.9772       -0.39500       115.3307    -0.04180000         5.5531         5.5531        58.2461      -0.065100         2.4045         2.4045         8.2399      2828.8352
    3510.83880        -0.0143         2.9782       -0.39250       115.5386     0.03370000         5.5957         5.5957        58.7358      -0.079400         2.4128         2.4128         8.1948      2820.3887
    3510.99120         0.0266         2.9598       -0.39310       115.8017     0.05900000         5.4722         5.4722        58.3648       0.019800         2.3935         2.3935         8.2815      2817.6360
    3511.14360        -0.0008         2.9642       -0.39290       114.7054     0.03950000         5.1609         5.1609        57.5446       0.026200         2.3781         2.3781         8.3218      2813.8623
    3511.29600        -0.1083         2.9544       -0.39480       114.8859     0.08830000         5.4190         5.4190        56.3172       0.010000         2.3722         2.3722         8.3644      2816.7349
    3511.44840        -0.0036         2.9479       -0.39420       115.0151    -0.01270000         5.3287         5.3287        55.4148      -0.047800         2.3979         2.3979         8.3162      2809.4744
    3511.60080        -0.0555         2.9355       -0.39230       114.6234     0.10220000         5.3737         5.3737        53.8382       0.024900         2.3942         2.3942         8.3525      2805.6304
    3511.75320        -0.0076         2.9301       -0.39090       114.4004    -0.06690000         5.4552         5.4552        53.1408       0.007900         2.3642         2.3642         8.3185      2813.8662
    3511.90560        -0.0054         2.9216       -0.38790       115.3403     0.03780000         5.4256         5.4256        53.2403       0.023900         2.3409         2.3409         8.3708      2813.4773
    3512.05800         0.0353         2.9324       -0.38520       115.6180    -0.09340000         5.5130         5.5130        54.4363      -0.001600         2.3317         2.3317         8.3805      2813.3745
    3512.21040        -0.0025         2.9487       -0.38090       116.9244    -0.02270000         5.5053         5.5053        56.3382       0.011600         2.3241         2.3241         8.3084      2814.0916
    3512.36280        -0.0042         2.9991       -0.38790       116.4131    -0.09470000         5.7665         5.7665        59.1040       0.091200         2.2724         2.2724         8.2283      2824.8928
    3512.51520        -0.0127         2.9935       -0.38760       116.6758     0.02650000         5.6830         5.6830        61.6975      -0.000900         2.2971         2.2971         8.1492      2817.9434
    3512.66760        -0.0091         3.0136       -0.39260       115.5491    -0.09340000         5.6518         5.6518        63.1790      -0.012900         2.3291         2.3291         8.1742      2828.2144
    3512.82000        -0.0139         2.9772       -0.39670       114.7207     0.10840000         5.8040         5.8040        64.3919      -0.083600         2.3823         2.3823         8.0134      2811.6685
    3512.97240        -0.0189         2.9654       -0.40260       112.5703    -0.05310000         5.8319         5.8319        64.7575      -0.019200         2.3130         2.3130         7.9070      2799.1230
    3513.12480        -0.0040         2.9229       -0.40270       113.4690     0.05600000         5.7973         5.7973        64.7526      -0.017900         2.2912         2.2912         7.9179      2818.5588
    3513.27720        -0.0035         2.9626       -0.41050       113.5247    -0.06560000         5.8015         5.8015        65.4313      -0.011400         2.3565         2.3565         7.9108      2804.5195
    3513.42960        -0.0055         2.9647       -0.39610       114.2567     0.10250000         5.7943         5.7943        66.6599       0.018400         2.3114         2.3114         7.9051      2809.6255
    3513.58200         0.1323         2.9610       -0.39350       114.8239     0.08960000         5.6091         5.6091        67.4177      -0.004100         2.3700         2.3700         7.9211      2814.4915
    3513.73440        -0.0061         2.9924       -0.39030       116.7276     0.02000000         5.3229         5.3229        67.8252      -0.075800         2.3491         2.3491         7.8926      2823.7322
    3513.88680        -0.0073         3.0688       -0.38050       117.1913     0.01900000         5.2543         5.2543        68.6057      -0.047700         2.3555         2.3555         7.8738      2813.6555
    3514.03920         0.0015         3.0775       -0.37030       118.9058    -0.02550000         4.9639         4.9639        69.2882       0.085700         2.3690         2.3690         7.7813      2826.5891
    3514.19160        -0.0443         3.1004       -0.37090       119.1008    -0.08060000         5.0480         5.0480        70.3279       0.020600         2.3642         2.3642         7.6950      2815.7542
    3514.34400        -0.0164         3.0933       -0.37260       119.3925    -0.03210000         4.9523         4.9523        71.2668      -0.014500         2.3953         2.3953         7.6581      2807.3914
    3514.49640        -0.0210         3.0828       -0.37460       119.3331    -0.06500000         4.8743         4.8743        72.8435      -0.011900         2.3980         2.3980         7.7944      2819.0000
    3514.64880         0.1008         3.0742       -0.37200       118.8576    -0.11860000         5.1194         5.1194        74.3316      -0.008900         2.4058         2.4058         7.7048      2816.9375
    3514.80120        -0.0157         3.0783       -0.37650       119.3291     0.01330000         5.0115         5.0115        75.0120       0.025200         2.4235         2.4235         7.7140      2813.2583
    3514.95360        -0.0181         3.0917       -0.36620       119.5997    -0.15030000         4.9327         4.9327        74.0179       0.035100         2.4614         2.4614         7.6924      2805.6694
    3515.10600        -0.0184         3.0944       -0.36330       119.0671     0.09910000         4.9174         4.9174        71.5794       0.019300         2.4451         2.4451         7.4743      2807.3821
    3515.25840        -0.0593         3.0962       -0.35740       115.6134     0.06660000         4.6414         4.6414        67.2482       0.050400         2.4908         2.4908         7.4351      2810.6746
    3515.41080        -0.0037         3.0003       -0.36630       114.6465    -0.10140000         4.7129         4.7129        61.0900       0.052800         2.5557         2.5557         7.5180      2812.6311
    3515.56320        -0.0255         2.9557       -0.36410       114.6469     0.00590000         4.7555         4.7555        54.5096       0.026500         2.5817         2.5817         7.5650      2828.1646
    3515.71560        -0.0270         3.0191       -0.37210       117.2367     0.18310000         4.8447         4.8447        48.3367       0.026200         2.6020         2.6020         7.6354      2818.0813
    3515.86800        -0.5467         3.1339       -0.36850       119.6846     0.05470000         4.8118         4.8118        42.7239       0.037500         2.6428         2.6428         7.6763      2815.6479
    3516.02040        -0.9013         3.1718       -0.37650       115.5308     0.05820000         4.6710         4.6710        38.5231       0.042600         2.6451         2.6451         7.6154      2819.6208
    3516.17280        -0.0087         3.0033       -0.37640       112.2481    -0.03930000         4.5802         4.5802        36.2970      -0.007800         2.6345         2.6345         7.5728      2812.9260
    3516.32520        -0.0761         2.8994       -0.38070       111.2484    -0.00620000         4.5508         4.5508        34.4444       0.026500         2.6243         2.6243         7.6077      2823.2937
    3516.47760        -0.0104         2.8799       -0.38590       111.1757     0.08690000         4.5750         4.5750        34.4045      -0.039300         2.6278         2.6278         7.6613      2819.0876
