~Version Information Block
VERS .                 2.00:  CWLS LOG ASCII STANDARD - VERSION 2.00
WRAP .                   NO:  One line per depth step
~Well Information Block
#MNEM.UNIT        Data Type   Information
#---------- ----------------  -----------
STRT .M          3230.11800:  START DEPTH
STOP .M          3389.98560:  STOP DEPTH
STEP .M             0.15240:  STEP
NULL .              -999.25:  NULL VALUE
COMP .              Statoil:  COMPANY
WELL .          NO_15/9-F-4:  WELL
FLD  .                VOLVE:  FIELD
LOC  .            North Sea:  LOCATION
CTRY .                     :  COUNTRY
STAT .                     :  STATE
CNTY .                     :  COUNTY
SRVC .         Schlumberger:  SERVICE COMPANY
DATE .          13-Sep-2012:  DATE
API  .                     :  API NUMBER
UWI  .             15/9-F-4:  UNIQUE WELL ID
~Curve Information Block
#MNEM.UNIT         API CODE   Curve Description
#---------- ----------------  -----------------
DEPTH.M                    :  DEPTH (BOREHOLE)
CCLC .V                    :  CCL
CCLD .V                    :  CCL Discriminated Amplitude
CRRA .                     :  Near-Far Count Rate Ratio
CS   .F/MN                 :  Cable Speed
CVEL .M/MIN                 :  Cable Velocity
FBEF .UA                   :  RST Far Effective Beam Current
FCOR .                     :  RST Far Carbon/Oxygen Ratio
FERD .                     :  RST Far IC Mode Capture Optimization Resolution Degradation Factor
FIRD .                     :  RST Far Inelastic Optimization Resolution Degradation Factor
GR   .GAPI                 :  Gamma Ray
NCOR .                     :  RST Near Carbon/Oxygen Ratio
NERD .                     :  RST Near IC Mode Capture Optimization Resolution Degradation Factor
NIRD .                     :  RST Near Inelastic Optimization Resolution Degradation Factor
RB_PCMS.DEG                  :  Relative Bearing
TENS .LBF                  :  Cable Tension
WTEP .DEGC                 :  Well Temperature
WTPE .MS                   :  Well Temperature Period
~Parameter Information Block
#MNEM.UNIT            Value   Description
#---------- ----------------  -----------
APD  .M                  54:  Elevation of Depth Reference (LMF) above Permanent Datum
RUN  .                    1:  RUN NUMBER
PROJECT.     SLEIPNER_OST@st-vlinapp01:  
SET  .        RSTD_0912_IC3:  
~Other Information Block
# 
~A       DEPTH           CCLC           CCLD           CRRA             CS           CVEL           FBEF           FCOR           FERD           FIRD             GR           NCOR           NERD           NIRD        RB_PCMS           TENS           WTEP           WTPE 
# ...
    3294.12600         0.0226         0.0000         2.8632         1.1276       -0.34370       110.7878        -0.1239         6.0818         6.0818        39.1799      -0.164200         2.7181         2.7181       357.6168      2297.2212        96.7327         4.0304
    3294.27840        -0.0383         0.0000         2.8669         1.1152       -0.33990       109.9878         0.0598         6.1039         6.1039        39.1325      -0.013700         2.7219         2.7219       357.5203      2300.0420        96.7337         4.0304
    3294.43080        -0.0008        -0.0008         2.8521         1.1273       -0.34360       110.6770        -0.0662         6.2281         6.2281        38.6281      -0.001800         2.7368         2.7368       357.5105      2301.3921        96.7369         4.0304
    3294.58320         0.2157         0.0000         2.8661         1.1296       -0.34430       110.1128         0.0849         6.1622         6.1622        37.0358       0.053500         2.7699         2.7699       357.4629      2291.5464        96.7405         4.0305
    3294.73560        -0.0143         0.0000         2.8590         1.1270       -0.34350       110.1812         0.0461         6.1215         6.1215        36.9898      -0.007700         2.7274         2.7274       357.3960      2290.7212        96.7431         4.0305
    3294.88800        -0.1950         0.0000         2.8639         1.1155       -0.34000       110.2437         0.0636         6.1218         6.1218        36.6454      -0.038000         2.7322         2.7322       357.4696      2299.3765        96.7480         4.0305
    3295.04040        -0.0097         0.0000         2.8769         1.1060       -0.33710       110.2091        -0.1028         6.0464         6.0464        35.4970      -0.002200         2.7242         2.7242       357.5763      2286.3540        96.7506         4.0306
    3295.19280         0.4314         0.0000         2.8524         1.1286       -0.34400       111.4609         0.1005         6.0367         6.0367        35.3499      -0.140000         2.8100         2.8100       357.7070      2292.8350        96.7514         4.0306
    3295.34520        -0.0239         0.0000         2.8406         1.1286       -0.34400       112.4691        -0.0229         6.0325         6.0325        36.7495      -0.014800         2.7695         2.7695       357.6575      2299.5266        96.7536         4.0306
    3295.49760         0.1332         0.0000         2.8709         1.1329       -0.34530       112.3103        -0.1119         6.1515         6.1515        35.7154       0.044500         2.7589         2.7589       357.5489      2268.8494        96.7583         4.0306
    3295.65000         0.1094         0.0000         2.8576         1.1161       -0.34020       111.8384        -0.0620         6.0445         6.0445        35.3053      -0.019600         2.7831         2.7831       357.3746      2302.1584        96.7591         4.0306
    3295.80240        -0.0043         0.0000         2.8596         1.1339       -0.34560       112.1591         0.0142         6.0241         6.0241        33.9548      -0.017600         2.7350         2.7350       357.3467      2291.0957        96.7650         4.0307
    3295.95480        -0.0077         0.0000         2.8731         1.1352       -0.34600       112.1703         0.0572         5.9293         5.9293        33.2491      -0.020400         2.7478         2.7478       357.3683      2295.6304        96.7666         4.0307
    3296.10720         0.0412         0.0000         2.8861         1.1526       -0.35130       111.0932         0.1099         5.9108         5.9108        32.7505      -0.017300         2.7520         2.7520       357.3097      2285.1714        96.7692         4.0307
    3296.25960         0.0520         0.0000         2.8654         1.1601       -0.35360       110.5614         0.0032         5.9702         5.9702        33.4791       0.012900         2.7521         2.7521       357.3347      2305.6702        96.7678         4.0307
    3296.41200        -0.0052         0.0000         2.8795         1.1896       -0.36260       111.9196        -0.2791         5.9017         5.9017        33.2590      -0.014700         2.7887         2.7887       357.4271      2299.5979        96.7721         4.0308
    3296.56440        -0.0060         0.0000         2.8738         1.1713       -0.35700       112.2147         0.0100         5.8858         5.8858        33.6810      -0.059300         2.7791         2.7791       357.4990      2306.7363        96.7745         4.0308
    3296.71680        -0.0045         0.0000         2.8654         1.1827       -0.36050       113.2438         0.1366         5.9914         5.9914        34.0303       0.043000         2.7808         2.7808       357.4224      2291.4282        96.7764         4.0308
    3296.86920        -0.0039         0.0000         2.8915         1.1752       -0.35820       112.9236         0.0724         5.9043         5.9043        34.2057       0.000800         2.7632         2.7632       357.3105      2300.5525        96.7783         4.0308
    3297.02160         0.0137         0.0000         2.8907         1.2100       -0.36880       113.2660         0.0133         5.9043         5.9043        33.7176      -0.015800         2.7858         2.7858       357.2322      2303.8198        96.7820         4.0308
    3297.17400        -0.1758         0.0000         2.8920         1.2546       -0.38240       113.1835        -0.0038         5.8141         5.8141        33.7519      -0.122700         2.7858         2.7858       357.2200      2293.2473        96.7811         4.0308
    3297.32640        -0.0037         0.0000         2.8860         0.9386       -0.20540       112.8665         0.0478         5.7845         5.7845        35.1898      -0.034300         2.8202         2.8202       357.2271      2270.0657        96.7853         4.0309
    3297.47880        -0.0077         0.0000         2.8771         2.1253       -0.64780       112.9637         0.1404         5.8158         5.8158        35.2832       0.069100         2.7810         2.7810       357.0479      2273.1814        96.7865         4.0309
    3297.63120        -0.0106         0.0000         2.8710         1.1886       -0.32750       113.1216         0.0934         5.7982         5.7982        35.9199       0.056600         2.7678         2.7678       356.7774      2252.1653        96.7859         4.0309
    3297.78360        -0.0095         0.0000         2.8857         1.4902       -0.45420       113.5669         0.0790         5.7698         5.7698        35.3770      -0.082100         2.8159         2.8159       356.6795      2293.5747        96.7893         4.0309
    3297.93600        -0.0096         0.0000         2.8892         1.8553       -0.50340       113.9030         0.0871         5.8440         5.8440        35.4439      -0.044700         2.8163         2.8163       356.6733      2243.3745        96.7887         4.0309
    3298.08840        -0.0108         0.0000         2.9111         4.7995       -1.46290       113.5994         0.0050         5.8306         5.8306        35.2044       0.082000         2.7881         2.7881       356.7144      2312.4368        96.7900         4.0309
    3298.24080        -0.0069         0.0000         2.9070         2.2188       -0.67630       113.6142         0.2506         5.8456         5.8456        35.5989       0.061400         2.7441         2.7441       356.7944      2299.9897        96.7917         4.0309
    3298.39320        -0.0106         0.0000         2.9458         1.3576       -0.28640       114.5460         0.0060         5.8456         5.8456        35.0814      -0.288100         2.7421         2.7421       356.9118      2258.6833        96.7936         4.0309
    3298.54560        -0.0064         0.0000         2.9084         2.3894       -0.72830       114.4482         0.1788         5.8456         5.8456        36.0863       0.039900         2.7421         2.7421       356.9474      2285.8220        96.7904         4.0309
