~Version Information Block
VERS .                 2.00:  CWLS LOG ASCII STANDARD - VERSION 2.00
WRAP .                   NO:  One line per depth step
~Well Information Block
#MNEM.UNIT        Data Type   Information
#---------- ----------------  -----------
STRT .M          3439.51560:  START DEPTH
STOP .M          3642.36000:  STOP DEPTH
STEP .M             0.15240:  STEP
NULL .              -999.25:  NULL VALUE
COMP .              Statoil:  COMPANY
WELL .          NO_15/9-F-5:  WELL
FLD  .                VOLVE:  FIELD
LOC  .            North Sea:  LOCATION
CTRY .                     :  COUNTRY
STAT .                     :  STATE
CNTY .                     :  COUNTY
SRVC .         Schlumberger:  SERVICE COMPANY
DATE .          16-Sep-2012:  DATE
API  .                     :  API NUMBER
UWI  .             15/9-F-5:  UNIQUE WELL ID
~Curve Information Block
#MNEM.UNIT         API CODE   Curve Description
#---------- ----------------  -----------------
DEPTH.M                    :  DEPTH (BOREHOLE)
BSAL .PPM                  :  Borehole Salinity
CCLC .V                    :  CCL
CIRF .                     :  RST Capture to Inelastic Ratio Far
CIRN .                     :  RST Capture to Inelastic Ratio Near
CVEL .M/MIN                 :  Cable Velocity
DSIG .CU                   :  Sigma Difference
FBEF .UA                   :  RST Far Effective Beam Current
GR   .GAPI                 :  Gamma Ray
IRAT .                     :  RST Inelastic Ratio
RSCF .                     :  RST Far Detector Effective Unregulated Capture Count Rate
RSCN .                     :  RST Near Detector Effective Unregulated Capture Count Rate
SFFA .CU                   :  RST Sigma Formation Far Apparent
SIBF .CU                   :  RST Sigma Borehole Fluid
SIGM .CU                   :  Formation Sigma (Neutron Capture Cross Section)
TENS .LBF                  :  Cable Tension
TPHI .V/V                  :  Thermal Decay Porosity
~Parameter Information Block
#MNEM.UNIT            Value   Description
#---------- ----------------  -----------
APD  .M           54.900002:  Elevation of Depth Reference (LMF) above Permanent Datum
BHS  .                 CASE:  Borehole Status (Open or Cased Hole)
BS   .IN                8.5:  Bit Size
BSAL .PPM       34972.17188:  Borehole Salinity
BSALOPT.              UNKNOWN:  Borehole Salinity Option
CSID .IN              6.184:  Casing Inner Diameter
CSIZ .IN                  7:  Current Casing Size
CWEI .LB/F               29:  Casing Weight
MATR .                 SAND:  Rock Matrix for Neutron Porosity Corrections
RUN  .                Run 1:  RUN NUMBER
PROJECT.     SLEIPNER_OST@st-vlinapp01:  
SET  .       RSTD_0912_SIG1:  
~Other Information Block
# 
~A       DEPTH           BSAL           CCLC           CIRF           CIRN           CVEL           DSIG           FBEF             GR           IRAT           RSCF           RSCN           SFFA           SIBF           SIGM           TENS           TPHI 
# ...
    3517.54440     28075.8984        -0.2122         2.7609     0.83029997       -4.41840         0.3263        79.8451        13.6241     0.32679999        12.2905        11.1272        14.5743        31.9126        12.5560      2653.9355     0.17790000
    3517.69680     27469.6016         0.2500         2.7644     0.84539998       -4.47400         0.1456        81.1850        13.0376     0.32940000        11.8807        10.9667        13.9967        31.6983        12.3854      2632.4194     0.17990001
    3517.84920     27405.7012        -0.0355         2.7702     0.84609997       -4.52480        -0.2859        78.3502        12.6224     0.32910001        12.0566        10.8440        14.2446        31.6757        12.3691      2660.3000     0.18390000
    3518.00160     26337.6992        -0.2683         2.8251     0.87489998       -4.41770        -0.5975        81.5141        12.1241     0.32789999        11.8541        11.0958        14.5542        31.2985        12.5412      2644.3228     0.18940000
    3518.15400     25531.7988        -0.2208         2.7386     0.86669999       -4.42460        -0.7559        79.7721        11.5915     0.32470000        12.1353        11.6058        14.5288        31.0143        12.6434      2639.9355     0.19220001
    3518.30640     25121.2988        -0.0472         2.8038     0.86760002       -4.40630        -0.9265        81.5743        11.2483     0.32330000        12.0975        11.5091        14.5643        30.8696        12.5333      2643.7742     0.19370000
    3518.45880     24245.0996         0.0228         2.8155     0.84689999       -4.41850        -1.1899        80.9532        11.3313     0.31970000        12.2548        11.3421        14.2343        30.5610        12.4868      2651.4839     0.19540000
    3518.61120     24351.8008         0.1152         2.7489     0.84240001       -4.45450        -1.2101        82.4139        12.0787     0.31790000        11.6802        11.3942        14.3931        30.5985        12.5701      2639.4839     0.19980000
    3518.76360     24209.1992        -0.0747         2.7239     0.86170000       -4.43400        -1.1293        79.8094        12.3200     0.31920001        11.9257        11.3491        14.7995        30.5484        12.7365      2658.1614     0.20430000
    3518.91600     24429.4004        -0.2899         2.6536     0.84410000       -4.41250        -1.0719        80.2523        12.8526     0.31999999        11.7510        11.3364        14.7207        30.6259        12.9497      2662.5483     0.20550001
    3519.06840     24334.5996        -0.0042         2.7542     0.85020000       -4.41910        -1.0039        83.5054        13.1128     0.32229999        11.7885        11.5252        14.9988        30.5925        13.0347      2636.2258     0.20690000
    3519.22080     24953.5000         0.1841         2.6510     0.85610002       -4.42860        -0.9865        80.6889        14.4208     0.32190001        11.2977        11.2348        15.0387        30.8105        13.1839      2660.7097     0.20840000
    3519.37320     24488.3008        -0.0993         2.6107     0.84439999       -4.44910        -0.9053        78.8975        13.9225     0.32370001        11.4854        11.0704        15.1504        30.6466        13.1148      2652.3228     0.21210000
    3519.52560     24769.0996         0.0421         2.6547     0.84539998       -4.43950        -0.8985        80.7911        14.9268     0.32049999        11.3860        11.0543        14.7737        30.7455        13.0979      2644.2581     0.21030000
    3519.67800     24165.3008        -0.0702         2.7084     0.85149997       -4.41910        -0.8384        82.4144        16.1724     0.32020000        11.6210        11.4449        14.9734        30.5329        13.1157      2647.0000     0.20570000
    3519.83040     24578.1992         0.0231         2.7156     0.83910000       -4.39840        -0.7659        81.3051        15.1759     0.31869999        11.6085        10.9481        15.1965        30.6783        13.1926      2652.0322     0.19830000
    3519.98280     24771.6016         0.2335         2.7647     0.84509999       -4.38210        -0.7268        82.7666        14.4493     0.32080001        11.5748        11.1636        15.0005        30.7464        13.2188      2643.6453     0.19410001
    3520.13520     24535.9004         0.2623         2.7381     0.85610002       -4.42380        -0.5373        78.6443        14.7633     0.32429999        12.0132        11.1282        15.0458        30.6634        13.2352      2641.3872     0.19260000
    3520.28760     24445.2988         0.2661         2.6400     0.83469999       -4.45350        -0.6043        79.1024        14.0990     0.32370001        11.5318        10.7224        15.2438        30.6315        13.2679      2627.7419     0.19370000
    3520.44000     24527.5996        -0.0479         2.7014     0.83380002       -4.40320        -0.7349        80.8529        13.3360     0.32310000        11.8314        11.0694        15.1001        30.6604        13.3292      2645.6453     0.19690000
    3520.59240     24552.9004        -0.1133         2.6558     0.83730000       -4.40790        -0.7423        81.7064        14.9138     0.32170001        11.1951        10.8184        15.2295        30.6693        13.4901      2650.5483     0.20020001
    3520.74480     25241.6992        -0.0040         2.5388     0.81419998       -4.41390        -0.8174        79.6305        15.0799     0.32350001        10.8619        10.4710        15.7291        30.9120        13.5851      2648.9678     0.20170000
    3520.89720     24910.1016        -0.0410         2.5559     0.81800002       -4.42820        -0.7531        81.7680        14.5998     0.32030001        10.9722        10.8486        15.3870        30.7952        13.5747      2650.9062     0.20389999
    3521.04960     25053.5000         0.2503         2.7264     0.82410002       -4.45980        -0.8285        84.5295        14.7659     0.32010001        11.4594        11.1889        15.2033        30.8457        13.4332      2640.9333     0.20350000
    3521.20200     24447.0996        -0.0446         2.6214     0.85570002       -4.50020        -0.6963        80.7946        15.1136     0.32069999        11.5141        11.4281        15.3067        30.6321        13.2034      2657.3870     0.20490000
    3521.35440     24163.6016         0.0509         2.7291     0.85659999       -4.53190        -0.6689        79.1181        14.7815     0.32740000        11.6709        10.7522        14.7038        30.5323        13.1309      2652.0334     0.20070000
    3521.50680     24020.7988         0.7425         2.6386     0.85000002       -4.43080        -0.6944        78.3834        14.2157     0.32810000        11.7930        11.4817        14.9845        30.4820        12.8914      2627.7419     0.19880000
    3521.65920     24024.5000         0.2845         2.6740     0.84789997       -4.41580        -0.7195        78.8350        13.8836     0.33039999        12.0788        11.5946        14.5915        30.4833        12.8849      2658.5483     0.19130000
    3521.81160     24565.5996        -0.0412         2.7203     0.86170000       -4.45700        -0.7570        78.2872        14.2988     0.32920000        11.9849        11.1117        14.6899        30.6738        12.6851      2646.5483     0.18650000
    3521.96400     24932.0996        -0.1084         2.7770     0.83319998       -4.43760        -0.6750        78.3138        13.3879     0.32910001        12.4300        10.9678        14.3945        30.8029        12.8142      2633.7419     0.17730001
    3522.11640     25681.5000        -0.0589         2.7897     0.86100000       -4.40310        -0.6313        79.5299        13.0557     0.32760000        12.2027        11.2934        14.9844        31.0670        12.8013      2642.4841     0.17360000
    3522.26880     25253.2988         0.1494         2.7867     0.82550001       -4.43020        -0.7621        77.6180        13.9536     0.32800001        12.5669        11.1939        14.6693        30.9161        12.8752      2663.4839     0.16980000
