~Version Information Block
VERS .                 2.00:  CWLS LOG ASCII STANDARD - VERSION 2.00
WRAP .                   NO:  One line per depth step
~Well Information Block
#MNEM.UNIT        Data Type   Information
#---------- ----------------  -----------
STRT .M          3445.61160:  START DEPTH
STOP .M          3638.55000:  STOP DEPTH
STEP .M             0.15240:  STEP
NULL .              -999.25:  NULL VALUE
COMP .              Statoil:  COMPANY
WELL .          NO_15/9-F-5:  WELL
FLD  .                VOLVE:  FIELD
LOC  .            North Sea:  LOCATION
CTRY .                     :  COUNTRY
STAT .                     :  STATE
CNTY .                     :  COUNTY
SRVC .         Schlumberger:  SERVICE COMPANY
DATE .          16-Sep-2012:  DATE
API  .                     :  API NUMBER
UWI  .             15/9-F-5:  UNIQUE WELL ID
~Curve Information Block
#MNEM.UNIT         API CODE   Curve Description
#---------- ----------------  -----------------
DEPTH.M                    :  DEPTH (BOREHOLE)
CCLC .V                    :  CCL
CCLD .V                    :  CCL Discriminated Amplitude
CRRA .                     :  Near-Far Count Rate Ratio
CS   .F/MN                 :  Cable Speed
CVEL .M/MIN                 :  Cable Velocity
DEVI .DEG                  :  Hole Deviation
FBEF .UA                   :  RST Far Effective Beam Current
FCOR .                     :  RST Far Carbon/Oxygen Ratio
FERD .                     :  RST Far IC Mode Capture Optimization Resolution Degradation Factor
FIRD .                     :  RST Far Inelastic Optimization Resolution Degradation Factor
GR   .GAPI                 :  Gamma Ray
NCOR .                     :  RST Near Carbon/Oxygen Ratio
NERD .                     :  RST Near IC Mode Capture Optimization Resolution Degradation Factor
NIRD .                     :  RST Near Inelastic Optimization Resolution Degradation Factor
RB_PCMS.DEG                  :  Relative Bearing
TENS .LBF                  :  Cable Tension
WPRE .PSI                  :  Well Pressure
WTEP .DEGC                 :  Well Temperature
~Parameter Information Block
#MNEM.UNIT            Value   Description
#---------- ----------------  -----------
APD  .M           54.900002:  Elevation of Depth Reference (LMF) above Permanent Datum
RUN  .                Run 1:  RUN NUMBER
PROJECT.     SLEIPNER_OST@st-vlinapp01:  
SET  .        RSTD_0912_IC2:  
~Other Information Block
# 
~A       DEPTH           CCLC           CCLD           CRRA             CS           CVEL           DEVI           FBEF           FCOR           FERD           FIRD             GR           NCOR           NERD           NIRD        RB_PCMS           TENS           WPRE           WTEP 
# ...
    3587.03880         0.0308         0.0000         2.8497         3.0338      -0.466400        54.4514       107.3671     0.08570000         5.0387         5.0387        48.1142    -0.02920000         2.3690         2.3690         8.7402      2755.3376      5109.2261        82.6817
    3587.19120         0.0357         0.0000         2.8109         2.8074      -0.688600        54.4277       108.7294    -0.01590000         5.0661         5.0661        50.3125    -0.01190000         2.3727         2.3727         8.7128      2758.7144      5109.3403        82.6387
    3587.34360         0.0430         0.0000         2.8306         5.6555      -0.985200        54.4227       110.1096    -0.07980000         4.9332         4.9332        51.9129    -0.08230000         2.4056         2.4056         8.6264      2769.7295      5109.4644        82.5997
    3587.49600         0.0460         0.0000         2.8480         1.4377      -0.438200        54.4198       115.7867     0.13259999         4.9048         4.9048        52.9771     0.03010000         2.4101         2.4101         8.5732      2769.8665      5109.5713        82.5515
    3587.64840         0.0559         0.0559         3.0574         1.4373      -0.437800        54.4213       117.7361    -0.01030000         4.9678         4.9678        54.2390    -0.07620000         2.3610         2.3610         8.5841      2773.2693      5109.6870        82.5231
    3587.80080         0.0393         0.0393         3.1212         1.4199      -0.436100        54.4287       119.5086     0.09360000         4.8615         4.8615        55.3145    -0.01520000         2.3456         2.3456         8.5722      2780.4509      5109.7783        82.4678
    3587.95320        -1.7987        -1.7987         3.1584         1.4324      -0.437900        54.4247       116.9681     0.01180000         4.7784         4.7784        55.1456    -0.06300000         2.3264         2.3264         8.4805      2782.4409      5109.8657        82.4389
    3588.10560        -0.0090         0.0000         3.0029         1.4462      -0.437800        54.3833       111.5080     0.03990000         4.8264         4.8264        55.1346    -0.04060000         2.2520         2.2520         8.3276      2776.0413      5109.9834        82.3930
    3588.25800        -0.0102         0.0000         2.8874         1.4091      -0.433900        54.3263       111.1101    -0.07010000         4.6324         4.6324        54.6763    -0.01710000         2.2703         2.2703         8.1864      2784.2031      5110.0903        82.3405
    3588.41040        -0.0114         0.0000         2.8839         1.4190      -0.433200        54.3127       110.1634     0.15680000         4.4885         4.4885        54.5061    -0.03260000         2.2724         2.2724         8.0489      2781.5000      5110.2119        82.2974
    3588.56280        -0.0141         0.0000         2.9002         1.3747      -0.429000        54.3136       107.4375     0.05770000         4.3434         4.3434        52.8062    -0.04370000         2.2879         2.2879         7.9157      2780.3030      5110.3403        82.2493
    3588.71520        -0.0099         0.0000         2.8446         1.3888      -0.428300        54.3158       105.9781     0.11780000         4.3341         4.3341        51.2903     0.01320000         2.2961         2.2961         7.9040      2784.0781      5110.4370        82.1903
    3588.86760        -0.0095         0.0000         2.8008         1.4144      -0.427500        54.3258       106.6247    -0.02490000         4.3547         4.3547        50.7795     0.03910000         2.2885         2.2885         8.0003      2775.1406      5110.5479        82.1568
    3589.02000        -0.0140         0.0000         2.8137         1.3888      -0.422600        54.3266       107.5367     0.01520000         4.4063         4.4063        50.4473    -0.06040000         2.2900         2.2900         8.0883      2777.5586      5110.6396        82.0971
    3589.17240        -0.0093         0.0000         2.8104         1.3986      -0.421400        54.3500       109.9370     0.08080000         4.3733         4.3733        51.3311     0.08410000         2.2939         2.2939         8.0278      2779.6094      5110.7744        82.0435
    3589.32480        -0.0078         0.0000         2.8553         1.3796      -0.422600        54.3523       111.7849     0.02060000         4.4204         4.4204        52.8991     0.06000000         2.3034         2.3034         7.8201      2766.5601      5110.8662        81.9893
    3589.47720        -0.0079         0.0000         2.8750         1.3750      -0.419200        54.3598       113.2138    -0.00370000         4.3913         4.3913        54.8857    -0.01420000         2.3083         2.3083         7.7177      2805.9695      5110.9604        81.9273
    3589.62960        -0.0071         0.0000         2.8984         1.3750      -0.421400        54.3655       114.1306     0.10770000         4.4228         4.4228        57.7561    -0.00400000         2.2910         2.2910         7.7274      2781.7639      5111.0688        81.8567
    3589.78200        -0.0940         0.0000         2.9173         1.3747      -0.416900        54.3459       116.8898     0.06890000         4.4870         4.4870        61.5885    -0.00930000         2.2417         2.2417         7.7758      2795.2837      5111.1802        81.8132
    3589.93440        -0.0075         0.0000         2.9521         1.3635      -0.415200        54.3644       116.8029    -0.01830000         4.2926         4.2926        65.4906     0.07860000         2.2690         2.2690         7.9401      2788.3679      5111.2881        81.7582
    3590.08680        -0.0073         0.0000         2.9432         1.3524      -0.412000        54.3724       117.3955    -0.01860000         4.3416         4.3416        68.8008     0.01360000         2.2517         2.2517         8.0172      2774.5076      5111.3960        81.6721
    3590.23920        -0.1259         0.0000         2.9647         1.3402      -0.411300        54.3841       117.9629     0.00550000         4.3065         4.3065        70.8008     0.03370000         2.1834         2.1834         8.0409      2780.8889      5111.5225        81.6253
    3590.39160         0.0709         0.0000         2.9868         1.3497      -0.410400        54.3962       118.6246     0.05550000         4.1060         4.1060        71.0427    -0.01080000         2.1517         2.1517         7.9715      2775.6836      5111.6216        81.5641
    3590.54400        -0.0115         0.0000         2.9757         1.3028      -0.400600        54.3967       118.0369     0.02100000         4.0216         4.0216        68.5125    -0.00990000         2.1226         2.1226         7.9360      2779.0967      5111.7168        81.4903
    3590.69640        -0.0107         0.0000         2.9738         1.3156      -0.403200        54.4042       117.6230     0.01680000         4.0421         4.0421        64.5786     0.00980000         2.1874         2.1874         8.1630      2780.5671      5111.8481        81.4549
    3590.84880        -0.0104         0.0000         2.9751         1.2972      -0.395900        54.3864       116.4446     0.00090000         4.1545         4.1545        61.0572    -0.01760000         2.1808         2.1808         8.2480      2781.5044      5111.9360        81.3988
    3591.00120        -0.0111         0.0000         2.9577         1.3022      -0.395700        54.3870       115.7867     0.03540000         4.1228         4.1228        58.1828    -0.01820000         2.2745         2.2745         8.1481      2773.1445      5112.0488        81.3400
    3591.15360        -0.0358         0.0000         2.9605         1.2799      -0.393900        54.3898       115.7833     0.05510000         4.1415         4.1415        55.7004     0.00120000         2.2736         2.2736         7.6982      2795.9023      5112.1558        81.2836
    3591.30600         0.0807         0.0000         2.9653         1.3025      -0.395900        54.3789       114.8921    -0.10210000         4.1641         4.1641        55.2622    -0.06070000         2.2491         2.2491         7.7104      2792.6821      5112.2598        81.2533
