~Version Information Block
VERS .                 2.00:  CWLS LOG ASCII STANDARD - VERSION 2.00
WRAP .                  YES:  Multiple lines per depth step
~Well Information Block
#MNEM.UNIT        Data Type   Information
#---------- ----------------  -----------
STRT .M          3450.03120:  START DEPTH
STOP .M          3948.83640:  STOP DEPTH
STEP .M             0.15240:  STEP
NULL .              -999.25:  NULL VALUE
COMP .              Statoil:  COMPANY
WELL .        NO_15/9-F-1_C:  WELL
FLD  .                Volve:  FIELD
LOC  .            North Sea:  LOCATION
CTRY .               Norway:  COUNTRY
STAT .                     :  STATE
CNTY .                     :  COUNTY
SRVC .         Schlumberger:  SERVICE COMPANY
DATE .          27-Nov-2014:  DATE
API  .                     :  API NUMBER
UWI  .           15/9-F-1 C:  UNIQUE WELL ID
LATI .     58° 26' 29.91" N:  LATITUDE
LONG .      1° 53' 14.71" E:  LONGITUDE
~Curve Information Block
#MNEM.UNIT         API CODE   Curve Description
#---------- ----------------  -----------------
DEPTH.M                    :  DEPTH (BOREHOLE)
BSAL .PPM                  :  Borehole Salinity
CCLC .V                    :  CCL
CIRF .                     :  RST Capture to Inelastic Ratio Far
CIRN .                     :  RST Capture to Inelastic Ratio Near
CVEL .M/SEC                 :  Cable Velocity
DFRB .DEG                  :  Calibrated Relative Bearing
DSIG .CU                   :  Sigma Difference
FBEF .UA                   :  RST Far Effective Beam Current
GR   .GAPI                 :  Gamma Ray
IRAT .                     :  RST Inelastic Ratio
PFC1 .IN                   :  PFCS CaliperX
PFC2 .IN                   :  PFCS CaliperY
RSCF .                     :  RST Far Detector Effective Unregulated
RSCN .                     :  RST Near Detector Effective
SFFA .CU                   :  RST Sigma Formation Far Apparent
SIBF .CU                   :  RST Sigma Borehole Fluid
SIGM .CU                   :  Formation Sigma (Neutron Capture Cross
TENS .LBF                  :  Cable Tension
TPHI .V/V                  :  Thermal Decay Porosity
~Parameter Information Block
#MNEM.UNIT            Value   Description
#---------- ----------------  -----------
APD  .M           54.900002:  Elevation of Depth Reference (LMF) above Permanent Datum
BHS  .                 CASE:  Borehole Status (Open or Cased Hole)
BS   .IN                8.5:  Bit Size
BSAL .PPM                 0:  Borehole Salinity
BSALOPT.              UNKNOWN:  Borehole Salinity Option
CSIZ .IN                  7:  Current Casing Size
CWEI .LB/F               29:  Casing Weight
EPD  .C3                  0:  Elevation of Permanent Datum above Mean Sea Level
LMF  .                   KB:  Logging Measured From (Name of Logging Elevation Reference)
MATR .                 SAND:  Rock Matrix for Neutron Porosity Corrections
PDAT .                  MSL:  Permanent Datum
RUN  .                Run 1:  RUN NUMBER
TAPE_NAME.     Statoil_Volve_15-9-F-1 C_PLT-RST_28Nov14_ConCu_R1L16Up_SigmaMain.las:  
TOOL_STRING.              UNKNOWN:  
WN   .           15/9-F-1 C:  WELL
PROJECT.     SLEIPNER_OST@st-vlinapp01:  
SET  .       RSTD_1114_SIG1:  
~Other Information Block
~Ascii Log Data
    3450.03120 
    28741.9004         0.0072         2.1590         0.8049      -0.001603 
      354.1610      -999.2500        79.3074        30.0696     0.33550000 
        6.2152         6.0186         9.1876         9.8802        21.8540 
       32.1483      -999.2500      3575.6350     0.24250001
    3450.18360 
    28741.9004         0.0072         2.1590         0.8049      -0.001603 
      354.1610      -999.2500        79.3074        30.0696     0.33550000 
        6.2152         6.0186         9.1876         9.8802        21.8540 
       32.1483      -999.2500      3575.6350     0.24250001
    3450.33600 
    28741.9004         0.0072         2.1590         0.8049      -0.001603 
      354.1610      -999.2500        79.3074        30.0696     0.33550000 
        6.2152         6.0186         9.1876         9.8802        21.8540 
       32.1483      -999.2500      3575.6350     0.24250001
    3450.48840 
    28741.9004         0.0072         2.1590         0.8049      -0.001603 
      354.1610      -999.2500        79.3074        30.0696     0.33550000 
        6.2152         6.0186         9.1876         9.8802        21.8540 
       32.1483      -999.2500      3575.6350     0.24250001
    3450.64080 
    28741.9004         0.0072         2.1590         0.8049      -0.001603 
      354.1610      -999.2500        79.3074        30.0696     0.33550000 
        6.2152         6.0186         9.1876         9.8802        21.8540 
       32.1483      -999.2500      3575.6350     0.24250001
    3450.79320 
    28741.9004         0.0072         2.1590         0.8049      -0.001603 
      354.1610      -999.2500        79.3074        30.0696     0.33550000 
        6.2152         6.0186         9.1876         9.8802        21.8540 
       32.1483      -999.2500      3575.6350     0.24250001
    3450.94560 
    28741.9004         0.0072         2.1590         0.8049      -0.001603 
      354.1610      -999.2500        79.3074        30.0696     0.33550000 
        6.2152         6.0186         9.1876         9.8802        21.8540 
       32.1483      -999.2500      3575.6350     0.24250001
    3451.09800 
    28741.9004         0.0072         2.1590         0.8049      -0.001603 
      354.1610      -999.2500        79.3074        30.0696     0.33550000 
        6.2152         6.0186         9.1876         9.8802        21.8540 
       32.1483      -999.2500      3575.6350     0.24250001
    3451.25040 
    28741.9004         0.0072         2.1590         0.8049      -0.001603 
      354.1610      -999.2500        79.3074        30.0696     0.33550000 
        6.2152         6.0186         9.1876         9.8802        21.8540 
       32.1483      -999.2500      3575.6350     0.24250001
    3451.40280 
    28741.9004         0.0072         2.1590         0.8049      -0.001603 
      354.1610      -999.2500        79.3074        30.0696     0.33550000 
        6.2152         6.0186         9.1876         9.8802        21.8540 
       32.1483      -999.2500      3575.6350     0.24250001
    3451.55520 
    28741.9004         0.0072         2.1590         0.8049      -0.001603 
      354.1610      -999.2500        79.3074        30.0696     0.33550000 
        6.2152         6.0186         9.1876         9.8802        21.8540 
       32.1483      -999.2500      3575.6350     0.24250001
    3451.70760 
    28741.9004         0.0072         2.1590         0.8049      -0.001603 
      354.1610      -999.2500        79.3074        30.0696     0.33550000 
        6.2152         6.0186         9.1876         9.8802        21.8540 
       32.1483      -999.2500      3575.6350     0.24250001
    3451.86000 
    28741.9004         0.0072         2.1590         0.8049      -0.001603 
      354.1610      -999.2500        79.3074        30.0696     0.33550000 
        6.2152         6.0186         9.1876         9.8802        21.8540 
       32.1483      -999.2500      3575.6350     0.24250001
    3452.01240 
    28741.9004         0.0072         2.1590         0.8049      -0.001603 
      354.1610      -999.2500        79.3074        30.0696     0.33550000 
        6.2152         6.0186         9.1876         9.8802        21.8540 
       32.1483      -999.2500      3575.6350     0.24250001
    3452.16480 
    28741.9004         0.0072         2.1590         0.8049      -0.001603 
      354.1610      -999.2500        79.3074        30.0696     0.33550000 
        6.2152         6.0186         9.1876         9.8802        21.8540 
       32.1483      -999.2500      3575.6350     0.24250001
    3452.31720 
    28741.9004         0.0072         2.1590         0.8049      -0.001603 
      354.1610      -999.2500        79.3074        30.0696     0.33550000 
        6.2152         6.0186         9.1876         9.8802        21.8540 
       32.1483      -999.2500      3575.6350     0.24250001
    3452.46960 
    28741.9004         0.0072         2.1590         0.8049      -0.001603 
      354.1610      -999.2500        79.3074        30.0696     0.33550000 
        6.2152         6.0186         9.1876         9.8802        21.8540 
       32.1483      -999.2500      3575.6350     0.24250001
    3452.62200 
    28741.9004         0.0072         2.1590         0.8049      -0.001603 
      354.1610      -999.2500        79.3074        30.0696     0.33550000 
        6.2152         6.0186         9.1876         9.8802        21.8540 
       32.1483      -999.2500      3575.6350     0.24250001
    3452.77440 
    28741.9004         0.0072         2.1590         0.8049      -0.001603 
      354.1610      -999.2500        79.3074        30.0696     0.33550000 
        6.2152         6.0186         9.1876         9.8802        21.8540 
       32.1483      -999.2500      3575.6350     0.24250001
    3452.92680 
    28741.9004         0.0072         2.1590         0.8049      -0.001603 
      354.1610      -999.2500        79.3074        30.0696     0.33550000 
        6.2152         6.0186         9.1876         9.8802        21.8540 
       32.1483      -999.2500      3575.6350     0.24250001
    3453.07920 
    28741.9004         0.0072         2.1590         0.8049      -0.001603 
      354.1610      -999.2500        79.3074        30.0696     0.33550000 
        6.2152         6.0186         9.1876         9.8802        21.8540 
       32.1483      -999.2500      3575.6350     0.24250001
    3453.23160 
    28741.9004         0.0072         2.1590         0.8049      -0.001603 
      354.1610      -999.2500        79.3074        30.0696     0.33550000 
        6.2152         6.0186         9.1876         9.8802        21.8540 
       32.1483      -999.2500      3575.6350     0.24250001
    3453.38400 
    28741.9004         0.0072         2.1590         0.8049      -0.001603 
      354.1610      -999.2500        79.3074        30.0696     0.33550000 
        6.2152         6.0186         9.1876         9.8802        21.8540 
       32.1483      -999.2500      3575.6350     0.24250001
    3453.53640 
    28741.9004         0.0072         2.1590         0.8049      -0.001603 
      354.1610      -999.2500        79.3074        30.0696     0.33550000 
        6.2152         6.0186         9.1876         9.8802        21.8540 
       32.1483      -999.2500      3575.6350     0.24250001
    3453.68880 
    28741.9004         0.0072         2.1590         0.8049      -0.001603 
      354.1610      -999.2500        79.3074        30.0696     0.33550000 
        6.2152         6.0186         9.1876         9.8802        21.8540 
       32.1483      -999.2500      3575.6350     0.24250001
    3453.84120 
    28741.9004         0.0072         2.1590         0.8049      -0.001603 
      354.1610      -999.2500        79.3074        30.0696     0.33550000 
        6.2152         6.0186         9.1876         9.8802        21.8540 
       32.1483      -999.2500      3575.6350     0.24250001
    3453.99360 
    28741.9004         0.0072         2.1590         0.8049      -0.001603 
      354.1610      -999.2500        79.3074        30.0696     0.33550000 
        6.2152         6.0186         9.1876         9.8802        21.8540 
       32.1483      -999.2500      3575.6350     0.24250001
