~Version Information Block
VERS .                 2.00:  CWLS LOG ASCII STANDARD - VERSION 2.00
WRAP .                   NO:  One line per depth step
~Well Information Block
#MNEM.UNIT        Data Type   Information
#---------- ----------------  -----------
STRT .M          3454.45080:  START DEPTH
STOP .M          3788.05440:  STOP DEPTH
STEP .M             0.15240:  STEP
NULL .              -999.25:  NULL VALUE
COMP .              Statoil:  COMPANY
WELL .        NO_15/9-F-1_C:  WELL
FLD  .                Volve:  FIELD
LOC  .            North Sea:  LOCATION
CTRY .               Norway:  COUNTRY
STAT .                     :  STATE
CNTY .                     :  COUNTY
SRVC .         Schlumberger:  SERVICE COMPANY
DATE .          27-Nov-2014:  DATE
API  .                     :  API NUMBER
UWI  .           15/9-F-1 C:  UNIQUE WELL ID
LATI .     58° 26' 29.91" N:  LATITUDE
LONG .      1° 53' 14.71" E:  LONGITUDE
~Curve Information Block
#MNEM.UNIT         API CODE   Curve Description
#---------- ----------------  -----------------
DEPTH.M                    :  DEPTH (BOREHOLE)
CRRA .                     :  Near/Far Count Rate Ratio
CVEL .M/SEC                 :  Cable Velocity
DFRB .DEG                  :  Calibrated Relative Bearing
FBEF .UA                   :  RST Far Effective Beam Current
FCOR .                     :  RST Far Carbon/Oxygen Ratio
FERD .                     :  RST Far IC Mode Capture Optimization
FIRD .                     :  RST Far Inelastic Optimization Resolution
GR   .GAPI                 :  Gamma Ray
NCOR .                     :  RST Near Carbon/Oxygen Ratio
NERD .                     :  RST Near IC Mode Capture Optimization
NIRD .                     :  RST Near Inelastic Optimization Resolution
PFC1 .IN                   :  PFCS CaliperX
PFC2 .IN                   :  PFCS CaliperY
TENS .LBF                  :  Cable Tension
~Parameter Information Block
#MNEM.UNIT            Value   Description
#---------- ----------------  -----------
APD  .M           54.900002:  Elevation of Depth Reference (LMF) above Permanent Datum
EPD  .C3                  0:  Elevation of Permanent Datum above Mean Sea Level
LMF  .                   KB:  Logging Measured From (Name of Logging Elevation Reference)
PDAT .                  MSL:  Permanent Datum
RUN  .                Run 1:  RUN NUMBER
TAPE_NAME.     Statoil_Volve_15-9-F-1 C_PLT-RST_28Nov14_ConCu_R1L17Up_IC1.las:  
TOOL_STRING.              UNKNOWN:  
WN   .           15/9-F-1 C:  WELL
PROJECT.     SLEIPNER_OST@st-vlinapp01:  
SET  .        RSTD_1114_IC1:  
~Other Information Block
# 
~A       DEPTH           CRRA           CVEL           DFRB           FBEF           FCOR           FERD           FIRD             GR           NCOR           NERD           NIRD           PFC1           PFC2           TENS 
# ...
    3673.90680         2.8589      -0.154810       358.3940       122.7252         0.4480         5.4782         5.4782        38.7739        -0.8054         7.0806         7.0806         6.2219         6.0510      4605.0000
    3674.05920         2.8752      -0.154990       359.8050       122.7252         0.4477         5.4782         5.4782        36.8860         0.2262         7.0427         7.0427         6.2219         6.0510      4538.1333
    3674.21160         2.8752      -0.155265       358.3940       124.1616         0.1497         5.4782         5.4782        38.6022         0.2262         7.0427         7.0427         6.2219         6.0510      4512.9282
    3674.36400         2.8816      -0.155768       359.8050       126.6474         0.2391         5.4782         5.4782        37.6828        -0.0998         7.0427         7.0427         6.2219         6.0510      4397.7334
    3674.51640         2.9277      -0.155850       359.8050       123.1958        -0.0829         5.4782         5.4782        38.8842         0.2024         7.0427         7.0427         6.2219         6.0510      4375.8667
    3674.66880         2.8364      -0.155782       358.3940       124.4471        -0.3662         5.4782         5.4782        36.4938         0.3348         7.0427         7.0427         6.2219         6.0510      4503.0000
    3674.82120         2.8404      -0.154452       358.3940       119.2336         0.4292         5.4782         5.4782        37.5235         0.1500         7.0427         7.0427         6.2240         6.0488      4487.5718
    3674.97360         2.7661      -0.154127       359.8050       119.2336         0.4292         5.4782         5.4782        35.9789         0.1979         7.0427         7.0427         6.2219         6.0510      4618.1333
    3675.12600         2.7661      -0.155153       359.8050       123.3328         0.0799         5.4782         5.4782        33.7724         0.1979         7.0427         7.0427         6.2219         6.0510      4538.7998
    3675.27840         2.8345      -0.155260       359.8050       127.7717         0.0201         5.4610         5.4610        31.1981         0.0862         7.0427         7.0427         6.2219         6.0510      4482.4668
    3675.43080         2.9306      -0.155002       359.8050       122.3924         0.0337         5.4610         5.4610        31.1613        -0.0461         7.0552         7.0552         6.2219         6.0510      4400.5000
    3675.58320         2.8220      -0.154992       359.8050       122.3967         0.3266         5.4610         5.4610        28.9915         0.2028         7.0552         7.0552         6.2219         6.0510      4397.3999
    3675.73560         2.8588      -0.155062       359.8050       122.3967         0.3266         5.4610         5.4610        28.6483         0.2014         7.0552         7.0552         6.2240         6.0510      4363.5332
    3675.88800         2.8588      -0.154645       359.8050       122.5080        -0.0027         5.4610         5.4610        27.1773         0.2014         7.0552         7.0552         6.2219         6.0510      4487.7998
    3676.04040         2.7821      -0.154563       359.8050       124.5403         0.1029         5.4610         5.4610        28.8199        -0.2180         7.0552         7.0552         6.2219         6.0510      4464.1431
    3676.19280         2.8558      -0.154692       359.8050       126.9215         0.2803         5.4610         5.4610        28.6483        -0.0034         7.0552         7.0552         6.2219         6.0510      4518.0664
    3676.34520         2.8960      -0.154555       359.8050       122.4718         0.5506         5.4610         5.4610        28.9302         0.0791         7.0552         7.0552         6.2219         6.0510      4471.1333
    3676.49760         2.8539      -0.154863       359.8050       122.4718         0.5506         5.4610         5.4610        31.3329        -0.1552         7.0552         7.0552         6.2219         6.0510      4370.7998
    3676.65000         2.8539      -0.155642       359.8050       121.0958         0.3819         5.4760         5.4760        36.3099        -0.1552         7.0552         7.0552         6.2219         6.0510      4471.6001
    3676.80240         2.7759      -0.155703       359.8050       123.2133         0.2755         5.4760         5.4760        36.2118         0.1720         7.0860         7.0860         6.2219         6.0510      4422.9287
    3676.95480         2.8460      -0.155063       359.8050       123.5895         0.0051         5.4760         5.4760        38.6268        -0.0952         7.0860         7.0860         6.2219         6.0510      4525.6001
    3677.10720         2.8834      -0.154715       359.8050       123.4732         1.1538         5.4760         5.4760        38.6268        -0.2327         7.0860         7.0860         6.2219         6.0726      4484.7334
    3677.25960         2.8508      -0.154980       359.8050       123.4732         1.1538         5.4760         5.4760        39.1784         0.0933         7.0860         7.0860         6.2219         6.0718      4466.9336
    3677.41200         2.8508      -0.154267       359.8050       122.6056         0.5877         5.4760         5.4760        33.6866         0.0933         7.0860         7.0860         6.2219         6.0510      4387.9287
    3677.56440         2.8442      -0.154417       359.8050       122.1384         0.5529         5.4760         5.4760        34.2014        -1.0411         7.0860         7.0860         6.2219         6.0553      4454.0000
    3677.71680         2.8092      -0.155077       359.8050       122.2862        -0.0970         5.4760         5.4760        32.6446         0.0352         7.0860         7.0860         6.2219         6.0510      4416.6001
    3677.86920         2.8524      -0.155552       359.8050       124.4890         0.0682         5.4995         5.4995        32.3626        -0.0498         7.0860         7.0860         6.2219         6.0510      4537.0000
    3678.02160         2.8926      -0.155473       358.3940       120.1629         0.3691         5.4995         5.4995        27.3489        -0.4387         7.0627         7.0627         6.2240         6.0510      4568.5718
    3678.17400         2.8279      -0.155437       358.3940       120.1629         0.3691         5.4995         5.4995        28.3786         0.0534         7.0627         7.0627         6.2261         6.0510      4559.2666
    3678.32640         2.8279      -0.155780       358.3940       120.9139        -0.2482         5.4995         5.4995        25.3875         0.0534         7.0627         7.0627         6.2219         6.0661      4603.6001
    3678.47880         2.8326      -0.155348       358.3940       121.3515         0.1423         5.4995         5.4995        24.1862        -0.1232         7.0627         7.0627         6.2240         6.0704      4464.1333
    3678.63120         2.7812      -0.155392       358.3940       124.0036         0.3636         5.4995         5.4995        22.0654        -0.0683         7.0627         7.0627         6.2219         6.0661      4423.2144
    3678.78360         2.8900      -0.155237       358.3940       124.5163         0.2578         5.4995         5.4995        25.9759         0.2487         7.0627         7.0627         6.2219         6.0769      4325.1333
    3678.93600         2.8996      -0.155185       358.3940       124.5163         0.2578         5.4995         5.4995        25.9759         0.1257         7.0627         7.0627         6.2219         6.0834      4421.2666
    3679.08840         2.8996      -0.154122       358.3940       123.6156        -0.3015         5.4995         5.4995        27.9373         0.1257         7.0627         7.0627         6.2239         6.0814      4506.2144
    3679.24080         2.8844      -0.153082       359.8050       125.8162         0.0629         5.5961         5.5961        28.3050         0.0153         7.0627         7.0627         6.2219         6.0718      4710.6670
