~Version Information Block
VERS .                 2.00:  CWLS LOG ASCII STANDARD - VERSION 2.00
WRAP .                   NO:  One line per depth step
~Well Information Block
#MNEM.UNIT        Data Type   Information
#---------- ----------------  -----------
STRT .M          3230.11800:  START DEPTH
STOP .M          3389.98560:  STOP DEPTH
STEP .M             0.15240:  STEP
NULL .              -999.25:  NULL VALUE
COMP .              Statoil:  COMPANY
WELL .          NO_15/9-F-4:  WELL
FLD  .                VOLVE:  FIELD
LOC  .            North Sea:  LOCATION
CTRY .                     :  COUNTRY
STAT .                     :  STATE
CNTY .                     :  COUNTY
SRVC .         Schlumberger:  SERVICE COMPANY
DATE .          13-Sep-2012:  DATE
API  .                     :  API NUMBER
UWI  .             15/9-F-4:  UNIQUE WELL ID
~Curve Information Block
#MNEM.UNIT         API CODE   Curve Description
#---------- ----------------  -----------------
DEPTH.M                    :  DEPTH (BOREHOLE)
CCLC .V                    :  CCL
CCLD .V                    :  CCL Discriminated Amplitude
CRRA .                     :  Near-Far Count Rate Ratio
CS   .F/MN                 :  Cable Speed
CVEL .M/MIN                 :  Cable Velocity
FBEF .UA                   :  RST Far Effective Beam Current
FCOR .                     :  RST Far Carbon/Oxygen Ratio
FERD .                     :  RST Far IC Mode Capture Optimization Resolution Degradation Factor
FIRD .                     :  RST Far Inelastic Optimization Resolution Degradation Factor
GR   .GAPI                 :  Gamma Ray
NCOR .                     :  RST Near Carbon/Oxygen Ratio
NERD .                     :  RST Near IC Mode Capture Optimization Resolution Degradation Factor
NIRD .                     :  RST Near Inelastic Optimization Resolution Degradation Factor
RB_PCMS.DEG                  :  Relative Bearing
TENS .LBF                  :  Cable Tension
WTEP .DEGC                 :  Well Temperature
WTPE .MS                   :  Well Temperature Period
~Parameter Information Block
#MNEM.UNIT            Value   Description
#---------- ----------------  -----------
APD  .M                  54:  Elevation of Depth Reference (LMF) above Permanent Datum
RUN  .                    1:  RUN NUMBER
PROJECT.     SLEIPNER_OST@st-vlinapp01:  
SET  .        RSTD_0912_IC3:  
~Other Information Block
# 
~A       DEPTH           CCLC           CCLD           CRRA             CS           CVEL           FBEF           FCOR           FERD           FIRD             GR           NCOR           NERD           NIRD        RB_PCMS           TENS           WTEP           WTPE 
    3230.11800        -0.0276         0.0000         3.0075         1.6745       -0.51040       117.4864         0.1278         6.1457         6.1457        78.7820       0.010400         2.7207         2.7207       356.8692      2308.4946        95.1142         4.0161
    3230.27040        -0.0148         0.0000         3.1328         1.6742       -0.51030       118.1455         0.0571         6.0376         6.0376        59.7315      -0.009000         2.7274         2.7274       357.0440      2302.4202        95.1137         4.0161
    3230.42280        -0.0330         0.0000         3.1675         1.6654       -0.50760       116.2849        -0.0682         6.0275         6.0275        52.4584       0.067700         2.7506         2.7506       357.2712      2311.4036        95.1167         4.0162
    3230.57520        -0.0363         0.0000         3.1149         1.6703       -0.50910       114.4339         0.0634         5.9649         5.9649        49.9386       0.111500         2.7308         2.7308       357.4465      2317.7632        95.1158         4.0162
    3230.72760         0.0959         0.0000         2.9992         1.6906       -0.51530       111.8174        -0.0319         5.7530         5.7530        49.7550      -0.026000         2.7315         2.7315       357.2977      2307.2397        95.1200         4.0162
    3230.88000        -0.0420         0.0000         2.9284         1.6864       -0.51400       111.7627        -0.0296         6.0112         6.0112        49.7722      -0.032400         2.7192         2.7192       357.0825      2305.1843        95.1249         4.0162
    3231.03240        -0.0482         0.0000         2.9108         1.6808       -0.51230       112.8499         0.0099         5.9998         5.9998        47.8808       0.010000         2.7093         2.7093       357.1375      2313.7351        95.1295         4.0163
    3231.18480        -0.0528         0.0000         2.9229         1.6693       -0.50880       113.5038        -0.0210         5.8377         5.8377        45.8631       0.065100         2.7476         2.7476       357.1941      2299.5706        95.1338         4.0163
    3231.33720        -0.0580        -0.0580         2.9789         1.6995       -0.51800       116.3941         0.1465         5.7957         5.7957        45.4512      -0.072900         2.7535         2.7535       357.0509      2326.5305        95.1381         4.0164
    3231.48960        -1.9558        -1.9558         3.1477         1.6932       -0.51610       117.9113        -0.0974         5.8167         5.8167        44.5157      -0.029200         2.7291         2.7291       356.7523      2300.2068        95.1404         4.0164
    3231.64200        -0.0146         0.0000         3.1403         1.6952       -0.51670       115.0757        -0.2356         5.6791         5.6791        43.7112       0.067500         2.7504         2.7504       356.7804      2322.5811        95.1439         4.0164
    3231.79440        -0.0088         0.0000         3.0030         1.6732       -0.51000       111.4851        -0.0314         5.7674         5.7674        44.7689      -0.060400         2.7433         2.7433       356.6474      2316.4646        95.1458         4.0164
    3231.94680        -0.0092         0.0000         2.8962         1.6814       -0.51250       112.5225         0.0653         5.7928         5.7928        45.1141      -0.007200         2.7561         2.7561       356.5169      2312.5037        95.1474         4.0164
    3232.09920        -0.0103         0.0000         2.9208         1.6627       -0.50680       112.1156        -0.0128         5.7421         5.7421        44.6375       0.014900         2.7206         2.7206       356.4714      2314.3755        95.1492         4.0164
    3232.25160        -0.0113         0.0000         2.9373         1.6585       -0.50550       111.7661         0.0733         5.7572         5.7572        44.2632      -0.051900         2.6626         2.6626       356.4663      2325.5940        95.1517         4.0165
    3232.40400        -0.0146         0.0000         2.9538         1.6588       -0.50560       111.8329        -0.1212         5.5458         5.5458        44.6382       0.008200         2.6533         2.6533       356.6245      2304.5366        95.1515         4.0165
    3232.55640         0.0519         0.0000         2.9337         1.6545       -0.50430       110.4815        -0.0121         5.5308         5.5308        44.0360       0.053100         2.6856         2.6856       356.7455      2318.3137        95.1547         4.0165
    3232.70880         0.1221         0.0000         2.8966         1.6332       -0.49780       110.7753         0.1166         5.3045         5.3045        44.0670      -0.048300         2.6660         2.6660       356.9904      2314.2319        95.1584         4.0165
    3232.86120        -0.0073         0.0000         2.8849         1.6253       -0.49540       111.8389         0.0588         5.1607         5.1607        44.2679       0.016600         2.6970         2.6970       357.0238      2310.5994        95.1622         4.0166
    3233.01360        -0.0058         0.0000         2.9243         1.5108       -0.46050       111.6528        -0.0453         5.0692         5.0692        44.3367      -0.022500         2.6917         2.6917       356.8832      2307.9001        95.1647         4.0166
    3233.16600         0.0571         0.0000         2.9103         3.3983       -0.83980       111.8888         0.0157         5.1053         5.1053        43.9706       0.033000         2.6737         2.6737       356.9467      2215.4817        95.1674         4.0166
    3233.31840        -0.0053         0.0000         2.9469         2.4281       -0.74010       112.7237         0.0760         5.0634         5.0634        43.7911      -0.025000         2.6542         2.6542       356.9814      2308.9106        95.1707         4.0166
    3233.47080        -0.0072         0.0000         3.0069         1.4455       -0.44060       113.2683         0.0671         4.9830         4.9830        43.4152       0.070100         2.6479         2.6479       356.9209      2311.4758        95.1723         4.0167
    3233.62320        -0.0031         0.0000         3.0570         1.4347       -0.43730       113.3585         0.0427         4.9839         4.9839        42.8754      -0.120900         2.6075         2.6075       356.8707      2309.3301        95.1748         4.0167
    3233.77560         0.0352         0.0000         3.0347         1.4278       -0.43520       111.8869         0.1579         5.0581         5.0581        43.4283       0.027600         2.6323         2.6323       356.9089      2311.2429        95.1776         4.0167
    3233.92800        -0.0065         0.0000         2.9430         1.4278       -0.43520       110.7609         0.1887         5.1990         5.1990        44.0507       0.077600         2.6783         2.6783       356.7609      2311.2986        95.1797         4.0167
    3234.08040        -0.0075         0.0000         2.9130         1.4249       -0.43430       111.4400        -0.0118         5.2552         5.2552        45.2085       0.015900         2.6814         2.6814       356.6051      2306.4414        95.1813         4.0167
    3234.23280        -0.0075         0.0000         2.9047         1.4262       -0.43470       112.6685        -0.1251         5.2135         5.2135        46.2554       0.090900         2.6979         2.6979       356.6821      2315.0540        95.1821         4.0167
    3234.38520         0.0372         0.0000         2.9391         1.4183       -0.43230       114.5902        -0.0727         5.2680         5.2680        46.4311       0.035300         2.6987         2.6987       356.7946      2313.5627        95.1832         4.0167
    3234.53760         0.0703         0.0000         3.0239         1.4173       -0.43200       115.2425        -0.0032         5.3745         5.3745        46.6451       0.038500         2.7525         2.7525       356.7906      2311.1445        95.1824         4.0167
