~Version Information Block
VERS .                 2.00:  CWLS LOG ASCII STANDARD - VERSION 2.00
WRAP .                   NO:  One line per depth step
~Well Information Block
#MNEM.UNIT        Data Type   Information
#---------- ----------------  -----------
STRT .M          3445.30680:  START DEPTH
STOP .M          3639.15960:  STOP DEPTH
STEP .M             0.15240:  STEP
NULL .              -999.25:  NULL VALUE
COMP .              Statoil:  COMPANY
WELL .          NO_15/9-F-5:  WELL
FLD  .                VOLVE:  FIELD
LOC  .            North Sea:  LOCATION
CTRY .                     :  COUNTRY
STAT .                     :  STATE
CNTY .                     :  COUNTY
SRVC .         Schlumberger:  SERVICE COMPANY
DATE .          16-Sep-2012:  DATE
API  .                     :  API NUMBER
UWI  .             15/9-F-5:  UNIQUE WELL ID
~Curve Information Block
#MNEM.UNIT         API CODE   Curve Description
#---------- ----------------  -----------------
DEPTH.M                    :  DEPTH (BOREHOLE)
CCLC .V                    :  CCL
CRRA .                     :  Near-Far Count Rate Ratio
CVEL .M/MIN                 :  Cable Velocity
FBEF .UA                   :  RST Far Effective Beam Current
FCOR .                     :  RST Far Carbon/Oxygen Ratio
FERD .                     :  RST Far IC Mode Capture Optimization Resolution Degradation Factor
FIRD .                     :  RST Far Inelastic Optimization Resolution Degradation Factor
GR   .GAPI                 :  Gamma Ray
NCOR .                     :  RST Near Carbon/Oxygen Ratio
NERD .                     :  RST Near IC Mode Capture Optimization Resolution Degradation Factor
NIRD .                     :  RST Near Inelastic Optimization Resolution Degradation Factor
RB_PCMS.DEG                  :  Relative Bearing
TENS .LBF                  :  Cable Tension
~Parameter Information Block
#MNEM.UNIT            Value   Description
#---------- ----------------  -----------
APD  .M           54.900002:  Elevation of Depth Reference (LMF) above Permanent Datum
RUN  .                Run 1:  RUN NUMBER
PROJECT.     SLEIPNER_OST@st-vlinapp01:  
SET  .        RSTD_0912_IC3:  
~Other Information Block
# 
~A       DEPTH           CCLC           CRRA           CVEL           FBEF           FCOR           FERD           FIRD             GR           NCOR           NERD           NIRD        RB_PCMS           TENS 
# ...
    3469.08120        -0.0032         3.2585       -0.38230       124.4589     0.11270000         5.1558         5.1558        74.4773       0.048800         2.8310         2.8310         8.2098      2830.6675
    3469.23360         0.0194         3.2509       -0.37680       124.4471     0.15189999         5.4176         5.4176        73.2514       0.075900         2.8599         2.8599         8.0957      2829.3672
    3469.38600        -0.0060         3.2321       -0.38590       124.2088    -0.11010000         5.5932         5.5932        71.5266       0.059400         2.7794         2.7794         8.1136      2828.2283
    3469.53840        -0.0132         3.2396       -0.38050       123.2744     0.14010000         5.4057         5.4057        68.9107       0.050300         2.7926         2.7926         8.1321      2833.1638
    3469.69080        -0.0049         3.2270       -0.38540       121.0403     0.19320001         5.6055         5.6055        66.3862       0.038400         2.8074         2.8074         8.0259      2833.7668
    3469.84320        -0.0063         3.1840       -0.38140       122.4857     0.10540000         5.3783         5.3783        64.0291       0.031100         2.8074         2.8074         7.9078      2843.4624
    3469.99560        -0.0046         3.2014       -0.38350       124.4306     0.02030000         5.6910         5.6910        62.6244       0.023800         2.7749         2.7749         8.0213      2837.4651
    3470.14800        -0.0108         3.2580       -0.38200       125.8204     0.12060000         5.8152         5.8152        61.8533      -0.019600         2.7918         2.7918         8.0397      2837.4580
    3470.30040         0.0699         3.2907       -0.38510       122.7685    -0.00630000         5.4569         5.4569        61.2261       0.049700         2.7566         2.7566         8.0777      2839.9187
    3470.45280        -0.0217         3.2281       -0.38200       119.8876     0.03580000         5.3647         5.3647        59.8404       0.011000         2.7569         2.7569         8.1505      2828.8608
    3470.60520        -0.0811         3.1660       -0.38330       118.1369     0.02680000         5.4581         5.4581        56.9947       0.030700         2.7775         2.7775         8.2220      2825.6274
    3470.75760         0.0116         3.1274       -0.37740       116.5466    -0.12250000         5.6640         5.6640        54.3577       0.015300         2.8212         2.8212         8.2175      2820.9753
    3470.91000        -0.0027         3.0904       -0.38240       115.5731    -0.06350000         5.5629         5.5629        51.8828       0.040900         2.8195         2.8195         8.2237      2820.5696
    3471.06240        -0.0009         3.0816       -0.38710       114.5730     0.03930000         5.6181         5.6181        49.5730       0.037100         2.8227         2.8227         8.2140      2828.4548
    3471.21480        -0.0026         3.0464       -0.38960       113.2412     0.16460000         5.7566         5.7566        47.6968       0.032800         2.7936         2.7936         8.0877      2839.8979
    3471.36720        -0.0037         3.0238       -0.39100       111.0965     0.21020000         5.8945         5.8945        46.1796      -0.051700         2.8397         2.8397         8.0519      2830.7144
    3471.51960        -0.0183         2.9928       -0.38870       108.4526     0.02480000         5.8778         5.8778        44.1501       0.054100         2.8022         2.8022         8.0453      2836.4106
    3471.67200         0.0129         2.9409       -0.38450       105.7491    -0.10530000         5.8601         5.8601        41.3953       0.047700         2.8035         2.8035         8.1994      2828.2571
    3471.82440         0.0059         2.8774       -0.37350       104.0098     0.00500000         6.0853         6.0853        38.8312       0.017200         2.8296         2.8296         8.5919      2832.6941
    3471.97680         0.1129         2.8440       -0.37620       101.7374     0.12350000         5.8024         5.8024        36.7820       0.021600         2.7910         2.7910         8.5501      2840.7527
    3472.12920        -0.0055         2.8013       -0.38070       100.7997     0.21570000         5.7928         5.7928        35.0201      -0.115100         2.8057         2.8057         8.4321      2830.1890
    3472.28160         0.0616         2.7631       -0.37510       101.6643    -0.01780000         5.9495         5.9495        34.2171       0.005900         2.7826         2.7826         8.4424      2831.0791
    3472.43400        -0.0043         2.7798       -0.38370       101.3885    -0.06110000         5.9229         5.9229        34.2776       0.033900         2.8232         2.8232         8.4768      2827.0618
    3472.58640         0.0151         2.7424       -0.37550       102.0529     0.05610000         5.7316         5.7316        33.7494       0.073400         2.7743         2.7743         8.5082      2828.3188
    3472.73880        -0.0046         2.7332       -0.38220       101.7862     0.10200000         5.8429         5.8429        33.4553       0.027400         2.7924         2.7924         8.4565      2829.7605
    3472.89120         0.0852         2.7200       -0.38210       102.4246     0.05510000         5.6978         5.6978        32.6152       0.038200         2.7671         2.7671         8.4968      2828.6787
    3473.04360        -0.0068         2.7270       -0.38680       102.5921    -0.05000000         5.8458         5.8458        31.5676      -0.019300         2.7441         2.7441         8.4839      2833.2339
    3473.19600        -0.0455         2.7428       -0.37510       102.8610    -0.03780000         5.7745         5.7745        30.1563       0.005400         2.7397         2.7397         8.6084      2823.5012
    3473.34840        -0.0564         2.7259       -0.38540       103.3345     0.07140000         5.7088         5.7088        29.5853       0.053900         2.7455         2.7455         8.6823      2828.9805
    3473.50080         0.3088         2.7367       -0.38200       104.2931     0.11680000         5.9057         5.9057        29.2320      -0.021100         2.7395         2.7395         8.6088      2823.0085
    3473.65320        -0.0004         2.7581       -0.38740       103.1955     0.02560000         5.7749         5.7749        29.7967       0.081600         2.7571         2.7571         8.7387      2833.7351
    3473.80560        -0.0010         2.7320       -0.38140       104.1713     0.17399999         5.8730         5.8730        30.9633       0.064400         2.7376         2.7376         8.8614      2838.6350
    3473.95800        -0.0044         2.7348       -0.38920       105.7573     0.07260000         5.9613         5.9613        33.0892      -0.010900         2.7440         2.7440         8.7225      2820.8806
    3474.11040        -0.0036         2.7660       -0.38950       106.2828     0.13390000         5.8523         5.8523        34.7245       0.092900         2.7347         2.7347         8.7124      2819.1191
    3474.26280        -0.0027         2.7878       -0.38950       106.6986     0.15090001         5.8704         5.8704        36.0984      -0.048500         2.7058         2.7058         8.6789      2814.0938
    3474.41520        -0.0080         2.7960       -0.38840       106.4922    -0.01880000         5.6092         5.6092        37.3890       0.078700         2.6896         2.6896         8.6663      2840.4431
    3474.56760        -0.0052         2.7912       -0.38760       106.9785     0.08870000         5.5352         5.5352        37.9807       0.070700         2.6631         2.6631         8.4892      2830.1494
    3474.72000        -0.0013         2.8112       -0.38430       106.6513    -0.02100000         5.4616         5.4616        37.8592       0.009000         2.6577         2.6577         8.3360      2818.3035
    3474.87240        -0.0900         2.7879       -0.37940       106.8967     0.07480000         5.3843         5.3843        38.8097      -0.062900         2.6344         2.6344         8.3383      2837.8589
