~Version Information Block
VERS .                 2.00:  CWLS LOG ASCII STANDARD - VERSION 2.00
WRAP .                   NO:  One line per depth step
~Well Information Block
#MNEM.UNIT        Data Type   Information
#---------- ----------------  -----------
STRT .M          3451.70760:  START DEPTH
STOP .M          3790.03560:  STOP DEPTH
STEP .M             0.15240:  STEP
NULL .              -999.25:  NULL VALUE
COMP .              Statoil:  COMPANY
WELL .        NO_15/9-F-1_C:  WELL
FLD  .                Volve:  FIELD
LOC  .            North Sea:  LOCATION
CTRY .               Norway:  COUNTRY
STAT .                     :  STATE
CNTY .                     :  COUNTY
SRVC .         Schlumberger:  SERVICE COMPANY
DATE .          27-Nov-2014:  DATE
API  .                     :  API NUMBER
UWI  .           15/9-F-1 C:  UNIQUE WELL ID
LATI .     58° 26' 29.91" N:  LATITUDE
LONG .      1° 53' 14.71" E:  LONGITUDE
~Curve Information Block
#MNEM.UNIT         API CODE   Curve Description
#---------- ----------------  -----------------
DEPTH.M                    :  DEPTH (BOREHOLE)
CVEL .M/SEC                 :  Cable Velocity
DFRB .DEG                  :  Calibrated Relative Bearing
FBEF .UA                   :  RST Far Effective Beam Current
FCOR .                     :  RST Far Carbon/Oxygen Ratio
FERD .                     :  RST Far IC Mode Capture Optimization
FIRD .                     :  RST Far Inelastic Optimization Resolution
GR   .GAPI                 :  Gamma Ray
NCOR .                     :  RST Near Carbon/Oxygen Ratio
NERD .                     :  RST Near IC Mode Capture Optimization
NIRD .                     :  RST Near Inelastic Optimization Resolution
PFC1 .IN                   :  PFCS CaliperX
PFC2 .IN                   :  PFCS CaliperY
TENS .LBF                  :  Cable Tension
~Parameter Information Block
#MNEM.UNIT            Value   Description
#---------- ----------------  -----------
APD  .M           54.900002:  Elevation of Depth Reference (LMF) above Permanent Datum
EPD  .C3                  0:  Elevation of Permanent Datum above Mean Sea Level
LMF  .                   KB:  Logging Measured From (Name of Logging Elevation Reference)
PDAT .                  MSL:  Permanent Datum
RUN  .                Run 1:  RUN NUMBER
TAPE_NAME.     Statoil_Volve_15-9-F-1 C_PLT-RST_28Nov14_ConCu_R1L18Up_IC2.las:  
TOOL_STRING.              UNKNOWN:  
WN   .           15/9-F-1 C:  WELL
PROJECT.     SLEIPNER_OST@st-vlinapp01:  
SET  .        RSTD_1114_IC2:  
~Other Information Block
# 
~A       DEPTH           CVEL           DFRB           FBEF           FCOR           FERD           FIRD             GR           NCOR           NERD           NIRD           PFC1           PFC2           TENS 
# ...
    3475.48200     -0.0086700       358.3940       109.5206         0.2303         5.4573         5.4573        50.4582         0.6668         6.6809         6.6809         6.2454         6.0458      4107.8516
    3475.63440     -0.0086700       358.3940       109.9064         0.1281         5.5808         5.5808        53.1043         0.6880         6.7186         6.7186         6.2454         6.0458      4107.8516
    3475.78680     -0.0086700       358.3940       109.7786        -0.0751         5.5561         5.5561        55.1267         0.6808         6.7406         6.7406         6.2427         6.0467      4107.8516
    3475.93920     -0.0086700       358.3940       110.7265         0.2529         5.5067         5.5067        53.9895         0.6538         6.7623         6.7623         6.2423         6.0460      4107.8516
    3476.09160     -0.0086700       358.3940       105.3674         0.2056         5.4800         5.4800        49.7016         0.6992         6.7624         6.7624         6.2343         6.0494      4107.8516
    3476.24400     -0.0086700       358.3940       104.9957         0.3479         5.4946         5.4946        47.3148         0.6359         6.6862         6.6862         6.2288         6.0510      4107.8516
    3476.39640     -0.0088767       358.3940       105.9376         0.2540         5.4758         5.4758        44.7503         0.6506         6.6580         6.6580         6.2295         6.0509      4064.6243
    3476.54880     -0.0091783       358.3940       107.7677         0.1821         5.4968         5.4968        41.7186         0.9149         6.6936         6.6936         6.2258         6.0510      3969.9319
    3476.70120     -0.0085467       358.3940       108.3328         0.3392         5.6362         5.6362        39.7422         1.1465         6.6543         6.6543         6.2231         6.0509      4213.4927
    3476.85360     -0.0084467       356.9830       108.1432         0.2677         5.7158         5.7158        40.9030         0.7922         6.6874         6.6874         6.1401         5.9573      4259.6973
    3477.00600     -0.0086367       356.9830       108.0872         0.3158         5.7680         5.7680        43.5603         1.2382         6.6590         6.6590         6.0989         5.9147      4176.8672
    3477.15840     -0.0086117       356.9830       109.3496         0.1771         5.7023         5.7023        48.9798         0.6746         6.6985         6.6985         6.2049         6.0279      4130.5620
    3477.31080     -0.0086533       356.9830       108.8558         0.2007         5.7853         5.7853        53.2462         0.7601         6.6986         6.6986         6.2219         6.0479      4080.0945
    3477.46320     -0.0084667       356.9830       108.3405         0.4463         5.9234         5.9234        55.1831         1.0826         6.7134         6.7134         6.2219         6.0479      4209.6943
    3477.61560     -0.0085183       355.5720       106.2273         0.2027         6.0032         6.0032        54.7523         0.9124         6.7635         6.7635         6.2219         6.0466      4167.5312
    3477.76800     -0.0081683       355.5720       105.4876         0.1722         5.8298         5.8298        54.5503         0.7276         6.7811         6.7811         6.2219         6.0446      4311.5410
    3477.92040     -0.0082617       355.5720       104.6654        -0.1020         5.6668         5.6668        50.5446         0.5959         6.7815         6.7815         6.2219         6.0434      4261.8770
    3478.07280     -0.0084533       355.5720       106.2296         0.1716         5.6374         5.6374        47.3089         0.7339         6.7640         6.7640         6.2219         6.0463      4226.2095
    3478.22520     -0.0086283       355.5720       106.4476         0.1438         5.6786         5.6786        46.5472         0.6487         6.7017         6.7017         6.2219         6.0465      4198.8188
    3478.37760     -0.0084400       356.9830       106.0791         0.1403         5.4929         5.4929        47.3718         0.7713         6.7643         6.7643         6.2219         6.0473      4263.8740
    3478.53000     -0.0087133       356.9830       107.2656         0.2038         5.4187         5.4187        47.7721         0.7672         6.7737         6.7737         6.2219         6.0473      4163.7197
    3478.68240     -0.0083533       358.3940       107.9460        -0.0253         5.6354         5.6354        50.2454         0.9882         6.8020         6.8020         6.2219         6.0483      4268.9600
    3478.83480     -0.0084183       358.3940       110.7866         0.1838         5.5165         5.5165        53.7937         0.7681         6.7241         6.7241         6.2219         6.0460      4226.6313
    3478.98720     -0.0085150       358.3940       107.3958         0.0645         5.5448         5.5448        57.0643         0.8562         6.7484         6.7484         6.2219         6.0453      4152.9146
    3479.13960     -0.0088533       358.3940       106.2779         0.1910         5.5088         5.5088        59.2801         0.6721         6.7564         6.7564         6.2219         6.0456      4078.1228
    3479.29200     -0.0087500       358.3940       106.4520         0.0463         5.4285         5.4285        60.6989         0.6954         6.7127         6.7127         6.2219         6.0456      4016.4924
    3479.44440     -0.0085883       358.3940       106.3038         0.1718         5.4151         5.4151        59.8801         0.6086         6.7015         6.7015         6.2219         6.0451      4197.8247
    3479.59680     -0.0083167       358.3940       105.7545         0.2433         5.3782         5.3782        56.9346         0.6475         6.7135         6.7135         6.2219         6.0463      4278.8906
    3479.74920     -0.0083917       358.3940       106.4937         0.1813         5.4059         5.4059        54.4413         0.8606         6.7318         6.7318         6.2219         6.0471      4248.3125
    3479.90160     -0.0086017       358.3940       105.3443        -0.1582         5.4511         5.4511        56.8138         0.7980         6.7255         6.7255         6.2219         6.0402      4164.9663
    3480.05400     -0.0085717       358.3940       105.6720         0.2130         5.2748         5.2748        59.6815         0.8661         6.7295         6.7295         6.2219         6.0398      4099.9888
    3480.20640     -0.0088967       358.3940       106.1149         0.2914         5.2634         5.2634        63.5848         0.8344         6.7411         6.7411         6.2219         6.0379      4034.4419
    3480.35880     -0.0090983       358.3940       104.9705         0.2788         5.2877         5.2877        66.0086         0.6744         6.7667         6.7667         6.2212         6.0230      3897.3914
    3480.51120     -0.0083833       358.3940       104.2606         0.2809         5.3403         5.3403        64.0730         0.7525         6.7280         6.7280         6.2219         6.0187      4384.9146
    3480.66360     -0.0082717       358.3940       104.3525         0.2872         5.3387         5.3387        58.3692         0.9405         6.7094         6.7094         6.2219         6.0189      4313.1123
    3480.81600     -0.0085117       358.3940       105.1022         0.2061         5.4014         5.4014        52.0641         0.7731         6.7359         6.7359         6.2219         6.0187      4190.0928
    3480.96840     -0.0083633       358.3940       106.6515         0.2070         5.3681         5.3681        46.6592         0.7840         6.7635         6.7635         6.2205         6.0186      4322.9341
    3481.12080     -0.0083750       358.3940       106.0238         0.1155         5.2595         5.2595        43.9841         0.8013         6.7299         6.7299         6.2217         6.0185      4215.5532
    3481.27320     -0.0085700       358.3940       106.7425         0.3131         5.0903         5.0903        44.9279         0.7141         6.7319         6.7319         6.2219         6.0185      4170.4854
