~Version Information Block
VERS .                 2.00:  CWLS LOG ASCII STANDARD - VERSION 2.00
WRAP .                   NO:  One line per depth step
~Well Information Block
#MNEM.UNIT        Data Type   Information
#---------- ----------------  -----------
STRT .M          3201.31440:  START DEPTH
STOP .M          3410.40720:  STOP DEPTH
STEP .M             0.15240:  STEP
NULL .              -999.25:  NULL VALUE
COMP .              Statoil:  COMPANY
WELL .          NO_15/9-F-4:  WELL
FLD  .                VOLVE:  FIELD
LOC  .            North Sea:  LOCATION
CTRY .                     :  COUNTRY
STAT .                     :  STATE
CNTY .                     :  COUNTY
SRVC .         Schlumberger:  SERVICE COMPANY
DATE .          13-Sep-2012:  DATE
API  .                     :  API NUMBER
UWI  .             15/9-F-4:  UNIQUE WELL ID
~Curve Information Block
#MNEM.UNIT         API CODE   Curve Description
#---------- ----------------  -----------------
DEPTH.M                    :  DEPTH (BOREHOLE)
CCLC .V                    :  CCL
CCLD .V                    :  CCL Discriminated Amplitude
CRRA .                     :  Near-Far Count Rate Ratio
CVEL .M/MIN                 :  Cable Velocity
DEVI .DEG                  :  Hole Deviation
FBEF .UA                   :  RST Far Effective Beam Current
FCOR .                     :  RST Far Carbon/Oxygen Ratio
FERD .                     :  RST Far IC Mode Capture Optimization Resolution Degradation Factor
FIRD .                     :  RST Far Inelastic Optimization Resolution Degradation Factor
GR   .GAPI                 :  Gamma Ray
NCOR .                     :  RST Near Carbon/Oxygen Ratio
NERD .                     :  RST Near IC Mode Capture Optimization Resolution Degradation Factor
NIRD .                     :  RST Near Inelastic Optimization Resolution Degradation Factor
RB_PCMS.DEG                  :  Relative Bearing
TENS .LBF                  :  Cable Tension
WPRE .PSI                  :  Well Pressure
WTEP .DEGC                 :  Well Temperature
WTPE .MS                   :  Well Temperature Period
~Parameter Information Block
#MNEM.UNIT            Value   Description
#---------- ----------------  -----------
APD  .M                  54:  Elevation of Depth Reference (LMF) above Permanent Datum
RUN  .                    1:  RUN NUMBER
PROJECT.     SLEIPNER_OST@st-vlinapp01:  
SET  .        RSTD_0912_IC2:  
~Other Information Block
# 
~A       DEPTH           CCLC           CCLD           CRRA           CVEL           DEVI           FBEF           FCOR           FERD           FIRD             GR           NCOR           NERD           NIRD        RB_PCMS           TENS           WPRE           WTEP           WTPE 
# ...
    3280.86720       -0.01210        0.00000         2.8696       -0.37040        53.0562       112.3962         0.1031         5.3778         5.3778        32.2990     0.06030000         2.8967         2.8967       357.3705      2297.8672      4931.7222        95.8523         4.0226
    3281.01960       -0.01100        0.00000         2.8812       -0.37190        53.0723       112.1533        -0.1408         5.4561         5.4561        32.0635     0.01120000         2.8893         2.8893       357.4021      2306.0408      4931.8628        95.8590         4.0227
    3281.17200       -0.01160        0.00000         2.8699       -0.37350        53.0882       112.2932        -0.0110         5.4536         5.4536        32.1799    -0.06460000         2.8624         2.8624       357.4894      2297.8833      4931.9917        95.8639         4.0227
    3281.32440       -0.01140        0.00000         2.8638       -0.36760        53.0926       112.3912        -0.1031         5.5218         5.5218        32.3500     0.02380000         2.8536         2.8536       357.2909      2301.1990      4932.1328        95.8660         4.0228
    3281.47680        0.05230        0.00000         2.8842       -0.37130        53.1053       111.8628        -0.1325         5.5885         5.5885        32.2563    -0.00730000         2.8396         2.8396       357.1866      2312.0000      4932.2407        95.8673         4.0228
    3281.62920       -0.01120        0.00000         2.8638       -0.36680        53.0918       111.7866         0.0059         5.5713         5.5713        32.2757     0.01760000         2.8450         2.8450       357.0922      2303.8875      4932.4072        95.8708         4.0228
    3281.78160       -0.01050        0.00000         2.8583       -0.37020        53.1148       111.4148         0.0987         5.4892         5.4892        32.6392     0.01970000         2.8761         2.8761       357.0757      2304.1753      4932.5098        95.8734         4.0228
    3281.93400       -0.00990        0.00000         2.8624       -0.37410        53.1230       112.0685         0.0506         5.4540         5.4540        32.4910     0.00000000         2.8361         2.8361       357.1774      2305.0791      4932.6611        95.8769         4.0229
    3282.08640       -0.01250        0.00000         2.8782       -0.36850        53.1340       111.3646         0.0103         5.3487         5.3487        33.0456    -0.01020000         2.8278         2.8278       357.2302      2295.1475      4932.7705        95.8790         4.0229
    3282.23880       -0.01110        0.00000         2.8565       -0.37390        53.1514       111.3979         0.0160         5.4189         5.4189        32.9872     0.09510000         2.7833         2.7833       357.1088      2310.0574      4932.9336        95.8843         4.0229
    3282.39120       -0.01300        0.00000         2.8544       -0.37320        53.1612       111.0666        -0.0675         5.4472         5.4472        32.7566     0.01590000         2.7697         2.7697       357.2469      2302.3806      4933.0781        95.8854         4.0229
    3282.54360       -0.03040        0.00000         2.8418       -0.37450        53.1739       111.4048        -0.0686         5.4772         5.4772        32.8863     0.00180000         2.7501         2.7501       357.4324      2305.0327      4933.1846        95.8896         4.0230
    3282.69600       -0.01150        0.00000         2.8523       -0.37180        53.1898       111.3357        -0.1094         5.5603         5.5603        33.4903    -0.02150000         2.7513         2.7513       357.4257      2312.2039      4933.3018        95.8944         4.0230
    3282.84840       -0.01080        0.00000         2.8539       -0.36910        53.1985       111.4804         0.0281         5.4438         5.4438        32.8556     0.03400000         2.7180         2.7180       357.2354      2302.0403      4933.4331        95.8988         4.0231
    3283.00080       -0.01010        0.00000         2.8614       -0.37050        53.2022       110.9276         0.0011         5.4650         5.4650        33.4652    -0.06280000         2.7520         2.7520       357.1166      2321.2756      4933.5625        95.9004         4.0231
    3283.15320       -0.00970        0.00000         2.8729       -0.36540        53.2019       109.8831        -0.0612         5.4159         5.4159        34.6755     0.00710000         2.7438         2.7438       357.1477      2305.1787      4933.6943        95.9032         4.0231
    3283.30560       -0.00790        0.00000         2.8567       -0.37250        53.2121       109.7112        -0.0123         5.6234         5.6234        34.7003    -0.02460000         2.7951         2.7951       357.5194      2303.6965      4933.8423        95.9132         4.0232
    3283.45800       -0.01090        0.00000         2.8282       -0.36780        53.2295       110.0330         0.0029         5.7855         5.7855        34.5717     0.02120000         2.7895         2.7895       357.4074      2313.3818      4933.9658        95.9200         4.0232
    3283.61040       -0.01040        0.00000         2.8313       -0.37360        53.2393       111.0431        -0.0621         5.8119         5.8119        34.6941     0.07770000         2.7516         2.7516       357.4088      2308.5586      4934.0889        95.9232         4.0233
    3283.76280       -0.12220        0.00000         2.8450       -0.36930        53.2637       111.3030        -0.0678         5.7648         5.7648        34.2425    -0.00050000         2.7452         2.7452       357.5286      2308.1133      4934.2275        95.9256         4.0233
    3283.91520        0.10350        0.00000         2.8417       -0.36360        53.2849       110.9920         0.0122         5.6950         5.6950        34.1081     0.03960000         2.7829         2.7829       357.3414      2315.1455      4934.3706        95.9347         4.0234
    3284.06760       -0.01280        0.00000         2.8452       -0.36520        53.3004       111.5746         0.0198         5.7071         5.7071        34.8430     0.00540000         2.7251         2.7251       357.2032      2306.5334      4934.4805        95.9362         4.0234
    3284.22000       -0.01350        0.00000         2.8461       -0.36280        53.3122       112.0761        -0.0745         5.6450         5.6450        35.2794    -0.02110000         2.7691         2.7691       357.1341      2295.6968      4934.6157        95.9374         4.0234
    3284.37240       -0.01010        0.00000         2.8621       -0.37610        53.3148       112.2473        -0.0134         5.6417         5.6417        35.6317    -0.00330000         2.7069         2.7069       357.2583      2322.1318      4934.7471        95.9382         4.0234
    3284.52480       -0.01110        0.00000         2.8701       -0.36330        53.3245       112.4983        -0.0429         5.5490         5.5490        35.5576     0.02220000         2.6688         2.6688       357.3621      2312.8328      4934.8672        95.9503         4.0235
    3284.67720       -0.01050        0.00000         2.8796       -0.36320        53.3399       112.3099         0.0634         5.5411         5.5411        35.7811    -0.02420000         2.7489         2.7489       357.4922      2309.3545      4935.0088        95.9544         4.0235
    3284.82960       -0.01070        0.00000         2.8811       -0.36810        53.3445       111.9419         0.0510         5.4522         5.4522        35.8040     0.00560000         2.7465         2.7465       357.6967      2297.4719      4935.1353        95.9620         4.0236
    3284.98200        0.07020        0.00000         2.8610       -0.36370        53.3874       112.5917        -0.2029         5.6119         5.6119        35.8198    -0.07370000         2.7724         2.7724       357.5127      2309.0374      4935.2622        95.9683         4.0237
    3285.13440       -0.01040        0.00000         2.8757       -0.36830        53.3931       112.9613         0.0003         5.5636         5.5636        35.8225    -0.01980000         2.6620         2.6620       357.4535      2310.2620      4935.3848        95.9754         4.0237
