~Version Information Block
VERS .                 2.00:  CWLS LOG ASCII STANDARD - VERSION 2.00
WRAP .                   NO:  One line per depth step
~Well Information Block
#MNEM.UNIT        Data Type   Information
#---------- ----------------  -----------
STRT .M          3445.30680:  START DEPTH
STOP .M          3635.80680:  STOP DEPTH
STEP .M             0.15240:  STEP
NULL .              -999.25:  NULL VALUE
COMP .              Statoil:  COMPANY
WELL .          NO_15/9-F-5:  WELL
FLD  .                VOLVE:  FIELD
LOC  .            North Sea:  LOCATION
CTRY .                     :  COUNTRY
STAT .                     :  STATE
CNTY .                     :  COUNTY
SRVC .         Schlumberger:  SERVICE COMPANY
DATE .          16-Sep-2012:  DATE
API  .                     :  API NUMBER
UWI  .             15/9-F-5:  UNIQUE WELL ID
~Curve Information Block
#MNEM.UNIT         API CODE   Curve Description
#---------- ----------------  -----------------
DEPTH.M                    :  DEPTH (BOREHOLE)
CCLC .V                    :  CCL
CCLD .V                    :  CCL Discriminated Amplitude
CRRA .                     :  Near-Far Count Rate Ratio
CS   .F/MN                 :  Cable Speed
CVEL .M/MIN                 :  Cable Velocity
DEVI .DEG                  :  Hole Deviation
FBEF .UA                   :  RST Far Effective Beam Current
FCOR .                     :  RST Far Carbon/Oxygen Ratio
FERD .                     :  RST Far IC Mode Capture Optimization Resolution Degradation Factor
FIRD .                     :  RST Far Inelastic Optimization Resolution Degradation Factor
GR   .GAPI                 :  Gamma Ray
NCOR .                     :  RST Near Carbon/Oxygen Ratio
NERD .                     :  RST Near IC Mode Capture Optimization Resolution Degradation Factor
NIRD .                     :  RST Near Inelastic Optimization Resolution Degradation Factor
RB_PCMS.DEG                  :  Relative Bearing
TENS .LBF                  :  Cable Tension
WPRE .PSI                  :  Well Pressure
WTEP .DEGC                 :  Well Temperature
~Parameter Information Block
#MNEM.UNIT            Value   Description
#---------- ----------------  -----------
APD  .M           54.900002:  Elevation of Depth Reference (LMF) above Permanent Datum
RUN  .                Run 1:  RUN NUMBER
PROJECT.     SLEIPNER_OST@st-vlinapp01:  
SET  .        RSTD_0912_IC1:  
~Other Information Block
# 
~A       DEPTH           CCLC           CCLD           CRRA             CS           CVEL           DEVI           FBEF           FCOR           FERD           FIRD             GR           NCOR           NERD           NIRD        RB_PCMS           TENS           WPRE           WTEP 
# ...
    3471.82440        -0.0095         0.0000         2.8197         1.6867      -0.514900        47.4268       101.7697     0.08800000         5.5691         5.5691        19.2984       0.045500         2.7160         2.7160         8.7110      2748.4121      5008.6919        95.9285
    3471.97680        -0.0081         0.0000         2.7734         1.6870      -0.512700        47.4353       102.2372     0.06680000         5.6531         5.6531        18.4993      -0.024800         2.6895         2.6895         8.6331      2744.6741      5008.8384        95.9294
    3472.12920         0.1174         0.0000         2.7652         1.6834      -0.509000        47.4361       102.3735    -0.06480000         5.7270         5.7270        18.1258       0.075600         2.6533         2.6533         8.5308      2745.0557      5008.9897        95.9321
    3472.28160        -0.0108         0.0000         2.7582         1.6699      -0.509100        47.4483       102.4749    -0.08140000         5.7530         5.7530        18.2583      -0.050200         2.6919         2.6919         8.5269      2756.0186      5009.1260        95.9330
    3472.43400        -0.0135         0.0000         2.7417         1.6831      -0.516800        47.4532       102.2223     0.08860000         5.7419         5.7419        17.9808      -0.017500         2.7056         2.7056         8.5071      2757.6580      5009.2896        95.9359
    3472.58640        -0.0056         0.0000         2.7216         1.6969      -0.521500        47.4628       102.8515     0.13710000         5.7057         5.7057        17.2196       0.018700         2.7237         2.7237         8.5278      2761.0535      5009.4233        95.9376
    3472.73880        -0.1625         0.0000         2.7161         1.7211      -0.519900        47.4686       103.0868     0.18300000         5.6933         5.6933        16.1123      -0.059100         2.6846         2.6846         8.4724      2758.0950      5009.5483        95.9377
    3472.89120        -0.0014         0.0000         2.7290         1.6772      -0.511900        47.4808       102.8002     0.04430000         5.7579         5.7579        15.3358       0.009000         2.6294         2.6294         8.2144      2750.5225      5009.6851        95.9389
    3473.04360        -0.0018         0.0000         2.7201         1.6565      -0.510500        47.4983       104.5518    -0.16730000         5.8141         5.8141        14.4681      -0.008800         2.6086         2.6086         8.1892      2741.5188      5009.8540        95.9390
    3473.19600        -0.0428         0.0000         2.7424         1.6929      -0.513900        47.5153       104.0674     0.22190000         5.5813         5.5813        14.0772       0.056900         2.6228         2.6228         8.2237      2751.5356      5009.9912        95.9392
    3473.34840        -0.2053         0.0000         2.7257         1.6775      -0.513200        47.5202       103.8378     0.20550001         5.7578         5.7578        14.2755      -0.064600         2.6102         2.6102         8.1053      2748.4292      5010.1274        95.9405
    3473.50080        -0.0965         0.0000         2.7371         1.6775      -0.511600        47.5157       104.8423     0.14810000         5.7685         5.7685        15.2964      -0.005300         2.6108         2.6108         8.5087      2739.1238      5010.3071        95.9408
    3473.65320        -0.0422         0.0000         2.7470         1.7047      -0.513100        47.5157       105.4392    -0.00880000         5.8673         5.8673        16.7164       0.010800         2.5746         2.5746         8.7117      2753.4890      5010.4395        95.9412
    3473.80560        -0.0030         0.0000         2.7580         1.6358      -0.507300        47.4974       106.2214    -0.03340000         5.7663         5.7663        18.3606      -0.011600         2.6145         2.6145         8.7142      2750.0037      5010.5767        95.9418
    3473.95800         0.0612         0.0000         2.7942         1.6883      -0.513900        47.5129       106.3576     0.10040000         5.5887         5.5887        19.7219       0.025700         2.5914         2.5914         8.6726      2746.1462      5010.6992        95.9415
    3474.11040        -0.0015         0.0000         2.7823         1.7159      -0.521400        47.5360       108.0982     0.14410000         5.5310         5.5310        21.2096       0.085300         2.6390         2.6390         8.6395      2755.8442      5010.8794        95.9410
    3474.26280        -0.0296         0.0000         2.8227         1.7041      -0.505200        47.5281       107.4754     0.01040000         5.5393         5.5393        22.1239       0.021400         2.6209         2.6209         8.3836      2757.8713      5011.0024        95.9412
    3474.41520        -0.1081         0.0000         2.8013         1.7323      -0.524700        47.5271       106.6873    -0.01720000         5.5078         5.5078        22.9261      -0.045000         2.6166         2.6166         7.9544      2751.7778      5011.1450        95.9414
    3474.56760        -0.0846         0.0000         2.7921         1.7041      -0.520800        47.5340       106.9351    -0.08330000         5.5717         5.5717        23.4530       0.013200         2.6856         2.6856         8.0615      2751.5854      5011.2856        95.9403
    3474.72000         0.1041         0.0000         2.7855         1.7211      -0.520900        47.5777       107.0162    -0.21890000         5.5842         5.5842        24.2452      -0.039400         2.7167         2.7167         7.9710      2751.6919      5011.4243        95.9402
    3474.87240        -0.0036         0.0000         2.7900         1.7096      -0.520600        47.5848       107.2235     0.03720000         5.5360         5.5360        24.5599      -0.026700         2.7008         2.7008         7.8345      2750.3220      5011.5767        95.9392
    3475.02480        -0.0088         0.0000         2.8022         1.7100      -0.522000        47.5869       107.1310     0.02340000         5.5240         5.5240        24.1833       0.075300         2.6952         2.6952         7.9720      2749.9922      5011.7109        95.9379
    3475.17720         0.0032         0.0000         2.7961         1.7205      -0.520300        47.5873       107.5982     0.00940000         5.5675         5.5675        23.2055      -0.010000         2.7314         2.7314         7.9685      2752.5076      5011.9106        95.9363
    3475.32960        -0.0007         0.0000         2.7989         1.7090      -0.521300        47.5850       106.1046    -0.02550000         5.6223         5.6223        22.0758       0.085300         2.7380         2.7380         8.1116      2747.6084      5012.0469        95.9363
    3475.48200        -0.0841         0.0000         2.7595         1.7211      -0.523500        47.6147       105.6093    -0.16000000         5.6147         5.6147        21.0167      -0.057200         2.7606         2.7606         8.1739      2755.5229      5012.1763        95.9354
    3475.63440         0.0446         0.0000         2.7613         1.7320      -0.525400        47.6493       105.6573     0.01360000         5.5987         5.5987        20.4808      -0.016700         2.7345         2.7345         8.2237      2759.1074      5012.3032        95.9343
    3475.78680         0.0589         0.0000         2.7593         1.7382      -0.527500        47.6379       105.3966    -0.00990000         5.6651         5.6651        20.6850       0.037000         2.7486         2.7486         8.4317      2758.8538      5012.4487        95.9323
    3475.93920        -0.0072         0.0000         2.7434         1.7211      -0.522600        47.6545       107.7169     0.00120000         5.7929         5.7929        21.2309       0.027200         2.7440         2.7440         8.2419      2755.0115      5012.6230        95.9313
    3476.09160        -0.0069         0.0000         2.8029         1.7156      -0.523100        47.6845       107.5372     0.03670000         5.7704         5.7704        21.9353       0.022900         2.7333         2.7333         8.3079      2760.9004      5012.7354        95.9295
