~Version Information Block
VERS .                 2.00:  CWLS LOG ASCII STANDARD - VERSION 2.00
WRAP .                   NO:  One line per depth step
~Well Information Block
#MNEM.UNIT        Data Type   Information
#---------- ----------------  -----------
STRT .M          3451.70760:  START DEPTH
STOP .M          3790.03560:  STOP DEPTH
STEP .M             0.15240:  STEP
NULL .              -999.25:  NULL VALUE
COMP .              Statoil:  COMPANY
WELL .        NO_15/9-F-1_C:  WELL
FLD  .                Volve:  FIELD
LOC  .            North Sea:  LOCATION
CTRY .               Norway:  COUNTRY
STAT .                     :  STATE
CNTY .                     :  COUNTY
SRVC .         Schlumberger:  SERVICE COMPANY
DATE .          27-Nov-2014:  DATE
API  .                     :  API NUMBER
UWI  .           15/9-F-1 C:  UNIQUE WELL ID
LATI .     58° 26' 29.91" N:  LATITUDE
LONG .      1° 53' 14.71" E:  LONGITUDE
~Curve Information Block
#MNEM.UNIT         API CODE   Curve Description
#---------- ----------------  -----------------
DEPTH.M                    :  DEPTH (BOREHOLE)
CVEL .M/SEC                 :  Cable Velocity
DFRB .DEG                  :  Calibrated Relative Bearing
FBEF .UA                   :  RST Far Effective Beam Current
FCOR .                     :  RST Far Carbon/Oxygen Ratio
FERD .                     :  RST Far IC Mode Capture Optimization
FIRD .                     :  RST Far Inelastic Optimization Resolution
GR   .GAPI                 :  Gamma Ray
NCOR .                     :  RST Near Carbon/Oxygen Ratio
NERD .                     :  RST Near IC Mode Capture Optimization
NIRD .                     :  RST Near Inelastic Optimization Resolution
PFC1 .IN                   :  PFCS CaliperX
PFC2 .IN                   :  PFCS CaliperY
TENS .LBF                  :  Cable Tension
~Parameter Information Block
#MNEM.UNIT            Value   Description
#---------- ----------------  -----------
APD  .M           54.900002:  Elevation of Depth Reference (LMF) above Permanent Datum
EPD  .C3                  0:  Elevation of Permanent Datum above Mean Sea Level
LMF  .                   KB:  Logging Measured From (Name of Logging Elevation Reference)
PDAT .                  MSL:  Permanent Datum
RUN  .                Run 1:  RUN NUMBER
TAPE_NAME.     Statoil_Volve_15-9-F-1 C_PLT-RST_28Nov14_ConCu_R1L18Up_IC2.las:  
TOOL_STRING.              UNKNOWN:  
WN   .           15/9-F-1 C:  WELL
PROJECT.     SLEIPNER_OST@st-vlinapp01:  
SET  .        RSTD_1114_IC2:  
~Other Information Block
# 
~A       DEPTH           CVEL           DFRB           FBEF           FCOR           FERD           FIRD             GR           NCOR           NERD           NIRD           PFC1           PFC2           TENS 
# ...
    3630.01560     -0.0074367       356.9830       122.1358        -0.0613         5.0684         5.0684        27.0981         0.0751         7.0662         7.0662         6.2219         6.0510      4172.4121
    3630.16800     -0.0075600       356.9830       121.8569         0.0534         5.0069         5.0069        25.2431         0.0811         7.0877         7.0877         6.2220         6.0505      4129.9478
    3630.32040     -0.0076683       356.9830       122.1037        -0.0217         5.0072         5.0072        24.4371        -0.1151         7.0450         7.0450         6.2219         6.0509      4100.8989
    3630.47280     -0.0075200       356.9830       123.0819         0.0032         4.9592         4.9592        23.4426         0.0229         6.9523         6.9523         6.2219         6.0510      4160.0562
    3630.62520     -0.0073567       356.9830       123.4506        -0.1116         4.7335         4.7335        23.5742         0.0265         6.9681         6.9681         6.2219         6.0508      4197.4824
    3630.77760     -0.0073167       356.9830       124.4363         0.0449         4.7159         4.7159        25.8483        -0.0226         6.9045         6.9045         6.2219         6.0499      4223.0674
    3630.93000     -0.0072417       356.9830       120.3432        -0.1194         4.6170         4.6170        28.4902         0.0399         6.9318         6.9318         6.2218         6.0472      4216.7856
    3631.08240     -0.0074200       356.9830       120.0912        -0.1112         4.5543         4.5543        28.9801         0.0063         6.9009         6.9009         6.2219         6.0483      4131.8125
    3631.23480     -0.0075050       356.9830       118.9805         0.1457         4.6193         4.6193        28.3601        -0.0093         6.9358         6.9358         6.2219         6.0483      4255.4604
    3631.38720     -0.0072467       356.9830       119.2900         0.0331         4.6345         4.6345        28.3543         0.0346         6.9023         6.9023         6.2219         6.0490      4312.4150
    3631.53960     -0.0073400       356.9830       120.7314         0.0794         4.6292         4.6292        27.6585         0.0258         6.8980         6.8980         6.2219         6.0500      4243.0293
    3631.69200     -0.0073867       356.9830       121.1684        -0.0047         4.5270         4.5270        25.0688        -0.0026         6.9057         6.9057         6.2211         6.0504      4253.5405
    3631.84440     -0.0073100       356.9830       122.6575        -0.0280         4.4672         4.4672        23.1305         0.0060         6.8138         6.8138         6.2219         6.0499      4243.1304
    3631.99680     -0.0073050       356.9830       122.2414         0.0285         4.5126         4.5126        22.3413         0.0362         6.8203         6.8203         6.2219         6.0506      4289.0444
    3632.14920     -0.0074800       356.9830       122.0437        -0.0038         4.3836         4.3836        21.3152         0.0213         6.7786         6.7786         6.2219         6.0467      4265.9150
    3632.30160     -0.0073583       356.9830       122.0790         0.1063         4.3893         4.3893        20.1734        -0.0454         6.7751         6.7751         6.2214         6.0481      4206.9009
    3632.45400     -0.0074067       356.9830       121.9460         0.0633         4.3900         4.3900        20.0682        -0.0489         6.7556         6.7556         6.2219         6.0487      4196.3896
    3632.60640     -0.0077083       356.9830       122.4800         0.1177         4.4354         4.4354        20.5598         0.0137         6.7408         6.7408         6.2216         6.0487      4171.3682
    3632.75880     -0.0074367       356.9830       122.5596         0.0828         4.4678         4.4678        20.3872        -0.0906         6.7187         6.7187         6.2211         6.0493      4233.3901
    3632.91120     -0.0068833       356.9830       122.8348         0.0116         4.4873         4.4873        20.1618         0.0822         6.7233         6.7233         6.2200         6.0503      4323.7153
    3633.06360     -0.0089933       356.9830       121.3590         0.0042         4.5949         4.5949        19.7444         0.0723         6.7274         6.7274         6.2165         6.0501      4262.4097
    3633.21600     -0.0062950       356.9830       121.3401         0.0459         4.5581         4.5581        20.3422        -0.0129         6.7821         6.7821         6.2218         6.0509      4192.3550
    3633.36840     -0.0107583       356.9830       121.2646        -0.0833         4.6169         4.6169        19.8193        -0.0805         6.7482         6.7482         6.2215         6.0506      4325.6748
    3633.52080     -0.0097183       356.9830       123.1241        -0.0455         4.5645         4.5645        19.4832         0.0911         6.7323         6.7323         6.2211         6.0498      4246.1816
    3633.67320     -0.0096117       356.9830       124.2642         0.1220         4.6189         4.6189        20.2878         0.0766         6.6821         6.6821         6.2196         6.0506      4226.2354
    3633.82560     -0.0096433       356.9830       123.7204        -0.0743         4.6581         4.6581        20.9488         0.0830         6.6629         6.6629         6.2170         6.0486      4196.1016
    3633.97800     -0.0096983       356.9830       122.6154         0.0049         4.7244         4.7244        20.3351         0.0327         6.6200         6.6200         6.2133         6.0499      4172.6001
    3634.13040     -0.0096100       356.9830       121.0939         0.0815         4.5629         4.5629        21.0053         0.0074         6.7003         6.7003         6.2124         6.0501      4226.9502
    3634.28280     -0.0095300       356.9830       121.1234         0.0826         4.6956         4.6956        22.9168         0.0491         6.6633         6.6633         6.2219         6.0479      4196.0879
    3634.43520     -0.0094233       356.9830       121.8954        -0.1069         4.7384         4.7384        23.4973         0.0205         6.6169         6.6169         6.2218         6.0481      4235.6860
    3634.58760     -0.0092683       356.9830       122.2051        -0.0817         4.7441         4.7441        24.0988         0.0289         6.6298         6.6298         6.2219         6.0488      4244.8945
    3634.74000     -0.0090117       356.9830       121.6712         0.0151         4.6089         4.6089        25.9635         0.0724         6.6807         6.6807         6.2219         6.0488      4252.0708
    3634.89240     -0.0090317       356.9830       121.2754         0.1079         4.7012         4.7012        27.0962         0.0314         6.7800         6.7800         6.2219         6.0488      4265.2993
    3635.04480     -0.0088333       356.9830       121.0255        -0.1294         4.7459         4.7459        26.7791        -0.0486         6.8197         6.8197         6.2219         6.0503      4364.8301
    3635.19720     -0.0087317       356.9830       122.4938        -0.0320         4.7361         4.7361        27.1842         0.0207         6.8686         6.8686         6.2219         6.0504      4294.9155
    3635.34960     -0.0086983       356.9830       121.8325         0.1415         4.7394         4.7394        26.4646        -0.0145         6.8670         6.8670         6.2251         6.0504      4246.8555
    3635.50200     -0.0087233       356.9830       122.3581         0.0678         4.7723         4.7723        24.5843        -0.0807         6.8689         6.8689         6.2234         6.0510      4300.1587
    3635.65440     -0.0086650       356.9830       121.6808         0.0742         4.7821         4.7821        23.3697         0.1041         6.9055         6.9055         6.2223         6.0503      4326.7217
    3635.80680     -0.0087033       356.9830       121.0598         0.0028         4.6517         4.6517        22.6184         0.0605         6.9149         6.9149         6.2219         6.0504      4275.6768
