#------------------------------------------------------------------------------
#
#   Created by   : las_export
#   Created on   : 2009-06-18 13:07:55
#   Project      : VOLVE
#   User         : TONYG
#   Interpreters : *
#
#------------------------------------------------------------------------------
~VERSION INFORMATION
VERS. 2.0 : CWLS Log ASCII Standard - version 2.0
WRAP.  NO : One line per depth step

~WELL INFORMATION
#MNEMONIC   .UNIT                                           VALUE :DESCRIPTION
#------------------------------------------------------------------------------
STRT        .M                                       2560.0412 :START DEPTH
STOP        .M                                       3222.0668 :STOP DEPTH
STEP        .M                                          0.1524 :STEP
NULL        .                                        -999.2500 :NULL VALUE
COMP        .                                                  :COMPANY
WELL        .                                      15/9-F-15 C :WELL
FLD         .                                            VOLVE :FIELD
LOC         .                                          UNKNOWN :LOCATION
CNTY        .                                          UNKNOWN :COUNTY
STAT        .                                          UNKNOWN :STATE
CTRY        .                                           Norway :COUNTRY
SRVC        .                                          UNKNOWN :SERVICE COMPANY
DATE        .                                          UNKNOWN :LOG DATE
UWI         .                                   NO 15/9-F-15 C :UNIQUE WELL ID
XCOORD      .M                                   435053.550000 :SURFACE X
YCOORD      .M                                  6478560.360000 :SURFACE Y
LAT         .                                        58.441585 :LATITUDE
LON         .                                         1.887541 :LONGITUDE
ELEV        .M                                         54.9000 :SURFACE ELEV
ELEV_TYPE   .                                               KB :ELEV TYPE

~CURVE INFORMATION
#MNEMONIC   .UNIT          API CODE       : CURVE DESCRIPTION
#------------------------------------------------------------------------------
DEPTH       .M                            : Measured Depth
DT          .us/ft         UNKNOWN        : DT:UNKNOWN:rC:NONE:v1
GR          .API           UNKNOWN        : GR:UNKNOWN:rC:NONE:v1
~A     DEPTH           DT           GR 
# ...
  3078.20120    80.214821    56.945409 
  3078.35360    79.197159    55.877779 
  3078.50600    78.569504    55.020547 
  3078.65840    78.932190    55.066383 
  3078.81080    78.637817    54.353427 
  3078.96320    78.119057    54.396290 
  3079.11560    76.975739    55.078153 
  3079.26800    75.741638    55.173001 
  3079.42040    77.308777    53.806072 
  3079.57280    79.531769    51.094427 
  3079.72520    81.056084    49.831364 
  3079.87760    82.692657    49.342457 
  3080.03000    84.009781    50.920482 
  3080.18240    83.242409    54.383574 
  3080.33480    81.077042    57.323684 
  3080.48720    80.513039    59.600555 
  3080.63960    81.571121    60.114475 
  3080.79200    82.079193    61.599673 
  3080.94440    81.183327    61.532501 
  3081.09680    80.909637    60.387722 
  3081.24920    81.677307    58.023145 
  3081.40160    81.657417    56.949225 
  3081.55400    81.595078    57.765411 
  3081.70640    82.375923    59.080340 
  3081.85880    81.808662    59.805133 
  3082.01120    80.483711    60.138694 
  3082.16360    79.727058    58.534617 
  3082.31600    78.929512    57.478064 
  3082.46840    77.739220    55.675406 
  3082.62080    78.300278    53.974174 
  3082.77320    78.989731    51.866159 
  3082.92560    81.020248    51.396197 
  3083.07800    84.245506    53.762690 
  3083.23040    84.054337    57.882990 
  3083.38280    81.843857    60.035836 
  3083.53520    80.437767    61.504780 
  3083.68760    81.374123    61.362609 
  3083.84000    81.879509    61.541941 
  3083.99240    81.228897    62.261505 
  3084.14480    80.279861    62.706194 
  3084.29720    78.136223    65.376914 
  3084.44960    75.745277    66.578455 
  3084.60200    75.113922    62.430241 
  3084.75440    76.211647    56.245937 
  3084.90680    78.489548    50.720909 
  3085.05920    79.333168    51.656158 
  3085.21160    80.486794    53.005696 
  3085.36400    82.320503    55.370670 
  3085.51640    82.158157    56.201904 
  3085.66880    80.944252    58.176750 
  3085.82120    81.606934    60.067792 
  3085.97360    84.228653    64.097091 
  3086.12600    86.745537    66.634164 
  3086.27840    87.809319    67.112821 
  3086.43080    86.124184    67.198375 
  3086.58320    84.723503    67.313753 
  3086.73560    85.584229    67.560539 
  3086.88800    85.717216    66.722650 
  3087.04040    84.158218    65.579823 
  3087.19280    82.619339    64.664788 
  3087.34520    80.112343    65.266163 
  3087.49760    78.741386    66.334265 
  3087.65000    79.889473    65.814961 
  3087.80240    81.592957    61.215207 
  3087.95480    81.624924    56.077428 
  3088.10720    81.400703    54.135525 
  3088.25960    82.094231    55.199386 
  3088.41200    83.143356    56.387856 
  3088.56440    83.713661    56.760814 
  3088.71680    83.782387    58.454675 
  3088.86920    85.276932    60.181696 
  3089.02160    86.806107    61.247482 
  3089.17400    88.070557    61.693653 
  3089.32640    88.027603    61.535899 
  3089.47880    86.883888    62.044835 
  3089.63120    85.293877    61.222209 
  3089.78360    85.779442    62.209587 
  3089.93600    85.325546    62.588605 
  3090.08840    83.372063    62.122723 
  3090.24080    81.162903    61.052120 
  3090.39320    79.600220    59.784973 
  3090.54560    78.113113    58.851750 
  3090.69800    77.655746    57.314880 
  3090.85040    77.228348    56.490992 
  3091.00280    75.680634    56.413780 
  3091.15520    76.351952    56.327765 
  3091.30760    83.560593    56.880358 
  3091.46000    91.313278    58.938166 
  3091.61240    93.951149    65.891473 
  3091.76480    92.420952    72.893332 
  3091.91720    90.208633    77.672288 
  3092.06960    86.883667    74.668822 
  3092.22200    86.261642    67.032320 
  3092.37440    88.753029    61.592100 
  3092.52680    93.356300    60.937389 
  3092.67920    97.359077    64.303787 
  3092.83160    98.365883    69.062346 
  3092.98400    96.060364    75.054560 
  3093.13640    90.708366    79.319945 
  3093.28880    83.425507    76.843789 
  3093.44120    80.160202    65.787291 
  3093.59360    78.046631    52.563915 
  3093.74600    76.390533    40.319339 
  3093.89840    76.475021    36.590706 
  3094.05080    77.312553    36.897198 
  3094.20320    76.981010    38.617852 
  3094.35560    78.341309    37.240766 
  3094.50800    81.465302    35.534760 
  3094.66040    80.151878    36.320945 
  3094.81280    78.303688    38.348641 
  3094.96520    78.213570    42.656382 
  3095.11760    76.837143    45.117307 
  3095.27000    77.459908    45.810102 
  3095.42240    80.650337    42.767615 
  3095.57480    84.835297    40.969188 
  3095.72720    88.009064    43.791374 
  3095.87960    88.785858    49.995500 
  3096.03200    89.449921    55.628241 
  3096.18440    89.900467    57.008431 
  3096.33680    90.648514    58.289765 
  3096.48920    88.172737    60.771013 
  3096.64160    83.025848    63.322955 
  3096.79400    81.375687    62.866970 
  3096.94640    80.636810    61.521946 
  3097.09880    80.563019    61.373065 
  3097.25120    80.891823    61.593271 
  3097.40360    80.509682    60.218322 
  3097.55600    79.930817    56.677018 
  3097.70840    79.706390    54.312981 
  3097.86080    81.413338    53.689896 
  3098.01320    82.653519    56.952761 
  3098.16560    82.803093    61.227996 
  3098.31800    82.606171    63.605783 
  3098.47040    81.331520    63.012659 
  3098.62280    81.889893    60.677261 
  3098.77520    82.464081    60.352077 
  3098.92760    82.378799    61.313735 
  3099.08000    79.943336    65.185740 
  3099.23240    77.224251    71.400554 
  3099.38480    81.229790    76.782175 
  3099.53720    86.426651    81.899525 
  3099.68960    88.305969    87.706483 
  3099.84200    92.473152    95.863081 
  3099.99440    96.511513   108.001593 
  3100.14680   105.694901   129.466879 
  3100.29920   119.903702   163.218437 
  3100.45160   127.467598   204.620584 
  3100.60400   131.510498   238.201425 
  3100.75640   132.439301   259.483106 
  3100.90880   131.665604   271.183768 
  3101.06120   129.485992   275.716069 
  3101.21360   128.364594   278.534397 
  3101.36600   129.221695   277.328222 
  3101.51840   127.700996   278.782094 
  3101.67080   127.204399   278.259178 
  3101.82320   127.638298   278.700319 
  3101.97560   128.714798   277.291901 
  3102.12800   127.055801   279.633074 
  3102.28040   125.708000   276.310599 
  3102.43280   125.329803   272.336982 
  3102.58520   125.087097   262.748650 
  3102.73760   123.410698   252.490013 
  3102.89000   122.162598   248.011492 
  3103.04240   122.789497   248.478528 
  3103.19480   124.829102   252.526313 
  3103.34720   127.781197   258.636657 
  3103.49960   132.369507   263.604348 
  3103.65200   133.182800   256.938469 
  3103.80440   130.566101   237.814926 
  3103.95680   129.833603   217.703452 
  3104.10920   133.213593   211.002417 
  3104.26160   132.734497   210.766993 
  3104.41400   132.202606   208.234724 
  3104.56640   131.197403   206.891253 
  3104.71880   128.924606   207.812809 
  3104.87120   125.609596   209.589152 
  3105.02360   122.483498   208.874564 
  3105.17600   120.749199   204.120747 
  3105.32840   121.446503   202.990148 
  3105.48080   122.874199   203.309414 
  3105.63320   124.674004   209.360821 
  3105.78560   126.099701   208.890032 
  3105.93800   128.165298   211.203114 
  3106.09040   128.305496   209.849260 
  3106.24280   128.300507   213.683257 
  3106.39520   124.720703   218.058551 
  3106.54760   125.610802   226.025034 
  3106.70000   128.329407   230.237273 
  3106.85240   128.593994   229.308356 
  3107.00480   128.431000   221.023770 
  3107.15720   127.514900   218.172213 
  3107.30960   125.246101   215.145941 
  3107.46200   122.579002   212.488244 
  3107.61440   121.299599   205.278193 
  3107.76680   120.861397   201.670898 
  3107.91920   118.924103   199.703721 
  3108.07160   116.333801   197.956268 
  3108.22400   116.262604   194.856705 
  3108.37640   116.502403   198.321589 
  3108.52880   118.237701   205.264689 
