~Version Information Block
VERS .                 2.00:  CWLS LOG ASCII STANDARD - VERSION 2.00
WRAP .                   NO:  One line per depth step
~Well Information Block
#MNEM.UNIT        Data Type   Information
#---------- ----------------  -----------
STRT .M          3439.51560:  START DEPTH
STOP .M          3642.36000:  STOP DEPTH
STEP .M             0.15240:  STEP
NULL .              -999.25:  NULL VALUE
COMP .              Statoil:  COMPANY
WELL .          NO_15/9-F-5:  WELL
FLD  .                VOLVE:  FIELD
LOC  .            North Sea:  LOCATION
CTRY .                     :  COUNTRY
STAT .                     :  STATE
CNTY .                     :  COUNTY
SRVC .         Schlumberger:  SERVICE COMPANY
DATE .          16-Sep-2012:  DATE
API  .                     :  API NUMBER
UWI  .             15/9-F-5:  UNIQUE WELL ID
~Curve Information Block
#MNEM.UNIT         API CODE   Curve Description
#---------- ----------------  -----------------
DEPTH.M                    :  DEPTH (BOREHOLE)
BSAL .PPM                  :  Borehole Salinity
CCLC .V                    :  CCL
CIRF .                     :  RST Capture to Inelastic Ratio Far
CIRN .                     :  RST Capture to Inelastic Ratio Near
CVEL .M/MIN                 :  Cable Velocity
DSIG .CU                   :  Sigma Difference
FBEF .UA                   :  RST Far Effective Beam Current
GR   .GAPI                 :  Gamma Ray
IRAT .                     :  RST Inelastic Ratio
RSCF .                     :  RST Far Detector Effective Unregulated Capture Count Rate
RSCN .                     :  RST Near Detector Effective Unregulated Capture Count Rate
SFFA .CU                   :  RST Sigma Formation Far Apparent
SIBF .CU                   :  RST Sigma Borehole Fluid
SIGM .CU                   :  Formation Sigma (Neutron Capture Cross Section)
TENS .LBF                  :  Cable Tension
TPHI .V/V                  :  Thermal Decay Porosity
~Parameter Information Block
#MNEM.UNIT            Value   Description
#---------- ----------------  -----------
APD  .M           54.900002:  Elevation of Depth Reference (LMF) above Permanent Datum
BHS  .                 CASE:  Borehole Status (Open or Cased Hole)
BS   .IN                8.5:  Bit Size
BSAL .PPM       34972.17188:  Borehole Salinity
BSALOPT.              UNKNOWN:  Borehole Salinity Option
CSID .IN              6.184:  Casing Inner Diameter
CSIZ .IN                  7:  Current Casing Size
CWEI .LB/F               29:  Casing Weight
MATR .                 SAND:  Rock Matrix for Neutron Porosity Corrections
RUN  .                Run 1:  RUN NUMBER
PROJECT.     SLEIPNER_OST@st-vlinapp01:  
SET  .       RSTD_0912_SIG1:  
~Other Information Block
# 
~A       DEPTH           BSAL           CCLC           CIRF           CIRN           CVEL           DSIG           FBEF             GR           IRAT           RSCF           RSCN           SFFA           SIBF           SIGM           TENS           TPHI 
# ...
    3502.91400     27993.6016         0.0519         2.6250     0.84420002       -4.55160        -0.9078        77.8849        19.5149     0.33300000        11.6542        11.0202        14.7921        31.8836        13.0432      2653.6333     0.19910000
    3503.06640     27288.7988        -0.0866         2.6283     0.84340000       -4.49970        -0.9200        80.0724        21.1238     0.33340001        11.2062        10.8050        15.0255        31.6344        13.0856      2645.5483     0.20370001
    3503.21880     27003.2012         0.1129         2.5755     0.84320003       -4.55700        -0.7414        77.8467        20.2934     0.33010000        11.3373        11.2026        15.0162        31.5335        13.3092      2654.6333     0.20410000
    3503.37120     26778.1992        -0.0232         2.6187     0.84619999       -4.49930        -0.6023        76.8111        19.6290     0.33050001        11.6013        11.0541        15.4621        31.4541        13.2372      2653.5334     0.20370001
    3503.52360     25808.3008        -0.0437         2.6577     0.84030002       -4.54530        -0.5083        78.4390        19.8782     0.33080000        11.3999        10.5529        14.8015        31.1118        13.2311      2656.9678     0.19850001
    3503.67600     26145.7988        -0.0506         2.6136     0.84299999       -4.51580        -0.4089        76.9259        20.1688     0.32699999        12.0773        11.4025        14.9937        31.2308        13.0686      2645.1667     0.19850001
    3503.82840     26280.0000        -0.4299         2.6430     0.80019999       -4.55330        -0.3553        81.6765        19.2242     0.32049999        11.6350        11.0359        14.9786        31.2782        13.2433      2638.6001     0.19859999
    3503.98080     26375.6992         0.4758         2.5171     0.78200001       -4.51430        -0.2316        79.2454        19.0581     0.31140000        11.4203        11.1274        15.3251        31.3120        13.3714      2657.6130     0.20610000
    3504.13320     26635.7988         0.0146         2.2279     0.66460001       -4.51360        -0.1913        80.8511        17.1482     0.31310001        10.0678         9.8401        15.3766        31.4038        13.3783      2653.1665     0.20970000
    3504.28560     26882.5000         3.5435         2.2029     0.71569997       -4.54970        -0.0946        77.3682        16.7693     0.32069999        10.4972        10.5856        14.9959        31.4909        13.2055      2641.0332     0.21170001
    3504.43800     26788.4004         0.1183         2.5146     0.82220000       -4.55600        -0.1588        76.6114        16.3956     0.32789999        11.5312        10.9781        14.8069        31.4577        13.0232      2651.5667     0.20469999
    3504.59040     27426.7988         0.1634         2.6430     0.81910002       -4.54320        -0.1351        80.1585        16.2295     0.33239999        11.8084        11.3091        14.8235        31.6832        13.0027      2650.5161     0.19700000
    3504.74280     27456.6992        -0.0069         2.6314     0.83270001       -4.54080        -0.1955        77.6541        16.3956     0.33160001        11.5137        10.5588        14.9335        31.6937        12.9837      2652.8667     0.19100000
    3504.89520     27508.9004        -0.1003         2.5729     0.81279999       -4.51970        -0.2396        76.6556        18.5547     0.33800000        11.6475        10.8737        14.7556        31.7122        12.9503      2666.4668     0.18950000
    3505.04760     27356.8984        -0.0463         2.5531     0.83219999       -4.53450        -0.3596        78.0887        17.8540     0.33450001        11.4455        11.0150        14.7303        31.6585        12.9121      2651.3335     0.18990000
    3505.20000     27425.6992         0.2635         2.6036     0.80559999       -4.50980        -0.5097        77.4086        17.9864     0.33500001        11.9672        10.9829        14.8273        31.6828        13.0331      2639.3228     0.18960001
    3505.35240     27229.5000         0.0121         2.5763     0.81699997       -4.52320        -0.5702        79.3288        19.1490     0.32969999        11.2714        10.6429        15.1224        31.6134        12.9495      2650.5999     0.19120000
    3505.50480     27539.8008        -0.1139         2.6383     0.82630002       -4.54300        -0.6788        80.7590        18.6507     0.33250001        11.3598        11.1125        14.4812        31.7231        12.9149      2658.4333     0.19210000
    3505.65720     27405.3984        -0.1802         2.6147     0.83520001       -4.53270        -0.7638        78.2350        18.1524     0.33199999        11.5917        11.0264        14.7231        31.6756        12.6446      2651.3335     0.19560000
    3505.80960     27392.5996         0.2324         2.5540     0.80220002       -4.53000        -0.7307        75.9881        18.4016     0.33100000        12.1024        11.2353        14.3150        31.6711        12.8064      2644.7742     0.19440000
    3505.96200     26842.8008         0.0958         2.6268     0.82709998       -4.53360        -0.7404        83.0459        19.3294     0.32900000        10.9934        10.6817        14.9700        31.4769        12.8244      2641.9001     0.19580001
    3506.11440     27141.5996         0.0103         2.6034     0.81309998       -4.53910        -0.6557        78.8330        19.1970     0.32990000        11.6460        10.9720        14.7801        31.5824        13.1584      2671.0000     0.19260000
    3506.26680     26948.5000        -0.2775         2.5951     0.83310002       -4.57260        -0.7914        77.4675        18.8649     0.33140001        11.3056        10.6927        15.3166        31.5142        13.1350      2653.5334     0.19430000
    3506.41920     27144.3008         0.1619         2.6192     0.82450002       -4.52540        -0.8054        78.6008        19.1140     0.32969999        11.6226        11.0465        14.8962        31.5833        13.1500      2648.2334     0.19589999
    3506.57160     27531.0000         0.1525         2.6080     0.81940001       -4.52970        -0.7572        79.2977        19.2438     0.32380000        11.5174        10.9756        14.8148        31.7200        13.0177      2657.1614     0.20080000
    3506.72400     28185.4004        -0.1438         2.6318     0.81290001       -4.49980        -0.7971        80.0757        17.6853     0.32210001        11.5606        11.0407        14.9095        31.9514        13.0419      2627.3000     0.20400000
    3506.87640     28882.6992         0.0186         2.6596     0.83170003       -4.52890        -0.8130        80.7303        17.9007     0.32330000        11.5482        11.0150        14.9553        32.1982        13.3082      2650.5669     0.20420000
    3507.02880     28806.4004         0.1713         2.5867     0.82929999       -4.60700        -0.7490        77.3101        19.6446     0.32570001        11.4565        10.7980        15.6004        32.1711        13.4099      2661.2583     0.20690000
    3507.18120     29037.7012        -0.0074         2.5410     0.80040002       -4.50760        -0.6896        78.5227        19.5616     0.32409999        11.3813        10.9274        15.2039        32.2530        13.4927      2639.3335     0.20819999
    3507.33360     29360.5000         0.0951         2.5241     0.80549997       -4.54060        -0.6292        79.3889        19.9301     0.32480001        11.5637        11.5107        15.1959        32.3674        13.3233      2637.3667     0.21240000
    3507.48600     29954.9004         0.2991         2.5763     0.82230002       -4.52580        -0.6813        78.2103        20.3453     0.32300001        11.7954        11.3051        15.0808        32.5780        13.5030      2647.5999     0.21040000
    3507.63840     29852.8008         0.1170         2.5873     0.81029999       -4.51140        -0.6933        81.0601        19.5979     0.32179999        11.0249        10.6592        15.7341        32.5418        13.4203      2642.3335     0.21179999
