~Version Information Block
VERS .                 2.00:  CWLS LOG ASCII STANDARD - VERSION 2.00
WRAP .                   NO:  One line per depth step
~Well Information Block
#MNEM.UNIT        Data Type   Information
#---------- ----------------  -----------
STRT .M          3230.11800:  START DEPTH
STOP .M          3389.98560:  STOP DEPTH
STEP .M             0.15240:  STEP
NULL .              -999.25:  NULL VALUE
COMP .              Statoil:  COMPANY
WELL .          NO_15/9-F-4:  WELL
FLD  .                VOLVE:  FIELD
LOC  .            North Sea:  LOCATION
CTRY .                     :  COUNTRY
STAT .                     :  STATE
CNTY .                     :  COUNTY
SRVC .         Schlumberger:  SERVICE COMPANY
DATE .          13-Sep-2012:  DATE
API  .                     :  API NUMBER
UWI  .             15/9-F-4:  UNIQUE WELL ID
~Curve Information Block
#MNEM.UNIT         API CODE   Curve Description
#---------- ----------------  -----------------
DEPTH.M                    :  DEPTH (BOREHOLE)
CCLC .V                    :  CCL
CCLD .V                    :  CCL Discriminated Amplitude
CRRA .                     :  Near-Far Count Rate Ratio
CS   .F/MN                 :  Cable Speed
CVEL .M/MIN                 :  Cable Velocity
FBEF .UA                   :  RST Far Effective Beam Current
FCOR .                     :  RST Far Carbon/Oxygen Ratio
FERD .                     :  RST Far IC Mode Capture Optimization Resolution Degradation Factor
FIRD .                     :  RST Far Inelastic Optimization Resolution Degradation Factor
GR   .GAPI                 :  Gamma Ray
NCOR .                     :  RST Near Carbon/Oxygen Ratio
NERD .                     :  RST Near IC Mode Capture Optimization Resolution Degradation Factor
NIRD .                     :  RST Near Inelastic Optimization Resolution Degradation Factor
RB_PCMS.DEG                  :  Relative Bearing
TENS .LBF                  :  Cable Tension
WTEP .DEGC                 :  Well Temperature
WTPE .MS                   :  Well Temperature Period
~Parameter Information Block
#MNEM.UNIT            Value   Description
#---------- ----------------  -----------
APD  .M                  54:  Elevation of Depth Reference (LMF) above Permanent Datum
RUN  .                    1:  RUN NUMBER
PROJECT.     SLEIPNER_OST@st-vlinapp01:  
SET  .        RSTD_0912_IC3:  
~Other Information Block
# 
~A       DEPTH           CCLC           CCLD           CRRA             CS           CVEL           FBEF           FCOR           FERD           FIRD             GR           NCOR           NERD           NIRD        RB_PCMS           TENS           WTEP           WTPE 
# ...
    3262.12200         0.1537         0.0000         2.8457         1.5840       -0.48280       110.0633         0.0407         5.2770         5.2770        41.3409      -0.024300         2.7583         2.7583       355.7211      2303.3203        96.2293         4.0260
    3262.27440        -0.0118         0.0000         2.8366         1.5751       -0.48010       110.5999        -0.0039         5.3308         5.3308        41.3099       0.021300         2.7880         2.7880       355.7405      2323.6914        96.2295         4.0260
    3262.42680        -0.0110         0.0000         2.8662         1.5738       -0.47970       110.1145        -0.0494         5.3172         5.3172        41.3269       0.014200         2.7821         2.7821       355.9674      2318.1951        96.2311         4.0260
    3262.57920        -0.2635         0.0000         2.8474         1.5883       -0.48410       110.4251        -0.0742         5.4943         5.4943        41.6985      -0.013700         2.7916         2.7916       356.1656      2307.1731        96.2328         4.0260
    3262.73160        -0.0112         0.0000         2.8624         1.5935       -0.48570       109.4528        -0.0598         5.5571         5.5571        41.8319       0.005500         2.8286         2.8286       356.2818      2324.4041        96.2332         4.0260
    3262.88400         0.1689         0.0000         2.8283         1.5846       -0.48300       110.2720        -0.0820         5.5967         5.5967        41.9237       0.010300         2.8290         2.8290       356.3243      2301.4119        96.2335         4.0260
    3263.03640        -0.0093         0.0000         2.8451         1.6329       -0.49770       110.4462         0.0485         5.5566         5.5566        42.6951       0.035800         2.8674         2.8674       356.2579      2311.0872        96.2349         4.0260
    3263.18880        -0.0061         0.0000         2.8338         1.6709       -0.50930       110.5658        -0.0469         5.5774         5.5774        43.4452       0.026400         2.8050         2.8050       356.2929      2305.1487        96.2363         4.0260
    3263.34120        -0.0051         0.0000         2.8478         1.5115       -0.40110       110.6279         0.0594         5.5744         5.5744        42.8573       0.015500         2.8018         2.8018       356.3690      2280.9414        96.2358         4.0260
    3263.49360        -0.0059         0.0000         2.8563         3.3625       -1.02490       110.4895        -0.0684         5.6166         5.6166        43.3398       0.043400         2.8141         2.8141       356.3299      2315.0569        96.2399         4.0261
    3263.64600        -0.0063         0.0000         2.8571         1.3891       -0.42340       110.1280        -0.1585         5.5746         5.5746        44.3742      -0.067700         2.8621         2.8621       356.2984      2313.6794        96.2408         4.0261
    3263.79840        -0.0046         0.0000         2.8524         1.2421       -0.37860       109.7334        -0.0061         5.7389         5.7389        44.6903      -0.049100         2.8539         2.8539       356.2754      2315.2810        96.2414         4.0261
    3263.95080        -0.0030         0.0000         2.8406         1.2825       -0.39090       109.0821         0.0260         5.6981         5.6981        44.4374       0.017000         2.9025         2.9025       356.2616      2319.5015        96.2417         4.0261
    3264.10320        -0.0066         0.0000         2.8375         1.2963       -0.39510       108.7989         0.1090         5.8023         5.8023        45.3175       0.088200         2.8897         2.8897       356.3305      2312.0403        96.2419         4.0261
    3264.25560        -0.0075         0.0000         2.8253         1.2740       -0.38830       108.7023        -0.0199         5.7473         5.7473        45.5941      -0.016100         2.8895         2.8895       356.2440      2316.0312        96.2446         4.0261
    3264.40800        -0.0672         0.0000         2.8357         1.2979       -0.39560       109.4030         0.1208         5.9551         5.9551        44.7820       0.020700         2.8653         2.8653       356.3022      2305.1960        96.2454         4.0261
    3264.56040         0.0585         0.0000         2.8317         1.2851       -0.39170       109.0310         0.0890         5.8197         5.8197        44.3676       0.030200         2.8876         2.8876       356.3371      2311.7971        96.2462         4.0261
    3264.71280         0.0436         0.0000         2.8248         1.3015       -0.39670       109.5545         0.0521         5.9065         5.9065        45.4221       0.010600         2.8933         2.8933       356.4492      2321.0435        96.2466         4.0261
    3264.86520        -0.0117         0.0000         2.8333         1.2949       -0.39470       109.6625         0.0767         5.8719         5.8719        45.3253       0.013300         2.8679         2.8679       356.5686      2316.3535        96.2465         4.0261
    3265.01760        -0.0105         0.0000         2.8387         1.2762       -0.38900       109.8301         0.0190         5.9370         5.9370        45.7197       0.029800         2.8347         2.8347       356.6308      2324.0598        96.2471         4.0261
    3265.17000        -0.0113         0.0000         2.8394         1.3051       -0.39780       110.4567         0.1039         5.7921         5.7921        45.8403       0.059800         2.8439         2.8439       356.6391      2327.5828        96.2482         4.0261
    3265.32240        -0.0123         0.0000         2.8460         1.2812       -0.39050       110.2544         0.0423         5.8156         5.8156        44.6338       0.059900         2.8337         2.8337       356.6553      2311.5984        96.2493         4.0261
    3265.47480        -0.0056         0.0000         2.8456         1.2848       -0.39160       110.8818        -0.0474         5.9065         5.9065        43.8833      -0.001100         2.8090         2.8090       356.7230      2299.9199        96.2502         4.0262
    3265.62720        -0.0017         0.0000         2.8603         1.2667       -0.38610       110.8960         0.0391         5.8534         5.8534        43.7164       0.022300         2.8068         2.8068       356.8182      2321.9832        96.2503         4.0262
    3265.77960         0.0000         0.0000         2.8569         1.2835       -0.39120       109.6520         0.1404         5.9831         5.9831        43.2916      -0.034800         2.7451         2.7451       356.8582      2315.6057        96.2481         4.0261
    3265.93200        -0.0029         0.0000         2.8328         1.2795       -0.39000       110.9070         0.0163         5.9172         5.9172        43.5132       0.016300         2.7473         2.7473       356.8574      2313.5710        96.2476         4.0261
    3266.08440        -0.0065         0.0000         2.8720         1.2897       -0.39310       110.4411        -0.0186         5.9569         5.9569        44.4207       0.041100         2.6885         2.6885       356.8835      2314.2722        96.2473         4.0261
    3266.23680        -0.0045         0.0000         2.8658         1.2835       -0.39120       110.4347         0.0483         5.9991         5.9991        44.1020       0.106400         2.7112         2.7112       356.8981      2314.3743        96.2467         4.0261
    3266.38920        -0.0055         0.0000         2.8686         1.2743       -0.38840       110.3214        -0.0075         5.8378         5.8378        44.1559      -0.008900         2.7347         2.7347       356.9240      2324.8193        96.2459         4.0261
    3266.54160        -0.0086         0.0000         2.8790         1.2943       -0.39450       109.4524        -0.0764         5.8244         5.8244        43.8353       0.019600         2.7493         2.7493       356.8159      2318.5259        96.2460         4.0261
