~Version Information Block
VERS .                 2.00:  CWLS LOG ASCII STANDARD - VERSION 2.00
WRAP .                   NO:  One line per depth step
~Well Information Block
#MNEM.UNIT        Data Type   Information
#---------- ----------------  -----------
STRT .M          3451.70760:  START DEPTH
STOP .M          3790.03560:  STOP DEPTH
STEP .M             0.15240:  STEP
NULL .              -999.25:  NULL VALUE
COMP .              Statoil:  COMPANY
WELL .        NO_15/9-F-1_C:  WELL
FLD  .                Volve:  FIELD
LOC  .            North Sea:  LOCATION
CTRY .               Norway:  COUNTRY
STAT .                     :  STATE
CNTY .                     :  COUNTY
SRVC .         Schlumberger:  SERVICE COMPANY
DATE .          27-Nov-2014:  DATE
API  .                     :  API NUMBER
UWI  .           15/9-F-1 C:  UNIQUE WELL ID
LATI .     58° 26' 29.91" N:  LATITUDE
LONG .      1° 53' 14.71" E:  LONGITUDE
~Curve Information Block
#MNEM.UNIT         API CODE   Curve Description
#---------- ----------------  -----------------
DEPTH.M                    :  DEPTH (BOREHOLE)
CVEL .M/SEC                 :  Cable Velocity
DFRB .DEG                  :  Calibrated Relative Bearing
FBEF .UA                   :  RST Far Effective Beam Current
FCOR .                     :  RST Far Carbon/Oxygen Ratio
FERD .                     :  RST Far IC Mode Capture Optimization
FIRD .                     :  RST Far Inelastic Optimization Resolution
GR   .GAPI                 :  Gamma Ray
NCOR .                     :  RST Near Carbon/Oxygen Ratio
NERD .                     :  RST Near IC Mode Capture Optimization
NIRD .                     :  RST Near Inelastic Optimization Resolution
PFC1 .IN                   :  PFCS CaliperX
PFC2 .IN                   :  PFCS CaliperY
TENS .LBF                  :  Cable Tension
~Parameter Information Block
#MNEM.UNIT            Value   Description
#---------- ----------------  -----------
APD  .M           54.900002:  Elevation of Depth Reference (LMF) above Permanent Datum
EPD  .C3                  0:  Elevation of Permanent Datum above Mean Sea Level
LMF  .                   KB:  Logging Measured From (Name of Logging Elevation Reference)
PDAT .                  MSL:  Permanent Datum
RUN  .                Run 1:  RUN NUMBER
TAPE_NAME.     Statoil_Volve_15-9-F-1 C_PLT-RST_28Nov14_ConCu_R1L18Up_IC2.las:  
TOOL_STRING.              UNKNOWN:  
WN   .           15/9-F-1 C:  WELL
PROJECT.     SLEIPNER_OST@st-vlinapp01:  
SET  .        RSTD_1114_IC2:  
~Other Information Block
# 
~A       DEPTH           CVEL           DFRB           FBEF           FCOR           FERD           FIRD             GR           NCOR           NERD           NIRD           PFC1           PFC2           TENS 
# ...
    3564.63600     -0.1682283       359.8050       105.4488        -0.3079         5.2296         5.2296        28.4729         0.5491         6.6032         6.6032         6.1905         6.0024      4437.2144
    3564.78840     -0.1685017       359.8050       103.4923         0.2186         5.2296         5.2296        29.4064         0.4846         6.6032         6.6032         6.1953         5.9961      4388.3569
    3564.94080     -0.1689317       359.8050       105.0846        25.5899         5.2236         5.2236        29.7742         0.5654         6.6032         6.6032         6.1905         5.9862      4290.3081
    3565.09320     -0.1694733       359.8050       105.0846        26.3436         5.2236         5.2236        30.3682         0.3013         6.6275         6.6275         6.1905         5.9862      4166.5000
    3565.24560     -0.1696167       272.3230       103.0861         0.8229         5.2236         5.2236        30.3683         0.3013         6.6275         6.6275         6.1905         5.9862      4244.5386
    3565.39800     -0.1702200        66.3170       107.4097        -0.1151         5.2236         5.2236        27.2423         0.2027         6.6275         6.6275         6.1905         5.9862      4357.1431
    3565.55040     -0.1701083       358.3940       107.7057         0.6419         5.2236         5.2236        28.8265         0.4995         6.6275         6.6275         6.1905         5.9862      4492.6924
    3565.70280     -0.1697450       359.8050       107.7057         0.6419         5.2236         5.2236        32.5041         1.6872         6.6275         6.6275         6.1905         5.9862      4497.9287
    3565.85520     -0.1686517       359.8050       108.2872         0.4540         5.2236         5.2236        32.6738         1.6872         6.6275         6.6275         6.1905         5.9862      4415.4614
    3566.00760     -0.1677000       359.8050       108.8040         1.3596         5.2236         5.2236        33.3245         0.7405         6.6275         6.6275         6.1883         5.9862      4369.3848
    3566.16000     -0.1682717       359.8050       107.9610         0.3399         5.2236         5.2236        35.8988         0.8471         6.6275         6.6275         6.1881         5.9887      4290.2861
    3566.31240     -0.1688767       359.8050       107.9610         0.3399         5.2236         5.2236        34.1165         1.1016         6.6275         6.6275         6.1748         5.9862      4186.5718
    3566.46480     -0.1697900       359.8050       110.3197         0.2581         5.2616         5.2616        29.3216         1.1016         6.6275         6.6275         6.1793         5.9862      4072.0000
    3566.61720     -0.1699233       358.3940       106.9048         0.1753         5.2616         5.2616        31.1603         0.7096         6.6274         6.6274         6.1784         5.9862      4104.4287
    3566.76960     -0.1696300       108.6470       107.2904         0.1659         5.2616         5.2616        31.3584         2.5778         6.6274         6.6274         6.1928         5.9862      4331.7695
    3566.92200     -0.1688467         1.4110       108.1559         0.1656         5.2616         5.2616        28.6002         0.2238         6.6274         6.6274         6.1905         5.9862      4543.4287
    3567.07440     -0.1693033         1.4110       108.1559         0.1656         5.2616         5.2616        28.4163         0.8056         6.6274         6.6274         6.1905         5.9862      4557.2310
    3567.22680     -0.1685767         1.4110       111.3011         0.2718         5.2616         5.2616        28.0627         0.8056         6.6274         6.6274         6.1905         5.9862      4511.5000
    3567.37920     -0.1680583         1.4110       110.4949         0.3507         5.2616         5.2616        26.6482         0.8530         6.6274         6.6274         6.1905         5.9862      4483.6152
    3567.53160     -0.1675700         1.4110       109.5442        -0.2307         5.2616         5.2616        25.4318         0.9677         6.6274         6.6274         6.1793         5.9862      4385.9287
    3567.68400     -0.1680117         1.4110       109.5442        -0.2307         5.2616         5.2616        27.0867         0.5041         6.6274         6.6274         6.1748         5.9885      4323.9287
    3567.83640     -0.1683467         1.4110       110.1750        -0.1656         5.3022         5.3022        26.8746         0.5041         6.6274         6.6274         6.1905         5.9912      4235.8462
    3567.98880     -0.1686983         1.4110       106.9704        -0.1104         5.3022         5.3022        28.1617         1.2417         6.6441         6.6441         6.1659         5.9954      4148.7144
    3568.14120     -0.1689483         1.4110       113.1905         0.2376         5.3022         5.3022        31.4149         0.3821         6.6441         6.6441         6.1905         6.0186      4072.3079
    3568.29360     -0.1693817         1.4110       113.1905         0.2376         5.3022         5.3022        35.2057         0.0975         6.6441         6.6441         6.1905         6.0186      4253.0000
    3568.44600     -0.1686583         1.4110       110.9967         1.1201         5.3022         5.3022        36.6767         0.0975         6.6441         6.6441         6.1905         6.0186      4428.6431
    3568.59840     -0.1687467         1.4110       112.9714         0.0301         5.3022         5.3022        38.9115         0.5604         6.6441         6.6441         6.1905         6.0186      4436.3843
    3568.75080     -0.1687650         1.4110       112.5566        38.4345         5.3022         5.3022        40.5664         0.7960         6.6441         6.6441         6.1857         6.0186      4335.4287
    3568.90320     -0.1682417         1.4110       112.5566        38.4345         5.3022         5.3022        39.2934         0.7901         6.6441         6.6441         6.1883         6.0140      4314.7695
    3569.05560     -0.1680317         1.4110       111.8382         0.1250         5.3022         5.3022        36.0543         0.7901         6.6441         6.6441         6.1881         5.9862      4231.4287
    3569.20800     -0.1689517         1.4110       115.5742         0.3004         5.1352         5.1352        36.7899         0.2096         6.6441         6.6441         6.1928         5.9908      4144.6924
    3569.36040     -0.1701267         1.4110       113.9159         0.5584         5.1352         5.1352        37.3274         2.0809         6.6704         6.6704         6.2147         6.0086      4052.8574
    3569.51280     -0.1703183         1.4110       113.9159         0.5584         5.1352         5.1352        34.9369         0.4682         6.6704         6.6704         6.2219         6.0186      4146.4619
    3569.66520     -0.1693400         1.4110       110.2379        -0.2616         5.1352         5.1352        33.8195         0.4682         6.6704         6.6704         6.2219         6.0186      4377.0713
    3569.81760     -0.1693700         1.4110       112.2160        -0.3813         5.1352         5.1352        32.5041         0.6188         6.6704         6.6704         6.2219         6.0186      4591.6924
    3569.97000     -0.1687767         1.4110       112.8630         0.1620         5.1352         5.1352        29.9298         0.4479         6.6704         6.6704         6.2219         6.0186      4557.3574
    3570.12240     -0.1677650         1.4110       112.8630         0.1620         5.1352         5.1352        27.0019         1.3779         6.6704         6.6704         6.2152         6.0024      4516.7690
    3570.27480     -0.1682200         1.4110       115.5918         1.3053         5.1352         5.1352        27.0019         1.3779         6.6704         6.6704         6.2195         5.9862      4441.3569
    3570.42720     -0.1684133         1.4110       113.5254        -0.0395         5.1352         5.1352        28.1193         1.1870         6.6704         6.6704         6.2219         5.9862      4336.0000
