~Version Information Block
VERS .                 2.00:  CWLS LOG ASCII STANDARD - VERSION 2.00
WRAP .                   NO:  One line per depth step
~Well Information Block
#MNEM.UNIT        Data Type   Information
#---------- ----------------  -----------
STRT .M          3201.31440:  START DEPTH
STOP .M          3410.40720:  STOP DEPTH
STEP .M             0.15240:  STEP
NULL .              -999.25:  NULL VALUE
COMP .              Statoil:  COMPANY
WELL .          NO_15/9-F-4:  WELL
FLD  .                VOLVE:  FIELD
LOC  .            North Sea:  LOCATION
CTRY .                     :  COUNTRY
STAT .                     :  STATE
CNTY .                     :  COUNTY
SRVC .         Schlumberger:  SERVICE COMPANY
DATE .          13-Sep-2012:  DATE
API  .                     :  API NUMBER
UWI  .             15/9-F-4:  UNIQUE WELL ID
~Curve Information Block
#MNEM.UNIT         API CODE   Curve Description
#---------- ----------------  -----------------
DEPTH.M                    :  DEPTH (BOREHOLE)
CCLC .V                    :  CCL
CCLD .V                    :  CCL Discriminated Amplitude
CRRA .                     :  Near-Far Count Rate Ratio
CVEL .M/MIN                 :  Cable Velocity
DEVI .DEG                  :  Hole Deviation
FBEF .UA                   :  RST Far Effective Beam Current
FCOR .                     :  RST Far Carbon/Oxygen Ratio
FERD .                     :  RST Far IC Mode Capture Optimization Resolution Degradation Factor
FIRD .                     :  RST Far Inelastic Optimization Resolution Degradation Factor
GR   .GAPI                 :  Gamma Ray
NCOR .                     :  RST Near Carbon/Oxygen Ratio
NERD .                     :  RST Near IC Mode Capture Optimization Resolution Degradation Factor
NIRD .                     :  RST Near Inelastic Optimization Resolution Degradation Factor
RB_PCMS.DEG                  :  Relative Bearing
TENS .LBF                  :  Cable Tension
WPRE .PSI                  :  Well Pressure
WTEP .DEGC                 :  Well Temperature
WTPE .MS                   :  Well Temperature Period
~Parameter Information Block
#MNEM.UNIT            Value   Description
#---------- ----------------  -----------
APD  .M                  54:  Elevation of Depth Reference (LMF) above Permanent Datum
RUN  .                    1:  RUN NUMBER
PROJECT.     SLEIPNER_OST@st-vlinapp01:  
SET  .        RSTD_0912_IC2:  
~Other Information Block
# 
~A       DEPTH           CCLC           CCLD           CRRA           CVEL           DEVI           FBEF           FCOR           FERD           FIRD             GR           NCOR           NERD           NIRD        RB_PCMS           TENS           WPRE           WTEP           WTPE 
# ...
    3214.57320       -0.00100        0.00000         3.1091       -0.36120        48.4232       119.9145        -0.0170         5.4396         5.4396        80.1190     0.01050000         2.6587         2.6587       355.6015      2296.0999      4872.1772        94.0481         4.0067
    3214.72560        0.00110        0.00000         3.1075       -0.36120        48.4470       120.6886        -0.0968         5.5591         5.5591        80.5798    -0.00580000         2.6534         2.6534       355.6068      2296.0999      4872.3105        94.0518         4.0068
    3214.87800        0.00140        0.00000         3.1291       -0.36120        48.4757       120.8605        -0.1128         5.5930         5.5930        79.8149     0.03510000         2.6429         2.6429       355.6484      2296.0999      4872.4546        94.0607         4.0069
    3215.03040        0.00160        0.00000         3.1237       -0.36120        48.5001       119.6981         0.0338         5.4141         5.4141        77.1591     0.04330000         2.6394         2.6394       355.6804      2296.0999      4872.6069        94.0673         4.0069
    3215.18280       -0.21010        0.00000         3.1131       -0.36120        48.5220       118.8362        -0.1074         5.4421         5.4421        72.9141     0.00790000         2.6244         2.6244       355.7118      2296.0999      4872.7593        94.0717         4.0069
    3215.33520        0.07680        0.00000         3.1368       -0.36120        48.5436       117.4941         0.0976         5.3463         5.3463        68.6164    -0.04350000         2.6486         2.6486       355.7171      2296.0999      4872.9033        94.0777         4.0070
    3215.48760        0.00080        0.00000         3.1301       -0.36120        48.5970       115.5198         0.0630         5.4049         5.4049        63.8717     0.04220000         2.6808         2.6808       355.8232      2296.0999      4873.0312        94.0817         4.0070
    3215.64000        0.00120        0.00000         3.0924       -0.36120        48.6280       114.4115         0.0473         5.5853         5.5853        61.4941     0.07890000         2.7260         2.7260       355.8834      2296.0999      4873.1729        94.0877         4.0071
    3215.79240        0.00260        0.00000         3.0419       -0.36120        48.6615       114.6086        -0.0788         5.5138         5.5138        61.2398    -0.03440000         2.7293         2.7293       355.9252      2296.0999      4873.3296        94.0934         4.0071
    3215.94480        0.00500        0.00000         3.0050       -0.36120        48.6973       116.2976         0.0456         5.6233         5.6233        63.7091    -0.05440000         2.6602         2.6602       355.9939      2296.0999      4873.4795        94.0959         4.0072
    3216.09720        0.10740        0.00000         3.0310       -0.36120        48.7296       118.9401        -0.0707         5.6271         5.6271        67.6457     0.01120000         2.6795         2.6795       356.2393      2296.0999      4873.6079        94.1032         4.0072
    3216.24960        0.00810        0.00000         3.0655       -0.36120        48.7333       121.4050         0.1185         5.4458         5.4458        72.1077     0.07440000         2.6770         2.6770       356.3889      2296.0999      4873.7568        94.1121         4.0073
    3216.40200        0.00500        0.00000         3.1084       -0.36120        48.7573       122.5088         0.0697         5.4549         5.4549        74.3538     0.01440000         2.7045         2.7045       356.4998      2296.0999      4873.9180        94.1195         4.0074
    3216.55440        0.14350        0.00000         3.1241       -0.36120        48.7576       123.4478         0.0918         4.9509         4.9509        77.3684    -0.01150000         2.6627         2.6627       356.2872      2296.0999      4874.0469        94.1237         4.0074
    3216.70680        0.01290        0.00000         3.1595       -0.36120        48.7244       123.4217        -0.0005         5.1897         5.1897        80.1771    -0.00920000         2.7256         2.7256       356.2492      2296.0999      4874.2041        94.1283         4.0074
    3216.85920        0.02610        0.00000         3.1494       -0.36120        48.7268       122.6538         0.0466         5.3769         5.3769        80.9297    -0.00060000         2.7478         2.7478       356.3046      2296.0999      4874.3325        94.1341         4.0075
    3217.01160        0.00880        0.00000         3.1311       -0.37640        48.7484       122.3938         0.0626         5.4531         5.4531        80.4895     0.02900000         2.7105         2.7105       356.3417      2302.3352      4874.4951        94.1433         4.0076
    3217.16400        0.00670        0.00000         3.1308       -0.37450        48.7572       122.5568         0.1160         5.3849         5.3849        80.4158     0.03650000         2.7432         2.7432       356.4611      2291.3379      4874.6445        94.1539         4.0077
    3217.31640        0.00130        0.00130         3.1649       -0.37460        48.7758       124.9394        -0.0744         5.2551         5.2551        77.6693     0.03070000         2.8034         2.8034       356.2915      2293.6001      4874.7827        94.1544         4.0077
    3217.46880        0.00370        0.00370         3.3123       -0.37630        48.7873       126.3342         0.0743         5.4916         5.4916        75.5472     0.03950000         2.8164         2.8164       356.2478      2301.4670      4874.9272        94.1562         4.0077
    3217.62120       -0.00820        0.00000         3.3651       -0.37680        48.8067       126.2495        -0.0170         5.3391         5.3391        75.5626     0.02140000         2.8132         2.8132       356.1116      2290.7451      4875.0654        94.1672         4.0078
    3217.77360        0.10430        0.00000         3.2742       -0.37720        48.7785       121.4466        -0.0185         5.1239         5.1239        76.3046     0.07520000         2.7579         2.7579       356.0847      2296.1958      4875.2021        94.1810         4.0079
    3217.92600       -0.01700        0.00000         3.1108       -0.36550        48.7518       120.4574        -0.0051         5.1566         5.1566        77.1676     0.01170000         2.7618         2.7618       356.3462      2291.9814      4875.3423        94.1874         4.0080
    3218.07840        0.08350        0.00000         3.0767       -0.37040        48.7644       121.1326        -0.0604         5.1359         5.1359        78.5760     0.03980000         2.7560         2.7560       356.5221      2299.7725      4875.4893        94.1887         4.0080
    3218.23080        0.12840        0.00000         3.0965       -0.36810        48.7795       121.2146         0.1386         5.1632         5.1632        78.2608     0.05000000         2.7760         2.7760       356.5752      2304.9062      4875.6284        94.1958         4.0080
    3218.38320       -0.00750        0.00000         3.1112       -0.36900        48.7968       120.3946         0.0298         5.1702         5.1702        77.0831    -0.01220000         2.8170         2.8170       356.5856      2304.1052      4875.7773        94.1978         4.0081
    3218.53560       -0.00640        0.00000         3.0958       -0.36750        48.8140       119.5420        -0.0686         5.3867         5.3867        74.6568     0.03330000         2.7613         2.7613       356.5891      2302.1711      4875.9321        94.2122         4.0082
    3218.68800       -0.00970        0.00000         3.0812       -0.37120        48.8321       117.5716        -0.0747         5.4148         5.4148        72.6043     0.02040000         2.7756         2.7756       356.6315      2312.1572      4876.0615        94.2202         4.0083
    3218.84040       -0.00900        0.00000         3.0235       -0.36800        48.8552       118.0435        -0.0138         5.4012         5.4012        70.4684     0.06510000         2.7429         2.7429       356.5951      2303.1453      4876.2148        94.2258         4.0083
