~Version Information Block
VERS .                 2.00:  CWLS LOG ASCII STANDARD - VERSION 2.00
WRAP .                   NO:  One line per depth step
~Well Information Block
#MNEM.UNIT        Data Type   Information
#---------- ----------------  -----------
STRT .M          3199.94280:  START DEPTH
STOP .M          3410.40720:  STOP DEPTH
STEP .M             0.15240:  STEP
NULL .              -999.25:  NULL VALUE
COMP .              Statoil:  COMPANY
WELL .          NO_15/9-F-4:  WELL
FLD  .                VOLVE:  FIELD
LOC  .            North Sea:  LOCATION
CTRY .                     :  COUNTRY
STAT .                     :  STATE
CNTY .                     :  COUNTY
SRVC .         Schlumberger:  SERVICE COMPANY
DATE .          13-Sep-2012:  DATE
API  .                     :  API NUMBER
UWI  .             15/9-F-4:  UNIQUE WELL ID
~Curve Information Block
#MNEM.UNIT         API CODE   Curve Description
#---------- ----------------  -----------------
DEPTH.M                    :  DEPTH (BOREHOLE)
CCLC .V                    :  CCL
CRRA .                     :  Near-Far Count Rate Ratio
CVEL .M/MIN                 :  Cable Velocity
FBEF .UA                   :  RST Far Effective Beam Current
FCOR .                     :  RST Far Carbon/Oxygen Ratio
FERD .                     :  RST Far IC Mode Capture Optimization Resolution Degradation Factor
FIRD .                     :  RST Far Inelastic Optimization Resolution Degradation Factor
GR   .GAPI                 :  Gamma Ray
NCOR .                     :  RST Near Carbon/Oxygen Ratio
NERD .                     :  RST Near IC Mode Capture Optimization Resolution Degradation Factor
NIRD .                     :  RST Near Inelastic Optimization Resolution Degradation Factor
RB_PCMS.DEG                  :  Relative Bearing
TENS .LBF                  :  Cable Tension
~Parameter Information Block
#MNEM.UNIT            Value   Description
#---------- ----------------  -----------
APD  .M                  54:  Elevation of Depth Reference (LMF) above Permanent Datum
RUN  .                    4:  RUN NUMBER
PROJECT.     SLEIPNER_OST@st-vlinapp01:  
SET  .        RSTD_0912_IC1:  
~Other Information Block
# 
~A       DEPTH           CCLC           CRRA           CVEL           FBEF           FCOR           FERD           FIRD             GR           NCOR           NERD           NIRD        RB_PCMS           TENS 
# ...
    3360.42000        -0.0325         2.8104      -0.490700       109.1754        -0.1325         5.1391         5.1391        13.9766      -0.045200         2.4356         2.4356       355.5588      2275.8923
    3360.57240         0.1351         2.7873      -0.490100       110.0840        -0.0661         5.0902         5.0902        13.9880      -0.066300         2.4431         2.4431       355.5841      2285.5481
    3360.72480        -0.0014         2.7975      -0.488500       109.8646        -0.2289         5.1831         5.1831        14.1817      -0.027100         2.4600         2.4600       355.6400      2283.1426
    3360.87720        -0.0004         2.7925      -0.485700       110.6283        -0.0158         5.0320         5.0320        13.9527      -0.058500         2.4780         2.4780       355.6433      2279.0427
    3361.02960        -0.0033         2.8179      -0.490600       110.4175        -0.0076         4.9884         4.9884        14.0976      -0.025800         2.4817         2.4817       355.6407      2294.1536
    3361.18200         0.0039         2.8190      -0.490200       111.2511         0.0372         4.9538         4.9538        13.7838      -0.048400         2.5383         2.5383       355.6471      2284.0784
    3361.33440        -0.0010         2.8142      -0.493900       112.1004        -0.1177         4.9433         4.9433        13.0486      -0.009900         2.5267         2.5267       355.7073      2275.3359
    3361.48680         0.0008         2.8364      -0.489300       111.7918        -0.0374         5.0026         5.0026        12.9848       0.000400         2.5425         2.5425       355.5765      2278.1572
    3361.63920        -0.0017         2.8294      -0.491800       112.3032        -0.0189         4.9197         4.9197        13.2441      -0.009500         2.5027         2.5027       355.5869      2269.4016
    3361.79160         0.0008         2.8347      -0.492600       112.7450         0.0532         4.8312         4.8312        13.1814      -0.016900         2.4500         2.4500       355.7639      2270.8423
    3361.94400         0.0023         2.8551      -0.487400       111.6033         0.1322         4.9068         4.9068        13.4296       0.001400         2.3985         2.3985       355.8093      2270.5481
    3362.09640        -0.0768         2.8347      -0.498400       111.0392        -0.0506         4.8765         4.8765        14.2161      -0.030400         2.3947         2.3947       355.8039      2263.6545
    3362.24880         0.0502         2.8056      -0.492700       111.5544         0.0267         4.8613         4.8613        14.0764       0.019100         2.3344         2.3344       355.7467      2277.5791
    3362.40120         0.0038         2.8302      -0.490600       112.7242         0.1290         4.6984         4.6984        13.7430       0.035900         2.3449         2.3449       355.7195      2267.7480
    3362.55360         0.1535         2.8772      -0.485900       115.3035        -0.0143         4.6088         4.6088        12.9894      -0.085100         2.3725         2.3725       355.6489      2290.7163
    3362.70600         0.0157         3.0296      -0.490300       116.1260        -0.1261         4.5635         4.5635        12.9700       0.007800         2.3831         2.3831       355.6317      2276.7061
    3362.85840         0.0364         3.0717      -0.486400       115.8353         0.0847         4.6746         4.6746        12.6777       0.026900         2.3784         2.3784       355.6464      2289.0249
    3363.01080        -0.0071         2.9844      -0.492200       111.4956         0.0158         4.6030         4.6030        12.7996      -0.011500         2.3754         2.3754       355.5430      2274.9819
    3363.16320        -0.0138         2.8453      -0.489400       108.9300         0.0045         4.7131         4.7131        13.2047      -0.045600         2.3975         2.3975       355.4698      2272.1001
    3363.31560         0.1601         2.7743      -0.492800       108.1352         0.0762         4.6418         4.6418        13.7727      -0.016200         2.3598         2.3598       355.5069      2265.1321
    3363.46800         0.1125         2.7816      -0.489800       108.1589         0.0756         4.6635         4.6635        13.6464      -0.106800         2.3810         2.3810       355.5877      2277.9250
    3363.62040         0.0061         2.7777      -0.483700       107.5788        -0.1911         4.6129         4.6129        13.4732       0.115600         2.3995         2.3995       355.6122      2277.0847
    3363.77280        -0.0107         2.7610      -0.496200       106.2623        -0.0339         4.6562         4.6562        13.7384       0.005400         2.4221         2.4221       355.6592      2284.6631
    3363.92520        -0.0084         2.7230      -0.503600       106.9068         0.0134         4.5592         4.5592        13.5449       0.032200         2.3995         2.3995       355.7319      2292.7207
    3364.07760        -0.0172         2.7162      -0.490800       108.3736        -0.0273         4.7340         4.7340        13.9188      -0.004300         2.3846         2.3846       355.7946      2284.9465
    3364.23000        -0.0056         2.7503      -0.489100       109.4423        -0.0168         4.7356         4.7356        14.1184       0.002100         2.3849         2.3849       355.8715      2297.0071
    3364.38240         0.1506         2.7770      -0.489600       109.5720        -0.0526         4.8110         4.8110        14.7632      -0.009700         2.3909         2.3909       355.9262      2284.0862
    3364.53480        -0.0037         2.7850      -0.487700       109.7102        -0.1036         4.6787         4.6787        14.9856       0.068800         2.4104         2.4104       356.0316      2290.0144
    3364.68720         0.1115         2.7855      -0.487600       109.7890        -0.0443         4.7437         4.7437        15.3047       0.028900         2.4087         2.4087       356.0430      2286.8079
    3364.83960        -0.0559         2.7895      -0.485300       109.4942        -0.2168         4.6797         4.6797        15.3888      -0.040900         2.3748         2.3748       355.9839      2279.7224
    3364.99200        -0.0117         2.7935      -0.489800       109.9204        -0.0448         4.6972         4.6972        15.3864      -0.079100         2.3182         2.3182       355.9503      2276.2029
    3365.14440        -0.0073         2.7872      -0.489800       111.1159         0.0643         4.7596         4.7596        15.2045      -0.049100         2.2979         2.2979       355.8849      2286.0178
    3365.29680        -0.0108         2.8126      -0.489400       111.5433        -0.1044         4.8296         4.8296        14.8057       0.016500         2.2791         2.2791       355.8181      2282.4092
    3365.44920        -0.0090         2.7964      -0.502700       113.2613         0.0089         4.7539         4.7539        15.1427       0.055200         2.3001         2.3001       355.8781      2280.3384
    3365.60160         0.0939         2.8570      -0.492400       113.0076        -0.0157         4.6535         4.6535        15.0066       0.039300         2.2686         2.2686       355.9098      2278.0359
    3365.75400        -0.0178         2.8396      -0.490700       113.0676         0.0286         4.6448         4.6448        15.4699       0.045000         2.2424         2.2424       356.0875      2264.1245
    3365.90640        -0.0144         2.8268      -0.489000       114.4258         0.0081         4.7358         4.7358        15.8012      -0.046900         2.2544         2.2544       356.5712      2286.0000
    3366.05880        -0.0129         2.8511      -0.486700       114.6558        -0.1029         4.8712         4.8712        16.1585       0.113300         2.2425         2.2425       356.6376      2288.0320
    3366.21120        -0.0149         2.8771      -0.487100       114.3584         0.0687         4.7792         4.7792        15.8675      -0.008000         2.2488         2.2488       356.4444      2289.6086
