~Version Information Block
VERS .                 2.00:  CWLS LOG ASCII STANDARD - VERSION 2.00
WRAP .                   NO:  One line per depth step
~Well Information Block
#MNEM.UNIT        Data Type   Information
#---------- ----------------  -----------
STRT .M          3454.45080:  START DEPTH
STOP .M          3788.05440:  STOP DEPTH
STEP .M             0.15240:  STEP
NULL .              -999.25:  NULL VALUE
COMP .              Statoil:  COMPANY
WELL .        NO_15/9-F-1_C:  WELL
FLD  .                Volve:  FIELD
LOC  .            North Sea:  LOCATION
CTRY .               Norway:  COUNTRY
STAT .                     :  STATE
CNTY .                     :  COUNTY
SRVC .         Schlumberger:  SERVICE COMPANY
DATE .          27-Nov-2014:  DATE
API  .                     :  API NUMBER
UWI  .           15/9-F-1 C:  UNIQUE WELL ID
LATI .     58° 26' 29.91" N:  LATITUDE
LONG .      1° 53' 14.71" E:  LONGITUDE
~Curve Information Block
#MNEM.UNIT         API CODE   Curve Description
#---------- ----------------  -----------------
DEPTH.M                    :  DEPTH (BOREHOLE)
CRRA .                     :  Near/Far Count Rate Ratio
CVEL .M/SEC                 :  Cable Velocity
DFRB .DEG                  :  Calibrated Relative Bearing
FBEF .UA                   :  RST Far Effective Beam Current
FCOR .                     :  RST Far Carbon/Oxygen Ratio
FERD .                     :  RST Far IC Mode Capture Optimization
FIRD .                     :  RST Far Inelastic Optimization Resolution
GR   .GAPI                 :  Gamma Ray
NCOR .                     :  RST Near Carbon/Oxygen Ratio
NERD .                     :  RST Near IC Mode Capture Optimization
NIRD .                     :  RST Near Inelastic Optimization Resolution
PFC1 .IN                   :  PFCS CaliperX
PFC2 .IN                   :  PFCS CaliperY
TENS .LBF                  :  Cable Tension
~Parameter Information Block
#MNEM.UNIT            Value   Description
#---------- ----------------  -----------
APD  .M           54.900002:  Elevation of Depth Reference (LMF) above Permanent Datum
EPD  .C3                  0:  Elevation of Permanent Datum above Mean Sea Level
LMF  .                   KB:  Logging Measured From (Name of Logging Elevation Reference)
PDAT .                  MSL:  Permanent Datum
RUN  .                Run 1:  RUN NUMBER
TAPE_NAME.     Statoil_Volve_15-9-F-1 C_PLT-RST_28Nov14_ConCu_R1L17Up_IC1.las:  
TOOL_STRING.              UNKNOWN:  
WN   .           15/9-F-1 C:  WELL
PROJECT.     SLEIPNER_OST@st-vlinapp01:  
SET  .        RSTD_1114_IC1:  
~Other Information Block
# 
~A       DEPTH           CRRA           CVEL           DFRB           FBEF           FCOR           FERD           FIRD             GR           NCOR           NERD           NIRD           PFC1           PFC2           TENS 
# ...
    3717.79800         2.6622      -0.006592       355.5720       115.5561         0.0662         5.2386         5.2386        10.2559         0.0506         7.2279         7.2279         6.2207         6.0510      4470.5977
    3717.95040         2.7186      -0.005990       355.5720       119.6096        -0.3752         5.2908         5.2908        10.1978         0.0013         7.2786         7.2786         6.2200         6.0510      4401.4546
    3718.10280         2.8753      -0.007002       355.5720       121.2507         0.1891         5.2826         5.2826         9.8401         0.1268         7.2283         7.2283         6.2202         6.0510      4454.0425
    3718.25520         2.8773      -0.006395       355.5720       118.3559        -0.0978         5.3088         5.3088         9.5296        -0.0556         7.2005         7.2005         6.1179         5.9725      4454.8564
    3718.40760         2.7800      -0.006702       355.5720       114.8005         0.0671         5.4005         5.4005         9.3270         0.0229         7.1900         7.1900         6.0964         5.9534      4431.6665
    3718.56000         2.6678      -0.007123       355.5720       115.3783         0.0353         5.4678         5.4678         9.5064         0.0626         7.2009         7.2009         6.2173         6.0470      4408.0840
    3718.71240         2.6769      -0.006472       355.5720       115.5837         0.0232         5.3323         5.3323         9.7011         0.1088         7.1609         7.1609         6.2220         6.0510      4342.0654
    3718.86480         2.6971      -0.007065       355.5720       115.2145         0.0500         5.2978         5.2978         9.8309         0.1152         7.1699         7.1699         6.2221         6.0512      4409.0122
    3719.01720         2.6798      -0.006560       355.5720       116.3066         0.0524         5.4830         5.4830        10.0906         0.0248         7.1655         7.1655         6.2221         6.0510      4366.7310
    3719.16960         2.7113      -0.006830       355.5720       114.9200         0.0294         5.5113         5.5113        10.2589         0.0234         7.1327         7.1327         6.2220         6.0510      4402.1929
    3719.32200         2.6856      -0.006978       355.5720       114.7613         0.0632         5.5433         5.5433        10.2881         0.1051         7.1803         7.1803         6.2223         6.0510      4355.9395
    3719.47440         2.6676      -0.007015       355.5720       114.9616         0.1331         5.5373         5.5373        10.2529         0.0708         7.1725         7.1725         6.2222         6.0510      4404.7202
    3719.62680         2.6766      -0.004857       355.5720       114.6993        -0.0447         5.2673         5.2673        10.2536         0.1239         7.1837         7.1837         6.2220         6.0510      4327.5552
    3719.77920         2.6756      -0.004850       355.5720       115.4551         0.1461         5.2047         5.2047        10.1990         0.0474         7.1662         7.1662         6.2221         6.0510      4375.4834
    3719.93160         2.6996      -0.004877       355.5720       114.6552         0.0737         5.1479         5.1479        10.0640         0.0891         7.1933         7.1933         6.2221         6.0531      4365.0786
    3720.08400         2.6705      -0.006025       355.5720       115.4821         0.0146         5.2234         5.2234         9.9769         0.0300         7.1669         7.1669         6.2222         6.0510      4323.9106
    3720.23640         2.6934      -0.006117       355.5720       115.5539         0.0886         5.2288         5.2288        10.0275        -0.0376         7.2003         7.2003         6.2220         6.0510      4407.1260
    3720.38880         2.6931      -0.005827       355.5720       115.1889         0.0245         5.2123         5.2123        10.3427         0.0336         7.2149         7.2149         6.2219         6.0510      4329.8008
    3720.54120         2.6959      -0.005923       355.5720       115.4307         0.0313         5.0913         5.0913        10.0126         0.0108         7.1301         7.1301         6.2219         6.0510      4397.9741
    3720.69360         2.6974      -0.005695       354.1610       115.7325         0.0905         5.1155         5.1155        10.0707         0.0531         7.1603         7.1603         6.2219         6.0510      4458.9146
    3720.84600         2.6994      -0.005860       354.1610       115.9680         0.0327         5.0977         5.0977        10.0398         0.0285         7.1641         7.1641         6.2219         6.0510      4369.5000
    3720.99840         2.6882      -0.006287       354.1610       116.7459        -0.0423         5.1004         5.1004        10.0574         0.0116         7.1692         7.1692         6.2219         6.0510      4312.8833
    3721.15080         2.7299      -0.012948       354.1610       117.4720         0.0824         5.2117         5.2117         9.8962         0.0577         7.1412         7.1412         6.2219         6.0510      4450.7432
    3721.30320         2.7360      -0.005058       354.1610       118.3650        -0.1143         5.1455         5.1455        10.1258        -0.0333         7.1312         7.1312         6.2219         6.0510      4298.1147
    3721.45560         2.7762      -0.011243       354.1610       117.5330         0.1217         5.0919         5.0919         9.8917         0.0963         7.1456         7.1456         6.2219         6.0510      4312.7466
    3721.60800         2.7397      -0.030397       354.1610       116.7324         0.1517         5.0454         5.0454         9.9228         0.0520         7.0684         7.0684         6.2219         6.0510      4361.9834
    3721.76040         2.7282      -0.005248       352.7500       115.8266        -0.0333         5.0321         5.0321        10.1198         0.0232         7.1236         7.1236         6.2219         6.0510      4378.5669
    3721.91280         2.7023      -0.010368       352.7500       116.0949         0.1423         4.9879         4.9879        10.0365         0.0651         7.1487         7.1487         6.2219         6.0513      4346.9419
    3722.06520         2.7020      -0.006372       352.7500       115.8004         0.1103         4.9543         4.9543        10.0537         0.1026         7.1601         7.1601         6.2219         6.0510      4322.9385
    3722.21760         2.6955      -0.004670       351.3390       115.7763         0.0992         4.7226         4.7226        10.3930        -0.0048         7.1615         7.1615         6.2219         6.0510      4278.7085
    3722.37000         2.6973      -0.011857       351.3390       115.1999        -0.0948         4.7283         4.7283        10.6334        -0.0207         7.1630         7.1630         6.2216         6.0619      4349.9883
    3722.52240         2.6738      -0.008430       349.9280       116.5543         0.1877         4.6899         4.6899        10.6421         0.0768         7.2091         7.2091         6.2213         6.0740      4451.6182
    3722.67480         2.7022      -0.006503       349.9280       115.5128         0.1244         4.9126         4.9126        10.5875         0.0902         7.1714         7.1714         6.2186         6.0510      4400.2476
    3722.82720         2.6828      -0.011472       349.9280       115.7474         0.0806         5.1046         5.1046        10.5565         0.1043         7.1448         7.1448         6.2156         6.0517      4358.5176
    3722.97960         2.6867      -0.010772       345.6950       115.9028         0.0423         5.1427         5.1427        10.3535         0.0483         7.1306         7.1306         6.2138         6.0535      4546.9478
    3723.13200         2.6899      -0.010675       345.6950       115.8003        -0.1104         5.1458         5.1458         9.8899         0.0677         7.1058         7.1058         6.2007         6.0522      4505.2686
