#------------------------------------------------------------------------------
#
#   Created by   : las_export
#   Created on   : 2009-06-18 13:07:55
#   Project      : VOLVE
#   User         : TONYG
#   Interpreters : *
#
#------------------------------------------------------------------------------
~VERSION INFORMATION
VERS. 2.0 : CWLS Log ASCII Standard - version 2.0
WRAP.  NO : One line per depth step

~WELL INFORMATION
#MNEMONIC   .UNIT                                           VALUE :DESCRIPTION
#------------------------------------------------------------------------------
STRT        .M                                       2560.0412 :START DEPTH
STOP        .M                                       3222.0668 :STOP DEPTH
STEP        .M                                          0.1524 :STEP
NULL        .                                        -999.2500 :NULL VALUE
COMP        .                                                  :COMPANY
WELL        .                                      15/9-F-15 C :WELL
FLD         .                                            VOLVE :FIELD
LOC         .                                          UNKNOWN :LOCATION
CNTY        .                                          UNKNOWN :COUNTY
STAT        .                                          UNKNOWN :STATE
CTRY        .                                           Norway :COUNTRY
SRVC        .                                          UNKNOWN :SERVICE COMPANY
DATE        .                                          UNKNOWN :LOG DATE
UWI         .                                   NO 15/9-F-15 C :UNIQUE WELL ID
XCOORD      .M                                   435053.550000 :SURFACE X
YCOORD      .M                                  6478560.360000 :SURFACE Y
LAT         .                                        58.441585 :LATITUDE
LON         .                                         1.887541 :LONGITUDE
ELEV        .M                                         54.9000 :SURFACE ELEV
ELEV_TYPE   .                                               KB :ELEV TYPE

~CURVE INFORMATION
#MNEMONIC   .UNIT          API CODE       : CURVE DESCRIPTION
#------------------------------------------------------------------------------
DEPTH       .M                            : Measured Depth
DT          .us/ft         UNKNOWN        : DT:UNKNOWN:rC:NONE:v1
GR          .API           UNKNOWN        : GR:UNKNOWN:rC:NONE:v1
~A     DEPTH           DT           GR 
# ...
  2986.76120    74.237381    33.046116 
  2986.91360    73.885170    31.539692 
  2987.06600    74.217018    29.459833 
  2987.21840    74.076851    28.760045 
  2987.37080    72.503593    29.262308 
  2987.52320    71.510567    28.680536 
  2987.67560    70.291687    27.182421 
  2987.82800    68.324638    25.037327 
  2987.98040    66.822479    23.356865 
  2988.13280    66.276299    21.474324 
  2988.28520    68.188927    21.013292 
  2988.43760    70.035477    21.675708 
  2988.59000    71.585533    22.098653 
  2988.74240    73.303558    22.477402 
  2988.89480    75.428543    23.514219 
  2989.04720    75.241760    25.026177 
  2989.19960    74.889557    25.873965 
  2989.35200    75.744972    26.058558 
  2989.50440    77.126190    27.376152 
  2989.65680    76.578918    27.817536 
  2989.80920    75.558823    28.110703 
  2989.96160    75.089149    27.954273 
  2990.11400    75.253532    28.244437 
  2990.26640    75.271004    28.564346 
  2990.41880    75.602173    28.238537 
  2990.57120    75.739952    28.780328 
  2990.72360    75.792717    30.281857 
  2990.87600    75.782593    30.810169 
  2991.02840    75.472839    31.776779 
  2991.18080    73.294693    31.823455 
  2991.33320    70.418404    32.847067 
  2991.48560    68.247917    34.235794 
  2991.63800    66.689293    35.524350 
  2991.79040    68.545242    35.009911 
  2991.94280    71.046509    33.105549 
  2992.09520    72.290756    29.978647 
  2992.24760    71.924477    29.620041 
  2992.40000    70.883377    31.660936 
  2992.55240    68.865509    34.475469 
  2992.70480    66.766533    35.781339 
  2992.85720    67.484352    33.124472 
  2993.00960    73.246590    30.028590 
  2993.16200    80.836327    26.531578 
  2993.31440    84.561279    25.216625 
  2993.46680    84.943581    27.362406 
  2993.61920    83.222954    33.518069 
  2993.77160    81.492432    41.936035 
  2993.92400    80.442398    47.184032 
  2994.07640    79.627861    47.934888 
  2994.22880    78.706703    45.199112 
  2994.38120    78.383568    41.238075 
  2994.53360    78.314957    38.053909 
  2994.68600    78.630539    35.279990 
  2994.83840    79.795670    35.148627 
  2994.99080    81.407272    36.701756 
  2995.14320    82.567848    39.719716 
  2995.29560    82.640213    41.327822 
  2995.44800    82.715286    42.137210 
  2995.60040    83.204369    41.655934 
  2995.75280    83.237350    42.074102 
  2995.90520    82.444504    42.596398 
  2996.05760    82.623497    41.722913 
  2996.21000    82.374977    38.547756 
  2996.36240    80.604111    34.553979 
  2996.51480    78.818771    31.662429 
  2996.66720    78.826767    31.112219 
  2996.81960    80.202522    32.656459 
  2996.97200    80.927689    34.642111 
  2997.12440    80.634117    35.322842 
  2997.27680    80.849167    34.499114 
  2997.42920    81.394432    33.750481 
  2997.58160    81.388031    35.567591 
  2997.73400    81.463860    36.156751 
  2997.88640    81.490120    37.593302 
  2998.03880    82.127380    37.580405 
  2998.19120    81.952042    38.548130 
  2998.34360    80.863243    39.367471 
  2998.49600    80.455078    40.548374 
  2998.64840    81.076019    41.351552 
  2998.80080    81.623337    39.980051 
  2998.95320    81.286728    38.790897 
  2999.10560    80.522591    38.330215 
  2999.25800    79.541901    39.168199 
  2999.41040    79.472801    38.222847 
  2999.56280    79.100082    36.300476 
  2999.71520    78.762466    33.662354 
  2999.86760    78.662941    32.631268 
  3000.02000    78.362450    32.194066 
  3000.17240    77.769211    32.158912 
  3000.32480    76.529053    31.571077 
  3000.47720    75.844566    32.194149 
  3000.62960    76.482651    32.681045 
  3000.78200    77.661057    33.148086 
  3000.93440    78.266777    33.061493 
  3001.08680    78.525642    33.033621 
  3001.23920    78.713959    34.160234 
  3001.39160    78.101700    33.704313 
  3001.54400    77.567039    34.512856 
  3001.69640    77.286057    34.713495 
  3001.84880    77.746147    35.632096 
  3002.00120    78.049133    35.865763 
  3002.15360    79.036491    35.306086 
  3002.30600    79.843872    34.782629 
  3002.45840    79.387947    33.218105 
  3002.61080    78.512222    32.879719 
  3002.76320    77.944313    34.207275 
  3002.91560    77.988617    36.289350 
  3003.06800    77.998047    37.697237 
  3003.22040    77.700378    39.379582 
  3003.37280    77.982986    39.807643 
  3003.52520    77.493439    38.756132 
  3003.67760    77.887756    35.998422 
  3003.83000    78.035133    34.007875 
  3003.98240    78.195778    33.549394 
  3004.13480    78.418854    34.517545 
  3004.28720    78.236992    36.055252 
  3004.43960    77.729607    36.975735 
  3004.59200    77.114792    35.900256 
  3004.74440    76.847214    34.159495 
  3004.89680    77.101517    32.417094 
  3005.04920    76.977310    31.651974 
  3005.20160    77.023201    33.066876 
  3005.35400    76.694443    35.082585 
  3005.50640    75.996727    37.343425 
  3005.65880    75.793121    39.142691 
  3005.81120    76.361023    41.094023 
  3005.96360    77.647789    43.435114 
  3006.11600    78.305763    45.369738 
  3006.26840    78.835503    47.364738 
  3006.42080    79.566589    48.550782 
  3006.57320    81.404747    50.368086 
  3006.72560    82.704880    49.842870 
  3006.87800    83.511261    47.986283 
  3007.03040    83.940063    45.581985 
  3007.18280    84.869392    45.968618 
  3007.33520    84.917107    48.095143 
  3007.48760    84.683289    49.428491 
  3007.64000    84.616463    49.070818 
  3007.79240    85.120483    45.369657 
  3007.94480    87.502563    39.719967 
  3008.09720    91.056892    34.082164 
  3008.24960    92.060150    31.209426 
  3008.40200    88.143272    31.599593 
  3008.55440    81.627403    33.378950 
  3008.70680    76.405830    32.703662 
  3008.85920    72.804909    27.350434 
  3009.01160    71.619247    21.985607 
  3009.16400    71.320129    19.328090 
  3009.31640    70.718384    21.060429 
  3009.46880    67.418221    21.928429 
  3009.62120    64.073540    23.168545 
  3009.77360    62.645741    24.144536 
  3009.92600    63.827709    24.918174 
  3010.07840    65.082573    25.722698 
  3010.23080    66.406868    26.844532 
  3010.38320    67.118584    29.226847 
  3010.53560    69.664337    29.815362 
  3010.68800    70.734940    29.136049 
  3010.84040    70.845360    27.662517 
  3010.99280    71.640549    28.597476 
  3011.14520    73.116631    29.434590 
  3011.29760    74.043114    28.415106 
  3011.45000    74.554260    25.398905 
  3011.60240    74.305710    22.463500 
  3011.75480    74.217979    21.727535 
  3011.90720    73.293571    23.142620 
  3012.05960    72.413254    25.028125 
  3012.21200    70.298897    26.697403 
  3012.36440    69.160797    26.265374 
  3012.51680    69.712837    24.714870 
  3012.66920    69.454803    23.065992 
  3012.82160    70.149246    21.719038 
  3012.97400    70.615669    21.406838 
  3013.12640    68.883728    21.147900 
  3013.27880    68.047493    21.337799 
  3013.43120    68.433701    22.444979 
  3013.58360    69.104507    23.303180 
  3013.73600    68.304459    22.910314 
  3013.88840    67.263184    21.886238 
  3014.04080    66.769913    22.182762 
  3014.19320    67.741272    23.258038 
  3014.34560    69.231140    25.045320 
  3014.49800    70.814346    25.975360 
  3014.65040    70.631958    26.962759 
  3014.80280    70.783546    25.524121 
  3014.95520    70.384720    23.575537 
  3015.10760    68.206642    20.866461 
  3015.26000    65.398361    20.376517 
  3015.41240    65.872559    19.687632 
  3015.56480    67.338760    21.594534 
  3015.71720    67.683357    24.222977 
  3015.86960    69.451523    27.172947 
  3016.02200    72.336433    28.106636 
  3016.17440    72.085052    27.477225 
  3016.32680    72.616600    28.807936 
  3016.47920    76.341911    31.719213 
  3016.63160    79.297859    36.792819 
  3016.78400    80.859932    40.778023 
  3016.93640    80.326767    41.914480 
  3017.08880    78.927071    38.866230 
