~Version Information Block
VERS .                 2.00:  CWLS LOG ASCII STANDARD - VERSION 2.00
WRAP .                   NO:  One line per depth step
~Well Information Block
#MNEM.UNIT        Data Type   Information
#---------- ----------------  -----------
STRT .M          3461.15640:  START DEPTH
STOP .M          3535.07040:  STOP DEPTH
STEP .M             0.15240:  STEP
NULL .              -999.25:  NULL VALUE
COMP .              Statoil:  COMPANY
WELL .          NO_15/9-F-5:  WELL
FLD  .                Volve:  FIELD
LOC  .                Volve:  LOCATION
CTRY .               Norway:  COUNTRY
STAT .                     :  STATE
CNTY .                     :  COUNTY
SRVC .         Schlumberger:  SERVICE COMPANY
DATE .          03-Nov-2015:  DATE
API  .                     :  API NUMBER
UWI  .             15/9-F-5:  UNIQUE WELL ID
LATI .     58° 26' 29.66" N:  LATITUDE
LONG .      1° 53' 14.99" E:  LONGITUDE
~Curve Information Block
#MNEM.UNIT         API CODE   Curve Description
#---------- ----------------  -----------------
DEPTH.M                    :  DEPTH (BOREHOLE)
CRRA .                     :  Near/Far Count Rate Ratio
CVEL .M/SEC                 :  Cable Velocity
FBEF .UA                   :  Far Effective Beam Current
FCOR .                     :  Far Carbon/Oxygen Ratio
FIRD .                     :  Far Inelastic Optimization Resolution Degradation Factor
NCOR .                     :  Near Carbon/Oxygen Ratio
NIRD .                     :  Near Inelastic Optimization Resolution Degradation Factor
RB_PCMS.DEG                  :  Relative Bearing
WPRE .BAR                  :  Well Pressure
WTEP .DEGC                 :  Well Temperature
~Parameter Information Block
#MNEM.UNIT            Value   Description
#---------- ----------------  -----------
APD  .M                  54:  Elevation of Depth Reference (LMF) above Permanent Datum
EPD  .C3                  0:  Elevation of Permanent Datum above Mean Sea Level
LMF  .                   DF:  Logging Measured From (Name of Logging Elevation Reference)
PDAT .                  MSL:  Permanent Datum
RUN  .                Run 1:  RUN NUMBER
TAPE_NAME.     ConCu_R02_L004Up_RST_PCMS_PSTP.las:  
TOOL_STRING.              UNKNOWN:  
WN   .             15/9-F-5:  WELL
PROJECT.     SLEIPNER_OST@st-vlinapp01:  
SET  .        RSTD_1115_IC1:  
~Other Information Block
# 
~A       DEPTH           CRRA           CVEL           FBEF           FCOR           FIRD           NCOR           NIRD        RB_PCMS           WPRE           WTEP 
    3461.15640         3.0133     -0.0096617       136.5020  -999.25000000         6.7810  -999.25000000         4.3293       355.0588       359.0976        83.6503
    3461.30880         3.0133     -0.0096617       136.5020  -999.25000000         6.7810  -999.25000000         4.3293       355.0588       359.1106        83.6462
    3461.46120         3.0133     -0.0096617       136.5020  -999.25000000         6.7810  -999.25000000         4.3293       355.0588       359.1207        83.6440
    3461.61360         3.0133     -0.0096617       136.5020  -999.25000000         6.7810  -999.25000000         4.3293       355.0588       359.1330        83.6457
    3461.76600         3.0133     -0.0096617       136.5020  -999.25000000         6.7810  -999.25000000         4.3293       355.0588       359.1461        83.6470
    3461.91840         3.0133     -0.0096617       136.5020  -999.25000000         6.7810  -999.25000000         4.3293       355.0588       359.1571        83.6524
    3462.07080         3.0133     -0.0096617       136.5020  -999.25000000         6.7810  -999.25000000         4.3293       355.0588       359.1698        83.6580
    3462.22320         3.0133     -0.0096617       136.5020  -999.25000000         6.7810  -999.25000000         4.3293       355.0588       359.1797        83.6620
    3462.37560         3.0133     -0.0096617       136.5020  -999.25000000         6.7810  -999.25000000         4.3293       354.8743       359.1917        83.6643
    3462.52800         3.0133     -0.0096617       136.5020  -999.25000000         6.7810  -999.25000000         4.3293       354.8700       359.2024        83.6738
    3462.68040         3.0133     -0.0096617       136.5020  -999.25000000         6.7810  -999.25000000         4.3293       355.0752       359.2195        83.6788
    3462.83280         3.0133     -0.0096617       136.5020  -999.25000000         6.7810  -999.25000000         4.3293       355.2314       359.2291        83.6836
    3462.98520         3.0133     -0.0096617       136.5020  -999.25000000         6.7810  -999.25000000         4.3293       355.2624       359.2407        83.6889
    3463.13760         3.0133     -0.0096617       136.5020  -999.25000000         6.7810  -999.25000000         4.3293       355.4356       359.2507        83.6998
    3463.29000         3.0133     -0.0096617       136.5020  -999.25000000         6.7810  -999.25000000         4.3293       355.5100       359.2666        83.7011
    3463.44240         3.0133     -0.0096617       136.5020  -999.25000000         6.7810  -999.25000000         4.3293       355.4550       359.2751        83.7031
    3463.59480         3.0133     -0.0096617       136.5020  -999.25000000         6.7810  -999.25000000         4.3293       355.4865       359.2868        83.7073
    3463.74720         3.0133     -0.0096617       136.5020  -999.25000000         6.7810  -999.25000000         4.3293       355.5299       359.2991        83.7126
    3463.89960         3.0133     -0.0096617       136.5020  -999.25000000         6.7810  -999.25000000         4.3293       355.4625       359.3108        83.7197
    3464.05200         3.0133     -0.0096617       136.5020  -999.25000000         6.7810  -999.25000000         4.3293       355.5112       359.3224        83.7311
    3464.20440         3.0133     -0.0096617       136.5020  -999.25000000         6.7810  -999.25000000         4.3293       355.5965       359.3354        83.7367
    3464.35680         3.0133     -0.0096617       136.5020  -999.25000000         6.7810  -999.25000000         4.3293       355.4263       359.3451        83.7432
    3464.50920         3.0133     -0.0096617       136.5020  -999.25000000         6.7810  -999.25000000         4.3293       355.4153       359.3590        83.7489
    3464.66160         3.0133     -0.0096617       136.5020  -999.25000000         6.7810  -999.25000000         4.3293       355.2881       359.3689        83.7539
    3464.81400         3.0133     -0.0096617       136.5020  -999.25000000         6.7810  -999.25000000         4.3293       355.1800       359.3817        83.7552
    3464.96640         3.0133     -0.0096617       136.5020  -999.25000000         6.7810  -999.25000000         4.3293       355.1800       359.3937        83.7613
    3465.11880         3.0133     -0.0096617       136.5020  -999.25000000         6.7810  -999.25000000         4.3293       355.4339       359.4035        83.7723
    3465.27120         3.0133     -0.0096617       136.5020  -999.25000000         6.7810  -999.25000000         4.3293       355.4241       359.4171        83.7823
    3465.42360         3.0133     -0.0096617       136.5020  -999.25000000         6.7810  -999.25000000         4.3293       355.3906       359.4282        83.7878
    3465.57600         3.0133     -0.0096617       136.5020  -999.25000000         6.7810  -999.25000000         4.3293       355.1940       359.4394        83.7918
    3465.72840         3.0133     -0.0096617       136.5020  -999.25000000         6.7810  -999.25000000         4.3293       355.2323       359.4513        83.8071
    3465.88080         3.0133     -0.0096617       136.5020  -999.25000000         6.7810  -999.25000000         4.3293       355.2629       359.4622        83.8038
    3466.03320         3.0133     -0.0096617       139.9079     0.17940000         6.6002    -0.01190000         4.3293       355.0212       359.4735        83.8079
    3466.18560         3.0580     -0.0096617       138.8312     0.03420000         6.3692    -0.02720000         4.3102       354.7491       359.4862        83.8261
    3466.33800         3.1029     -0.0096617       136.8680     0.08390000         6.3308    -0.03860000         4.3335       355.0528       359.4988        83.8331
    3466.49040         3.0664     -0.0096617       136.3582    -0.15530001         6.2940    -0.00920000         4.3424       355.1153       359.5091        83.8400
    3466.64280         3.0472     -0.0096617       136.1875    -0.00360000         6.3169    -0.04710000         4.3363       355.3235       359.5205        83.8415
    3466.79520         3.0487     -0.0096617       138.1173    -0.11620000         6.3194     0.01320000         4.3000       355.6392       359.5336        83.8445
    3466.94760         3.1050     -0.0096617       141.6658    -0.19620000         6.4453    -0.04390000         4.2989       355.4751       359.5453        83.8477
    3467.10000         3.1583     -0.0096617       140.7052     0.21740000         6.4309    -0.19230001         4.3006       355.6848       359.5555        83.8639
    3467.25240         3.1366     -0.0096617       142.5407     0.10990000         6.5725    -0.00520000         4.2634       355.2816       359.5686        83.8670
    3467.40480         3.1740     -0.0096617       142.4373     0.05760000         6.6914     0.03120000         4.2336       355.2635       359.5807        83.8682
    3467.55720         3.1480     -0.0096617       141.3189     0.03340000         6.6898    -0.08890000         4.2691       355.1330       359.5882        83.8688
    3467.70960         3.1390     -0.0096617       139.5914    -0.05510000         6.7294    -0.03000000         4.2342       355.1164       359.6039        83.8800
    3467.86200         3.0769     -0.0096617       141.1081    -0.01120000         6.8117     0.08240000         4.2774       355.0140       359.6147        83.8849
    3468.01440         3.1081     -0.0096617       142.0572     0.20379999         6.8140    -0.01430000         4.2706       355.1339       359.6246        83.8969
    3468.16680         3.1435     -0.0096617       143.8583    -0.09290000         6.7388    -0.00970000         4.2749       355.0953       359.6384        83.9045
    3468.31920         3.2045     -0.0096617       141.0251     0.03280000         6.5682     0.01270000         4.3261       354.9961       359.6489        83.9072
    3468.47160         3.1587     -0.0096617       140.6689    -0.01750000         6.6268     0.00460000         4.3236       354.8772       359.6613        83.9103
