~Version Information Block
VERS .                 2.00:  CWLS LOG ASCII STANDARD - VERSION 2.00
WRAP .                  YES:  Multiple lines per depth step
~Well Information Block
#MNEM.UNIT        Data Type   Information
#---------- ----------------  -----------
STRT .M          3174.64440:  START DEPTH
STOP .M          3422.90400:  STOP DEPTH
STEP .M             0.15240:  STEP
NULL .              -999.25:  NULL VALUE
COMP .         StatoilHydro:  COMPANY
WELL .          NO_15/9-F-4:  WELL
FLD  .                VOLVE:  FIELD
LOC  .            North Sea:  LOCATION
CTRY .                     :  COUNTRY
STAT .                     :  STATE
CNTY .                     :  COUNTY
SRVC .         Schlumberger:  SERVICE COMPANY
DATE .          13-Sep-2012:  DATE
API  .                     :  API NUMBER
UWI  .             15/9-F-4:  UNIQUE WELL ID
~Curve Information Block
#MNEM.UNIT         API CODE   Curve Description
#---------- ----------------  -----------------
DEPTH.M                    :  DEPTH (BOREHOLE)
BSAL .PPM                  :  Borehole Salinity
CCLC .V                    :  CCL
CCLD .V                    :  CCL Discriminated Amplitude
CIRF .                     :  RST Capture to Inelastic Ratio Far
CIRN .                     :  RST Capture to Inelastic Ratio Near
CVEL .M/MIN                 :  Cable Velocity
DEVI .DEG                  :  Hole Deviation
DSIG .CU                   :  Sigma Difference
FBEF .UA                   :  RST Far Effective Beam Current
GR   .GAPI                 :  Gamma Ray
IRAT .                     :  RST Inelastic Ratio
RB_PCMS.DEG                  :  Relative Bearing
RSCF .                     :  RST Far Detector Effective Unregulated Capture Count Rate
RSCN .                     :  RST Near Detector Effective Unregulated Capture Count Rate
SFFA .CU                   :  RST Sigma Formation Far Apparent
SIBF .CU                   :  RST Sigma Borehole Fluid
SIGM .CU                   :  Formation Sigma (Neutron Capture Cross Section)
TPHI .V/V                  :  Thermal Decay Porosity
WPRE .PSI                  :  Well Pressure
WTEP .DEGC                 :  Well Temperature
~Parameter Information Block
#MNEM.UNIT            Value   Description
#---------- ----------------  -----------
APD  .M                  54:  Elevation of Depth Reference (LMF) above Permanent Datum
BHS  .                 CASE:  Borehole Status (Open or Cased Hole)
BS   .IN                8.5:  Bit Size
BSAL .PPM       34972.17188:  Borehole Salinity
BSALOPT.              UNKNOWN:  Borehole Salinity Option
CSID .IN              6.184:  Casing Inner Diameter
CSIZ .IN                  7:  Current Casing Size
CWEI .LB/F               29:  Casing Weight
MATR .                 SAND:  Rock Matrix for Neutron Porosity Corrections
RUN  .                    4:  RUN NUMBER
PROJECT.     SLEIPNER_OST@st-vlinapp01:  
SET  .       RSTD_0912_SIG1:  
~Other Information Block
~Ascii Log Data
# ...
    3352.95240 
    25982.3008        -0.0421         0.0000         2.8462     0.87190002 
      -4.56890        55.9056        -1.6338        80.3497        11.0778 
    0.32550001       356.5565        12.0770        10.5972        14.2518 
       31.1731        11.9024     0.15780000      4989.5552        83.1083
    3353.10480 
    26275.5000         0.0005         0.0000         3.0787     0.85020000 
      -4.57020        55.6304        -1.6824        81.0848        10.7456 
    0.32839999       356.7242        13.3590        11.1289        13.8273 
       31.2766        12.0115     0.15170000      4989.6860        83.0883
    3353.25720 
    25729.5000        -0.0164         0.0000         2.8935     0.84189999 
      -4.60780        55.7981        -1.6375        81.3466        11.0889 
    0.32560000       356.8556        13.0627        11.6193        14.0270 
       31.0840        11.9616     0.15279999      4989.8071        83.0776
    3353.40960 
    25467.1992        -0.4828         0.0000         2.9073     0.85380000 
      -4.58350        55.8464        -1.5506        78.5066        10.6598 
    0.32650000       356.9821        13.2876        11.3937        14.0941 
       30.9915        11.8678     0.15760000      4989.9121        83.0693
    3353.56200 
    25015.5996        -0.0958         0.0000         2.9616     0.87159997 
      -4.53690        55.7331        -1.4507        84.2630         9.7159 
    0.32530001       356.9481        12.3663        11.1797        13.5438 
       30.8323        11.8850     0.16460000      4990.0693        83.0645
    3353.71440 
    25599.1992        -0.4050         0.0000         2.8877     0.86860001 
      -4.57560        55.8060        -1.4765        82.3324         9.8875 
    0.32409999       356.8528        12.3166        11.3799        14.0613 
       31.0380        11.9073     0.17200001      4990.2056        83.0469
    3353.86680 
    25822.7988         0.1550         0.0000         2.9041     0.85430002 
      -4.56110        55.9759        -1.4080        79.9361        10.0398 
    0.32699999       356.7986        12.8417        11.3400        14.1471 
       31.1169        12.2243     0.17580000      4990.3096        83.0358
    3354.01920 
    26185.0996        -0.0777         0.0000         2.7841     0.87879997 
      -4.57070        55.7368        -1.4948        82.9505         9.7214 
    0.33180001       356.7391        12.0332        11.4524        14.4816 
       31.2447        12.2063     0.18260001      4990.4526        83.0070
    3354.17160 
    25598.1016         0.2535         0.0000         2.7341     0.87300003 
      -4.56760        55.7972        -1.4091        81.9051        10.4815 
    0.32820001       356.6232        11.7815        11.0296        13.9991 
       31.0377        12.2243     0.18619999      4990.5815        83.0062
    3354.32400 
    25573.6992        -0.4661         0.0000         2.9819     0.87690002 
      -4.57450        55.8398        -1.4017        88.2335        10.3385 
    0.32380000       356.6743        11.6614        10.7503        14.1899 
       31.0290        12.2323     0.18810000      4990.6587        82.9880
    3354.47640 
    25332.5996        -0.6527         0.0000         2.9104     0.88900000 
      -4.57380        55.8800        -1.3245        85.8421        10.9391 
    0.31940001       356.8268        11.7105        11.1354        14.4833 
       30.9440        12.2796     0.18810000      4990.8291        82.9557
    3354.62880 
    24901.5000         0.0963         0.0000         2.8185     0.85939997 
      -4.56210        55.9206        -1.1603        81.7663        11.1107 
    0.31869999       356.7986        11.8226        10.6407        14.1110 
       30.7921        12.3492     0.18590000      4990.9492        82.9485
    3354.78120 
    24450.5000         0.0733         0.0000         2.9398     0.86530000 
      -4.56320        55.8496        -1.0401        83.3191        11.1107 
    0.31619999       356.7672        12.2668        11.2744        14.3514 
       30.6333        12.2015     0.18590000      4991.0527        82.9413
    3354.93360 
    24360.5996        -0.0496         0.0000         2.9700     0.87089998 
      -4.58850        55.8476        -0.8753        85.2365        11.4662 
    0.31299999       356.7651        12.0234        10.9229        13.9940 
       30.6017        12.4030     0.18250000      4991.1860        82.9317
    3355.08600 
    24666.7012         0.0804         0.0000         2.8828     0.85329998 
      -4.58480        55.8124        -0.8822        84.8591        11.7809 
    0.32110000       356.7491        11.7112        10.7705        14.6653 
       30.7094        12.3493     0.18350001      4991.3062        82.9227
    3355.23840 
    24354.4004        -0.2308         0.0000         2.7562     0.86699998 
      -4.59220        55.7966        -0.7773        80.1783        11.4376 
    0.32530001       356.7667        11.7276        10.8325        14.1524 
       30.5995        12.3896     0.18310000      4991.4531        82.9161
    3355.39080 
    24611.4004        -0.3231         0.0000         2.7972     0.86820000 
      -4.73330        55.9450        -0.7371        83.3451        12.0383 
    0.32659999       356.7633        11.7294        11.1495        14.0945 
       30.6899        12.4324     0.18220000      4991.5674        82.9027
    3355.54320 
    24902.9004        -0.1431         0.0000         2.8913     0.85490000 
      -4.60390        55.7855        -0.8274        86.0184        13.2839 
    0.32720000       356.8990        11.7576        10.7552        14.7718 
       30.7926        12.4324     0.17950000      4991.6694        82.8870
    3355.69560 
    24732.4004        -0.1009         0.0000         2.7536     0.85839999 
      -4.56960        55.7403        -0.6846        83.6859        12.5975 
    0.32780001       356.9524        11.5939        10.6836        14.1403 
       30.7326        12.5191     0.17760000      4991.8057        82.8835
    3355.84800 
    24811.5000         0.2056         0.0000         2.8089     0.86189997 
      -4.57540        55.8356        -0.7757        84.2901        12.6833 
    0.32720000       356.9876        11.7893        11.1464        14.3518 
       30.7604        12.3912     0.18269999      4991.9053        82.8868
    3356.00040 
    24411.5996        -0.1123         0.0000         2.7721     0.82590002 
      -4.57300        55.7499        -0.7104        80.4163        12.2542 
    0.31889999       356.5534        11.9083        10.8309        14.3772 
       30.6196        12.7162     0.18650000      4992.0127        82.8674
    3356.15280 
    24378.7988        -0.1590         0.0000         2.7154     0.83990002 
      -4.55960        55.7353        -0.7292        82.8862        12.4092 
    0.31619999       356.1952        11.4598        11.1704        15.1098 
       30.6081        13.2847     0.18950000      4992.1821        82.8438
    3356.30520 
    23875.2988        -0.6409         0.0000         2.5599     0.77569997 
      -4.56440        55.8153        -0.6791        83.6572        11.4819 
    0.31779999       356.0425        10.8712        10.2378        16.0450 
       30.4308        13.5444     0.18830000      4992.2817        82.8280
    3356.45760 
    23703.5996         0.5774         0.0000         2.4861     0.77380002 
      -4.57750        55.8061        -0.6172        84.0048        11.5677 
    0.31819999       356.0909        10.4676         9.8209        15.1525 
       30.3704        13.9286     0.18660000      4992.3931        82.8211
    3356.61000 
    23582.5000        -0.1875         0.0000         2.6107     0.78960001 
      -4.57710        55.6753        -0.7658        84.5214        11.9885 
    0.31799999       356.1805        10.7386        10.0730        16.2658 
       30.3278        13.7499     0.18700001      4992.5640        82.8158
    3356.76240 
    23491.5996         0.2744         0.0000         2.6256     0.81199998 
      -4.57280        55.6639        -0.7127        80.4482        11.5594 
    0.31630000       356.2763        11.2890        10.4315        15.5083 
       30.2959        13.9633     0.18510000      4992.6523        82.8043
