~Version Information Block
VERS .                 2.00:  CWLS LOG ASCII STANDARD - VERSION 2.00
WRAP .                  YES:  Multiple lines per depth step
~Well Information Block
#MNEM.UNIT        Data Type   Information
#---------- ----------------  -----------
STRT .M          3438.44880:  START DEPTH
STOP .M          3636.26400:  STOP DEPTH
STEP .M             0.15240:  STEP
NULL .              -999.25:  NULL VALUE
COMP .              Statoil:  COMPANY
WELL .          NO_15/9-F-5:  WELL
FLD  .                Volve:  FIELD
LOC  .                Volve:  LOCATION
CTRY .               Norway:  COUNTRY
STAT .                     :  STATE
CNTY .                     :  COUNTY
SRVC .         Schlumberger:  SERVICE COMPANY
DATE .           11/03/2015:  DATE
API  .                     :  API NUMBER
UWI  .             15/9-F-5:  UNIQUE WELL ID
LATI .     58° 26' 29.66" N:  LATITUDE
LONG .      1° 53' 14.99" E:  LONGITUDE
~Curve Information Block
#MNEM.UNIT         API CODE   Curve Description
#---------- ----------------  -----------------
DEPTH.M                    :  Depth Index
BSAL .PPM                  :  (RST-D)                 (6in)                   Borehole Salinity
CCLC .V                    :  (PSTP-B)                (1in)                   CCL Computed Amplitude
CIRF .                     :  (RST-D)                 (6in)                   Capture to Inelastic Rat
CIRN .                     :  (RST-D)                 (6in)                   Capture to Inelastic Rat
CVEL .M/SEC                 :  (WLWorkflow)            (1in)                   Cable Velocity
DSIG .CU                   :  (RST-D)                 (6in)                   Sigma Difference
FBEF .UA                   :  (RST-D)                 (6in)                   Far Effective Beam Curre
GR   .GAPI                 :  (PSTP-B)                (6in)                   Gamma Ray
IRAT .                     :  (RST-D)                 (6in)                   Inelastic Ratio
RB_PCMS.DEG                  :  (PCMS-A)                (6in)                   Relative Bearing
RSCF .                     :  (RST-D)                 (6in)                   Far Detector Effective U
RSCN .                     :  (RST-D)                 (6in)                   Near Detector Effective
SFFA .CU                   :  (RST-D)                 (6in)                   Sigma Formation Far Appa
SIBF .CU                   :  (RST-D)                 (6in)                   Sigma Borehole Fluid
SIGM .CU                   :  (RST-D)                 (6in)                   Formation Sigma (Neutron
TENS .LBF                  :  (WLWorkflow)            (1in)                   Cable Tension
TPHI .V/V                  :  (RST-D)                 (6in)                   Thermal Decay Porosity
WPRE .BAR                  :  (PSTP-B)                (6in)                   Well Pressure
WTEP .DEGC                 :  (PSTP-B)                (6in)                   Well Temperature
~Parameter Information Block
#MNEM.UNIT            Value   Description
#---------- ----------------  -----------
APD  .M                  54:  Elevation of Depth Reference (LMF) Above Permanent Datum
CLAB .              Country:  :County Label
ECF  .M             -999.25:  Elevation of Casing Flange above Permanent Datum
EDF  .M                  54:  Elevation of Drill Floor Above Permanent Datum
EGL  .M                 -91:  Elevation of Ground Level Above Permanent Datum
EKB  .M             -999.25:  Elevation of Kelly Bushing Above Permanent Datum
EPD  .M                   0:  Elevation of Permanent Datum (PDAT) above Mean Sea Level
FL1  .            North Sea:  Field Location Line 1
FL2  .     Norwegian Sector:  Field Location Line 2
LMF  .                   DF:  Logging Measured From
LUL  .                 NOBO:  Logging Unit Location
LUN  .          ONCC-A 3837:  Logging Unit Number
PDAT .                  MSL:  Local Permanent Datum
RIGN .      Maersk Inspirer:  Rig Name
RIGTYP.               Jackup:  Rig Type
SON  .           C2TQ-00038:  Service Order Number
TAPE_NAME.     RST_SIGMA__03Nov15_171237.las:  
TOOL_STRING.              UNKNOWN:  
WN   .             15/9-F-5:  WELL NAME
PROJECT.     SLEIPNER_OST@st-vlinapp01:  
SET  .       RSTD_1115_SIG1:  
~Other Information Block
~Ascii Log Data
# ...
    3590.69640 
    44132.9297        -0.0160         1.8673       0.653730     -0.0774738 
       -0.0865       109.6321        56.7453       0.313010       353.1530 
        5.6350         6.0229        20.6037        37.6475        19.0925 
     4020.2000       0.287390       368.1080        72.3136
    3590.84880 
    43849.3789         0.0532         1.8799       0.653840     -0.0774700 
        0.1945       109.5763        58.2041       0.312610       353.3221 
        5.8009         6.3880        21.0838        37.5452        19.2750 
     3974.2490       0.285530       368.1096        72.3030
    3591.00120 
    43894.8906         0.1331         1.8751       0.656800     -0.0777240 
        0.2517       113.5313        57.0886       0.311260       353.4410 
        5.7272         6.5234        21.6422        37.5616        19.6778 
     4022.0005       0.282030       368.1244        72.3018
    3591.15360 
    43688.6211         0.0515         1.9504       0.671240     -0.0774748 
        0.5403       119.0874        52.1060       0.309260       353.5120 
        5.5057         6.2938        21.8832        37.4873        19.9720 
     3999.7512       0.281710       368.1358        72.2918
    3591.30600 
    43607.7188        -0.0605         1.8958       0.655170     -0.0779858 
        0.7701       113.7489        49.1471       0.307970       353.5003 
        5.7920         6.5339        22.0304        37.4581        20.0216 
     3987.0000       0.279850       368.1379        72.2798
    3591.45840 
    43194.6992         0.0043         1.8411       0.647690     -0.0762000 
        0.9051       108.2359        44.7791       0.311650       353.4922 
        5.7507         6.2878        21.8424        37.3093        19.8203 
     4027.4995       0.275910       368.1547        72.2554
    3591.61080 
    42716.7188        -0.0582         1.8697       0.639130     -0.0774738 
        1.0839       106.7003        41.9473       0.311870       353.4971 
        5.8151         5.9992        21.3107        37.1372        20.0169 
     4012.7991       0.265860       368.1639        72.2453
    3591.76320 
    42681.6211        -0.0017         1.8376       0.613660     -0.0772162 
        1.1766       107.7546        41.8970       0.312000       353.5601 
        5.8873         6.2126        22.6345        37.1246        19.9132 
     4022.2007       0.262690       368.1584        72.2407
    3591.91560 
    43105.0000         0.0336         1.8323       0.625380     -0.0772238 
        1.3580       111.1470        43.8900       0.314590       353.6913 
        5.7151         6.2290        21.5289        37.2770        19.6781 
     4058.3994       0.264220       368.1931        72.1799
    3592.06800 
    42941.8125         0.0096         1.7586       0.625670     -0.0774700 
        1.5682       105.2607        43.5024       0.314190       353.9344 
        5.7931         6.2663        20.6032        37.2183        19.2280 
     3989.6011       0.265820       368.1856        72.1611
    3592.22040 
    42491.9414         0.0375         1.8774       0.633270     -0.0771573 
        1.8542       107.8760        44.0090       0.314230       353.8735 
        5.9051         6.3795        21.2681        37.0563        18.9531 
     4026.2495       0.256750       368.1891        72.1329
    3592.37280 
    42053.6992        -0.0105         1.9011       0.613670     -0.0779897 
        2.1740       104.5490        43.4554       0.313150       353.8149 
        5.9167         5.8075        20.6643        36.8986        18.9810 
     4023.0010       0.234460       368.2236        72.0714
    3592.52520 
    41867.6797         0.0024         1.9859       0.636190     -0.0765128 
        2.1952       105.7521        43.4199       0.316090       353.7384 
        6.2916         6.1350        20.6317        36.8317        18.6635 
     3972.5000       0.209550       368.2139        72.0588
    3592.67760 
    41556.5000        -0.0697         2.0517       0.622810     -0.0774855 
        2.3776       107.7183        43.2953       0.318130       353.7568 
        6.4202         6.1455        20.2534        36.7198        18.1289 
     4004.2002       0.186350       368.2245        72.0397
    3592.83000 
    41413.1992        -0.0036         2.1163       0.609000     -0.0772083 
        2.3658       108.3467        40.3778       0.320760       353.6655 
        6.5325         5.7721        18.9975        36.6683        17.5262 
     4003.8000       0.165010       368.2531        72.0042
    3592.98240 
    41887.3594         0.0022         2.0562       0.596160     -0.0768398 
        2.3550        99.3451        39.4338       0.325450       353.3054 
        7.0079         5.9817        18.7754        36.8388        17.1336 
     3973.2507       0.144440       368.2402        72.0032
    3593.13480 
    42287.1836        -0.1100         2.1212       0.583820     -0.0784938 
        2.3663        99.4410        37.2415       0.331510       353.1830 
        7.2685         5.9835        19.0837        36.9826        17.0387 
     4044.4006       0.123840       368.2661        71.9854
    3593.28720 
    42166.4688         0.0554         2.1304       0.586640     -0.0765175 
        2.2104        94.9631        35.4644       0.339410       352.8594 
        7.8246         6.1967        18.7703        36.9392        16.8163 
     4017.5000       0.111830       368.2739        71.9825
    3593.43960 
    42085.4805        -0.0065         2.0288       0.576110     -0.0774738 
        2.0232        91.0235        32.5469       0.354430       352.6306 
        8.0419         6.2618        18.2122        36.9101        16.4295 
     4025.7998       0.107890       368.2679        71.9849
    3593.59200 
    42168.1211         0.1189         1.8719       0.576080     -0.0762000 
        1.6993        87.5856        31.9462       0.360670       352.6344 
        7.7029         6.3160        18.0280        36.9398        15.6616 
     4018.9995       0.113290       368.3001        71.9234
    3593.74440 
    42003.4922        -0.0014         1.9495       0.571430     -0.0767157 
        1.3355        90.7364        29.5602       0.362420       352.6992 
        7.5795         6.1835        16.5481        36.8806        14.8704 
     3964.6001       0.118830       368.2935        71.9019
    3593.89680 
    42043.3711        -0.0532         1.9268       0.565200     -0.0769658 
        1.0265        89.0041        30.5041       0.357180       352.8234 
        7.6279         6.2027        15.8920        36.8949        13.9117 
     4033.6008       0.127260       368.3077        71.8916
    3594.04920 
    42035.2109         0.1091         2.0110       0.584640     -0.0769697 
        0.7129        90.1227        28.3339       0.352870       352.8058 
        8.2077         6.5483        15.2122        36.8920        13.8000 
     3996.9995       0.130000       368.3271        71.8741
    3594.20160 
    41614.5195         0.0003         2.0386       0.593380     -0.0772238 
        0.5089        95.7908        27.4730       0.346560       352.9301 
        7.7740         6.5132        16.2584        36.7407        14.1562 
     3988.4006       0.132500       368.3190        71.8490
    3594.35400 
    42143.7617         0.0370         2.1060       0.594560     -0.0759422 
        0.2485        95.7591        27.9879       0.337810       353.0881 
        8.0820         6.7748        17.0286        36.9310        14.8565 
     3999.2004       0.132560       368.3474        71.8070
    3594.50640 
    42629.7305        -0.0056         2.1250       0.587230     -0.0769658 
        0.1028        96.6561        30.1165       0.335820       353.2314 
        7.8649         6.4773        17.3824        37.1059        15.2806 
     4040.8013       0.136360       368.3453        71.7944
    3594.65880 
    43211.8125        -0.0694         2.0926       0.616870     -0.0768413 
       -0.0672        97.4176        28.6578       0.332240       353.2013 
        7.6570         6.6848        17.5626        37.3155        15.5846 
     4044.1667       0.143670       368.3568        71.7814
