~Version Information Block
VERS .                 2.00:  CWLS LOG ASCII STANDARD - VERSION 2.00
WRAP .                   NO:  One line per depth step
~Well Information Block
#MNEM.UNIT        Data Type   Information
#---------- ----------------  -----------
STRT .M          3460.08960:  START DEPTH
STOP .M          3530.04120:  STOP DEPTH
STEP .M             0.15240:  STEP
NULL .              -999.25:  NULL VALUE
COMP .              Statoil:  COMPANY
WELL .          NO_15/9-F-5:  WELL
FLD  .                Volve:  FIELD
LOC  .                Volve:  LOCATION
CTRY .               Norway:  COUNTRY
STAT .                     :  STATE
CNTY .                     :  COUNTY
SRVC .         Schlumberger:  SERVICE COMPANY
DATE .           11/04/2015:  DATE
API  .                     :  API NUMBER
UWI  .             15/9-F-5:  UNIQUE WELL ID
LATI .     58° 26' 29.66" N:  LATITUDE
LONG .      1° 53' 14.99" E:  LONGITUDE
~Curve Information Block
#MNEM.UNIT         API CODE   Curve Description
#---------- ----------------  -----------------
DEPTH.M                    :  Depth Index
CCLC .V                    :  (PSTP-B)                (1in)                   CCL Computed Amplitude
CVEL .M/SEC                 :  (WLWorkflow)            (1in)                   Cable Velocity
FBEF .UA                   :  (RST-D)                 (6in)                   Far Effective Beam Curre
FCOR .                     :  (RST-D)                 (6in)                   Far Carbon/Oxygen Ratio
FERD .                     :  (RST-D)                 (6in)                   Far IC Mode Capture Opti
FIRD .                     :  (RST-D)                 (6in)                   Far Inelastic Optimizati
GR   .GAPI                 :  (PSTP-B)                (6in)                   Gamma Ray
NCOR .                     :  (RST-D)                 (6in)                   Near Carbon/Oxygen Ratio
NERD .                     :  (RST-D)                 (6in)                   Near IC Mode Capture Opt
NIRD .                     :  (RST-D)                 (6in)                   Near Inelastic Optimizat
RB_PCMS.DEG                  :  (PCMS-A)                (6in)                   Relative Bearing
TENS .LBF                  :  (WLWorkflow)            (1in)                   Cable Tension
WPRE .BAR                  :  (PSTP-B)                (6in)                   Well Pressure
WTEP .DEGC                 :  (PSTP-B)                (6in)                   Well Temperature
~Parameter Information Block
#MNEM.UNIT            Value   Description
#---------- ----------------  -----------
APD  .M                  54:  Elevation of Depth Reference (LMF) Above Permanent Datum
CLAB .              Country:  :County Label
ECF  .M             -999.25:  Elevation of Casing Flange above Permanent Datum
EDF  .M                  54:  Elevation of Drill Floor Above Permanent Datum
EGL  .M                 -91:  Elevation of Ground Level Above Permanent Datum
EKB  .M             -999.25:  Elevation of Kelly Bushing Above Permanent Datum
EPD  .M                   0:  Elevation of Permanent Datum (PDAT) above Mean Sea Level
FL1  .            North Sea:  Field Location Line 1
FL2  .     Norwegian Sector:  Field Location Line 2
LMF  .                   DF:  Logging Measured From
LUL  .                 NOBO:  Logging Unit Location
LUN  .          ONCC-A 3837:  Logging Unit Number
PDAT .                  MSL:  Local Permanent Datum
RIGN .      Maersk Inspirer:  Rig Name
RIGTYP.               Jackup:  Rig Type
SON  .           C2TQ-00038:  Service Order Number
TAPE_NAME.     RST_IC_Pass_4___04Nov15_021221.las:  
TOOL_STRING.              UNKNOWN:  
WN   .             15/9-F-5:  WELL NAME
PROJECT.     SLEIPNER_OST@st-vlinapp01:  
SET  .        RSTD_1115_IC4:  
~Other Information Block
# 
~A       DEPTH           CCLC           CVEL           FBEF           FCOR           FERD           FIRD             GR           NCOR           NERD           NIRD        RB_PCMS           TENS           WPRE           WTEP 
# ...
    3493.00800       0.004420    -0.00886100       134.2825      -0.036370         5.8754         5.8754       147.0103       0.017330         4.1185         4.1185       352.3056      3937.1396       359.4376        84.0478
    3493.16040       0.004980    -0.00889050       131.3905       0.153060         5.8715         5.8715       150.5653       0.012960         4.1383         4.1383       352.2706      3830.2881       359.4459        84.0330
    3493.31280      -0.005060    -0.00865417       130.8841       0.154380         5.9589         5.9589       149.1158      -0.052550         4.1102         4.1102       352.2482      3867.9998       359.4608        84.0125
    3493.46520      -0.004490    -0.00886167       131.1172      -0.113280         5.8289         5.8289       150.6384       0.079130         4.1363         4.1363       352.2375      3896.6360       359.4718        84.0031
    3493.61760      -0.000170    -0.00873933       131.1873       0.055720         5.7123         5.7123       148.3479       0.021600         4.1192         4.1192       352.1690      3966.4277       359.4814        83.9833
    3493.77000      -0.005170    -0.00913817       131.1729      -0.212220         5.7826         5.7826       146.8246       0.109660         4.1270         4.1270       352.0341      3965.7803       359.4941        83.9575
    3493.92240      -0.005820    -0.00915767       129.6520       0.051570         5.7954         5.7954       144.0665       0.032770         4.1253         4.1253       352.2461      4014.6584       359.5073        83.9443
    3494.07480      -0.015730    -0.00920017       125.4132       0.132030         5.9475         5.9475       143.2599       0.037420         4.1118         4.1118       352.3416      4063.9028       359.5167        83.9279
    3494.22720      -0.005200    -0.00928367       123.6984      -0.003120         5.9263         5.9263       137.9498       0.094530         4.1460         4.1460       352.4168      4133.8564       359.5296        83.9164
    3494.37960       0.013640    -0.00954100       120.9007       0.190300         6.0209         6.0209       135.4288       0.010470         4.1638         4.1638       352.2651      4003.1211       359.5395        83.9049
    3494.53200      -0.005510    -0.00961650       119.3490       0.152980         5.8201         5.8201       134.7997       0.013690         4.1423         4.1423       352.1534      4022.0703       359.5491        83.8934
    3494.68440       0.019110    -0.00949533       118.1649       0.187360         5.8695         5.8695       133.4895       0.012390         4.1650         4.1650       351.9839      3966.9045       359.5607        83.8837
    3494.83680      -0.004750    -0.00926200       118.2036       0.106190         5.9163         5.9163       131.7902      -0.025820         4.2016         4.2016       352.1305      3867.1948       359.5716        83.8767
    3494.98920       0.005230    -0.00916250       119.4325      -0.189480         5.7530         5.7530       134.5773       0.068680         4.2465         4.2465       352.2090      3916.5000       359.5837        83.8713
    3495.14160      -0.004590    -0.00925317       119.8040       0.157460         5.9347         5.9347       132.4670       0.068690         4.2424         4.2424       352.3091      3810.9050       359.5945        83.8588
    3495.29400      -0.004570    -0.00869717       120.7608       0.133420         5.9749         5.9749       135.4363       0.033290         4.2191         4.2191       352.2915      3835.3484       359.6059        83.8554
    3495.44640      -0.004950    -0.00871317       121.9990       0.194200         5.9657         5.9657       138.0235       0.076740         4.1683         4.1683       352.3172      3922.3945       359.6178        83.8489
    3495.59880       0.023820    -0.00868833       122.8127       0.095550         5.9707         5.9707       137.4250       0.058270         4.2321         4.2321       352.2530      3914.0002       359.6272        83.8394
    3495.75120      -0.004630    -0.00873933       122.6318      -0.182790         5.9861         5.9861       133.3405       0.063880         4.2656         4.2656       352.1873      3990.9521       359.6385        83.8265
    3495.90360      -0.004100    -0.00892083       121.0321       0.103040         5.9261         5.9261       135.2946       0.007950         4.2320         4.2320       352.1805      4012.5720       359.6497        83.8225
    3496.05600       0.006940    -0.00911850       120.0211      -0.068080         5.9834         5.9834       129.6224       0.031010         4.2328         4.2328       352.2230      3997.0266       359.6605        83.8147
    3496.20840       0.000320    -0.00910733       118.9620       0.023090         6.0306         6.0306       123.7791      -0.003450         4.2313         4.2313       352.2393      4147.1475       359.6703        83.8048
    3496.36080       0.038770    -0.00959150       117.5921       0.173370         6.1139         6.1139       122.4789       0.073650         4.2003         4.2003       352.2543      4063.6060       359.6819        83.7961
    3496.51320      -0.101920    -0.00952550       116.9841      -0.053170         6.0938         6.0938       123.5924       0.001670         4.2395         4.2395       352.6966      4010.3330       359.6947        83.7909
    3496.66560      -0.006150    -0.00947867       117.0111       0.049290         5.9676         5.9676       121.8281      -0.021870         4.1802         4.1802       352.5213      4067.5852       359.7079        83.7888
    3496.81800       0.008610    -0.00960283       117.3509       0.031660         6.0593         6.0593       123.1669      -0.051630         4.1977         4.1977       352.4238      3984.3901       359.7166        83.7823
    3496.97040      -0.000600    -0.00946183       117.7294       0.131000         5.9953         5.9953       126.3542      -0.014430         4.2433         4.2433       352.3058      3863.2991       359.7275        83.7731
    3497.12280       0.009750    -0.00901133       117.1504       0.068760         6.0361         6.0361       127.3879       0.088750         4.2348         4.2348       352.3228      3880.3103       359.7386        83.7722
    3497.27520       0.014170    -0.00886100       118.1371      -0.210420         6.0157         6.0157       128.6807       0.001490         4.2396         4.2396       352.4943      3836.3713       359.7507        83.7696
    3497.42760       0.004550    -0.00919300       118.0661       0.046620         5.9682         5.9682       130.9048       0.083910         4.2864         4.2864       352.6161      3787.1675       359.7586        83.7601
    3497.58000      -0.015100    -0.00876950       118.1623       0.054770         5.9087         5.9087       131.1919       0.111620         4.2960         4.2960       352.3883      3834.5010       359.7709        83.7501
    3497.73240      -0.005200    -0.00850650       120.5659       0.053110         5.7715         5.7715       131.1783       0.071270         4.3172         4.3172       352.1819      3901.4424       359.7828        83.7410
    3497.88480      -0.005070    -0.00886267       120.4254       0.105210         5.7539         5.7539       130.8013       0.090020         4.2899         4.2899       352.1270      3954.1084       359.7932        83.7350
    3498.03720      -0.005000    -0.00891983       123.3298      -0.039820         5.6918         5.6918       133.4287       0.037440         4.3148         4.3148       352.1832      3874.2336       359.8048        83.7310
    3498.18960       0.009990    -0.00880167       125.1590      -0.028910         5.6003         5.6003       137.5178      -0.059890         4.3166         4.3166       352.1884      3982.6748       359.8155        83.7286
    3498.34200       0.010050    -0.00913200       128.1434       0.009580         5.5752         5.5752       139.0213       0.076470         4.2996         4.2996       352.0897      4094.1665       359.8270        83.7291
