~Version Information Block
VERS .                 2.00:  CWLS LOG ASCII STANDARD - VERSION 2.00
WRAP .                   NO:  One line per depth step
~Well Information Block
#MNEM.UNIT        Data Type   Information
#---------- ----------------  -----------
STRT .M          3457.23500:  START DEPTH
STOP .M          3635.08580:  STOP DEPTH
STEP .M             0.15240:  STEP
NULL .              -999.25:  NULL VALUE
COMP .                     :  COMPANY
WELL .          NO_15/9-F-5:  WELL
FLD  .                     :  FIELD
LOC  .                     :  LOCATION
CTRY .                     :  COUNTRY
STAT .                     :  STATE
CNTY .                     :  COUNTY
SRVC .                     :  SERVICE COMPANY
DATE .                     :  DATE
API  .                     :  API NUMBER
UWI  .                     :  UNIQUE WELL ID
~Curve Information Block
#MNEM.UNIT         API CODE   Curve Description
#---------- ----------------  -----------------
DEPTH.M                    :  
SAT201IC_BHOF.                     :  
SAT201IC_BVW.                     :  
SAT201IC_CRRA.                     :  Near-Far Count Rate Ratio
SAT201IC_FBEF.UA                   :  RST Far Effective Beam Current
SAT201IC_FCOR.                     :  
SAT201IC_GR.GAPI                 :  Gamma Ray
SAT201IC_NCOR.                     :  
SAT201IC_SO.                     :  
SAT201IC_SW.                     :  
SAT201IC_WPRE.PSI                  :  Well Pressure
SAT201IC_WTEP.DEGC                 :  Well Temperature
SAT201SI_BSAL.PPM                  :  Borehole Salinity
SAT201SI_GR.GAPI                 :  Gamma Ray
SAT201SI_IRAT.                     :  RST Inelastic Ratio
SAT201SI_RSCF.                     :  RST Far Detector Effective Unregulated Capture Count Rate
SAT201SI_RSCN.                     :  RST Near Detector Effective Unregulated Capture Count Rate
SAT201SI_SIGR.CU                   :  Formation Sigma (Neutron Capture Cross Section)
SAT201SI_TPHI.V/V                  :  Thermal Decay Porosity
~Parameter Information Block
#MNEM.UNIT            Value   Description
#---------- ----------------  -----------
CUR_INT_BOT.M           3635.2382:  
PROJECT.     SLEIPNER_OST@st-vlinapp01:  
SET  .            RSTD_0912:  
~Other Information Block
# 
~A       DEPTH  SAT201IC_BHOF   SAT201IC_BVW  SAT201IC_CRRA  SAT201IC_FBEF  SAT201IC_FCOR    SAT201IC_GR  SAT201IC_NCOR    SAT201IC_SO    SAT201IC_SW  SAT201IC_WPRE  SAT201IC_WTEP  SAT201SI_BSAL    SAT201SI_GR  SAT201SI_IRAT  SAT201SI_RSCF  SAT201SI_RSCN  SAT201SI_SIGR  SAT201SI_TPHI 
# ...
    3479.33300     -0.0119200       0.089120         2.8179       109.1362      0.0420700        32.7241      0.0220500       0.157400         0.3831      5015.3589        96.2689     29570.4004        18.8561       0.334300        11.5256        10.0468        12.9239       0.172500
    3479.48540     -0.0133500       0.085940         2.8052       109.8940      0.0500600        31.8277      0.0235300       0.176800         0.3725      5015.4893        96.2663     29561.3008        17.0291       0.330900        11.1577        10.3841        12.7795       0.175700
    3479.63780     -0.0142100       0.065610         2.8290       111.1155      0.0619800        31.4979      0.0219900       0.205700         0.2931      5015.6548        96.2639     29328.3008        15.4735       0.323700        11.7829        10.7153        12.9038       0.176500
    3479.79020     -0.0151400       0.035650         2.9043       113.2051      0.0669000        31.0444      0.0317400       0.217600         0.1612      5015.8135        96.2611     29307.8008        14.1337       0.314400        11.8478        10.6910        12.8199       0.186300
    3479.94260     -0.0155300       0.003120         3.0294       113.8900      0.0571300        30.6728      0.0340300       0.195100         0.0141      5015.9614        96.2597     29414.5996        14.6320       0.315100        10.6000         9.9809        13.0357       0.197500
    3480.09500     -0.0159500       0.000060         3.0270       112.3440      0.0505800        30.5791      0.0243200       0.179000         0.0003      5016.0757        96.2572     29198.7988        15.1468       0.324500        10.1926        10.2775        12.9945       0.208500
    3480.24740     -0.0155100       0.000000         2.8985       109.2062      0.0460000        30.9315      0.0183200       0.167300         0.0000      5016.2197        96.2549     29070.1016        16.2264       0.334200        10.8615        10.6381        12.9751       0.206300
    3480.39980     -0.0144600       0.000000         2.8188       108.4620      0.0532500        31.1354      0.0158600       0.184200         0.0000      5016.3706        96.2533     28453.1992        16.3769       0.338100        11.3330        10.5562        12.8247       0.195600
    3480.55220     -0.0136700       0.013240         2.8032       108.1407      0.0619600        31.2708      0.0066600       0.203700         0.0568      5016.5078        96.2517     27749.7012        16.7201       0.337400        11.8289        10.8323        12.7098       0.186000
    3480.70460     -0.0134600       0.041970         2.7940       108.1492      0.0736600        31.0869     -0.0016600       0.229300         0.1796      5016.6440        96.2519     27677.0996        17.3845       0.335900        12.0865        10.8244        12.6223       0.182100
    3480.85700     -0.0129200       0.053680         2.7866       108.7785      0.0707600        31.1016      0.0018100       0.224800         0.2399      5016.7881        96.2501     27218.2012        16.7838       0.333400        12.6789        11.3006        12.4069       0.182300
    3481.00940     -0.0126400       0.050460         2.8071       107.8823      0.0725400        31.3434      0.0074900       0.230800         0.2353      5016.9434        96.2473     27075.5996        16.2330       0.330700        11.7035        11.1292        12.4639       0.179600
    3481.16180     -0.0125600       0.045130         2.7828       108.2097      0.0580100        31.6610      0.0056100       0.197400         0.2079      5017.0820        96.2475     26552.5000        16.5807       0.334100        11.6019        10.6301        12.4385       0.177200
    3481.31420     -0.0120800       0.044410         2.7965       107.3576      0.0580800        31.9712      0.0092100       0.196300         0.1995      5017.2236        96.2437     26312.5996        18.4907       0.333200        11.8934        10.8752        12.6544       0.174900
    3481.46660     -0.0108600       0.048480         2.7784       108.3084      0.0445800        32.6287      0.0049500       0.164100         0.2154      5017.3818        96.2434     26230.5000        19.6450       0.335900        11.6547        10.6394        12.7477       0.174600
    3481.61900     -0.0097000       0.057650         2.8024       109.0542      0.0462600        33.1466     -0.0001100       0.167800         0.2571      5017.4932        96.2419     25616.9004        20.9487       0.331000        11.7274        10.6916        12.9182       0.174200
    3481.77140     -0.0098900       0.071340         2.8241       109.4480      0.0453100        32.8554     -0.0086500       0.165800         0.3197      5017.6450        96.2400     25745.4004        21.5494       0.334600        11.4965        10.3621        13.0205       0.172800
    3481.92380     -0.0112900       0.079360         2.8365       108.3501      0.0466000        32.4387     -0.0088300       0.170200         0.3642      5017.7954        96.2383     25785.1016        22.3798       0.336600        11.1801        10.5908        12.9123       0.171400
    3482.07620     -0.0132900       0.083140         2.8056       108.5107      0.0383400        32.5345     -0.0078400       0.151500         0.3850      5017.9541        96.2367     26081.8008        21.0705       0.341000        11.7756        10.4893        12.8095       0.167400
    3482.22860     -0.0159100       0.082490         2.8158       107.3183      0.0367100        31.8213      0.0038000       0.148500         0.3825      5018.0942        96.2347     25455.4004        20.4145       0.339200        12.0496        10.8967        12.4340       0.165000
    3482.38100     -0.0186700       0.077780         2.7776       107.6210      0.0269700        30.7670      0.0101200       0.125700         0.3631      5018.2393        96.2334     25196.5000        19.2519       0.336100        12.4018        11.5208        12.1555       0.161600
    3482.53340     -0.0200200       0.078280         2.7876       107.1070      0.0187200        30.6002      0.0148200       0.105100         0.3617      5018.3535        96.2332     25055.5996        18.5654       0.330700        12.9866        11.4664        11.8092       0.159500
    3482.68580     -0.0206400       0.084240         2.7917       106.6113      0.0175700        30.3523      0.0163500       0.102000         0.3828      5018.5088        96.2280     24993.0000        17.1537       0.331200        12.6889        11.5070        11.4398       0.156300
    3482.83820     -0.0209600       0.092360         2.7881       107.0440      0.0195500        29.3755      0.0191900       0.106900         0.4160      5018.6729        96.2278     25011.9004        17.4969       0.331700        13.4368        11.6104        11.0915       0.151700
    3482.99060     -0.0205700       0.103170         2.7868       106.6282      0.0278200        28.7037      0.0140900       0.126900         0.4580      5018.7998        96.2231     24923.7988        15.5039       0.338700        13.4993        11.8991        10.8362       0.149600
    3483.14300     -0.0198300       0.106160         2.7797       106.0725      0.0304600        27.8239      0.0073000       0.133400         0.4745      5018.9463        96.2225     25242.3984        14.1753       0.340400        13.8969        11.9651        10.7663       0.149900
    3483.29540     -0.0200300       0.115490         2.7563       105.8658      0.0299700        26.4573      0.0044300       0.131600         0.5048      5019.0884        96.2206     25213.0996        12.7165       0.339900        13.6625        12.3421        10.7400       0.152000
    3483.44780     -0.0205600       0.121920         2.7480       105.7024      0.0165800        25.9000     -0.0005100       0.098400         0.5312      5019.2124        96.2157     25138.9004        11.9691       0.334200        14.7800        12.5406        10.6557       0.150600
    3483.60020     -0.0209200       0.118740         2.7581       106.1095      0.0085900        25.5863     -0.0069500       0.078700         0.5334      5019.3701        96.2138     24894.5000        11.1913       0.332600        14.8377        12.6797        10.4698       0.149100
