~Version Information Block
VERS .                 2.00:  CWLS LOG ASCII STANDARD - VERSION 2.00
WRAP .                   NO:  One line per depth step
~Well Information Block
#MNEM.UNIT        Data Type   Information
#---------- ----------------  -----------
STRT .M          3470.91000:  START DEPTH
STOP .M          3530.04120:  STOP DEPTH
STEP .M             0.15240:  STEP
NULL .              -999.25:  NULL VALUE
COMP .              Statoil:  COMPANY
WELL .          NO_15/9-F-5:  WELL
FLD  .                Volve:  FIELD
LOC  .                Volve:  LOCATION
CTRY .               Norway:  COUNTRY
STAT .                     :  STATE
CNTY .                     :  COUNTY
SRVC .         Schlumberger:  SERVICE COMPANY
DATE .           11/03/2015:  DATE
API  .                     :  API NUMBER
UWI  .             15/9-F-5:  UNIQUE WELL ID
LATI .     58° 26' 29.66" N:  LATITUDE
LONG .      1° 53' 14.99" E:  LONGITUDE
~Curve Information Block
#MNEM.UNIT         API CODE   Curve Description
#---------- ----------------  -----------------
DEPTH.M                    :  Depth Index
CCLC .V                    :  (PSTP-B)                (1in)                   CCL Computed Amplitude
CVEL .M/SEC                 :  (WLWorkflow)            (1in)                   Cable Velocity
FBEF .UA                   :  (RST-D)                 (6in)                   Far Effective Beam Curre
FCOR .                     :  (RST-D)                 (6in)                   Far Carbon/Oxygen Ratio
FERD .                     :  (RST-D)                 (6in)                   Far IC Mode Capture Opti
FIRD .                     :  (RST-D)                 (6in)                   Far Inelastic Optimizati
GR   .GAPI                 :  (PSTP-B)                (6in)                   Gamma Ray
NCOR .                     :  (RST-D)                 (6in)                   Near Carbon/Oxygen Ratio
NERD .                     :  (RST-D)                 (6in)                   Near IC Mode Capture Opt
NIRD .                     :  (RST-D)                 (6in)                   Near Inelastic Optimizat
RB_PCMS.DEG                  :  (PCMS-A)                (6in)                   Relative Bearing
TENS .LBF                  :  (WLWorkflow)            (1in)                   Cable Tension
WPRE .BAR                  :  (PSTP-B)                (6in)                   Well Pressure
WTEP .DEGC                 :  (PSTP-B)                (6in)                   Well Temperature
~Parameter Information Block
#MNEM.UNIT            Value   Description
#---------- ----------------  -----------
APD  .M                  54:  Elevation of Depth Reference (LMF) Above Permanent Datum
CLAB .              Country:  :County Label
ECF  .M             -999.25:  Elevation of Casing Flange above Permanent Datum
EDF  .M                  54:  Elevation of Drill Floor Above Permanent Datum
EGL  .M                 -91:  Elevation of Ground Level Above Permanent Datum
EKB  .M             -999.25:  Elevation of Kelly Bushing Above Permanent Datum
EPD  .M                   0:  Elevation of Permanent Datum (PDAT) above Mean Sea Level
FL1  .            North Sea:  Field Location Line 1
FL2  .     Norwegian Sector:  Field Location Line 2
LMF  .                   DF:  Logging Measured From
LUL  .                 NOBO:  Logging Unit Location
LUN  .          ONCC-A 3837:  Logging Unit Number
PDAT .                  MSL:  Local Permanent Datum
RIGN .      Maersk Inspirer:  Rig Name
RIGTYP.               Jackup:  Rig Type
SON  .           C2TQ-00038:  Service Order Number
TAPE_NAME.     RST_IC_Pass3___03Nov15_234906.las:  
TOOL_STRING.              UNKNOWN:  
WN   .             15/9-F-5:  WELL NAME
PROJECT.     SLEIPNER_OST@st-vlinapp01:  
SET  .        RSTD_1115_IC3:  
~Other Information Block
# 
~A       DEPTH           CCLC           CVEL           FBEF           FCOR           FERD           FIRD             GR           NCOR           NERD           NIRD        RB_PCMS           TENS           WPRE           WTEP 
# ...
    3492.85560      -0.005460    -0.00938600       140.8963      -0.003880         5.8689         5.8689       139.9263       0.020680         4.1986         4.1986       352.4832      4008.0737       360.0975        83.8665
    3493.00800       0.016530    -0.00947917       142.1901       0.147920         5.8860         5.8860       143.4733      -0.115880         4.1545         4.1545       352.3752      4049.1462       360.1071        83.8641
    3493.16040       0.012470    -0.00946233       132.5131       0.089720         5.9328         5.9328       146.1834       0.116780         4.2030         4.2030       352.2704      4067.0996       360.1168        83.8616
    3493.31280      -0.021670    -0.00933500       130.6738       0.118220         5.9102         5.9102       143.7693       0.073050         4.2164         4.2164       352.3455      3965.6748       360.1289        83.8371
    3493.46520      -0.001620    -0.00922317       130.3354       0.060350         5.8717         5.8717       142.1680       0.061130         4.1552         4.1552       352.3544      4000.2390       360.1420        83.8164
    3493.61760       0.021520    -0.00928367       130.8550      -0.090420         5.8478         5.8478       141.4843       0.091110         4.2004         4.2004       352.5057      3965.7849       360.1522        83.7964
    3493.77000      -0.031320    -0.00907183       131.0792       0.111210         5.8522         5.8522       140.2912       0.106200         4.1846         4.1846       352.4842      3890.6201       360.1633        83.7767
    3493.92240      -0.002390    -0.00883350       129.6400      -0.007680         5.9542         5.9542       137.4902       0.033360         4.1959         4.1959       352.6194      3888.6665       360.1768        83.7641
    3494.07480      -0.002600    -0.00894700       127.1440       0.078370         5.8747         5.8747       135.1930       0.051980         4.2180         4.2180       352.6280      3864.4006       360.1883        83.7508
    3494.22720      -0.002860    -0.00870883       123.7939       0.140330         5.9679         5.9679       132.0587       0.073810         4.2410         4.2410       352.5028      3870.1670       360.1987        83.7355
    3494.37960      -0.003960    -0.00901433       121.6764       0.035790         5.9404         5.9404       129.0678       0.103580         4.2295         4.2295       352.4203      3904.2930       360.2109        83.7318
    3494.53200       0.020580    -0.00868367       120.5632       0.011670         5.8566         5.8566       127.0200       0.058050         4.2291         4.2291       352.3061      3978.6035       360.2196        83.7232
    3494.68440      -0.003580    -0.00870900       119.9102      -0.046490         5.8237         5.8237       126.6902       0.044850         4.1975         4.1975       352.1897      4035.9297       360.2334        83.7067
    3494.83680      -0.003010    -0.00892383       118.3646      -0.119160         5.8536         5.8536       126.6918       0.076190         4.1747         4.1747       352.1001      4081.7368       360.2438        83.6884
    3494.98920      -0.018600    -0.00910200       117.8122       0.123630         6.0423         6.0423       126.7842       0.012350         4.1545         4.1545       352.3123      3979.3567       360.2542        83.6693
    3495.14160      -0.004740    -0.00936683       119.0560       0.127160         6.0586         6.0586       128.6348       0.034240         4.1109         4.1109       352.7456      4042.2761       360.2687        83.6650
    3495.29400       0.009720    -0.00935500       119.8907      -0.094540         6.0613         6.0613       131.9533       0.044180         4.1058         4.1058       352.7703      4098.6582       360.2779        83.6442
    3495.44640      -0.004130    -0.00941700       120.8139       0.061710         6.1936         6.1936       134.8930       0.127850         4.1119         4.1119       352.5711      3977.5603       360.2895        83.6356
    3495.59880      -0.003960    -0.00928100       120.9107      -0.015410         6.1945         6.1945       135.5307       0.038270         4.0892         4.0892       352.5725      4055.6926       360.3001        83.6303
    3495.75120       0.014880    -0.00939850       121.9323      -0.002470         5.9963         5.9963       134.3340       0.147840         4.0999         4.0999       352.5086      3919.9260       360.3108        83.6148
    3495.90360      -0.004100    -0.00944800       121.6793      -0.052460         5.9086         5.9086       126.4227      -0.018910         4.0355         4.0355       352.4763      3797.7808       360.3250        83.6111
    3496.05600       0.028980    -0.00897900       121.3933       0.032950         5.8992         5.8992       117.8096       0.061350         4.0610         4.0610       352.3912      3931.3486       360.3348        83.6074
    3496.20840       0.004200    -0.00894700       119.9053      -0.293360         5.9739         5.9739       108.7292      -0.003200         4.0532         4.0532       352.3944      3869.6003       360.3461        83.5989
    3496.36080      -0.005740    -0.00871333       119.4617      -0.030200         5.9784         5.9784       106.1027       0.122410         4.0778         4.0778       352.3959      3833.2556       360.3577        83.5900
    3496.51320      -0.000400    -0.00886150       117.8949       0.004960         5.8298         5.8298       106.2229       0.130150         4.0984         4.0984       352.3233      3895.3635       360.3652        83.5812
    3496.66560      -0.005610    -0.00870900       117.7353       0.182450         5.9034         5.9034       107.6397       0.085970         4.1026         4.1026       352.4188      3905.2393       360.3795        83.5753
    3496.81800      -0.006300    -0.00870900       117.9411      -0.058690         5.7838         5.7838       109.5296      -0.069750         4.1301         4.1301       352.6002      4049.9062       360.3892        83.5676
    3496.97040       0.007480    -0.00904183       118.0723      -0.062620         5.9288         5.9288       112.2953      -0.005090         4.1660         4.1660       352.5829      4056.8818       360.4003        83.5621
    3497.12280       0.012080    -0.00923117       117.9556       0.144530         5.9346         5.9346       110.9995      -0.023460         4.1965         4.1965       352.5937      4049.9512       360.4088        83.5572
    3497.27520      -0.007330    -0.00925333       118.4508      -0.084880         5.8295         5.8295       109.1256      -0.010380         4.1834         4.1834       352.3434      4141.0234       360.4252        83.5556
    3497.42760      -0.006260    -0.00927150       118.6609       0.177990         5.9295         5.9295       108.9506      -0.041480         4.2511         4.2511       352.2062      4136.3496       360.4370        83.5503
    3497.58000      -0.006170    -0.00947917       120.5772       0.083380         5.8543         5.8543       110.3169       0.003630         4.1934         4.1934       352.1743      4010.2925       360.4482        83.5417
    3497.73240       0.008500    -0.00961633       120.0318       0.017000         5.7254         5.7254       110.9299       0.095750         4.2078         4.2078       352.2785      4035.8105       360.4587        83.5340
    3497.88480      -0.006100    -0.00937433       120.9880      -0.089280         5.5883         5.5883       112.1778       0.036930         4.1993         4.1993       352.3282      3957.7390       360.4711        83.5307
    3498.03720      -0.005650    -0.00934400       122.3717      -0.003750         5.6230         5.6230       114.3292      -0.038690         4.1830         4.1830       352.4162      3846.3799       360.4785        83.5278
    3498.18960      -0.004760    -0.00923683       124.3489      -0.044610         5.7423         5.7423       121.5681       0.075950         4.2442         4.2442       352.5757      3862.1816       360.4904        83.5227
