#------------------------------------------------------------------------------
#
#   Created by   : las_export
#   Created on   : 2009-06-18 13:07:55
#   Project      : VOLVE
#   User         : TONYG
#   Interpreters : *
#
#------------------------------------------------------------------------------
~VERSION INFORMATION
VERS. 2.0 : CWLS Log ASCII Standard - version 2.0
WRAP.  NO : One line per depth step

~WELL INFORMATION
#MNEMONIC   .UNIT                                           VALUE :DESCRIPTION
#------------------------------------------------------------------------------
STRT        .M                                       2560.0412 :START DEPTH
STOP        .M                                       3222.0668 :STOP DEPTH
STEP        .M                                          0.1524 :STEP
NULL        .                                        -999.2500 :NULL VALUE
COMP        .                                                  :COMPANY
WELL        .                                      15/9-F-15 C :WELL
FLD         .                                            VOLVE :FIELD
LOC         .                                          UNKNOWN :LOCATION
CNTY        .                                          UNKNOWN :COUNTY
STAT        .                                          UNKNOWN :STATE
CTRY        .                                           Norway :COUNTRY
SRVC        .                                          UNKNOWN :SERVICE COMPANY
DATE        .                                          UNKNOWN :LOG DATE
UWI         .                                   NO 15/9-F-15 C :UNIQUE WELL ID
XCOORD      .M                                   435053.550000 :SURFACE X
YCOORD      .M                                  6478560.360000 :SURFACE Y
LAT         .                                        58.441585 :LATITUDE
LON         .                                         1.887541 :LONGITUDE
ELEV        .M                                         54.9000 :SURFACE ELEV
ELEV_TYPE   .                                               KB :ELEV TYPE

~CURVE INFORMATION
#MNEMONIC   .UNIT          API CODE       : CURVE DESCRIPTION
#------------------------------------------------------------------------------
DEPTH       .M                            : Measured Depth
DT          .us/ft         UNKNOWN        : DT:UNKNOWN:rC:NONE:v1
GR          .API           UNKNOWN        : GR:UNKNOWN:rC:NONE:v1
~A     DEPTH           DT           GR 
# ...
  2742.92120  -999.250000    41.514365 
  2743.07360  -999.250000    39.520979 
  2743.22600  -999.250000    39.074918 
  2743.37840  -999.250000    38.582699 
  2743.53080  -999.250000    39.985210 
  2743.68320  -999.250000    42.035328 
  2743.83560  -999.250000    42.773497 
  2743.98800  -999.250000    43.683325 
  2744.14040  -999.250000    41.194853 
  2744.29280  -999.250000    39.004914 
  2744.44520  -999.250000    39.488628 
  2744.59760  -999.250000    40.337762 
  2744.75000  -999.250000    40.379143 
  2744.90240  -999.250000    38.815343 
  2745.05480  -999.250000    39.726779 
  2745.20720  -999.250000    40.616235 
  2745.35960  -999.250000    41.293248 
  2745.51200  -999.250000    40.380750 
  2745.66440  -999.250000    41.939602 
  2745.81680  -999.250000    42.020962 
  2745.96920  -999.250000    42.110198 
  2746.12160  -999.250000    40.893913 
  2746.27400  -999.250000    42.473853 
  2746.42640  -999.250000    43.821868 
  2746.57880  -999.250000    44.332428 
  2746.73120  -999.250000    44.070988 
  2746.88360  -999.250000    44.156341 
  2747.03600  -999.250000    45.216411 
  2747.18840  -999.250000    44.651573 
  2747.34080  -999.250000    42.821539 
  2747.49320  -999.250000    43.330773 
  2747.64560  -999.250000    44.669720 
  2747.79800  -999.250000    54.815083 
  2747.95040  -999.250000    64.187315 
  2748.10280  -999.250000    77.636177 
  2748.25520  -999.250000    79.396921 
  2748.40760  -999.250000    77.995583 
  2748.56000  -999.250000    68.147386 
  2748.71240  -999.250000    58.686825 
  2748.86480  -999.250000    48.260947 
  2749.01720  -999.250000    40.871904 
  2749.16960  -999.250000    38.784506 
  2749.32200  -999.250000    39.919169 
  2749.47440  -999.250000    39.750786 
  2749.62680  -999.250000    39.472412 
  2749.77920  -999.250000    38.922137 
  2749.93160  -999.250000    39.383520 
  2750.08400  -999.250000    38.522762 
  2750.23640  -999.250000    37.908688 
  2750.38880  -999.250000    39.439646 
  2750.54120  -999.250000    42.539157 
  2750.69360  -999.250000    41.756953 
  2750.84600  -999.250000    41.242094 
  2750.99840  -999.250000    39.236146 
  2751.15080  -999.250000    40.305509 
  2751.30320  -999.250000    41.977100 
  2751.45560  -999.250000    42.738295 
  2751.60800  -999.250000    41.512699 
  2751.76040  -999.250000    41.272503 
  2751.91280  -999.250000    41.991293 
  2752.06520  -999.250000    44.140037 
  2752.21760  -999.250000    44.649273 
  2752.37000  -999.250000    44.136045 
  2752.52240  -999.250000    43.568369 
  2752.67480  -999.250000    42.963821 
  2752.82720  -999.250000    49.010362 
  2752.97960  -999.250000    54.840232 
  2753.13200  -999.250000    57.206693 
  2753.28440  -999.250000    52.294986 
  2753.43680  -999.250000    45.185005 
  2753.58920  -999.250000    39.732159 
  2753.74160  -999.250000    36.733309 
  2753.89400  -999.250000    37.342181 
  2754.04640  -999.250000    38.341724 
  2754.19880  -999.250000    40.075617 
  2754.35120  -999.250000    41.761469 
  2754.50360  -999.250000    43.766379 
  2754.65600  -999.250000    44.306473 
  2754.80840  -999.250000    43.471687 
  2754.96080  -999.250000    43.002320 
  2755.11320  -999.250000    42.132006 
  2755.26560  -999.250000    40.643512 
  2755.41800  -999.250000    37.254258 
  2755.57040  -999.250000    36.127195 
  2755.72280  -999.250000    36.395039 
  2755.87520  -999.250000    38.603969 
  2756.02760  -999.250000    39.640994 
  2756.18000  -999.250000    42.139993 
  2756.33240  -999.250000    43.183399 
  2756.48480  -999.250000    43.815378 
  2756.63720  -999.250000    42.023800 
  2756.78960  -999.250000    42.086019 
  2756.94200  -999.250000    42.197066 
  2757.09440  -999.250000    41.285541 
  2757.24680  -999.250000    41.029222 
  2757.39920  -999.250000    39.727933 
  2757.55160  -999.250000    41.434159 
  2757.70400  -999.250000    40.627759 
  2757.85640  -999.250000    41.885014 
  2758.00880  -999.250000    41.018849 
  2758.16120  -999.250000    40.088100 
  2758.31360  -999.250000    39.958885 
  2758.46600  -999.250000    39.727933 
  2758.61840  -999.250000    41.386304 
  2758.77080  -999.250000    40.060101 
  2758.92320  -999.250000    39.629361 
  2759.07560  -999.250000    37.501795 
  2759.22800  -999.250000    37.530335 
  2759.38040  -999.250000    38.752953 
  2759.53280  -999.250000    40.172298 
  2759.68520  -999.250000    40.043066 
  2759.83760  -999.250000    39.491383 
  2759.99000  -999.250000    40.074277 
  2760.14240  -999.250000    41.303799 
  2760.29480  -999.250000    42.112865 
  2760.44720  -999.250000    40.780173 
  2760.59960  -999.250000    38.189160 
  2760.75200  -999.250000    35.142472 
  2760.90440  -999.250000    35.585775 
  2761.05680  -999.250000    37.040241 
  2761.20920  -999.250000    39.311387 
  2761.36160  -999.250000    40.110079 
  2761.51400  -999.250000    39.984685 
  2761.66640  -999.250000    40.955673 
  2761.81880  -999.250000    42.448005 
  2761.97120  -999.250000    47.149356 
  2762.12360  -999.250000    47.224055 
  2762.27600  -999.250000    45.690445 
  2762.42840  -999.250000    42.159135 
  2762.58080  -999.250000    44.190587 
  2762.73320  -999.250000    51.743655 
  2762.88560  -999.250000    64.217417 
  2763.03800  -999.250000    73.481983 
  2763.19040  -999.250000    76.109645 
  2763.34280  -999.250000    72.540282 
  2763.49520  -999.250000    67.847678 
  2763.64760  -999.250000    63.744240 
  2763.80000  -999.250000    55.904486 
  2763.95240  -999.250000    47.554698 
  2764.10480  -999.250000    41.115531 
  2764.25720  -999.250000    38.972750 
  2764.40960  -999.250000    39.477103 
  2764.56200  -999.250000    40.081024 
  2764.71440  -999.250000    41.886710 
  2764.86680  -999.250000    43.395120 
  2765.01920  -999.250000    42.663595 
  2765.17160  -999.250000    42.639505 
  2765.32400  -999.250000    43.443516 
  2765.47640  -999.250000    44.090842 
  2765.62880  -999.250000    43.834520 
  2765.78120  -999.250000    42.471033 
  2765.93360  -999.250000    44.080641 
  2766.08600  -999.250000    44.274659 
  2766.23840  -999.250000    45.369192 
  2766.39080  -999.250000    43.587527 
  2766.54320  -999.250000    41.736009 
  2766.69560  -999.250000    39.961010 
  2766.84800  -999.250000    38.654119 
  2767.00040  -999.250000    37.506218 
  2767.15280  -999.250000    34.534186 
  2767.30520  -999.250000    29.890326 
  2767.45760  -999.250000    25.324287 
  2767.61000  -999.250000    22.503666 
  2767.76240  -999.250000    21.601713 
  2767.91480  -999.250000    21.707794 
  2768.06720  -999.250000    21.353466 
  2768.21960  -999.250000    20.169129 
  2768.37200  -999.250000    19.304421 
  2768.52440  -999.250000    21.512393 
  2768.67680  -999.250000    23.775988 
  2768.82920  -999.250000    24.508577 
  2768.98160  -999.250000    22.237514 
  2769.13400  -999.250000    21.055934 
  2769.28640  -999.250000    19.482635 
  2769.43880  -999.250000    19.623393 
  2769.59120  -999.250000    20.776415 
  2769.74360  -999.250000    21.304098 
  2769.89600  -999.250000    20.509198 
  2770.04840  -999.250000    19.225899 
  2770.20080  -999.250000    20.532702 
  2770.35320  -999.250000    21.782494 
  2770.50560  -999.250000    20.269738 
  2770.65800  -999.250000    18.365501 
  2770.81040  -999.250000    17.542069 
  2770.96280  -999.250000    18.675713 
  2771.11520  -999.250000    20.193435 
  2771.26760  -999.250000    20.961378 
  2771.42000  -999.250000    19.816126 
  2771.57240  -999.250000    18.027303 
  2771.72480  -999.250000    18.453006 
  2771.87720  -999.250000    22.632449 
  2772.02960  -999.250000    25.225306 
  2772.18200  -999.250000    24.608081 
  2772.33440  -999.250000    20.561847 
  2772.48680  -999.250000    19.280845 
  2772.63920  -999.250000    19.445434 
  2772.79160  -999.250000    21.424455 
  2772.94400  -999.250000    21.446524 
  2773.09640  -999.250000    20.485019 
  2773.24880  -999.250000    21.026789 
