~Version Information Block
VERS .                 2.00:  CWLS LOG ASCII STANDARD - VERSION 2.00
WRAP .                   NO:  One line per depth step
~Well Information Block
#MNEM.UNIT        Data Type   Information
#---------- ----------------  -----------
STRT .M          3457.23500:  START DEPTH
STOP .M          3635.08580:  STOP DEPTH
STEP .M             0.15240:  STEP
NULL .              -999.25:  NULL VALUE
COMP .                     :  COMPANY
WELL .          NO_15/9-F-5:  WELL
FLD  .                     :  FIELD
LOC  .                     :  LOCATION
CTRY .                     :  COUNTRY
STAT .                     :  STATE
CNTY .                     :  COUNTY
SRVC .                     :  SERVICE COMPANY
DATE .                     :  DATE
API  .                     :  API NUMBER
UWI  .                     :  UNIQUE WELL ID
~Curve Information Block
#MNEM.UNIT         API CODE   Curve Description
#---------- ----------------  -----------------
DEPTH.M                    :  
SAT201IC_BHOF.                     :  
SAT201IC_BVW.                     :  
SAT201IC_CRRA.                     :  Near-Far Count Rate Ratio
SAT201IC_FBEF.UA                   :  RST Far Effective Beam Current
SAT201IC_FCOR.                     :  
SAT201IC_GR.GAPI                 :  Gamma Ray
SAT201IC_NCOR.                     :  
SAT201IC_SO.                     :  
SAT201IC_SW.                     :  
SAT201IC_WPRE.PSI                  :  Well Pressure
SAT201IC_WTEP.DEGC                 :  Well Temperature
SAT201SI_BSAL.PPM                  :  Borehole Salinity
SAT201SI_GR.GAPI                 :  Gamma Ray
SAT201SI_IRAT.                     :  RST Inelastic Ratio
SAT201SI_RSCF.                     :  RST Far Detector Effective Unregulated Capture Count Rate
SAT201SI_RSCN.                     :  RST Near Detector Effective Unregulated Capture Count Rate
SAT201SI_SIGR.CU                   :  Formation Sigma (Neutron Capture Cross Section)
SAT201SI_TPHI.V/V                  :  Thermal Decay Porosity
~Parameter Information Block
#MNEM.UNIT            Value   Description
#---------- ----------------  -----------
CUR_INT_BOT.M           3635.2382:  
PROJECT.     SLEIPNER_OST@st-vlinapp01:  
SET  .            RSTD_0912:  
~Other Information Block
# 
~A       DEPTH  SAT201IC_BHOF   SAT201IC_BVW  SAT201IC_CRRA  SAT201IC_FBEF  SAT201IC_FCOR    SAT201IC_GR  SAT201IC_NCOR    SAT201IC_SO    SAT201IC_SW  SAT201IC_WPRE  SAT201IC_WTEP  SAT201SI_BSAL    SAT201SI_GR  SAT201SI_IRAT  SAT201SI_RSCF  SAT201SI_RSCN  SAT201SI_SIGR  SAT201SI_TPHI 
# ...
    3501.43100     -0.0055700       0.026930         2.8395       107.8853      0.0774400        32.3869      0.0227300       0.236100         0.1181      5035.9624        95.2119     32868.3008        17.0850       0.331500        12.2549        10.7915        13.0766       0.185500
    3501.58340     -0.0076700       0.023410         2.8036       108.7773      0.0803600        32.9990      0.0231200       0.244100         0.1046      5036.1299        95.1973     32566.6016        16.5037       0.328200        11.8499        10.7749        13.0942       0.184700
    3501.73580     -0.0084700       0.021020         2.8244       108.7830      0.0732100        33.3407      0.0268300       0.229400         0.0952      5036.2524        95.1831     32505.2988        15.1058       0.320000        12.4034        11.5151        12.9406       0.187600
    3501.88820     -0.0089300       0.012400         2.8522       110.6592      0.0771000        33.3764      0.0237700       0.239000         0.0570      5036.3872        95.1670     31657.5000        16.2762       0.322100        11.6696        10.8250        12.8322       0.192500
    3502.04060     -0.0089600       0.004780         2.9058       110.4559      0.0778000        33.4740      0.0169400       0.240200         0.0219      5036.5239        95.1509     31002.8008        18.4431       0.321500        11.5928        10.8335        12.9083       0.195300
    3502.19300     -0.0082700       0.004310         2.8948       110.1268      0.0615500        33.1275      0.0178500       0.202800         0.0193      5036.6694        95.1376     30720.6992        17.7788       0.327200        11.3985        10.5460        12.7816       0.196800
    3502.34540     -0.0081000       0.008290         2.8761       109.3971      0.0527300        32.1282      0.0180300       0.182200         0.0368      5036.8228        95.1374     30022.0996        19.1905       0.328400        11.5582        11.1052        12.7878       0.197800
    3502.49780     -0.0094900       0.013330         2.8324       109.2218      0.0556800        31.4198      0.0101200       0.189300         0.0590      5036.9463        95.1149     29097.6992        20.6852       0.331400        11.7634        11.1309        12.7242       0.197600
    3502.65020     -0.0109600       0.022520         2.8305       109.9317      0.0512000        31.9001      0.0086700       0.178400         0.0969      5037.1230        95.0983     28784.9004        20.8513       0.333200        11.6065        11.0703        12.8759       0.198200
    3502.80260     -0.0123200       0.033590         2.8424       109.8221      0.0467000        31.5808      0.0119000       0.167000         0.1388      5037.2607        95.0824     27993.6016        19.5149       0.333000        11.6542        11.0202        13.0432       0.199100
    3502.95500     -0.0141400       0.043010         2.8341       110.0899      0.0568200        31.8283      0.0098700       0.189600         0.1725      5037.3838        95.0671     27288.7988        21.1238       0.333400        11.2062        10.8050        13.0856       0.203700
    3503.10740     -0.0159500       0.048840         2.8352       110.3754      0.0697000        32.4562      0.0099300       0.218300         0.1945      5037.5049        95.0503     27003.2012        20.2934       0.330100        11.3373        11.2026        13.3092       0.204100
    3503.25980     -0.0170300       0.051900         2.8441       110.0005      0.0765500        32.6384      0.0094700       0.234100         0.2096      5037.6270        95.0354     26778.1992        19.6290       0.330500        11.6013        11.0541        13.2372       0.203700
    3503.41220     -0.0182400       0.060200         2.8165       109.2965      0.0715400        33.0507      0.0114700       0.223800         0.2435      5037.8037        95.0222     25808.3008        19.8782       0.330800        11.3999        10.5529        13.2311       0.198500
    3503.56460     -0.0192900       0.060920         2.8184       110.1401      0.0739600        33.6346      0.0200500       0.229300         0.2461      5037.9316        95.0057     26145.7988        20.1688       0.327000        12.0773        11.4025        13.0686       0.198500
    3503.71700     -0.0193800       0.048640         2.8608       111.2948      0.0773800        33.3213      0.0247800       0.236400         0.1955      5038.0737        94.9944     26280.0000        19.2242       0.320500        11.6350        11.0359        13.2433       0.198600
    3503.86940     -0.0187000       0.028680         2.9485       114.4992      0.0665800        33.5218      0.0298100       0.212100         0.1134      5038.2251        94.9772     26375.6992        19.0581       0.311400        11.4203        11.1274        13.3714       0.206100
    3504.02180     -0.0191100       0.010880         3.0760       114.4947      0.0505400        33.5873      0.0378500       0.176200         0.0427      5038.3628        94.9783     26635.7988        17.1482       0.313100        10.0678         9.8401        13.3783       0.209700
    3504.17420     -0.0198200       0.000640         3.0493       112.9154      0.0540000        33.0256      0.0363200       0.185000         0.0025      5038.5029        94.9561     26882.5000        16.7693       0.320700        10.4972        10.5856        13.2055       0.211700
    3504.32660     -0.0203300       0.000000         2.9418       108.8676      0.0647900        32.5668      0.0171300       0.210300         0.0000      5038.6548        94.9432     26788.4004        16.3956       0.327900        11.5312        10.9781        13.0232       0.204700
    3504.47900     -0.0210700       0.005320         2.8160       108.8078      0.0625700        32.9522      0.0103000       0.205500         0.0218      5038.7612        94.9296     27426.7988        16.2295       0.332400        11.8084        11.3091        13.0027       0.197000
    3504.63140     -0.0220700       0.025010         2.8199       108.4549      0.0796100        32.8123      0.0097700       0.242000         0.1004      5038.9180        94.9290     27456.6992        16.3956       0.331600        11.5137        10.5588        12.9837       0.191000
    3504.78380     -0.0228000       0.030140         2.8015       108.8663      0.0852000        33.1551      0.0068500       0.254300         0.1217      5039.0454        94.9084     27508.9004        18.5547       0.338000        11.6475        10.8737        12.9503       0.189500
    3504.93620     -0.0235300       0.028650         2.8056       108.8311      0.0803200        33.5763      0.0045300       0.244400         0.1160      5039.1953        94.8990     27356.8984        17.8540       0.334500        11.4455        11.0150        12.9121       0.189900
    3505.08860     -0.0238600       0.020800         2.8170       108.7218      0.0705700        33.9841      0.0086200       0.223300         0.0838      5039.3296        94.8853     27425.6992        17.9864       0.335000        11.9672        10.9829        13.0331       0.189600
    3505.24100     -0.0237100       0.013090         2.8236       108.9097      0.0774500        34.2811      0.0146100       0.238200         0.0529      5039.4658        94.8695     27229.5000        19.1490       0.329700        11.2714        10.6429        12.9495       0.191200
    3505.39340     -0.0238100       0.015200         2.8251       109.1935      0.0751700        34.4712      0.0207800       0.233300         0.0614      5039.6411        94.8625     27539.8008        18.6507       0.332500        11.3598        11.1125        12.9149       0.192100
    3505.54580     -0.0238500       0.025250         2.8282       108.9358      0.0752200        33.8227      0.0282900       0.232900         0.1007      5039.7578        94.8461     27405.3984        18.1524       0.332000        11.5917        11.0264        12.6446       0.195600
    3505.69820     -0.0241900       0.035110         2.8225       108.9640      0.0736000        32.9680      0.0325900       0.229400         0.1395      5039.8892        94.8358     27392.5996        18.4016       0.331000        12.1024        11.2353        12.8064       0.194400
