~Version Information Block
VERS .                 2.00:  CWLS LOG ASCII STANDARD - VERSION 2.00
WRAP .                  YES:  Multiple lines per depth step
~Well Information Block
#MNEM.UNIT        Data Type   Information
#---------- ----------------  -----------
STRT .M          3438.44880:  START DEPTH
STOP .M          3636.26400:  STOP DEPTH
STEP .M             0.15240:  STEP
NULL .              -999.25:  NULL VALUE
COMP .              Statoil:  COMPANY
WELL .          NO_15/9-F-5:  WELL
FLD  .                Volve:  FIELD
LOC  .                Volve:  LOCATION
CTRY .               Norway:  COUNTRY
STAT .                     :  STATE
CNTY .                     :  COUNTY
SRVC .         Schlumberger:  SERVICE COMPANY
DATE .           11/03/2015:  DATE
API  .                     :  API NUMBER
UWI  .             15/9-F-5:  UNIQUE WELL ID
LATI .     58° 26' 29.66" N:  LATITUDE
LONG .      1° 53' 14.99" E:  LONGITUDE
~Curve Information Block
#MNEM.UNIT         API CODE   Curve Description
#---------- ----------------  -----------------
DEPTH.M                    :  Depth Index
BSAL .PPM                  :  (RST-D)                 (6in)                   Borehole Salinity
CCLC .V                    :  (PSTP-B)                (1in)                   CCL Computed Amplitude
CIRF .                     :  (RST-D)                 (6in)                   Capture to Inelastic Rat
CIRN .                     :  (RST-D)                 (6in)                   Capture to Inelastic Rat
CVEL .M/SEC                 :  (WLWorkflow)            (1in)                   Cable Velocity
DSIG .CU                   :  (RST-D)                 (6in)                   Sigma Difference
FBEF .UA                   :  (RST-D)                 (6in)                   Far Effective Beam Curre
GR   .GAPI                 :  (PSTP-B)                (6in)                   Gamma Ray
IRAT .                     :  (RST-D)                 (6in)                   Inelastic Ratio
RB_PCMS.DEG                  :  (PCMS-A)                (6in)                   Relative Bearing
RSCF .                     :  (RST-D)                 (6in)                   Far Detector Effective U
RSCN .                     :  (RST-D)                 (6in)                   Near Detector Effective
SFFA .CU                   :  (RST-D)                 (6in)                   Sigma Formation Far Appa
SIBF .CU                   :  (RST-D)                 (6in)                   Sigma Borehole Fluid
SIGM .CU                   :  (RST-D)                 (6in)                   Formation Sigma (Neutron
TENS .LBF                  :  (WLWorkflow)            (1in)                   Cable Tension
TPHI .V/V                  :  (RST-D)                 (6in)                   Thermal Decay Porosity
WPRE .BAR                  :  (PSTP-B)                (6in)                   Well Pressure
WTEP .DEGC                 :  (PSTP-B)                (6in)                   Well Temperature
~Parameter Information Block
#MNEM.UNIT            Value   Description
#---------- ----------------  -----------
APD  .M                  54:  Elevation of Depth Reference (LMF) Above Permanent Datum
CLAB .              Country:  :County Label
ECF  .M             -999.25:  Elevation of Casing Flange above Permanent Datum
EDF  .M                  54:  Elevation of Drill Floor Above Permanent Datum
EGL  .M                 -91:  Elevation of Ground Level Above Permanent Datum
EKB  .M             -999.25:  Elevation of Kelly Bushing Above Permanent Datum
EPD  .M                   0:  Elevation of Permanent Datum (PDAT) above Mean Sea Level
FL1  .            North Sea:  Field Location Line 1
FL2  .     Norwegian Sector:  Field Location Line 2
LMF  .                   DF:  Logging Measured From
LUL  .                 NOBO:  Logging Unit Location
LUN  .          ONCC-A 3837:  Logging Unit Number
PDAT .                  MSL:  Local Permanent Datum
RIGN .      Maersk Inspirer:  Rig Name
RIGTYP.               Jackup:  Rig Type
SON  .           C2TQ-00038:  Service Order Number
TAPE_NAME.     RST_SIGMA__03Nov15_171237.las:  
TOOL_STRING.              UNKNOWN:  
WN   .             15/9-F-5:  WELL NAME
PROJECT.     SLEIPNER_OST@st-vlinapp01:  
SET  .       RSTD_1115_SIG1:  
~Other Information Block
~Ascii Log Data
# ...
    3566.00760 
    36225.4609         0.1437         2.7061       0.748570     -0.0772238 
       -1.4382       101.7364        18.0349       0.328750       352.9177 
        9.8109         8.3594        14.7973        34.8094        12.7471 
     4038.8005       0.153440       366.5498        77.4029
    3566.16000 
    36555.9102         0.0001         2.6639       0.774680     -0.0774700 
       -1.4570       103.2581        18.7214       0.326540       353.2601 
        9.4187         8.1576        15.0344        34.9275        12.7915 
     3951.1992       0.158120       366.5468        77.3804
    3566.31240 
    37140.0898        -0.0393         2.6844       0.782940     -0.0762000 
       -1.5650       103.4609        17.7360       0.332170       353.3353 
        9.3150         8.1781        14.8205        35.1363        12.7503 
     4078.7490       0.162630       366.5692        77.3073
    3566.46480 
    37596.3398         0.0014         2.6213       0.747660     -0.0764578 
       -1.5699       100.4799        19.7777       0.328540       353.3661 
        9.4039         8.0823        14.6262        35.2995        13.0036 
     4039.2007       0.170100       366.5662        77.2615
    3566.61720 
    37596.9492        -0.0439         2.5286       0.752790     -0.0762038 
       -1.5109       101.9885        21.5886       0.322560       353.4175 
        9.0034         8.1498        15.7218        35.2997        13.6021 
     3964.6001       0.185060       366.5859        77.2300
    3566.76960 
    37259.0469         0.0712         2.4682       0.748220     -0.0767157 
       -1.3574       106.6212        22.3446       0.320420       353.4689 
        8.2999         7.8428        16.4851        35.1788        14.2273 
     4086.7996       0.199180       366.5906        77.1941
    3566.92200 
    36973.3984        -0.0396         2.4241       0.772540     -0.0767080 
       -1.0988       107.1264        22.4067       0.319810       353.6453 
        7.8980         7.5894        16.3783        35.0767        14.4631 
     4012.7991       0.210550       366.5975        77.1841
    3567.07440 
    36797.4883        -0.0163         2.5149       0.781430     -0.0762077 
       -0.7723       108.1278        24.1910       0.322550       353.6105 
        7.8915         7.4341        16.3047        35.0138        14.6246 
     3953.8003       0.213890       366.6202        77.1507
    3567.22680 
    36614.4297         0.0097         2.4492       0.770600     -0.0759498 
       -0.3807       103.9271        23.3299       0.323700       353.6292 
        8.0583         7.6398        16.8610        34.9484        14.8024 
     4101.6011       0.211550       366.6101        77.1463
    3567.37920 
    36627.4414        -0.0323         2.3691       0.767560     -0.0759498 
       -0.1232       103.1684        22.9778       0.322700       353.8029 
        7.9043         7.4994        16.8020        34.9530        15.0761 
     3979.1992       0.206650       366.6373        77.1344
    3567.53160 
    36537.9102        -0.0351         2.4450       0.727000     -0.0756958 
        0.1033       106.6963        23.9084       0.324390       353.8003 
        8.0258         7.3902        17.0346        34.9210        15.0454 
     4011.4009       0.202210       366.6436        77.0514
    3567.68400 
    35996.9609        -0.0109         2.3548       0.740890     -0.0762000 
        0.1894       109.2194        25.6483       0.321880       353.7084 
        7.6254         7.4469        16.7039        34.7278        15.3151 
     3982.2004       0.198020       366.6418        77.0163
    3567.83640 
    36416.6484        -0.0292         2.3136       0.723070     -0.0764617 
        0.2967       104.9869        26.3525       0.321800       353.6909 
        7.5582         7.0616        17.5735        34.8777        15.4482 
     3982.8008       0.196140       366.6688        76.9878
    3567.98880 
    35902.1172        -0.0011         2.3458       0.694000     -0.0764578 
        0.3671       103.8310        27.5539       0.319450       353.7221 
        7.9039         7.1311        17.4002        34.6939        15.6471 
     4043.8003       0.192120       366.6636        76.9709
    3568.14120 
    36224.9805         0.0745         2.2376       0.694690     -0.0767080 
        0.4336       101.5534        27.3823       0.319640       353.6620 
        7.9810         7.4676        17.2618        34.8092        15.5105 
     4000.9990       0.190080       366.6821        76.9386
    3568.29360 
    36078.7695        -0.0346         2.4433       0.722830     -0.0781148 
        0.2416       106.3781        26.7609       0.320680       353.6710 
        7.9586         7.0929        17.1495        34.7570        15.5210 
     4029.6665       0.187710       366.6861        76.8799
    3568.44600 
    35988.0312        -0.0347         2.4525       0.738640     -0.0774662 
        0.0153       106.2200        25.2873       0.325280       353.6396 
        8.0750         7.3332        17.4272        34.7246        15.4440 
     4069.5994       0.193110       366.6974        76.8496
    3568.59840 
    36369.0586        -0.1336         2.3012       0.752580     -0.0771573 
       -0.0955       101.8711        25.9738       0.324860       353.5617 
        7.8502         7.5946        17.0299        34.8607        15.4501 
     4052.7500       0.202710       366.7088        76.8198
    3568.75080 
    36767.4414        -0.0540         2.3769       0.743660     -0.0777240 
       -0.2280       103.8606        24.1718       0.328580       353.5818 
        7.8071         7.3613        17.1693        35.0031        15.3396 
     4054.6001       0.217680       366.7142        76.8207
    3568.90320 
    36684.5703        -0.0793         2.2547       0.748580     -0.0781195 
       -0.4990       106.4225        24.4292       0.322270       353.4061 
        7.4062         7.4783        17.0979        34.9734        15.3854 
     4007.7500       0.227870       366.7277        76.7777
    3569.05560 
    36895.3711        -0.0171         2.3492       0.784270     -0.0784860 
       -0.6787       108.5577        23.4113       0.324800       353.3814 
        7.6339         7.9651        17.1717        35.0488        15.4175 
     4007.9995       0.229220       366.7361        76.7607
    3569.20800 
    36697.3320        -0.0154         2.3822       0.767500     -0.0774700 
       -0.6193       104.6808        22.6538       0.323730       353.3515 
        8.0591         7.7570        17.2728        34.9780        15.0553 
     3993.4004       0.221120       366.7467        76.7420
    3569.36040 
    36491.0586        -0.0060         2.4818       0.769050     -0.0774817 
       -0.6749       105.1368        21.7070       0.326240       353.2972 
        8.2772         7.7949        16.0096        34.9043        14.8041 
     4024.3994       0.212770       366.7507        76.6983
    3569.51280 
    36919.7383        -0.0106         2.4457       0.759420     -0.0772120 
       -0.6909       104.6999        23.2516       0.326370       353.5223 
        8.3035         7.9195        16.4129        35.0575        14.7735 
     3946.3997       0.216460       366.7680        76.6574
    3569.66520 
    36779.0898        -0.0491         2.2841       0.749110     -0.0774740 
       -0.3900       103.6340        24.2813       0.327670       353.6718 
        7.6833         7.4359        17.1743        35.0072        15.8473 
     4036.3997       0.224720       366.7701        76.6226
    3569.81760 
    36616.8711         0.1333         1.9474       0.690760     -0.0774778 
       -0.1756       101.7146        27.1633       0.323260       353.7128 
        6.8475         7.1350        19.2363        34.9492        16.5604 
     4059.5999       0.235760       366.7884        76.6078
    3569.97000 
    36970.6797         0.0757         2.0689       0.664110     -0.0771525 
        0.0859       112.7549        31.4716       0.317750       353.8282 
        6.6328         6.9274        18.5565        35.0757        17.2175 
     3965.4993       0.234020       366.7905        76.6008
