~Version Information Block
VERS .                 2.00:  CWLS LOG ASCII STANDARD - VERSION 2.00
WRAP .                   NO:  One line per depth step
~Well Information Block
#MNEM.UNIT        Data Type   Information
#---------- ----------------  -----------
STRT .M          3454.45080:  START DEPTH
STOP .M          3788.05440:  STOP DEPTH
STEP .M             0.15240:  STEP
NULL .              -999.25:  NULL VALUE
COMP .              Statoil:  COMPANY
WELL .        NO_15/9-F-1_C:  WELL
FLD  .                Volve:  FIELD
LOC  .            North Sea:  LOCATION
CTRY .               Norway:  COUNTRY
STAT .                     :  STATE
CNTY .                     :  COUNTY
SRVC .         Schlumberger:  SERVICE COMPANY
DATE .          27-Nov-2014:  DATE
API  .                     :  API NUMBER
UWI  .           15/9-F-1 C:  UNIQUE WELL ID
LATI .     58° 26' 29.91" N:  LATITUDE
LONG .      1° 53' 14.71" E:  LONGITUDE
~Curve Information Block
#MNEM.UNIT         API CODE   Curve Description
#---------- ----------------  -----------------
DEPTH.M                    :  DEPTH (BOREHOLE)
CRRA .                     :  Near/Far Count Rate Ratio
CVEL .M/SEC                 :  Cable Velocity
DFRB .DEG                  :  Calibrated Relative Bearing
FBEF .UA                   :  RST Far Effective Beam Current
FCOR .                     :  RST Far Carbon/Oxygen Ratio
FERD .                     :  RST Far IC Mode Capture Optimization
FIRD .                     :  RST Far Inelastic Optimization Resolution
GR   .GAPI                 :  Gamma Ray
NCOR .                     :  RST Near Carbon/Oxygen Ratio
NERD .                     :  RST Near IC Mode Capture Optimization
NIRD .                     :  RST Near Inelastic Optimization Resolution
PFC1 .IN                   :  PFCS CaliperX
PFC2 .IN                   :  PFCS CaliperY
TENS .LBF                  :  Cable Tension
~Parameter Information Block
#MNEM.UNIT            Value   Description
#---------- ----------------  -----------
APD  .M           54.900002:  Elevation of Depth Reference (LMF) above Permanent Datum
EPD  .C3                  0:  Elevation of Permanent Datum above Mean Sea Level
LMF  .                   KB:  Logging Measured From (Name of Logging Elevation Reference)
PDAT .                  MSL:  Permanent Datum
RUN  .                Run 1:  RUN NUMBER
TAPE_NAME.     Statoil_Volve_15-9-F-1 C_PLT-RST_28Nov14_ConCu_R1L17Up_IC1.las:  
TOOL_STRING.              UNKNOWN:  
WN   .           15/9-F-1 C:  WELL
PROJECT.     SLEIPNER_OST@st-vlinapp01:  
SET  .        RSTD_1114_IC1:  
~Other Information Block
# 
~A       DEPTH           CRRA           CVEL           DFRB           FBEF           FCOR           FERD           FIRD             GR           NCOR           NERD           NIRD           PFC1           PFC2           TENS 
# ...
    3739.74360         2.7209      -0.010765       334.4070       116.7712         0.0481         4.8334         4.8334        10.1959         0.1166         7.0495         7.0495         6.1682         6.0757      4475.6060
    3739.89600         2.7032      -0.010837       334.4070       116.7591         0.0274         4.8420         4.8420         9.9731         0.0390         7.0179         7.0179         6.1876         6.0833      4521.4551
    3740.04840         2.6923      -0.010660       334.4070       115.5195        -0.0116         4.8647         4.8647        10.1112         0.1442         6.9880         6.9880         6.1904         6.0834      4459.4302
    3740.20080         2.6894      -0.010720       334.4070       115.8050         0.0633         4.8331         4.8331        10.1777        -0.0888         6.9483         6.9483         6.1905         6.0834      4519.5747
    3740.35320         2.6906      -0.010790       334.4070       114.3907         0.0530         4.9279         4.9279        10.3919         0.1265         6.9622         6.9622         6.1902         6.0834      4520.3945
    3740.50560         2.6634      -0.010745       334.4070       113.8849         0.1117         4.9949         4.9949        11.3906        -0.0121         7.0428         7.0428         6.1862         6.0834      4514.6318
    3740.65800         2.6772      -0.010792       334.4070       111.5293         0.1248         5.0715         5.0715        11.4852        -0.0835         7.0683         7.0683         6.1805         6.0833      4503.0615
    3740.81040         2.6135      -0.010948       334.4070       111.0393         0.0779         5.1239         5.1239        11.3139         0.0668         7.1504         7.1504         6.1687         6.0834      4477.4238
    3740.96280         2.6072      -0.010883       334.4070       113.0627         0.1822         5.0846         5.0846        11.4935         0.1164         7.1564         7.1564         6.1818         6.0834      4458.5811
    3741.11520         2.6140      -0.010762       334.4070       112.9891        -0.0123         5.2190         5.2190        11.1121         0.0317         7.1643         7.1643         6.1855         6.0834      4469.7075
    3741.26760         2.6338      -0.010845       334.4070       114.0016         0.0723         5.2044         5.2044        10.3001         0.0444         7.1581         7.1581         6.1851         6.0834      4371.5615
    3741.42000         2.6423      -0.010720       334.4070       120.0963         0.1839         5.2269         5.2269         9.8806         0.0023         7.1994         7.1994         6.1889         6.0834      4477.4668
    3741.57240         2.8989      -0.010783       334.4070       120.4551         0.2484         5.2451         5.2451         9.6022        -0.0582         7.2757         7.2757         6.1899         6.0834      4485.5166
    3741.72480         2.9185      -0.010842       334.4070       119.2288        -0.0607         5.2580         5.2580         9.6261         0.0281         7.2785         7.2785         6.1841         6.0782      4429.0332
    3741.87720         2.8482      -0.010858       334.4070       113.7270         0.1255         5.2549         5.2549         9.7376        -0.0270         7.3099         7.3099         6.1905         6.0834      4439.3765
    3742.02960         2.6421      -0.010712       332.9960       115.0414         0.1723         5.3119         5.3119         9.3903         0.0671         7.2613         7.2613         6.1905         6.0834      4507.4326
    3742.18200         2.6674      -0.010847       332.9960       114.9857         0.0089         5.3424         5.3424         9.4898         0.0486         7.2894         7.2894         6.1905         6.0834      4402.2241
    3742.33440         2.6640      -0.010777       332.9960       115.8576         0.1618         5.3231         5.3231         9.6574         0.0932         7.2713         7.2713         6.1666         6.0564      4469.9858
    3742.48680         2.7035      -0.010627       332.9960       115.6233        -0.0643         5.2863         5.2863         9.5039        -0.0900         7.3095         7.3095         6.1668         6.0510      4525.0649
    3742.63920         2.6773      -0.010682       332.9960       114.1714         0.0581         5.3285         5.3285        10.1433         0.0470         7.3272         7.3272         6.1702         6.0510      4468.5952
    3742.79160         2.6423      -0.010758       332.9960       114.7744         0.1089         5.2837         5.2837        10.9110         0.0431         7.3185         7.3185         6.1825         6.0510      4440.4556
    3742.94400         2.6644      -0.010800       332.9960       115.0974        -0.0680         5.2928         5.2928        11.3048         0.0414         7.4144         7.4144         6.1905         6.0510      4464.9814
    3743.09640         2.6732      -0.010822       332.9960       114.8787         0.0463         5.3246         5.3246        11.7838         0.0325         7.3766         7.3766         6.1902         6.0511      4401.7500
    3743.24880         2.6499      -0.010487       332.9960       113.5629        -0.2419         5.3374         5.3374        11.6554        -0.0374         7.3822         7.3822         6.1905         6.0543      4472.5396
    3743.40120         2.6431      -0.008638       332.9960       113.8717         0.0777         5.3394         5.3394        10.7496         0.0710         7.3290         7.3290         6.1905         6.0518      4437.3687
    3743.55360         2.6424      -0.008962       332.9960       114.4417        -0.0846         5.3754         5.3754        10.8800         0.0891         7.3427         7.3427         6.1905         6.0575      4400.8701
    3743.70600         2.6497      -0.008692       332.9960       114.4735        -0.0480         5.2953         5.2953        10.9194         0.0347         7.3627         7.3627         6.1905         6.0510      4391.0347
    3743.85840         2.6582      -0.008868       332.9960       114.9025         0.0247         5.3912         5.3912        10.7441         0.0108         7.3536         7.3536         6.1905         6.0510      4406.5625
    3744.01080         2.6602      -0.010393       332.9960       114.3996        -0.0707         5.3389         5.3389        10.7916         0.1330         7.4334         7.4334         6.1905         6.0510      4378.4121
    3744.16320         2.6426      -0.011195       332.9960       114.7564        -0.0389         5.2306         5.2306        11.0919         0.0615         7.3142         7.3142         6.1905         6.0538      4384.1670
    3744.31560         2.6694      -0.011100       332.9960       114.8194         0.0880         5.3576         5.3576        10.4072         0.0032         7.3318         7.3318         6.1905         6.0510      4491.7139
    3744.46800         2.6637      -0.011127       332.9960       114.9398         0.0464         5.2969         5.2969         9.9478         0.0132         7.3287         7.3287         6.1905         6.0510      4443.3721
    3744.62040         2.6768      -0.011050       332.9960       116.4291         0.1431         5.2631         5.2631         9.7788         0.1358         7.2964         7.2964         6.1905         6.0515      4358.1216
    3744.77280         2.7185      -0.010915       332.9960       117.5863         0.0160         5.2139         5.2139         9.8240         0.1473         7.3203         7.3203         6.1902         6.0510      4497.9761
    3744.92520         2.7508      -0.010697       332.9960       117.6127        -0.0277         5.2908         5.2908         9.7141         0.0458         7.3172         7.3172         6.1904         6.0510      4439.9302
    3745.07760         2.7321      -0.011003       332.9960       116.6818        -0.0078         5.2640         5.2640        10.0035         0.0294         7.3287         7.3287         6.1905         6.0510      4336.2598
