~Version Information Block
VERS .                 2.00:  CWLS LOG ASCII STANDARD - VERSION 2.00
WRAP .                  YES:  Multiple lines per depth step
~Well Information Block
#MNEM.UNIT        Data Type   Information
#---------- ----------------  -----------
STRT .M          3450.03120:  START DEPTH
STOP .M          3948.83640:  STOP DEPTH
STEP .M             0.15240:  STEP
NULL .              -999.25:  NULL VALUE
COMP .              Statoil:  COMPANY
WELL .        NO_15/9-F-1_C:  WELL
FLD  .                Volve:  FIELD
LOC  .            North Sea:  LOCATION
CTRY .               Norway:  COUNTRY
STAT .                     :  STATE
CNTY .                     :  COUNTY
SRVC .         Schlumberger:  SERVICE COMPANY
DATE .          27-Nov-2014:  DATE
API  .                     :  API NUMBER
UWI  .           15/9-F-1 C:  UNIQUE WELL ID
LATI .     58° 26' 29.91" N:  LATITUDE
LONG .      1° 53' 14.71" E:  LONGITUDE
~Curve Information Block
#MNEM.UNIT         API CODE   Curve Description
#---------- ----------------  -----------------
DEPTH.M                    :  DEPTH (BOREHOLE)
BSAL .PPM                  :  Borehole Salinity
CCLC .V                    :  CCL
CIRF .                     :  RST Capture to Inelastic Ratio Far
CIRN .                     :  RST Capture to Inelastic Ratio Near
CVEL .M/SEC                 :  Cable Velocity
DFRB .DEG                  :  Calibrated Relative Bearing
DSIG .CU                   :  Sigma Difference
FBEF .UA                   :  RST Far Effective Beam Current
GR   .GAPI                 :  Gamma Ray
IRAT .                     :  RST Inelastic Ratio
PFC1 .IN                   :  PFCS CaliperX
PFC2 .IN                   :  PFCS CaliperY
RSCF .                     :  RST Far Detector Effective Unregulated
RSCN .                     :  RST Near Detector Effective
SFFA .CU                   :  RST Sigma Formation Far Apparent
SIBF .CU                   :  RST Sigma Borehole Fluid
SIGM .CU                   :  Formation Sigma (Neutron Capture Cross
TENS .LBF                  :  Cable Tension
TPHI .V/V                  :  Thermal Decay Porosity
~Parameter Information Block
#MNEM.UNIT            Value   Description
#---------- ----------------  -----------
APD  .M           54.900002:  Elevation of Depth Reference (LMF) above Permanent Datum
BHS  .                 CASE:  Borehole Status (Open or Cased Hole)
BS   .IN                8.5:  Bit Size
BSAL .PPM                 0:  Borehole Salinity
BSALOPT.              UNKNOWN:  Borehole Salinity Option
CSIZ .IN                  7:  Current Casing Size
CWEI .LB/F               29:  Casing Weight
EPD  .C3                  0:  Elevation of Permanent Datum above Mean Sea Level
LMF  .                   KB:  Logging Measured From (Name of Logging Elevation Reference)
MATR .                 SAND:  Rock Matrix for Neutron Porosity Corrections
PDAT .                  MSL:  Permanent Datum
RUN  .                Run 1:  RUN NUMBER
TAPE_NAME.     Statoil_Volve_15-9-F-1 C_PLT-RST_28Nov14_ConCu_R1L16Up_SigmaMain.las:  
TOOL_STRING.              UNKNOWN:  
WN   .           15/9-F-1 C:  WELL
PROJECT.     SLEIPNER_OST@st-vlinapp01:  
SET  .       RSTD_1114_SIG1:  
~Other Information Block
~Ascii Log Data
# ...
    3709.26360 
    60286.2031        -0.0136         3.3635         0.8787      -0.162580 
      330.1740        -2.7665        80.4543         7.0732     0.33280000 
        6.2174         6.0510        14.1090        10.2553        11.0461 
       43.5282         9.3206      4547.5713     0.15220000
    3709.41600 
    60987.5000         0.0109         3.3942         0.8198      -0.162512 
      330.1740        -2.6677        86.9814         6.3377     0.32929999 
        6.2219         6.0510        13.4932         9.9112        11.4917 
       43.7860         9.3757      4500.4287     0.14810000
    3709.56840 
    61451.4023         0.0063         3.1561         0.8102      -0.162512 
      330.1740        -2.5825        84.1929         6.6196     0.32720000 
        6.2174         6.0510        12.9889         9.5467        11.3732 
       43.9567         9.4679      4637.7139     0.14659999
    3709.72080 
    61844.8008         0.0314         3.1254         0.7745      -0.161698 
      330.1740        -2.4902        84.0295         8.1029     0.33300000 
        6.2152         6.0510        12.9445         9.4773        11.3069 
       44.1015         9.5944      4531.8574     0.14070000
    3709.87320 
    61928.3984         0.0934         3.0041         0.7739      -0.160697 
      330.1740        -2.4503        81.3145         6.9996     0.32890001 
        6.2152         6.0510        12.9818         9.5305        11.8467 
       44.1323         9.4940      4524.0000     0.13830000
    3710.02560 
    61664.3008         0.0410         3.2287         0.7561      -0.161857 
      330.1740        -2.3543        87.4492         7.3674     0.32980001 
        6.2177         6.0510        13.1672         9.5659        11.0727 
       44.0350         9.4715      4452.5000     0.13710000
    3710.17800 
    61922.9023        -0.1646         3.2436         0.8055      -0.163158 
      330.1740        -2.3939        86.7430         8.4707     0.32789999 
        6.2174         6.0510        12.8070         9.4071        11.2438 
       44.1302         9.2784      4401.0000     0.13850001
    3710.33040 
    61941.8984        -0.0080         3.1808         0.8121      -0.163292 
      330.1740        -2.4332        87.0274         8.4707     0.33930001 
        6.2152         6.0510        12.6276         9.6961        11.2843 
       44.1372         9.4234      4412.2856     0.13640000
    3710.48280 
    60848.8984         0.0603         3.2474         0.8511      -0.162577 
      330.1740        -2.4089        78.7765         7.9068     0.33809999 
        6.2197         6.0510        14.2120        10.4130        11.5437 
       43.7350         9.3797      4542.9287     0.13110000
    3710.63520 
    60354.0000        -0.0258         3.3747         0.8116      -0.162208 
      330.1740        -2.4990        84.4009         9.4146     0.33829999 
        6.2152         6.0510        13.6021         9.8305        11.1690 
       43.5531         9.4925      4554.6426     0.12680000
    3710.78760 
    60600.8008         0.0137         3.2463         0.7794      -0.161930 
      330.1740        -2.5045        78.6084         9.7823     0.34099999 
        6.2093         6.0510        14.3446         9.6832        11.6902 
       43.6438         9.5499      4650.6426     0.12530001
    3710.94000 
    60974.0000        -0.0148         3.1702         0.8371      -0.162108 
      330.1740        -2.6006        79.6932         8.8629     0.34770000 
        6.2107         6.0510        13.5943         9.9226        11.7847 
       43.7811         9.5596      4572.7861     0.12620001
    3711.09240 
    60582.8008         0.0153         3.1349         0.8274      -0.162392 
      330.1740        -2.6385        82.4795         8.8629     0.34970000 
        6.2085         6.0510        13.1257         9.9292        11.2392 
       43.6372         9.4502      4544.9287     0.12400000
    3711.24480 
    59959.5977         0.0214         3.2510         0.7950      -0.162577 
      330.1740        -2.6910        83.2850         8.4952     0.35319999 
        6.2062         6.0510        13.4737         9.4735        11.4033 
       43.4082         9.3531      4479.0005     0.11570000
    3711.39720 
    59896.1992         0.1067         3.1496         0.7991      -0.162588 
      330.1740        -2.8153        79.8169         7.5390     0.35040000 
        6.2040         6.0510        13.2662         9.1349        11.5490 
       43.3849         9.4911      4452.2856     0.10770000
    3711.54960 
    60127.0000        -0.0368         3.2515         0.7840      -0.162697 
      330.1740        -2.9817        81.3753         7.3919     0.35499999 
        6.2040         6.0510        13.8477         9.5949        11.7356 
       43.4697         9.5719      4442.0713     0.10850000
    3711.70200 
    60080.8984         0.0311         3.0675         0.7934      -0.162535 
      330.1740        -2.9681        80.7194         6.8403     0.34630001 
        6.2040         6.0510        13.0245         9.2881        11.6922 
       43.4527         9.5631      4575.2144     0.11400000
    3711.85440 
    60265.8008        -0.0550         3.1446         0.7946      -0.162163 
      330.1740        -3.0109        83.0314         7.0242     0.34639999 
        6.1989         6.0510        13.1794         9.6456        11.5630 
       43.5207         9.5730      4614.8574     0.11440000
    3712.00680 
    60591.7031         0.0032         3.1052         0.7397      -0.161933 
      331.5850        -3.0472        79.1340         8.3113     0.34340000 
        6.1972         6.0510        13.7165         9.1263        11.8122 
       43.6405         9.5719      4694.8667     0.10420000
    3712.15920 
    61116.4023         0.0088         3.1429         0.7378      -0.161780 
      331.5850        -3.1300        80.8248         8.8629     0.34279999 
        6.2040         6.0510        13.3482         8.9007        11.7476 
       43.8334         9.7454      4593.0713     0.09320000
    3712.31160 
    60678.6016        -0.0010         3.0206         0.7081      -0.161857 
      331.5850        -3.2573        80.0669         8.0907     0.34439999 
        6.1995         6.0510        13.4870         9.3020        12.1680 
       43.6724         9.5673      4555.2144     0.09080000
    3712.46400 
    60947.3008         0.0091         3.1156         0.7551      -0.162670 
      331.5850        -3.2240        79.1633        10.1133     0.34480000 
        6.1972         6.0510        13.8101         9.6303        11.3541 
       43.7712         9.4212      4487.4287     0.09620000
    3712.61640 
    61499.8008        -0.0060         3.0433         0.7489      -0.163130 
      331.5850        -3.3019        78.2848        10.3340     0.34880000 
        6.1950         6.0510        13.8328         9.5975        11.3567 
       43.9745         9.0528      4529.8569     0.10470000
    3712.76880 
    62008.2031        -0.0473         3.0053         0.7430      -0.163052 
      331.5850        -3.3958        77.2296         9.5985     0.35010001 
        6.1905         6.0510        13.9844         9.6251        11.1045 
       44.1617         9.1187      4474.9287     0.10680000
    3712.92120 
    62022.5000         0.0260         3.0446         0.7711      -0.162863 
      331.5850        -3.4710        81.8910         9.7823     0.34369999 
        6.2017         6.0510        13.2031         9.7102        11.5837 
       44.1669         9.0644      4630.0000     0.11240000
    3713.07360 
    63837.3984        -0.0657         3.3830         0.8192      -0.162132 
      331.5850        -3.4522        86.8716         9.5985     0.33640000 
        6.1905         6.0510        13.8241        10.4906        11.2164 
       44.8360         9.0464      4569.0713     0.11670000
    3713.22600 
    63737.0977         0.0234         3.3059         0.7961      -0.162492 
      331.5850        -3.2850        84.0896        10.3340     0.33620000 
        6.1928         6.0510        14.3158        10.4627        11.0117 
       44.7989         8.9662      4675.6431     0.12380000
