~Version Information Block
VERS .                 2.00:  CWLS LOG ASCII STANDARD - VERSION 2.00
WRAP .                  YES:  Multiple lines per depth step
~Well Information Block
#MNEM.UNIT        Data Type   Information
#---------- ----------------  -----------
STRT .M          3450.03120:  START DEPTH
STOP .M          3948.83640:  STOP DEPTH
STEP .M             0.15240:  STEP
NULL .              -999.25:  NULL VALUE
COMP .              Statoil:  COMPANY
WELL .        NO_15/9-F-1_C:  WELL
FLD  .                Volve:  FIELD
LOC  .            North Sea:  LOCATION
CTRY .               Norway:  COUNTRY
STAT .                     :  STATE
CNTY .                     :  COUNTY
SRVC .         Schlumberger:  SERVICE COMPANY
DATE .          27-Nov-2014:  DATE
API  .                     :  API NUMBER
UWI  .           15/9-F-1 C:  UNIQUE WELL ID
LATI .     58° 26' 29.91" N:  LATITUDE
LONG .      1° 53' 14.71" E:  LONGITUDE
~Curve Information Block
#MNEM.UNIT         API CODE   Curve Description
#---------- ----------------  -----------------
DEPTH.M                    :  DEPTH (BOREHOLE)
BSAL .PPM                  :  Borehole Salinity
CCLC .V                    :  CCL
CIRF .                     :  RST Capture to Inelastic Ratio Far
CIRN .                     :  RST Capture to Inelastic Ratio Near
CVEL .M/SEC                 :  Cable Velocity
DFRB .DEG                  :  Calibrated Relative Bearing
DSIG .CU                   :  Sigma Difference
FBEF .UA                   :  RST Far Effective Beam Current
GR   .GAPI                 :  Gamma Ray
IRAT .                     :  RST Inelastic Ratio
PFC1 .IN                   :  PFCS CaliperX
PFC2 .IN                   :  PFCS CaliperY
RSCF .                     :  RST Far Detector Effective Unregulated
RSCN .                     :  RST Near Detector Effective
SFFA .CU                   :  RST Sigma Formation Far Apparent
SIBF .CU                   :  RST Sigma Borehole Fluid
SIGM .CU                   :  Formation Sigma (Neutron Capture Cross
TENS .LBF                  :  Cable Tension
TPHI .V/V                  :  Thermal Decay Porosity
~Parameter Information Block
#MNEM.UNIT            Value   Description
#---------- ----------------  -----------
APD  .M           54.900002:  Elevation of Depth Reference (LMF) above Permanent Datum
BHS  .                 CASE:  Borehole Status (Open or Cased Hole)
BS   .IN                8.5:  Bit Size
BSAL .PPM                 0:  Borehole Salinity
BSALOPT.              UNKNOWN:  Borehole Salinity Option
CSIZ .IN                  7:  Current Casing Size
CWEI .LB/F               29:  Casing Weight
EPD  .C3                  0:  Elevation of Permanent Datum above Mean Sea Level
LMF  .                   KB:  Logging Measured From (Name of Logging Elevation Reference)
MATR .                 SAND:  Rock Matrix for Neutron Porosity Corrections
PDAT .                  MSL:  Permanent Datum
RUN  .                Run 1:  RUN NUMBER
TAPE_NAME.     Statoil_Volve_15-9-F-1 C_PLT-RST_28Nov14_ConCu_R1L16Up_SigmaMain.las:  
TOOL_STRING.              UNKNOWN:  
WN   .           15/9-F-1 C:  WELL
PROJECT.     SLEIPNER_OST@st-vlinapp01:  
SET  .       RSTD_1114_SIG1:  
~Other Information Block
~Ascii Log Data
# ...
    3676.34520 
    71852.0000         0.0134         1.6809         0.5075      -0.162527 
      330.1740        -0.7029        84.7729        33.3320     0.33590001 
        6.2219         6.0834         6.7077         5.7999        21.2409 
       47.8073        20.1103      4339.0000     0.20370001
    3676.49760 
    72044.1016        -0.0012         1.6066         0.4987      -0.162342 
      330.1740        -0.6176        86.7366        34.4353     0.33320001 
        6.2219         6.0834         6.3979         5.9624        21.8094 
       47.8788        20.5541      4333.0000     0.20460001
    3676.65000 
    71171.7031         0.0137         1.6617         0.4906      -0.162353 
      330.1740        -0.6270        85.2102        34.0675     0.32730001 
        6.2219         6.0834         6.9181         6.0464        23.1594 
       47.5540        20.8843      4514.8574     0.20090000
    3676.80240 
    70398.2969        -0.0282         1.6635         0.4803      -0.162433 
      330.1740        -0.7033        89.6905        34.2024     0.32580000 
        6.2219         6.0834         6.4583         5.7530        22.2411 
       47.2663        20.7107      4563.7144     0.20260000
    3676.95480 
    70777.8984        -0.0604         1.6779         0.5076      -0.161880 
      330.1740        -0.6503        87.4309        33.5517     0.32870001 
        6.2219         6.0834         6.6688         6.1598        21.3017 
       47.4075        20.2678      4583.2856     0.20680000
    3677.10720 
    70235.8984        -0.0315         1.5951         0.5013      -0.161165 
      330.1740        -0.4946        85.4643        34.0175     0.33090001 
        6.2219         6.0834         6.5070         6.1459        21.8509 
       47.2059        20.0034      4544.1431     0.20880000
    3677.25960 
    70207.8984        -0.0001         1.6854         0.4954      -0.162007 
      331.5850        -0.3032        83.3068        33.0491     0.33149999 
        6.2219         6.0834         7.0016         5.9581        21.4643 
       47.1955        19.6153      4515.2002     0.20130000
    3677.41200 
    70713.3984        -0.0008         1.8016         0.5149      -0.163107 
      330.1740        -0.4082        91.1392        31.7620     0.33600000 
        6.2174         6.0857         6.9577         6.4532        20.1487 
       47.3835        19.2327      4375.9287     0.19080000
    3677.56440 
    71647.9062        -0.0172         1.7563         0.5312      -0.162823 
      330.1740        -0.4985        82.3986        30.4748     0.33750001 
        6.2219         6.0856         7.3871         6.4801        20.6994 
       47.7313        19.0704      4486.1426     0.17659999
    3677.71680 
    71900.2031        -0.0029         1.7824         0.5004      -0.162103 
      331.5850        -0.5240        80.8573        30.1070     0.33370000 
        6.2197         6.0996         8.0348         6.4399        20.9770 
       47.8252        18.8453      4431.0000     0.16790000
    3677.86920 
    71280.6016        -0.0076         1.9182         0.4944      -0.161763 
      330.1740        -0.2190        85.1189        28.6360     0.32609999 
        6.2152         6.1042         8.0104         6.2563        19.4684 
       47.5945        18.3812      4570.9287     0.16470000
    3678.02160 
    70593.6953         0.0634         1.8985         0.5160      -0.161613 
      331.5850        -0.3143        92.1584        27.5818     0.32069999 
        6.2219         6.0904         7.1640         6.2586        19.3172 
       47.3389        18.0855      4545.7856     0.16660000
    3678.17400 
    70634.1016        -0.0146         1.8726         0.5054      -0.161727 
      331.5850        -0.2029        91.2388        28.3173     0.31819999 
        6.2219         6.0973         7.1888         6.1582        20.0757 
       47.3540        17.7933      4556.8569     0.16590001
    3678.32640 
    69889.5000        -0.0387         1.9141         0.4888      -0.162728 
      330.1740        -0.3282        88.2595        29.1264     0.32260001 
        6.2219         6.1135         7.6493         5.9922        18.5820 
       47.0771        18.0133      4494.7139     0.15539999
    3678.47880 
    70253.7031         0.0329         2.0211         0.5333      -0.163003 
      331.5850        -0.4540        88.4975        28.9425     0.33289999 
        6.2219         6.1158         8.1148         6.4278        19.9834 
       47.2125        17.2598      4438.7144     0.15040000
    3678.63120 
    70415.6016        -0.0148         1.9757         0.5325      -0.162898 
      331.5850        -0.6074        80.7676        28.3909     0.33820000 
        6.2219         6.1158         8.6064         6.5048        17.8517 
       47.2727        17.8242      4407.2144     0.14290000
    3678.78360 
    69888.0000        -0.0116         1.9316         0.5333      -0.163048 
      330.1740        -0.8869        84.6659        29.3102     0.33460000 
        6.2219         6.1158         8.0287         6.5747        20.2777 
       47.0766        17.7281      4524.2856     0.15160000
    3678.93600 
    69368.1016         0.0075         2.1032         0.5351      -0.163030 
      330.1740        -1.1545        84.3843        28.0108     0.32670000 
        6.2219         6.1135         8.7194         6.6501        19.7218 
       46.8834        18.2699      4586.7144     0.15840000
    3679.08840 
    69766.4062        -0.0049         2.0329         0.5770      -0.162282 
      330.1740        -1.3249        89.6070        28.1212     0.32490000 
        6.2219         6.1089         7.8882         7.0630        19.4786 
       47.0314        17.8075      4617.5000     0.17530000
    3679.24080 
    70276.2031        -0.0272         2.0146         0.5819      -0.161887 
      330.1740        -1.5168        83.1022        28.1212     0.32440001 
        6.2219         6.1135         8.4659         7.0377        18.8880 
       47.2209        17.6035      4590.0669     0.18050000
    3679.39320 
    71083.1016         0.1036         2.0693         0.5578      -0.162213 
      330.1740        -1.5731        85.9477        29.0406     0.31909999 
        6.2219         6.1158         8.6468         7.1408        19.1081 
       47.5210        17.4783      4492.7856     0.18140000
    3679.54560 
    71228.6016         0.0211         2.1931         0.5481      -0.162290 
      330.1740        -1.7821        89.5301        28.1212     0.31950000 
        6.2219         6.1158         8.5017         6.5109        19.0901 
       47.5752        17.5679      4464.2144     0.17440000
    3679.69800 
    70734.5000         0.0066         2.0075         0.5700      -0.162463 
      330.1740        -1.8673        82.6378        27.3979     0.32100001 
        6.2219         6.1158         8.8148         7.2236        19.1405 
       47.3913        17.6200      4506.4287     0.17340000
    3679.85040 
    71362.5000        -0.0292         2.0208         0.5394      -0.162752 
      330.1740        -1.9865        84.6995        25.1914     0.32359999 
        6.2219         6.1158         8.6741         6.9947        19.2631 
       47.6250        17.7712      4600.0713     0.17370000
    3680.00280 
    71418.6016         0.0081         1.9819         0.5270      -0.162512 
      330.1740        -2.0135        88.2498        25.5223     0.32409999 
        6.2219         6.1135         7.9946         6.5999        19.5374 
       47.6459        17.7475      4651.8574     0.18040000
    3680.15520 
    71123.5938        -0.0701         2.0436         0.5832      -0.162535 
      330.1740        -1.8975        85.9530        25.1546     0.32339999 
        6.2219         6.1158         8.3605         7.0915        19.0600 
       47.5361        17.7645      4598.5713     0.18590000
    3680.30760 
    70196.1016        -0.0385         2.0684         0.5771      -0.162805 
      330.1740        -1.7989        89.1823        25.7062     0.32310000 
        6.2219         6.1158         8.2563         7.1973        19.2734 
       47.1911        17.8841      4582.6431     0.19329999
