~Version Information Block
VERS .                 2.00:  CWLS LOG ASCII STANDARD - VERSION 2.00
WRAP .                   NO:  One line per depth step
~Well Information Block
#MNEM.UNIT        Data Type   Information
#---------- ----------------  -----------
STRT .M          3445.61160:  START DEPTH
STOP .M          3638.55000:  STOP DEPTH
STEP .M             0.15240:  STEP
NULL .              -999.25:  NULL VALUE
COMP .              Statoil:  COMPANY
WELL .          NO_15/9-F-5:  WELL
FLD  .                VOLVE:  FIELD
LOC  .            North Sea:  LOCATION
CTRY .                     :  COUNTRY
STAT .                     :  STATE
CNTY .                     :  COUNTY
SRVC .         Schlumberger:  SERVICE COMPANY
DATE .          16-Sep-2012:  DATE
API  .                     :  API NUMBER
UWI  .             15/9-F-5:  UNIQUE WELL ID
~Curve Information Block
#MNEM.UNIT         API CODE   Curve Description
#---------- ----------------  -----------------
DEPTH.M                    :  DEPTH (BOREHOLE)
CCLC .V                    :  CCL
CCLD .V                    :  CCL Discriminated Amplitude
CRRA .                     :  Near-Far Count Rate Ratio
CS   .F/MN                 :  Cable Speed
CVEL .M/MIN                 :  Cable Velocity
DEVI .DEG                  :  Hole Deviation
FBEF .UA                   :  RST Far Effective Beam Current
FCOR .                     :  RST Far Carbon/Oxygen Ratio
FERD .                     :  RST Far IC Mode Capture Optimization Resolution Degradation Factor
FIRD .                     :  RST Far Inelastic Optimization Resolution Degradation Factor
GR   .GAPI                 :  Gamma Ray
NCOR .                     :  RST Near Carbon/Oxygen Ratio
NERD .                     :  RST Near IC Mode Capture Optimization Resolution Degradation Factor
NIRD .                     :  RST Near Inelastic Optimization Resolution Degradation Factor
RB_PCMS.DEG                  :  Relative Bearing
TENS .LBF                  :  Cable Tension
WPRE .PSI                  :  Well Pressure
WTEP .DEGC                 :  Well Temperature
~Parameter Information Block
#MNEM.UNIT            Value   Description
#---------- ----------------  -----------
APD  .M           54.900002:  Elevation of Depth Reference (LMF) above Permanent Datum
RUN  .                Run 1:  RUN NUMBER
PROJECT.     SLEIPNER_OST@st-vlinapp01:  
SET  .        RSTD_0912_IC2:  
~Other Information Block
# 
~A       DEPTH           CCLC           CCLD           CRRA             CS           CVEL           DEVI           FBEF           FCOR           FERD           FIRD             GR           NCOR           NERD           NIRD        RB_PCMS           TENS           WPRE           WTEP 
# ...
    3560.52120         0.0539         0.0000         2.8575         1.5049      -0.462200        53.9757       110.6947    -0.04240000         4.8238         4.8238        35.6643     0.03900000         2.3553         2.3553         7.9901      2802.0945      5087.9497        86.8642
    3560.67360        -0.0128         0.0000         2.8677         1.5302      -0.466500        53.9967       110.4005     0.05970000         4.8904         4.8904        35.3466    -0.04470000         2.3596         2.3596         8.0623      2802.5579      5088.0557        86.8366
    3560.82600         0.0543         0.0000         2.8436         1.5354      -0.467500        54.0131       109.5532     0.07510000         5.0483         5.0483        34.7205    -0.01570000         2.3909         2.3909         8.0140      2793.3232      5088.1685        86.8186
    3560.97840         0.0926         0.0000         2.8303         1.5052      -0.460200        54.0292       110.1473    -0.21330000         5.1357         5.1357        34.6879     0.06420000         2.3675         2.3675         8.1162      2788.0671      5088.2915        86.7899
    3561.13080        -0.0150         0.0000         2.8641         1.5253      -0.463800        54.0250       110.4803     0.00240000         5.0355         5.0355        33.8291     0.01040000         2.3446         2.3446         8.0641      2794.4714      5088.4111        86.7651
    3561.28320        -0.0185         0.0000         2.8622         1.5354      -0.467700        54.0227       110.1662    -0.06360000         5.0967         5.0967        33.6622    -0.00130000         2.3226         2.3226         8.0829      2786.8096      5088.5312        86.7569
    3561.43560        -0.0137         0.0000         2.8435         1.5561      -0.470200        54.0509       110.3495    -0.21210000         5.0722         5.0722        33.8137     0.04310000         2.3295         2.3295         8.0387      2786.8489      5088.6626        86.7124
    3561.58800        -0.0347         0.0000         2.8705         1.5505      -0.471300        54.0943       111.6443     0.11700000         5.0327         5.0327        34.5442     0.01330000         2.2454         2.2454         8.1402      2785.6667      5088.8335        86.7013
    3561.74040        -0.0077         0.0000         2.9219         1.5361      -0.471700        54.1239       111.8303    -0.17640001         5.0680         5.0680        35.4799    -0.05170000         2.2386         2.2386         8.2484      2777.8557      5088.9429        86.6773
    3561.89280         0.0758         0.0000         2.9278         1.5466      -0.471200        54.1448       111.8765    -0.06010000         5.0228         5.0228        36.5909     0.02640000         2.2209         2.2209         8.1647      2795.4331      5089.0688        86.6516
    3562.04520        -0.0133         0.0000         2.9441         1.5466      -0.472600        54.1619       111.4067     0.09410000         5.0434         5.0434        37.8485     0.02990000         2.2913         2.2913         8.0553      2777.0623      5089.1899        86.6341
    3562.19760        -0.0135         0.0000         2.9280         1.5456      -0.472100        54.1748       110.4000    -0.07700000         5.1176         5.1176        38.9369     0.03310000         2.2290         2.2290         8.0487      2776.3931      5089.3213        86.6182
    3562.35000        -0.0148         0.0000         2.8825         1.5551      -0.472800        54.1755       109.7029    -0.02470000         5.0980         5.0980        40.6530    -0.00240000         2.2719         2.2719         8.0088      2793.2966      5089.4443        86.5840
    3562.50240         0.0469         0.0000         2.8669         1.5305      -0.472500        54.1822       109.2995    -0.00810000         5.0809         5.0809        42.0821    -0.05550000         2.2607         2.2607         7.7590      2792.8723      5089.5610        86.5785
    3562.65480         0.1812         0.0000         2.8523         1.5623      -0.489500        54.1527       109.3682    -0.11080000         5.1477         5.1477        43.3804    -0.03960000         2.3071         2.3071         7.6787      2794.3560      5089.6919        86.5517
    3562.80720        -0.0111         0.0000         2.8560         1.6112      -0.485100        54.1112       109.0746     0.03970000         5.1905         5.1905        43.2888    -0.01980000         2.3292         2.3292         7.7927      2787.3569      5089.8203        86.5242
    3562.95960         0.0028         0.0000         2.8519         1.6060      -0.489500        54.1026       108.5734    -0.03240000         5.3118         5.3118        43.0506    -0.01630000         2.3327         2.3327         7.9876      2787.0500      5089.9219        86.5029
    3563.11200        -0.0120         0.0000         2.8324         1.6135      -0.490300        54.1048       107.4032    -0.11800000         5.0924         5.0924        42.0757    -0.03320000         2.3565         2.3565         8.0828      2788.6250      5090.0488        86.4891
    3563.26440        -0.0123         0.0000         2.8165         1.6552      -0.501300        54.1101       107.5770     0.05780000         4.9530         4.9530        40.2332     0.04550000         2.3386         2.3386         7.9453      2777.4746      5090.1763        86.4632
    3563.41680         0.1524         0.0000         2.8634         1.6411      -0.502000        54.1229       109.9326    -0.00350000         4.8642         4.8642        38.4792    -0.01670000         2.3600         2.3600         8.0892      2783.1284      5090.3003        86.4430
    3563.56920        -0.0129         0.0000         2.9906         1.6660      -0.503400        54.1225       110.3341     0.06100000         5.0452         5.0452        37.1078    -0.00700000         2.3713         2.3713         8.1956      2798.7939      5090.4268        86.4139
    3563.72160        -0.1786         0.0000         3.0331         1.6663      -0.506000        54.1287       109.7038    -0.05820000         5.0369         5.0369        36.3535    -0.00890000         2.2808         2.2808         7.9895      2795.8894      5090.5815        86.4034
    3563.87400        -0.0081         0.0000         2.9544         1.6585      -0.504500        54.1381       107.3733     0.01870000         5.2166         5.2166        35.5274     0.05730000         2.2741         2.2741         7.7264      2788.7034      5090.7134        86.3838
    3564.02640         0.0828         0.0000         2.8532         1.6552      -0.506500        54.1185       103.8577    -0.03880000         5.0038         5.0038        34.5530     0.01600000         2.2506         2.2506         7.6972      2791.6370      5090.8477        86.3572
    3564.17880        -0.0065         0.0000         2.7700         1.6713      -0.508100        54.0684       102.6982    -0.36780000         4.9793         4.9793        33.9490    -0.00470000         2.3145         2.3145         7.7386      2792.8667      5090.9531        86.3291
    3564.33120         0.0676         0.0000         2.7380         1.6775      -0.507900        54.0699       101.3813    -0.06000000         5.1676         5.1676        34.0776     0.01230000         2.3451         2.3451         7.7577      2786.3853      5091.0854        86.3077
    3564.48360        -0.0050         0.0000         2.7114         1.7211      -0.538900        54.0803       100.9534     0.05370000         4.9885         4.9885        32.8008     0.02320000         2.4454         2.4454         7.7738      2787.4204      5091.2041        86.2834
    3564.63600        -0.0057         0.0000         2.7125         1.2421      -0.411500        54.0922       100.9757     0.00680000         5.0309         5.0309        31.9640     0.01140000         2.4156         2.4156         7.6666      2778.4519      5091.3203        86.2653
    3564.78840        -0.0258         0.0000         2.7105         1.8471      -0.569500        54.1143       101.3465     0.10750000         5.1776         5.1776        32.1270    -0.02520000         2.4403         2.4403         7.6479      2794.3472      5091.4551        86.2445
