~Version Information Block
VERS .                 2.00:  CWLS LOG ASCII STANDARD - VERSION 2.00
WRAP .                   NO:  One line per depth step
~Well Information Block
#MNEM.UNIT        Data Type   Information
#---------- ----------------  -----------
STRT .M          3439.51560:  START DEPTH
STOP .M          3642.36000:  STOP DEPTH
STEP .M             0.15240:  STEP
NULL .              -999.25:  NULL VALUE
COMP .              Statoil:  COMPANY
WELL .          NO_15/9-F-5:  WELL
FLD  .                VOLVE:  FIELD
LOC  .            North Sea:  LOCATION
CTRY .                     :  COUNTRY
STAT .                     :  STATE
CNTY .                     :  COUNTY
SRVC .         Schlumberger:  SERVICE COMPANY
DATE .          16-Sep-2012:  DATE
API  .                     :  API NUMBER
UWI  .             15/9-F-5:  UNIQUE WELL ID
~Curve Information Block
#MNEM.UNIT         API CODE   Curve Description
#---------- ----------------  -----------------
DEPTH.M                    :  DEPTH (BOREHOLE)
BSAL .PPM                  :  Borehole Salinity
CCLC .V                    :  CCL
CIRF .                     :  RST Capture to Inelastic Ratio Far
CIRN .                     :  RST Capture to Inelastic Ratio Near
CVEL .M/MIN                 :  Cable Velocity
DSIG .CU                   :  Sigma Difference
FBEF .UA                   :  RST Far Effective Beam Current
GR   .GAPI                 :  Gamma Ray
IRAT .                     :  RST Inelastic Ratio
RSCF .                     :  RST Far Detector Effective Unregulated Capture Count Rate
RSCN .                     :  RST Near Detector Effective Unregulated Capture Count Rate
SFFA .CU                   :  RST Sigma Formation Far Apparent
SIBF .CU                   :  RST Sigma Borehole Fluid
SIGM .CU                   :  Formation Sigma (Neutron Capture Cross Section)
TENS .LBF                  :  Cable Tension
TPHI .V/V                  :  Thermal Decay Porosity
~Parameter Information Block
#MNEM.UNIT            Value   Description
#---------- ----------------  -----------
APD  .M           54.900002:  Elevation of Depth Reference (LMF) above Permanent Datum
BHS  .                 CASE:  Borehole Status (Open or Cased Hole)
BS   .IN                8.5:  Bit Size
BSAL .PPM       34972.17188:  Borehole Salinity
BSALOPT.              UNKNOWN:  Borehole Salinity Option
CSID .IN              6.184:  Casing Inner Diameter
CSIZ .IN                  7:  Current Casing Size
CWEI .LB/F               29:  Casing Weight
MATR .                 SAND:  Rock Matrix for Neutron Porosity Corrections
RUN  .                Run 1:  RUN NUMBER
PROJECT.     SLEIPNER_OST@st-vlinapp01:  
SET  .       RSTD_0912_SIG1:  
~Other Information Block
# 
~A       DEPTH           BSAL           CCLC           CIRF           CIRN           CVEL           DSIG           FBEF             GR           IRAT           RSCF           RSCN           SFFA           SIBF           SIGM           TENS           TPHI 
# ...
    3541.92840     26566.6016         0.1077         2.6239     0.81669998       -4.39790        -0.5583        82.5063        12.2279     0.32470000        11.1406        10.7495        15.2497        31.3793        13.8755      2657.8066     0.19460000
    3542.08080     26338.1992         0.0359         2.5038     0.79140002       -4.42090        -0.6210        77.0882        13.1414     0.32659999        11.8513        11.0961        15.7578        31.2987        13.7599      2666.5483     0.19190000
    3542.23320     26737.1992         0.0457         2.5916     0.82179999       -4.42590        -0.5013        81.9345        12.6431     0.32730001        11.0029        10.6433        15.8040        31.4396        13.9465      2659.9355     0.19100000
    3542.38560     26792.6016        -0.0213         2.5188     0.78399998       -4.43550        -0.4594        76.9239        12.4563     0.32710001        11.4412        10.5301        15.8117        31.4591        13.8774      2645.8389     0.19400001
    3542.53800     26513.9004         0.2624         2.4618     0.78990000       -4.43360        -0.4105        79.6212        14.0341     0.32460001        10.8245        10.4034        15.5466        31.3607        13.9011      2650.8389     0.19730000
    3542.69040     26630.6992         0.1400         2.4976     0.78600001       -4.42510        -0.4032        80.4060        15.1967     0.32670000        11.1338        10.6925        15.8722        31.4020        13.9997      2654.8389     0.19930001
    3542.84280     27250.4004        -0.1461         2.4451     0.79079998       -4.40220        -0.4046        78.0113        18.8505     0.32449999        11.0688        10.4395        16.1037        31.6208        13.9232      2649.1614     0.20080000
    3542.99520     27187.4004         0.1337         2.4967     0.78500003       -4.42130        -0.4399        81.6118        24.4870     0.32670000        10.5965        10.2356        15.3095        31.5986        13.9526      2636.1614     0.19810000
    3543.14760     27134.5000        -0.1440         2.5009     0.79259998       -4.43020        -0.4629        79.5871        30.2169     0.32380000        10.9082        10.4620        15.9533        31.5799        14.0407      2650.5483     0.19550000
    3543.30000     27242.0000         0.1448         2.5172     0.76950002       -4.40690        -0.3381        81.8984        34.7011     0.32409999        10.7362        10.2027        16.3660        31.6179        14.4642      2642.1614     0.19260000
    3543.45240     27350.5000         0.0699         2.4451     0.77980000       -4.40690        -0.3869        82.2063        36.1129     0.32280001        10.6682        10.5366        16.5797        31.6562        14.6248      2646.7097     0.19550000
    3543.60480     27544.9004        -0.2355         2.4093     0.76969999       -4.42020        -0.2815        81.2405        36.6111     0.32339999        10.3372        10.1135        16.4286        31.7249        14.5995      2651.0645     0.19580001
    3543.75720     27862.1992         0.2489         2.4891     0.78500003       -4.43440        -0.1250        83.5580        34.3794     0.32190001        10.1391        10.0118        16.2896        31.8371        14.4445      2639.6128     0.19520000
    3543.90960     27788.2988        -0.0943         2.5476     0.76590002       -4.44030        -0.2146        81.6343        35.7547     0.32170001        10.7281        10.0333        16.1158        31.8110        14.3083      2638.4517     0.18840000
    3544.06200     27341.9004         0.1194         2.4046     0.75900000       -4.44620        -0.2401        80.5359        38.6612     0.32510000        10.2684         9.7804        16.0186        31.6532        14.3740      2657.4517     0.18430001
    3544.21440     27564.5000        -0.0225         2.5114     0.77420002       -4.40910        -0.2291        80.5797        44.3081     0.32969999        10.7441         9.7956        16.4902        31.7318        14.1758      2647.8389     0.17900001
    3544.36680     27684.2012        -0.2873         2.4621     0.78549999       -4.42340        -0.2778        80.0105        43.8098     0.33410001        10.4019         9.8223        15.5236        31.7741        14.0972      2622.3872     0.17620000
    3544.51920     27258.6992        -0.3495         2.4436     0.75500000       -4.42210        -0.2825        77.7123        44.1420     0.33219999        10.7977         9.8750        15.7848        31.6238        13.7346      2636.3225     0.17270000
    3544.67160     27104.6992         0.1038         2.5100     0.75019997       -4.43360        -0.1559        79.7927        39.8601     0.32890001        11.1744        10.2696        15.4082        31.5694        13.9250      2640.9033     0.17180000
    3544.82400     26907.1992        -0.0212         2.4639     0.75400001       -4.43350        -0.2088        79.7542        34.2782     0.32429999        10.8065        10.0498        16.1101        31.4996        14.1819      2633.2258     0.17700000
    3544.97640     27445.5000        -0.0635         2.4022     0.73860002       -4.56200        -0.1955        81.5286        28.5483     0.32020000        10.3747         9.7066        16.5656        31.6898        14.7817      2635.5483     0.18520001
    3545.12880     27772.0996        -0.4615         2.3246     0.72970003       -4.63870        -0.0331        81.7232        25.7719     0.32040000         9.9942         9.9192        17.2111        31.8052        15.1776      2629.9656     0.19630000
    3545.28120     27732.5000         0.0287         2.2371     0.72909999       -4.41450        -0.1041        78.7527        24.0280     0.31940001         9.7913         9.6491        17.3036        31.7912        15.1549      2643.9033     0.20200001
    3545.43360     27853.0000         0.0083         2.2362     0.71499997       -4.41020        -0.0912        80.1981        23.9450     0.32589999        10.0027         9.8561        16.4932        31.8338        14.8444      2646.1614     0.19880000
    3545.58600     28020.9004        -0.1418         2.2881     0.73299998       -4.45190        -0.0575        78.6168        23.0497     0.32679999        10.2341         9.7516        16.2777        31.8932        14.2396      2626.1936     0.18900000
    3545.73840     28319.2988         0.0528         2.4514     0.74019998       -4.44320         0.0212        78.8277        21.3888     0.33070001        11.0700        10.1337        15.4839        31.9987        13.8094      2643.3872     0.17640001
    3545.89080     28497.6992         0.0300         2.4839     0.75620002       -4.42670        -0.0364        77.4675        20.0961     0.32440001        11.2242        10.1232        15.2063        32.0619        13.6604      2636.6128     0.16820000
    3546.04320     28704.0000        -0.0374         2.6273     0.73680001       -4.42450        -0.0916        81.2370        19.3488     0.32130000        11.6390        10.4971        15.8557        32.1349        13.5947      2632.0325     0.16710000
    3546.19560     28483.0000        -0.1253         2.5733     0.75749999       -4.42180        -0.2052        81.5349        19.4500     0.31779999        11.2630        10.3313        15.3184        32.0567        13.9163      2641.1614     0.17070000
    3546.34800     28655.5000         0.1515         2.4994     0.77039999       -4.42110        -0.3516        82.2243        20.1974     0.32359999        10.8921        10.5668        16.1816        32.1177        13.9066      2627.3225     0.17640001
    3546.50040     28249.5996         0.3743         2.4779     0.76679999       -4.42890        -0.2842        78.0862        20.5295     0.32810000        11.1618        10.1696        15.8206        31.9741        14.0180      2636.3335     0.17820001
    3546.65280     27871.5996         0.0797         2.4829     0.76230001       -4.42650        -0.3973        75.1296        22.3564     0.32730001        11.3018         9.8116        15.6530        31.8404        13.9353      2655.7419     0.17900001
