~Version Information Block
VERS .                 2.00:  CWLS LOG ASCII STANDARD - VERSION 2.00
WRAP .                  YES:  Multiple lines per depth step
~Well Information Block
#MNEM.UNIT        Data Type   Information
#---------- ----------------  -----------
STRT .M          3513.58200:  START DEPTH
STOP .M          3649.06560:  STOP DEPTH
STEP .M             0.15240:  STEP
NULL .              -999.25:  NULL VALUE
COMP .              Statoil:  COMPANY
WELL .        NO_15/9-F-1_C:  WELL
FLD  .                Volve:  FIELD
LOC  .            North Sea:  LOCATION
CTRY .               Norway:  COUNTRY
STAT .                     :  STATE
CNTY .                     :  COUNTY
SRVC .         Schlumberger:  SERVICE COMPANY
DATE .          27-Nov-2014:  DATE
API  .                     :  API NUMBER
UWI  .           15/9-F-1 C:  UNIQUE WELL ID
LATI .     58° 26' 29.91" N:  LATITUDE
LONG .      1° 53' 14.71" E:  LONGITUDE
~Curve Information Block
#MNEM.UNIT         API CODE   Curve Description
#---------- ----------------  -----------------
DEPTH.M                    :  DEPTH (BOREHOLE)
BSAL .PPM                  :  Borehole Salinity
CCLC .V                    :  CCL
CIRF .                     :  RST Capture to Inelastic Ratio Far
CIRN .                     :  RST Capture to Inelastic Ratio Near
CVEL .M/SEC                 :  Cable Velocity
DFRB .DEG                  :  Calibrated Relative Bearing
DSIG .CU                   :  Sigma Difference
FBEF .UA                   :  RST Far Effective Beam Current
GR   .GAPI                 :  Gamma Ray
IRAT .                     :  RST Inelastic Ratio
PFC1 .IN                   :  PFCS CaliperX
PFC2 .IN                   :  PFCS CaliperY
RSCF .                     :  RST Far Detector Effective Unregulated
RSCN .                     :  RST Near Detector Effective
SFFA .CU                   :  RST Sigma Formation Far Apparent
SIBF .CU                   :  RST Sigma Borehole Fluid
SIGM .CU                   :  Formation Sigma (Neutron Capture Cross
TENS .LBF                  :  Cable Tension
TPHI .V/V                  :  Thermal Decay Porosity
~Parameter Information Block
#MNEM.UNIT            Value   Description
#---------- ----------------  -----------
APD  .M           54.900002:  Elevation of Depth Reference (LMF) above Permanent Datum
BHS  .                 CASE:  Borehole Status (Open or Cased Hole)
BS   .IN                8.5:  Bit Size
BSAL .PPM                 0:  Borehole Salinity
BSALOPT.              UNKNOWN:  Borehole Salinity Option
CSIZ .IN                  7:  Current Casing Size
CWEI .LB/F               29:  Casing Weight
EPD  .C3                  0:  Elevation of Permanent Datum above Mean Sea Level
LMF  .                   KB:  Logging Measured From (Name of Logging Elevation Reference)
MATR .                 SAND:  Rock Matrix for Neutron Porosity Corrections
PDAT .                  MSL:  Permanent Datum
RUN  .                Run 1:  RUN NUMBER
TAPE_NAME.     Statoil_Volve_15-9-F-1 C_PLT-RST_28Nov14_ConCu_R1L15Up_SigmaRepeat.las:  
TOOL_STRING.              UNKNOWN:  
WN   .           15/9-F-1 C:  WELL
PROJECT.     SLEIPNER_OST@st-vlinapp01:  
SET  .       RSTD_1114_SIG2:  
~Other Information Block
~Ascii Log Data
# ...
    3583.53360 
    45739.1016         0.0052         2.3401       0.593500      -0.162258 
      356.9830        -1.3044        85.1645        32.4730         0.3340 
        6.2219         6.0510         9.7048         7.3751        17.2873 
       38.2272        15.7085      4240.0005       0.110900
    3583.68600 
    46943.1016         0.0003         2.3100       0.609600      -0.162245 
      355.5720        -1.6637        83.9942        33.7601         0.3362 
        6.2219         6.0510         9.6512         7.4477        17.3973 
       38.6625        15.6363      4495.3330       0.090600
    3583.83840 
    47105.3008         0.0057         2.2801       0.600400      -0.161822 
      355.5720        -1.9052        84.8855        33.3923         0.3320 
        6.2219         6.0510         9.7018         7.6860        17.6085 
       38.7212        15.8950      4690.0000       0.095400
    3583.99080 
    47905.5000         0.0689         2.3125       0.574400      -0.161432 
      355.5720        -1.9485        89.8836        33.3923         0.3322 
        6.2174         6.0765         9.4702         7.6849        18.1819 
       39.0109        16.0131      4676.5000       0.099100
    3584.14320 
    49104.8008        -0.0304         2.2194       0.587700      -0.162702 
      355.5720        -2.3857        84.9280        33.7601         0.3308 
        6.2219         6.0834         9.2359         7.1552        17.8623 
       39.4457        16.3562      4584.0000       0.104200
    3584.29560 
    50428.1992        -0.0032         2.1854       0.583200      -0.162662 
      355.5720        -2.5944        86.1962        34.9369         0.3335 
        6.2219         6.0834         9.0825         7.2592        18.7209 
       39.9261        16.4234      4440.5000       0.112100
    3584.44800 
    51548.9023         0.0016         2.1381       0.585000      -0.162027 
      355.5720        -2.8742        85.8099        35.6724         0.3331 
        6.2219         6.0834         8.9412         7.3224        18.4566 
       40.3335        16.1766      4527.5000       0.123100
    3584.60040 
    53163.5000        -0.0092         2.1355       0.571600      -0.163318 
      355.5720        -2.8703        85.9653        34.0175         0.3382 
        6.2219         6.0834         8.7340         6.8829        17.1676 
       40.9214        15.9353      4483.0000       0.132100
    3584.75280 
    54867.4023         0.0055         2.0779       0.595900      -0.162027 
      355.5720        -3.1104        83.2157        32.4730         0.3379 
        6.2219         6.0834         8.5979         7.0852        18.0210 
       41.5430        16.0693      4632.5000       0.140600
    3584.90520 
    55816.6992         0.0013         2.0827       0.579800      -0.162682 
      355.5720        -3.3137        83.3793        31.7374         0.3423 
        6.2219         6.0834         8.5035         6.8026        18.8608 
       41.8899        16.4179      4526.9995       0.145400
    3585.05760 
    57654.8984         0.0020         2.0186       0.594100      -0.162047 
      355.5720        -3.4435        82.3932        30.0825         0.3444 
        6.2219         6.0834         8.2856         6.9382        18.2038 
       42.5627        16.5953      4556.0000       0.149900
    3585.21000 
    59145.9023        -0.0650         2.0415       0.589600      -0.162662 
      355.5720        -3.1324        80.7429        29.7148         0.3462 
        6.2286         6.0834         8.7400         7.1271        18.5159 
       43.1094        16.3895      4436.5000       0.150200
    3585.36240 
    59833.0000        -0.0292         2.1323       0.595100      -0.163105 
      355.5720        -3.0930        84.9742        31.9213         0.3395 
        6.2286         6.1066         8.6601         7.0718        18.0869 
       43.3617        16.6229      4368.6665       0.152100
    3585.51480 
    61687.0977        -0.0383         2.1031       0.559100      -0.163530 
      355.5720        -3.1809        86.6506        31.4432         0.3376 
        6.2219         6.1158         8.4552         6.8001        18.7654 
       44.0434        17.1012      4308.6665       0.154400
    3585.66720 
    63625.0977         0.0537         2.0722       0.611000      -0.163980 
      355.5720        -3.2342        88.4269        31.0755         0.3387 
        6.2219         6.1297         7.8780         6.8782        19.7919 
       44.7576        17.4635      4124.3335       0.162200
    3585.81960 
    65599.1953        -0.0047         2.0511       0.593600      -0.164445 
      355.5720        -2.9726        84.5332        31.4432         0.3372 
        6.2219         6.1251         7.9942         6.3975        19.0240 
       45.4868        17.4241      4348.6670       0.168900
    3585.97200 
    66124.1016        -0.0002         2.1059       0.573800      -0.164813 
      355.5720        -2.9087        86.7459        31.0755         0.3334 
        6.2219         6.1158         8.4347         6.8231        18.5134 
       45.6809        17.2964      4613.6670       0.172800
    3586.12440 
    67215.0000         0.0001         2.0196       0.591500      -0.163973 
      355.5720        -2.6557        87.2895        31.4800         0.3343 
        6.2219         6.1158         8.0300         7.0741        19.2796 
       46.0848        17.4097      4654.0000       0.178000
    3586.27680 
    68063.5000         0.0199         2.0675       0.585300      -0.163338 
      355.5720        -2.4900        88.1912        32.9510         0.3348 
        6.2219         6.1158         7.9877         6.8278        19.2645 
       46.3993        18.0108      4711.5000       0.180300
    3586.42920 
    69689.9062         0.0605         2.0498       0.604600      -0.162047 
      355.5720        -2.2886        84.1400        31.6639         0.3359 
        6.2219         6.1158         8.3759         7.1551        20.2345 
       47.0030        18.1744      4532.0000       0.184300
    3586.58160 
    69984.2031        -0.0166         1.9906       0.585900      -0.162047 
      355.5720        -2.1337        81.1689        33.5027         0.3346 
        6.2219         6.1158         8.2899         7.0184        19.6968 
       47.1123        18.1902      4385.0005       0.181500
    3586.73400 
    71408.6016        -0.0507         2.1031       0.574000      -0.162668 
      355.5720        -2.1022        91.7557        34.4221         0.3389 
        6.2219         6.1158         7.7947         6.7986        19.2581 
       47.6422        17.8265      4525.6665       0.177900
    3586.88640 
    71976.7031         0.0063         2.0361       0.595800      -0.162668 
      355.5720        -2.1418        83.9903        31.6271         0.3362 
        6.2219         6.1158         8.2255         6.9331        19.0967 
       47.8537        17.5263      4429.0000       0.181200
    3587.03880 
    72831.5938         0.0068         2.0320       0.561700      -0.161808 
      355.5720        -1.8472        86.7818        31.8110         0.3376 
        6.2219         6.1158         8.0024         6.5998        18.7518 
       48.1723        17.5348      4508.6665       0.185800
    3587.19120 
    74627.7031         0.0027         2.0161       0.607200      -0.162245 
      354.1610        -1.7219        85.9628        32.6936         0.3356 
        6.2219         6.1158         7.9623         7.1063        19.2460 
       48.8428        18.1689      4560.6670       0.195400
    3587.34360 
    75204.1016         0.0081         1.8827       0.559400      -0.163078 
      354.1610        -1.5365        80.0917        31.4065         0.3349 
        6.2219         6.1158         8.0669         6.7853        20.9737 
       49.0582        18.6840      4524.6670       0.203100
    3587.49600 
    75162.5000         0.0091         1.8328       0.554200      -0.163297 
      354.1610        -1.6051        86.3968        28.4644         0.3335 
        6.2219         6.1158         7.7125         7.2690        20.2874 
       49.0427        19.4074      4581.0000       0.207800
