~Version Information Block
VERS .                 2.00:  CWLS LOG ASCII STANDARD - VERSION 2.00
WRAP .                   NO:  One line per depth step
~Well Information Block
#MNEM.UNIT        Data Type   Information
#---------- ----------------  -----------
STRT .M          3445.30680:  START DEPTH
STOP .M          3635.80680:  STOP DEPTH
STEP .M             0.15240:  STEP
NULL .              -999.25:  NULL VALUE
COMP .              Statoil:  COMPANY
WELL .          NO_15/9-F-5:  WELL
FLD  .                VOLVE:  FIELD
LOC  .            North Sea:  LOCATION
CTRY .                     :  COUNTRY
STAT .                     :  STATE
CNTY .                     :  COUNTY
SRVC .         Schlumberger:  SERVICE COMPANY
DATE .          16-Sep-2012:  DATE
API  .                     :  API NUMBER
UWI  .             15/9-F-5:  UNIQUE WELL ID
~Curve Information Block
#MNEM.UNIT         API CODE   Curve Description
#---------- ----------------  -----------------
DEPTH.M                    :  DEPTH (BOREHOLE)
CCLC .V                    :  CCL
CCLD .V                    :  CCL Discriminated Amplitude
CRRA .                     :  Near-Far Count Rate Ratio
CS   .F/MN                 :  Cable Speed
CVEL .M/MIN                 :  Cable Velocity
DEVI .DEG                  :  Hole Deviation
FBEF .UA                   :  RST Far Effective Beam Current
FCOR .                     :  RST Far Carbon/Oxygen Ratio
FERD .                     :  RST Far IC Mode Capture Optimization Resolution Degradation Factor
FIRD .                     :  RST Far Inelastic Optimization Resolution Degradation Factor
GR   .GAPI                 :  Gamma Ray
NCOR .                     :  RST Near Carbon/Oxygen Ratio
NERD .                     :  RST Near IC Mode Capture Optimization Resolution Degradation Factor
NIRD .                     :  RST Near Inelastic Optimization Resolution Degradation Factor
RB_PCMS.DEG                  :  Relative Bearing
TENS .LBF                  :  Cable Tension
WPRE .PSI                  :  Well Pressure
WTEP .DEGC                 :  Well Temperature
~Parameter Information Block
#MNEM.UNIT            Value   Description
#---------- ----------------  -----------
APD  .M           54.900002:  Elevation of Depth Reference (LMF) above Permanent Datum
RUN  .                Run 1:  RUN NUMBER
PROJECT.     SLEIPNER_OST@st-vlinapp01:  
SET  .        RSTD_0912_IC1:  
~Other Information Block
# 
~A       DEPTH           CCLC           CCLD           CRRA             CS           CVEL           DEVI           FBEF           FCOR           FERD           FIRD             GR           NCOR           NERD           NIRD        RB_PCMS           TENS           WPRE           WTEP 
# ...
    3533.69880        -0.0086         0.0000         2.8202         1.2543      -0.386300        51.7937       107.9899    -0.07280000         5.4184         5.4184        15.7471      -0.048200         2.7484         2.7484         8.0458      2716.7795      5065.5093        90.8595
    3533.85120        -0.0348         0.0000         2.8005         1.2539      -0.380200        51.8210       109.0719    -0.09390000         5.3521         5.3521        15.8282      -0.018200         2.7246         2.7246         8.1247      2713.2778      5065.6143        90.8345
    3534.00360        -0.0097         0.0000         2.8229         1.2582      -0.382300        51.8413       109.1744    -0.04630000         5.5024         5.5024        16.0603       0.011800         2.7323         2.7323         8.1223      2711.1362      5065.7915        90.8233
    3534.15600         0.0138         0.0000         2.8334         1.2251      -0.374700        51.8580       109.2409    -0.05350000         5.4007         5.4007        16.0941       0.008000         2.8066         2.8066         7.4746      2718.0249      5065.9004        90.7997
    3534.30840        -0.0103         0.0000         2.8360         1.2448      -0.380900        51.8710       108.8671    -0.12950000         5.4037         5.4037        16.6190      -0.010500         2.8526         2.8526         7.3222      2714.9668      5066.0215        90.7894
    3534.46080        -0.0083         0.0000         2.8233         1.2175      -0.375100        51.8889       108.5721    -0.01940000         5.2924         5.2924        16.7385       0.029600         2.8377         2.8377         7.4696      2723.6611      5066.1362        90.7668
    3534.61320        -0.0085         0.0000         2.8184         1.2251      -0.375500        51.9079       107.8171    -0.16790000         5.3739         5.3739        17.1431      -0.050100         2.7722         2.7722         7.6834      2717.4548      5066.2583        90.7496
    3534.76560        -0.0091         0.0000         2.7926         1.2293      -0.371900        51.9280       107.8891     0.02700000         5.2594         5.2594        16.9038       0.027000         2.7443         2.7443         7.6615      2708.8455      5066.4551        90.7336
    3534.91800        -0.0057         0.0000         2.7930         1.2133      -0.371600        51.9273       108.0292    -0.05560000         5.2833         5.2833        16.2994       0.019100         2.7209         2.7209         7.6523      2710.8484      5066.5518        90.7126
    3535.07040        -0.0079         0.0000         2.7975         1.2054      -0.368800        51.9595       107.9599    -0.08350000         5.3298         5.3298        15.6750       0.051700         2.7071         2.7071         7.7092      2712.6577      5066.6958        90.6883
    3535.22280        -0.0063         0.0000         2.7952         1.2375      -0.378200        51.9875       107.8579    -0.02360000         5.2503         5.2503        15.3183       0.015200         2.7450         2.7450         7.7727      2714.1074      5066.8403        90.6763
    3535.37520        -0.0086         0.0000         2.8065         1.2457      -0.377500        52.0145       107.1405    -0.07300000         5.3583         5.3583        14.6136      -0.009600         2.6828         2.6828         7.8602      2711.0083      5066.9463        90.6502
    3535.52760        -0.0087         0.0000         2.7888         1.2175      -0.370200        52.0299       107.1161    -0.11460000         5.4242         5.4242        13.8553      -0.052100         2.6910         2.6910         7.9426      2716.2053      5067.1274        90.6312
    3535.68000        -0.0108         0.0000         2.7784         1.2215      -0.372300        52.0449       107.5288     0.02940000         5.3565         5.3565        14.1351       0.038600         2.6654         2.6654         7.9362      2713.7913      5067.2100        90.6221
    3535.83240        -0.0108         0.0000         2.7996         1.2093      -0.368300        52.0545       107.1141     0.09160000         5.2501         5.2501        14.4835       0.040900         2.6866         2.6866         7.9078      2728.9036      5067.3838        90.5946
    3535.98480        -0.0057         0.0000         2.7864         1.2014      -0.368800        52.0528       106.7211    -0.11760000         5.3371         5.3371        14.5860      -0.037000         2.6570         2.6570         7.8714      2713.5608      5067.4961        90.5726
    3536.13720        -0.0204         0.0000         2.7715         1.2136      -0.365600        52.0400       107.7570    -0.15200000         5.3691         5.3691        15.1197       0.007400         2.6602         2.6602         7.9636      2719.6177      5067.6255        90.5510
    3536.28960        -0.0042         0.0000         2.8141         1.1821      -0.362200        52.0256       107.4608    -0.05980000         5.3800         5.3800        15.6644       0.008800         2.6414         2.6414         7.9089      2717.7783      5067.7524        90.5174
    3536.44200        -0.0019         0.0000         2.8117         1.1900      -0.363000        52.0177       107.8627    -0.16090000         5.3216         5.3216        15.9760       0.002100         2.7234         2.7234         7.9722      2711.6218      5067.8955        90.4992
    3536.59440         0.0837         0.0000         2.8127         1.1795      -0.359300        52.0195       107.3697     0.04460000         5.1206         5.1206        16.0087       0.070000         2.7013         2.7013         8.0420      2717.5276      5068.0127        90.4786
    3536.74680        -0.0025         0.0000         2.7950         1.1906      -0.364300        52.0327       108.1889    -0.10750000         5.1386         5.1386        16.4330      -0.005400         2.6882         2.6882         7.9788      2713.2678      5068.1523        90.4595
    3536.89920        -0.0268         0.0000         2.8080         1.1860      -0.362300        52.0470       108.7044     0.00290000         5.1824         5.1824        16.4279       0.000200         2.6682         2.6682         7.8069      2719.1821      5068.2598        90.4309
    3537.05160        -0.0038         0.0000         2.8145         1.2090      -0.367300        52.0399       110.4279    -0.02040000         5.1992         5.1992        16.6339       0.001300         2.6783         2.6783         7.7355      2727.2266      5068.4165        90.4162
    3537.20400        -0.0028         0.0000         2.8567         1.1946      -0.368900        52.0247       111.3944    -0.07870000         5.2289         5.2289        16.6706      -0.004300         2.6820         2.6820         7.7240      2712.8625      5068.5464        90.3946
    3537.35640        -0.0669         0.0000         2.8768         1.2254      -0.370800        52.0390       111.5299     0.06990000         5.0966         5.0966        16.8623       0.011200         2.7500         2.7500         7.7438      2711.9133      5068.6899        90.3641
    3537.50880         0.1136         0.0000         2.8811         1.1965      -0.366000        52.0685       111.7441    -0.12280000         5.1454         5.1454        16.6741       0.008900         2.6966         2.6966         7.6497      2733.6738      5068.8340        90.3534
    3537.66120        -0.0016         0.0000         2.9196         1.2375      -0.373500        52.0803       112.3878     0.08980000         5.3075         5.3075        16.6692      -0.030300         2.6644         2.6644         7.5520      2717.5842      5068.9575        90.3297
    3537.81360        -0.0050         0.0000         2.9425         1.2011      -0.367400        52.1036       111.3657     0.09780000         5.3194         5.3194        17.0562       0.032300         2.6689         2.6689         7.5475      2726.7559      5069.0645        90.3191
    3537.96600         0.0307         0.0000         2.8865         1.1900      -0.363200        52.1121       110.8496     0.11060000         5.3400         5.3400        17.0839       0.008000         2.6517         2.6517         7.9250      2715.3467      5069.1836        90.3020
