~Version Information Block
VERS .                 2.00:  CWLS LOG ASCII STANDARD - VERSION 2.00
WRAP .                   NO:  One line per depth step
~Well Information Block
#MNEM.UNIT        Data Type   Information
#---------- ----------------  -----------
STRT .M          3230.11800:  START DEPTH
STOP .M          3389.98560:  STOP DEPTH
STEP .M             0.15240:  STEP
NULL .              -999.25:  NULL VALUE
COMP .              Statoil:  COMPANY
WELL .          NO_15/9-F-4:  WELL
FLD  .                VOLVE:  FIELD
LOC  .            North Sea:  LOCATION
CTRY .                     :  COUNTRY
STAT .                     :  STATE
CNTY .                     :  COUNTY
SRVC .         Schlumberger:  SERVICE COMPANY
DATE .          13-Sep-2012:  DATE
API  .                     :  API NUMBER
UWI  .             15/9-F-4:  UNIQUE WELL ID
~Curve Information Block
#MNEM.UNIT         API CODE   Curve Description
#---------- ----------------  -----------------
DEPTH.M                    :  DEPTH (BOREHOLE)
CCLC .V                    :  CCL
CCLD .V                    :  CCL Discriminated Amplitude
CRRA .                     :  Near-Far Count Rate Ratio
CS   .F/MN                 :  Cable Speed
CVEL .M/MIN                 :  Cable Velocity
FBEF .UA                   :  RST Far Effective Beam Current
FCOR .                     :  RST Far Carbon/Oxygen Ratio
FERD .                     :  RST Far IC Mode Capture Optimization Resolution Degradation Factor
FIRD .                     :  RST Far Inelastic Optimization Resolution Degradation Factor
GR   .GAPI                 :  Gamma Ray
NCOR .                     :  RST Near Carbon/Oxygen Ratio
NERD .                     :  RST Near IC Mode Capture Optimization Resolution Degradation Factor
NIRD .                     :  RST Near Inelastic Optimization Resolution Degradation Factor
RB_PCMS.DEG                  :  Relative Bearing
TENS .LBF                  :  Cable Tension
WTEP .DEGC                 :  Well Temperature
WTPE .MS                   :  Well Temperature Period
~Parameter Information Block
#MNEM.UNIT            Value   Description
#---------- ----------------  -----------
APD  .M                  54:  Elevation of Depth Reference (LMF) above Permanent Datum
RUN  .                    1:  RUN NUMBER
PROJECT.     SLEIPNER_OST@st-vlinapp01:  
SET  .        RSTD_0912_IC3:  
~Other Information Block
# 
~A       DEPTH           CCLC           CCLD           CRRA             CS           CVEL           FBEF           FCOR           FERD           FIRD             GR           NCOR           NERD           NIRD        RB_PCMS           TENS           WTEP           WTPE 
# ...
    3312.41400        -0.0225         0.0000         2.9165         1.4262       -0.43470       111.7655         0.1062         5.4606         5.4606        47.2659      -0.244800         2.5534         2.5534       356.3413      2300.1777        94.6111         4.0117
    3312.56640        -0.0204         0.0000         2.9415         1.4633       -0.44600       109.0332        -0.0075         5.4107         5.4107        46.2237       0.001100         2.5534         2.5534       356.4130      2324.8411        94.5872         4.0115
    3312.71880        -0.0237         0.0000         2.8727         1.5240       -0.46450       108.8461        -0.2921         5.4107         5.4107        46.2572      -0.006200         2.5338         2.5338       356.4753      2311.4983        94.5530         4.0112
    3312.87120        -0.0238         0.0000         2.8461         1.5978       -0.48700       108.8304         0.0115         5.4107         5.4107        45.8806       0.044200         2.5338         2.5338       356.6439      2311.5037        94.4566         4.0103
    3313.02360        -0.0025         0.0000         2.8259         1.9377       -0.59060       109.8787        -0.2056         5.3727         5.3727        45.8960      -0.017100         2.5338         2.5338       356.5003      2308.6887        94.4467         4.0103
    3313.17600        -0.0289         0.0000         2.8263         1.3668       -0.32330       110.5918         0.0690         5.3697         5.3697        46.1140      -0.108000         2.5115         2.5115       356.4262      2273.3643        94.3681         4.0096
    3313.32840        -0.1145         0.0000         2.8271         1.8776       -0.43340       110.7530        -0.0623         5.3365         5.3365        46.0465       0.007400         2.4593         2.4593       356.3201      2206.0676        94.3400         4.0093
    3313.48080        -0.0979         0.0000         2.8508        12.3930       -3.77740       109.9071        -0.0454         5.4821         5.4821        44.6660       0.023100         2.4400         2.4400       356.0757      2293.7778        94.2756         4.0087
    3313.63320        -0.0463         0.0000         2.8292         6.7644       -2.06180       109.4465         0.0014         5.5187         5.5187        45.1281      -0.015400         2.4660         2.4660       355.9313      2300.7334        94.2532         4.0086
    3313.78560        -0.0448         0.0000         2.8259         1.8337       -0.55890       107.1651        -0.0404         5.5472         5.5472        44.1466       0.020300         2.4927         2.4927       355.9777      2329.4739        94.2065         4.0081
    3313.93800        -0.0505         0.0000         2.7808         1.6427       -0.50070       107.5140        -0.0262         5.4468         5.4468        43.2554      -0.016800         2.5059         2.5059       356.0215      2327.7986        94.1518         4.0077
    3314.09040        -0.0522        -0.0522         2.8016         1.5876       -0.48390       109.5297         0.0379         5.4078         5.4078        43.4068      -0.058000         2.4757         2.4757       356.0091      2327.1802        94.0377         4.0067
    3314.24280         0.0453         0.0453         2.8952         1.1017       -0.27870       112.6267        -0.1041         5.3750         5.3750        42.7294       0.000000         2.4976         2.4976       355.8897      2296.7524        93.9854         4.0062
    3314.39520        -0.0034        -0.0034         3.0681         1.3976       -0.42600       113.7590        -0.0671         5.3380         5.3380        40.5224      -0.013500         2.4959         2.4959       355.7212      2324.6853        93.9354         4.0057
    3314.54760        -0.0296        -0.0296         3.0025         1.4236       -0.43390       114.3677         0.0196         5.1767         5.1767        40.0221       0.063100         2.4763         2.4763       355.6569      2315.4827        93.8820         4.0053
    3314.70000        -0.0044         0.0000         2.9485         1.4741       -0.44930       110.6404        -0.0735         5.1767         5.1767        41.3561       0.083500         2.4719         2.4719       355.6638      2316.3489        93.8093         4.0046
    3314.85240        -0.1280         0.0000         2.8437         1.6946       -0.40680       111.0505        -0.0953         5.1716         5.1716        40.9555       0.064300         2.4719         2.4719       355.6647      2260.0320        93.7688         4.0043
    3315.00480         0.2783         0.0000         2.8587         2.8038       -0.76870       111.9678        -0.1012         5.1026         5.1026        42.5010      -0.011200         2.4579         2.4579       355.7213      2199.9338        93.7087         4.0038
    3315.15720        -0.0109         0.0000         2.8997         2.8711       -0.87510       110.7055        -0.0025         5.1017         5.1017        44.1572       0.007200         2.4489         2.4489       355.8123      2294.4902        93.6429         4.0032
    3315.30960        -0.0078         0.0000         2.8756         1.2021       -0.25270       110.2752         0.0450         5.0947         5.0947        45.8285       0.010300         2.4867         2.4867       355.9822      2259.6106        93.5762         4.0026
    3315.46200        -0.0094         0.0000         2.8478         1.5118       -0.46080       110.1143        -0.0066         5.2833         5.2833        45.4116       0.048400         2.5159         2.5159       355.9966      2306.7222        93.5539         4.0024
    3315.61440        -0.0104         0.0000         2.8423         2.5978       -0.65400       110.1955         0.1018         5.1023         5.1023        45.8878      -0.014600         2.5124         2.5124       355.9285      2196.6233        93.4838         4.0018
    3315.76680        -0.0123         0.0000         2.8576        14.9557       -4.55850       109.9779        -0.0289         5.0937         5.0937        44.9758       0.020300         2.5112         2.5112       355.8542      2283.9231        93.4224         4.0012
    3315.91920        -0.0105         0.0000         2.8435        11.9770       -3.65060       109.9771         0.1688         5.1013         5.1013        45.2550       0.028300         2.4813         2.4813       355.7213      2287.8054        93.3461         4.0006
    3316.07160        -0.0124         0.0000         2.8499        12.8930       -3.92980       110.0785        -0.1879         4.9914         4.9914        45.6655      -0.032500         2.4637         2.4637       355.7377      2296.1843        93.3050         4.0002
    3316.22400        -0.0089         0.0000         2.8446        13.6503       -4.16060       111.4900         0.0480         5.1272         5.1272        46.8956      -0.109500         2.4733         2.4733       355.6968      2282.1292        93.2247         3.9995
    3316.37640        -0.0118         0.0000         2.8633        12.3255       -3.75680       111.1479         0.0276         5.3319         5.3319        48.7800      -0.119000         2.4873         2.4873       355.6819      2304.4324        93.1656         3.9990
    3316.52880        -0.0092         0.0000         2.8568        13.2425       -4.03630       111.8951        -0.1114         5.2369         5.2369        50.1760       0.007300         2.5258         2.5258       355.6983      2303.1250        93.1120         3.9985
    3316.68120        -0.0138         0.0000         2.8769        12.2690       -3.73960       111.7826        -0.0465         5.2904         5.2904        51.7550       0.038800         2.5295         2.5295       355.6593      2268.3845        93.0789         3.9982
    3316.83360        -0.0209         0.0000         2.8808        13.7582       -4.19350       112.4627         0.0701         5.2826         5.2826        53.1639      -0.044300         2.5261         2.5261       355.6040      2334.3872        93.0420         3.9979
