~Version Information Block
VERS .                 2.00:  CWLS LOG ASCII STANDARD - VERSION 2.00
WRAP .                   NO:  One line per depth step
~Well Information Block
#MNEM.UNIT        Data Type   Information
#---------- ----------------  -----------
STRT .M          3199.94280:  START DEPTH
STOP .M          3410.40720:  STOP DEPTH
STEP .M             0.15240:  STEP
NULL .              -999.25:  NULL VALUE
COMP .              Statoil:  COMPANY
WELL .          NO_15/9-F-4:  WELL
FLD  .                VOLVE:  FIELD
LOC  .            North Sea:  LOCATION
CTRY .                     :  COUNTRY
STAT .                     :  STATE
CNTY .                     :  COUNTY
SRVC .         Schlumberger:  SERVICE COMPANY
DATE .          13-Sep-2012:  DATE
API  .                     :  API NUMBER
UWI  .             15/9-F-4:  UNIQUE WELL ID
~Curve Information Block
#MNEM.UNIT         API CODE   Curve Description
#---------- ----------------  -----------------
DEPTH.M                    :  DEPTH (BOREHOLE)
CCLC .V                    :  CCL
CRRA .                     :  Near-Far Count Rate Ratio
CVEL .M/MIN                 :  Cable Velocity
FBEF .UA                   :  RST Far Effective Beam Current
FCOR .                     :  RST Far Carbon/Oxygen Ratio
FERD .                     :  RST Far IC Mode Capture Optimization Resolution Degradation Factor
FIRD .                     :  RST Far Inelastic Optimization Resolution Degradation Factor
GR   .GAPI                 :  Gamma Ray
NCOR .                     :  RST Near Carbon/Oxygen Ratio
NERD .                     :  RST Near IC Mode Capture Optimization Resolution Degradation Factor
NIRD .                     :  RST Near Inelastic Optimization Resolution Degradation Factor
RB_PCMS.DEG                  :  Relative Bearing
TENS .LBF                  :  Cable Tension
~Parameter Information Block
#MNEM.UNIT            Value   Description
#---------- ----------------  -----------
APD  .M                  54:  Elevation of Depth Reference (LMF) above Permanent Datum
RUN  .                    4:  RUN NUMBER
PROJECT.     SLEIPNER_OST@st-vlinapp01:  
SET  .        RSTD_0912_IC1:  
~Other Information Block
# 
~A       DEPTH           CCLC           CRRA           CVEL           FBEF           FCOR           FERD           FIRD             GR           NCOR           NERD           NIRD        RB_PCMS           TENS 
# ...
    3265.32240        -0.0183         2.8420      -0.508700       111.3540         0.1075         4.9846         4.9846        22.4777      -0.018500         2.8619         2.8619       356.9580      2271.4111
    3265.47480        -0.0366         2.8413      -0.508900       111.5589        -0.0001         5.0753         5.0753        22.1970       0.032700         2.9079         2.9079       356.9884      2258.9590
    3265.62720        -0.0204         2.8370      -0.510300       111.5587         0.0664         5.0789         5.0789        22.3531       0.094800         2.7938         2.7938       356.9172      2260.5725
    3265.77960         0.0084         2.8467      -0.508900       111.5153         0.0377         5.0972         5.0972        22.3224      -0.012100         2.7671         2.7671       356.8365      2259.9109
    3265.93200        -0.0214         2.8530      -0.504200       112.2748        -0.0078         5.1030         5.1030        22.4530       0.100300         2.7851         2.7851       356.7137      2258.1582
    3266.08440        -0.0217         2.8619      -0.511200       111.7812        -0.0824         5.1944         5.1944        22.4878       0.026600         2.8078         2.8078       356.7512      2265.7285
    3266.23680        -0.0256         2.8508      -0.511900       111.6163         0.0548         5.1579         5.1579        22.9158      -0.014800         2.8155         2.8155       356.8282      2255.8472
    3266.38920        -0.0261         2.8467      -0.506000       112.2000        -0.1003         5.2182         5.2182        23.1523       0.053300         2.7907         2.7907       356.8682      2277.1882
    3266.54160        -0.0820         2.8693      -0.508600       111.1670         0.1206         5.2630         5.2630        23.5146       0.081300         2.8262         2.8262       356.9769      2271.9963
    3266.69400         0.1627         2.8711      -0.511100       111.4775         0.0443         5.3047         5.3047        23.3001       0.058700         2.8444         2.8444       356.8601      2265.8284
    3266.84640         0.0555         2.8555      -0.514700       111.6264        -0.0068         5.2527         5.2527        22.8193      -0.086800         2.8623         2.8623       356.9548      2270.7454
    3266.99880        -0.0377         2.8520      -0.512100       111.1276         0.0708         5.3192         5.3192        22.5014      -0.046200         2.8398         2.8398       357.2581      2276.5129
    3267.15120        -0.0334         2.8352      -0.514100       111.6335        -0.0170         5.3742         5.3742        22.2474      -0.078200         2.8342         2.8342       357.2022      2263.3933
    3267.30360        -0.0695         2.8262      -0.512200       112.8149        -0.2146         5.4193         5.4193        21.1806       0.045100         2.8037         2.8037       357.0699      2269.3220
    3267.45600        -0.0877         2.8946      -0.517000       112.7404         0.0441         5.5860         5.5860        20.4695       0.065700         2.7888         2.7888       356.9821      2259.7559
    3267.60840         0.1328         2.9312      -0.507600       115.6352         0.1513         5.4754         5.4754        19.3313       0.087300         2.7398         2.7398       356.9375      2276.1370
    3267.76080        -0.0442         3.0856      -0.509500       115.7404        -0.0203         5.5775         5.5775        18.4917       0.019200         2.6791         2.6791       356.8537      2265.1116
    3267.91320        -0.0150         3.0523      -0.511900       114.0907         0.2863         5.5507         5.5507        17.7823       0.031900         2.6969         2.6969       356.9065      2268.4067
    3268.06560         0.0494         2.9452      -0.516700       113.3272        -0.0963         5.6125         5.6125        18.0098       0.018700         2.6840         2.6840       356.8064      2275.3909
    3268.21800         0.0668         2.8867      -0.512300       110.2393         0.0096         5.7158         5.7158        17.8370       0.047900         2.7129         2.7129       356.8117      2260.8918
    3268.37040        -0.0062         2.8194      -0.516300       110.1685        -0.0585         5.6189         5.6189        18.2371      -0.009400         2.6911         2.6911       356.8421      2259.1057
    3268.52280        -0.0049         2.8204      -0.514500       110.6659         0.0839         5.6781         5.6781        18.3745       0.020500         2.6509         2.6509       356.8082      2268.1575
    3268.67520         0.0226         2.8197      -0.514900       111.1421         0.1063         5.7990         5.7990        18.1877       0.022600         2.7000         2.7000       356.5659      2263.3057
    3268.82760        -0.1127         2.8285      -0.518400       111.4629         0.0445         5.7416         5.7416        18.1599       0.071500         2.6973         2.6973       356.6356      2279.3459
    3268.98000         0.0401         2.8477      -0.510800       111.6181         0.0068         5.6299         5.6299        18.5994       0.013100         2.6995         2.6995       356.5237      2263.5374
    3269.13240         0.0588         2.8547      -0.507000       112.3039         0.2255         5.6241         5.6241        19.0326       0.079400         2.6727         2.6727       356.4894      2272.2666
    3269.28480        -0.0096         2.8414      -0.508400       111.8943         0.1274         5.6770         5.6770        19.5607      -0.046800         2.6747         2.6747       356.5128      2271.7407
    3269.43720        -0.0088         2.8511      -0.513600       112.0144         0.0403         5.7633         5.7633        20.2758      -0.004000         2.6656         2.6656       356.5972      2262.0151
    3269.58960        -0.0083         2.8575      -0.508900       112.4662         0.1492         5.7475         5.7475        20.2568       0.077400         2.6174         2.6174       356.6738      2269.2529
    3269.74200        -0.0076         2.8627      -0.514100       111.9318         0.0495         5.7225         5.7225        20.0272       0.022900         2.5685         2.5685       356.7168      2273.0710
    3269.89440        -0.0523         2.8454      -0.507300       111.5640        -0.1590         5.8408         5.8408        19.6402      -0.095300         2.5554         2.5554       356.7245      2260.0186
    3270.04680        -0.0280         2.8386      -0.516100       112.3979        -0.1261         5.7633         5.7633        19.1747      -0.044400         2.5807         2.5807       356.7597      2263.4473
    3270.19920        -0.0988         2.8546      -0.514100       112.2707        -0.0270         5.7651         5.7651        18.9731       0.083000         2.6174         2.6174       356.8057      2262.3748
    3270.35160        -0.0939         2.8585      -0.518300       112.2477        -0.0646         5.8287         5.8287        18.9917       0.014900         2.6292         2.6292       356.9320      2268.5435
    3270.50400        -0.0099         2.8611      -0.517200       112.5392         0.0195         5.6814         5.6814        19.1584      -0.033600         2.5981         2.5981       357.0387      2260.8831
    3270.65640        -0.0085         2.8674      -0.516900       112.8993        -0.0489         5.6847         5.6847        19.7781      -0.010700         2.5938         2.5938       357.0862      2270.0415
    3270.80880        -0.0584         2.8796      -0.508400       112.8976        -0.0929         5.6503         5.6503        20.4020       0.049900         2.6056         2.6056       357.0453      2263.4089
    3270.96120        -0.0109         2.8873      -0.510600       112.9820         0.0992         5.6730         5.6730        20.9895      -0.081500         2.5942         2.5942       357.0023      2274.7881
    3271.11360        -0.0110         2.8650      -0.505100       112.8545        -0.1257         5.7364         5.7364        22.2528      -0.127900         2.5794         2.5794       356.9751      2272.3174
