~Version Information Block
VERS .                 2.00:  CWLS LOG ASCII STANDARD - VERSION 2.00
WRAP .                   NO:  One line per depth step
~Well Information Block
#MNEM.UNIT        Data Type   Information
#---------- ----------------  -----------
STRT .M          3445.61160:  START DEPTH
STOP .M          3638.55000:  STOP DEPTH
STEP .M             0.15240:  STEP
NULL .              -999.25:  NULL VALUE
COMP .              Statoil:  COMPANY
WELL .          NO_15/9-F-5:  WELL
FLD  .                VOLVE:  FIELD
LOC  .            North Sea:  LOCATION
CTRY .                     :  COUNTRY
STAT .                     :  STATE
CNTY .                     :  COUNTY
SRVC .         Schlumberger:  SERVICE COMPANY
DATE .          16-Sep-2012:  DATE
API  .                     :  API NUMBER
UWI  .             15/9-F-5:  UNIQUE WELL ID
~Curve Information Block
#MNEM.UNIT         API CODE   Curve Description
#---------- ----------------  -----------------
DEPTH.M                    :  DEPTH (BOREHOLE)
CCLC .V                    :  CCL
CCLD .V                    :  CCL Discriminated Amplitude
CRRA .                     :  Near-Far Count Rate Ratio
CS   .F/MN                 :  Cable Speed
CVEL .M/MIN                 :  Cable Velocity
DEVI .DEG                  :  Hole Deviation
FBEF .UA                   :  RST Far Effective Beam Current
FCOR .                     :  RST Far Carbon/Oxygen Ratio
FERD .                     :  RST Far IC Mode Capture Optimization Resolution Degradation Factor
FIRD .                     :  RST Far Inelastic Optimization Resolution Degradation Factor
GR   .GAPI                 :  Gamma Ray
NCOR .                     :  RST Near Carbon/Oxygen Ratio
NERD .                     :  RST Near IC Mode Capture Optimization Resolution Degradation Factor
NIRD .                     :  RST Near Inelastic Optimization Resolution Degradation Factor
RB_PCMS.DEG                  :  Relative Bearing
TENS .LBF                  :  Cable Tension
WPRE .PSI                  :  Well Pressure
WTEP .DEGC                 :  Well Temperature
~Parameter Information Block
#MNEM.UNIT            Value   Description
#---------- ----------------  -----------
APD  .M           54.900002:  Elevation of Depth Reference (LMF) above Permanent Datum
RUN  .                Run 1:  RUN NUMBER
PROJECT.     SLEIPNER_OST@st-vlinapp01:  
SET  .        RSTD_0912_IC2:  
~Other Information Block
# 
~A       DEPTH           CCLC           CCLD           CRRA             CS           CVEL           DEVI           FBEF           FCOR           FERD           FIRD             GR           NCOR           NERD           NIRD        RB_PCMS           TENS           WPRE           WTEP 
# ...
    3635.65440        -0.0240        -0.0240         2.9234         3.1722      -0.567700        54.6954       113.5782  -999.25000000         4.7016         4.7016        51.9687  -999.25000000         2.1796         2.1796         4.8374      2766.4956      5146.8584        73.4495
    3635.80680        -0.0240        -0.0240         2.9234         1.0092      -0.306800        54.6954       113.5782  -999.25000000         4.7016         4.7016        51.9687  -999.25000000         2.1796         2.1796         4.8374      2759.3445      5146.8584        73.4495
    3635.95920        -0.0240        -0.0240         2.9234         1.0492      -0.317300        54.6954       113.5782  -999.25000000         4.7016         4.7016        51.9687  -999.25000000         2.1796         2.1796         4.8374      2744.6851      5146.8584        73.4495
    3636.11160        -0.0240        -0.0240         2.9234         1.0554      -0.320600        54.6954       113.5782  -999.25000000         4.7016         4.7016        51.9687  -999.25000000         2.1796         2.1796         4.8374      2743.5059      5146.8584        73.4495
    3636.26400        -0.0240        -0.0240         2.9234         1.0535      -0.323200        54.6954       113.5782  -999.25000000         4.7016         4.7016        51.9687  -999.25000000         2.1796         2.1796         4.8374      2745.2830      5146.8584        73.4495
    3636.41640        -0.0240        -0.0240         2.9234         1.0525      -0.321700        54.6954       113.5782  -999.25000000         4.7016         4.7016        51.9687  -999.25000000         2.1796         2.1796         4.8374      2740.1785      5146.8584        73.4495
    3636.56880        -0.0240        -0.0240         2.9234         1.0492      -0.322800        54.6954       113.5782  -999.25000000         4.7016         4.7016        51.9687  -999.25000000         2.1796         2.1796         4.8374      2725.5469      5146.8584        73.4495
    3636.72120        -0.0240        -0.0240         2.9234         1.1142      -0.335300        54.6954       113.5782  -999.25000000         4.7016         4.7016        51.9687  -999.25000000         2.1796         2.1796         4.8374      2684.6602      5146.8584        73.4495
    3636.87360        -0.0240        -0.0240         2.9234         1.1089      -0.338800        54.6954       113.5782  -999.25000000         4.7016         4.7016        51.9687  -999.25000000         2.1796         2.1796         4.8374      2635.8391      5146.8584        73.4495
    3637.02600        -0.0240        -0.0240         2.9234         1.1401      -0.349000        54.6954       113.5782  -999.25000000         4.7016         4.7016        51.9687  -999.25000000         2.1796         2.1796         4.8374      2599.8528      5146.8584        73.4495
    3637.17840        -0.0240        -0.0240         2.9234         1.1660      -0.358300        54.6954       113.5782  -999.25000000         4.7016         4.7016        51.9687  -999.25000000         2.1796         2.1796         4.8374      2542.2429      5146.8584        73.4495
    3637.33080        -0.0240        -0.0240         2.9234         1.2500      -0.376200        54.6954       113.5782  -999.25000000         4.7016         4.7016        51.9687  -999.25000000         2.1796         2.1796         4.8374      2486.3379      5146.8584        73.4495
    3637.48320        -0.0240        -0.0240         2.9234         1.3018      -0.396700        54.6954       113.5782  -999.25000000         4.7016         4.7016        51.9687  -999.25000000         2.1796         2.1796         4.8374      2439.0405      5146.8584        73.4495
    3637.63560        -0.0240        -0.0240         2.9234         1.3773      -0.420900        54.6954       113.5782  -999.25000000         4.7016         4.7016        51.9687  -999.25000000         2.1796         2.1796         4.8374      2372.8005      5146.8584        73.4495
    3637.78800        -0.0240        -0.0240         2.9234         1.4226      -0.435400        54.6954       113.5782  -999.25000000         4.7016         4.7016        51.9687  -999.25000000         2.1796         2.1796         4.8374      2316.4429      5146.8584        73.4495
    3637.94040        -0.0240        -0.0240         2.9234         1.5299      -0.465200        54.6954       113.5782  -999.25000000         4.7016         4.7016        51.9687  -999.25000000         2.1796         2.1796         4.8374      2248.1355      5146.8584        73.4495
    3638.09280        -0.0240        -0.0240         2.9234         1.5712      -0.483900        54.6954       113.5782  -999.25000000         4.7016         4.7016        51.9687  -999.25000000         2.1796         2.1796         4.8374      2167.7253      5146.8584        73.4495
    3638.24520        -0.0240        -0.0240         2.9234         1.6719      -0.507100        54.6954       113.5782  -999.25000000         4.7016         4.7016        51.9687  -999.25000000         2.1796         2.1796         4.8374      2072.0405      5146.8584        73.4495
    3638.39760        -0.0240        -0.0240         2.9234         1.7382      -0.521200        54.6954       113.5782  -999.25000000         4.7016         4.7016        51.9687  -999.25000000         2.1796         2.1796         4.8374      1957.4792      5146.8584        73.4495
    3638.55000        -0.0240        -0.0240         2.9234         2.6112      -0.424100        54.6954       113.5782  -999.25000000         4.7016         4.7016        51.9687  -999.25000000         2.1796         2.1796         4.8374      1830.5016      5146.8584        73.4495
