~Version Information Block
VERS .                 2.00:  CWLS LOG ASCII STANDARD - VERSION 2.00
WRAP .                   NO:  One line per depth step
~Well Information Block
#MNEM.UNIT        Data Type   Information
#---------- ----------------  -----------
STRT .M          3199.94280:  START DEPTH
STOP .M          3410.40720:  STOP DEPTH
STEP .M             0.15240:  STEP
NULL .              -999.25:  NULL VALUE
COMP .              Statoil:  COMPANY
WELL .          NO_15/9-F-4:  WELL
FLD  .                VOLVE:  FIELD
LOC  .            North Sea:  LOCATION
CTRY .                     :  COUNTRY
STAT .                     :  STATE
CNTY .                     :  COUNTY
SRVC .         Schlumberger:  SERVICE COMPANY
DATE .          13-Sep-2012:  DATE
API  .                     :  API NUMBER
UWI  .             15/9-F-4:  UNIQUE WELL ID
~Curve Information Block
#MNEM.UNIT         API CODE   Curve Description
#---------- ----------------  -----------------
DEPTH.M                    :  DEPTH (BOREHOLE)
CCLC .V                    :  CCL
CRRA .                     :  Near-Far Count Rate Ratio
CVEL .M/MIN                 :  Cable Velocity
FBEF .UA                   :  RST Far Effective Beam Current
FCOR .                     :  RST Far Carbon/Oxygen Ratio
FERD .                     :  RST Far IC Mode Capture Optimization Resolution Degradation Factor
FIRD .                     :  RST Far Inelastic Optimization Resolution Degradation Factor
GR   .GAPI                 :  Gamma Ray
NCOR .                     :  RST Near Carbon/Oxygen Ratio
NERD .                     :  RST Near IC Mode Capture Optimization Resolution Degradation Factor
NIRD .                     :  RST Near Inelastic Optimization Resolution Degradation Factor
RB_PCMS.DEG                  :  Relative Bearing
TENS .LBF                  :  Cable Tension
~Parameter Information Block
#MNEM.UNIT            Value   Description
#---------- ----------------  -----------
APD  .M                  54:  Elevation of Depth Reference (LMF) above Permanent Datum
RUN  .                    4:  RUN NUMBER
PROJECT.     SLEIPNER_OST@st-vlinapp01:  
SET  .        RSTD_0912_IC1:  
~Other Information Block
# 
~A       DEPTH           CCLC           CRRA           CVEL           FBEF           FCOR           FERD           FIRD             GR           NCOR           NERD           NIRD        RB_PCMS           TENS 
    3199.94280      -999.2500         3.1339      -0.518800       122.3816        -0.0345         5.8684         5.8684        59.5250      -0.047800         2.3625         2.3625       356.3352      2270.5322
    3200.09520      -999.2500         3.1339      -0.518800       122.3816        -0.0345         5.8684         5.8684        59.5250      -0.047800         2.3625         2.3625       356.3352      2270.5322
    3200.24760      -999.2500         3.1339      -0.518800       122.3816        -0.0345         5.8684         5.8684        59.5250      -0.047800         2.3625         2.3625       356.3352      2270.5322
    3200.40000      -999.2500         3.1339      -0.518800       122.3816        -0.0345         5.8684         5.8684        59.5250      -0.047800         2.3625         2.3625       356.3352      2270.5322
    3200.55240      -999.2500         3.1339      -0.518800       122.3816        -0.0345         5.8684         5.8684        59.5250      -0.047800         2.3625         2.3625       356.3352      2270.5322
    3200.70480      -999.2500         3.1339      -0.518800       122.3816        -0.0345         5.8684         5.8684        59.5250      -0.047800         2.3625         2.3625       356.3352      2270.5322
    3200.85720      -999.2500         3.1339      -0.518800       122.3816        -0.0345         5.8684         5.8684        59.5250      -0.047800         2.3625         2.3625       356.3352      2270.5322
    3201.00960      -999.2500         3.1339      -0.518800       122.3816        -0.0345         5.8684         5.8684        59.5250      -0.047800         2.3625         2.3625       356.3352      2270.5322
    3201.16200      -999.2500         3.1339      -0.518800       122.3816        -0.0345         5.8684         5.8684        59.5250      -0.047800         2.3625         2.3625       356.3352      2270.5322
    3201.31440      -999.2500         3.1339      -0.518800       122.3816        -0.0345         5.8684         5.8684        59.5250      -0.047800         2.3625         2.3625       356.3352      2270.5322
    3201.46680      -999.2500         3.1339      -0.518800       122.3816        -0.0345         5.8684         5.8684        59.5250      -0.047800         2.3625         2.3625       356.3352      2270.5322
    3201.61920      -999.2500         3.1339      -0.518800       122.3816        -0.0345         5.8684         5.8684        59.5250      -0.047800         2.3625         2.3625       356.3352      2270.5322
    3201.77160      -999.2500         3.1339      -0.518800       122.3816        -0.0345         5.8684         5.8684        59.5250      -0.047800         2.3625         2.3625       356.3352      2270.5322
    3201.92400      -999.2500         3.1339      -0.518800       122.3816        -0.0345         5.8684         5.8684        59.5250      -0.047800         2.3625         2.3625       356.3352      2270.5322
    3202.07640      -999.2500         3.1339      -0.518800       122.3816        -0.0345         5.8684         5.8684        59.5250      -0.047800         2.3625         2.3625       356.3352      2270.5322
    3202.22880      -999.2500         3.1339      -0.518800       122.3816        -0.0345         5.8684         5.8684        59.5250      -0.047800         2.3625         2.3625       356.3352      2270.5322
    3202.38120      -999.2500         3.1339      -0.518800       122.3816        -0.0345         5.8684         5.8684        59.5250      -0.047800         2.3625         2.3625       356.3352      2270.5322
    3202.53360      -999.2500         3.1339      -0.518800       122.3816        -0.0345         5.8684         5.8684        59.5250      -0.047800         2.3625         2.3625       356.3352      2270.5322
    3202.68600      -999.2500         3.1339      -0.518800       122.3816        -0.0345         5.8684         5.8684        59.5250      -0.047800         2.3625         2.3625       356.3352      2270.5322
    3202.83840      -999.2500         3.1339      -0.518800       122.3816        -0.0345         5.8684         5.8684        59.5250      -0.047800         2.3625         2.3625       356.3352      2270.5322
    3202.99080      -999.2500         3.1339      -0.518800       122.3816        -0.0345         5.8684         5.8684        59.5250      -0.047800         2.3625         2.3625       356.3352      2270.5322
    3203.14320      -999.2500         3.1339      -0.518800       122.3816        -0.0345         5.8684         5.8684        59.5250      -0.047800         2.3625         2.3625       356.3352      2270.5322
    3203.29560      -999.2500         3.1339      -0.518800       122.3816        -0.0345         5.8684         5.8684        59.5250      -0.047800         2.3625         2.3625       356.3352      2270.5322
    3203.44800      -999.2500         3.1339      -0.518800       122.3816        -0.0345         5.8684         5.8684        59.5250      -0.047800         2.3625         2.3625       356.3352      2270.5322
    3203.60040      -999.2500         3.1339      -0.518800       122.3816        -0.0345         5.8684         5.8684        59.5250      -0.047800         2.3625         2.3625       356.3352      2270.5322
    3203.75280      -999.2500         3.1339      -0.518800       122.3816        -0.0345         5.8684         5.8684        59.5250      -0.047800         2.3625         2.3625       356.3352      2270.5322
    3203.90520      -999.2500         3.1339      -0.518800       122.3816        -0.0345         5.8684         5.8684        59.5250      -0.047800         2.3625         2.3625       356.3352      2270.5322
    3204.05760      -999.2500         3.1339      -0.518800       122.3816        -0.0345         5.8684         5.8684        59.5250      -0.047800         2.3625         2.3625       356.3352      2270.5322
    3204.21000      -999.2500         3.1339      -0.518800       122.3816        -0.0345         5.8684         5.8684        59.5250      -0.047800         2.3625         2.3625       356.3352      2270.5322
    3204.36240      -999.2500         3.1339      -0.518800       122.3816        -0.0345         5.8684         5.8684        59.5250      -0.047800         2.3625         2.3625       356.3352      2270.5322
    3204.51480      -999.2500         3.1339      -0.518800       122.3816        -0.0345         5.8684         5.8684        59.5250      -0.047800         2.3625         2.3625       356.3352      2270.5322
    3204.66720      -999.2500         3.1339      -0.518800       122.3816        -0.0345         5.8684         5.8684        59.5250      -0.047800         2.3625         2.3625       356.3352      2270.5322
    3204.81960      -999.2500         3.1339      -0.518800       122.3816        -0.0345         5.8684         5.8684        59.5250      -0.047800         2.3625         2.3625       356.3352      2270.5322
    3204.97200      -999.2500         3.1339      -0.518800       122.3816        -0.0345         5.8684         5.8684        59.5250      -0.047800         2.3625         2.3625       356.3352      2270.5322
    3205.12440      -999.2500         3.1339      -0.518800       122.3816        -0.0345         5.8684         5.8684        59.5250      -0.047800         2.3625         2.3625       356.3352      2270.5322
    3205.27680      -999.2500         3.1339      -0.518800       122.3816        -0.0345         5.8684         5.8684        59.5250      -0.047800         2.3625         2.3625       356.3352      2270.5322
    3205.42920      -999.2500         3.1339      -0.518800       122.3816        -0.0345         5.8684         5.8684        59.5250      -0.047800         2.3625         2.3625       356.3352      2270.5322
    3205.58160      -999.2500         3.1339      -0.518800       122.3816        -0.0345         5.8684         5.8684        59.5250      -0.047800         2.3625         2.3625       356.3352      2270.5322
    3205.73400      -999.2500         3.1339      -0.518800       122.3816        -0.0345         5.8684         5.8684        62.4807      -0.047800         2.3625         2.3625       356.3352      2270.5322
