~Version Information Block
VERS .                 2.00:  CWLS LOG ASCII STANDARD - VERSION 2.00
WRAP .                   NO:  One line per depth step
~Well Information Block
#MNEM.UNIT        Data Type   Information
#---------- ----------------  -----------
STRT .M          3470.91000:  START DEPTH
STOP .M          3530.04120:  STOP DEPTH
STEP .M             0.15240:  STEP
NULL .              -999.25:  NULL VALUE
COMP .              Statoil:  COMPANY
WELL .          NO_15/9-F-5:  WELL
FLD  .                Volve:  FIELD
LOC  .                Volve:  LOCATION
CTRY .               Norway:  COUNTRY
STAT .                     :  STATE
CNTY .                     :  COUNTY
SRVC .         Schlumberger:  SERVICE COMPANY
DATE .           11/03/2015:  DATE
API  .                     :  API NUMBER
UWI  .             15/9-F-5:  UNIQUE WELL ID
LATI .     58° 26' 29.66" N:  LATITUDE
LONG .      1° 53' 14.99" E:  LONGITUDE
~Curve Information Block
#MNEM.UNIT         API CODE   Curve Description
#---------- ----------------  -----------------
DEPTH.M                    :  Depth Index
CCLC .V                    :  (PSTP-B)                (1in)                   CCL Computed Amplitude
CVEL .M/SEC                 :  (WLWorkflow)            (1in)                   Cable Velocity
FBEF .UA                   :  (RST-D)                 (6in)                   Far Effective Beam Curre
FCOR .                     :  (RST-D)                 (6in)                   Far Carbon/Oxygen Ratio
FERD .                     :  (RST-D)                 (6in)                   Far IC Mode Capture Opti
FIRD .                     :  (RST-D)                 (6in)                   Far Inelastic Optimizati
GR   .GAPI                 :  (PSTP-B)                (6in)                   Gamma Ray
NCOR .                     :  (RST-D)                 (6in)                   Near Carbon/Oxygen Ratio
NERD .                     :  (RST-D)                 (6in)                   Near IC Mode Capture Opt
NIRD .                     :  (RST-D)                 (6in)                   Near Inelastic Optimizat
RB_PCMS.DEG                  :  (PCMS-A)                (6in)                   Relative Bearing
TENS .LBF                  :  (WLWorkflow)            (1in)                   Cable Tension
WPRE .BAR                  :  (PSTP-B)                (6in)                   Well Pressure
WTEP .DEGC                 :  (PSTP-B)                (6in)                   Well Temperature
~Parameter Information Block
#MNEM.UNIT            Value   Description
#---------- ----------------  -----------
APD  .M                  54:  Elevation of Depth Reference (LMF) Above Permanent Datum
CLAB .              Country:  :County Label
ECF  .M             -999.25:  Elevation of Casing Flange above Permanent Datum
EDF  .M                  54:  Elevation of Drill Floor Above Permanent Datum
EGL  .M                 -91:  Elevation of Ground Level Above Permanent Datum
EKB  .M             -999.25:  Elevation of Kelly Bushing Above Permanent Datum
EPD  .M                   0:  Elevation of Permanent Datum (PDAT) above Mean Sea Level
FL1  .            North Sea:  Field Location Line 1
FL2  .     Norwegian Sector:  Field Location Line 2
LMF  .                   DF:  Logging Measured From
LUL  .                 NOBO:  Logging Unit Location
LUN  .          ONCC-A 3837:  Logging Unit Number
PDAT .                  MSL:  Local Permanent Datum
RIGN .      Maersk Inspirer:  Rig Name
RIGTYP.               Jackup:  Rig Type
SON  .           C2TQ-00038:  Service Order Number
TAPE_NAME.     RST_IC_Pass3___03Nov15_234906.las:  
TOOL_STRING.              UNKNOWN:  
WN   .             15/9-F-5:  WELL NAME
PROJECT.     SLEIPNER_OST@st-vlinapp01:  
SET  .        RSTD_1115_IC3:  
~Other Information Block
# 
~A       DEPTH           CCLC           CVEL           FBEF           FCOR           FERD           FIRD             GR           NCOR           NERD           NIRD        RB_PCMS           TENS           WPRE           WTEP 
# ...
    3476.39640      -0.002630    -0.00897700       122.6957       0.077500         6.0212         6.0212       100.9527      -0.040340         4.3352         4.3352       353.0835      3988.2949       358.8719        84.7971
    3476.54880       0.001530    -0.00891983       122.4087       0.012170         5.9066         5.9066       101.5346       0.089280         4.3409         4.3409       353.0603      3949.4661       358.8825        84.8020
    3476.70120       0.005730    -0.00901433       121.7875       0.031590         5.9331         5.9331       101.8127       0.027130         4.3264         4.3264       353.0169      4019.6829       358.8940        84.8136
    3476.85360      -0.004220    -0.00895083       122.9700       0.081590         5.9109         5.9109       103.6872      -0.016240         4.3820         4.3820       352.9510      3979.5950       358.9063        84.8160
    3477.00600      -0.002340    -0.00904500       123.1922       0.109520         5.8929         5.8929       105.9216       0.070080         4.3491         4.3491       352.9168      3961.0256       358.9125        84.8219
    3477.15840       0.002250    -0.00900867       122.9898       0.106970         5.9220         5.9220       109.1713      -0.006660         4.3973         4.3973       353.0162      4066.2791       358.9312        84.8222
    3477.31080      -0.002240    -0.00919300       123.0577       0.055130         5.9086         5.9086       108.8743       0.130700         4.4106         4.4106       353.2305      3927.5471       358.9384        84.8249
    3477.46320       0.046320    -0.00898100       122.8372       0.053890         6.0038         6.0038       107.2599       0.002720         4.4269         4.4269       353.2289      4009.6899       358.9505        84.8292
    3477.61560      -0.001180    -0.00910217       122.6311      -0.023270         5.9606         5.9606       106.1033       0.024110         4.4071         4.4071       353.2205      3982.1194       358.9633        84.8347
    3477.76800       0.009610    -0.00907183       123.0894       0.033240         5.9635         5.9635       104.2458       0.026890         4.4068         4.4068       353.1911      3960.7627       358.9716        84.8370
    3477.92040      -0.019200    -0.00906767       122.9342       0.167820         5.8813         5.8813       104.2781      -0.019480         4.3811         4.3811       353.4141      3967.4192       358.9855        84.8387
    3478.07280      -0.006470    -0.00898117       123.7617       0.070530         5.8419         5.8419       103.9795       0.063180         4.4180         4.4180       353.3528      3970.4766       358.9910        84.8427
    3478.22520      -0.001890    -0.00928100       124.0068      -0.177840         5.7904         5.7904       104.5003       0.044570         4.4166         4.4166       353.4779      3946.7952       359.0086        84.8437
    3478.37760       0.019190    -0.00914433       124.8455       0.037860         5.7797         5.7797       106.4359      -0.056430         4.3833         4.3833       353.4798      4003.7012       359.0174        84.8522
    3478.53000       0.083040    -0.00904517       125.2807       0.033890         5.6833         5.6833       110.6491      -0.032760         4.4110         4.4110       353.5194      4029.5857       359.0284        84.8536
    3478.68240       0.001910    -0.00873917       126.1306      -0.051790         5.6415         5.6415       113.2011       0.022880         4.4427         4.4427       353.4366      3993.4993       359.0410        84.8555
    3478.83480       0.001240    -0.00918333       126.5067       0.075510         5.6721         5.6721       115.1047       0.030920         4.4684         4.4684       353.3714      3919.8206       359.0533        84.8544
    3478.98720       0.016700    -0.00904517       127.0898      -0.308360         5.7255         5.7255       116.6376       0.093160         4.4300         4.4300       353.5665      3923.1477       359.0625        84.8600
    3479.13960       0.032120    -0.00919283       125.4207      -0.104670         5.6895         5.6895       117.4900      -0.062850         4.4209         4.4209       353.5060      4018.5723       359.0766        84.8632
    3479.29200       0.005030    -0.00928350       126.5757      -0.000020         5.8229         5.8229       114.2142       0.031250         4.4365         4.4365       353.3396      4034.6438       359.0868        84.8633
    3479.44440       0.010130    -0.00903783       126.8036       0.133700         5.7741         5.7741       109.8212       0.078710         4.4503         4.4503       353.2772      4007.3025       359.0964        84.8620
    3479.59680       0.035760    -0.00910217       125.7117       0.088970         5.7988         5.7988       107.8958       0.009100         4.4239         4.4239       353.1107      4056.6189       359.1094        84.8655
    3479.74920      -0.045830    -0.00910733       125.2480      -0.077800         5.7801         5.7801       106.8902      -0.000850         4.4240         4.4240       353.1508      3880.3665       359.1172        84.8642
    3479.90160       0.007790    -0.00897917       125.9051       0.114680         5.8202         5.8202       102.2437       0.079130         4.3931         4.3931       353.3327      3969.6741       359.1315        84.8652
    3480.05400       0.009710    -0.00871717       125.4807       0.003510         5.7527         5.7527       104.4438       0.055600         4.3637         4.3637       353.1919      4055.7737       359.1376        84.8648
    3480.20640       0.011090    -0.00921633       125.6714       0.050460         5.8878         5.8878       106.8783       0.016620         4.3504         4.3504       353.2055      3815.2056       359.1548        84.8674
    3480.35880       0.002250    -0.00907633       126.5517       0.054540         5.9291         5.9291       107.8703       0.048440         4.2955         4.2955       353.1593      3986.3909       359.1625        84.8712
    3480.51120      -0.001180    -0.00910233       128.8320      -0.059710         5.9204         5.9204       112.1975      -0.061040         4.3396         4.3396       353.1063      3932.5244       359.1758        84.8713
    3480.66360       0.015870    -0.00892117       131.6190      -0.037680         5.9454         5.9454       115.9472      -0.019450         4.3756         4.3756       353.0195      3974.9504       359.1864        84.8704
    3480.81600       0.031020    -0.00923100       131.9787      -0.015020         6.0421         6.0421       114.4487       0.016440         4.3883         4.3883       352.9549      3967.5857       359.1980        84.8763
    3480.96840      -0.568580    -0.00877233       129.1103      -0.079670         5.9772         5.9772       113.4387       0.066430         4.3774         4.3774       353.0224      3976.3958       359.2076        84.8722
    3481.12080      -0.007640    -0.00883633       126.6543       0.029470         5.9479         5.9479       112.0344       0.051530         4.3661         4.3661       353.0623      3970.9780       359.2211        84.8700
    3481.27320      -0.003310    -0.00908383       126.2093       0.091900         6.0580         6.0580       106.1851       0.081120         4.3605         4.3605       352.9719      3948.4993       359.2307        84.8676
    3481.42560      -0.037580    -0.00898317       124.7651      -0.488400         6.1239         6.1239       104.1902       0.035750         4.3800         4.3800       353.0308      3992.9014       359.2410        84.8662
    3481.57800      -0.008830    -0.00915633       124.5204       0.105010         6.2168         6.2168       103.4300       0.046740         4.3163         4.3163       353.0877      4050.6750       359.2547        84.8623
    3481.73040      -0.001210    -0.00892167       124.2154       0.053710         6.2150         6.2150       102.0758       0.102890         4.3293         4.3293       353.0106      4109.8784       359.2666        84.8662
