~Version Information Block
VERS .                 2.00:  CWLS LOG ASCII STANDARD - VERSION 2.00
WRAP .                   NO:  One line per depth step
~Well Information Block
#MNEM.UNIT        Data Type   Information
#---------- ----------------  -----------
STRT .M          3201.31440:  START DEPTH
STOP .M          3410.40720:  STOP DEPTH
STEP .M             0.15240:  STEP
NULL .              -999.25:  NULL VALUE
COMP .              Statoil:  COMPANY
WELL .          NO_15/9-F-4:  WELL
FLD  .                VOLVE:  FIELD
LOC  .            North Sea:  LOCATION
CTRY .                     :  COUNTRY
STAT .                     :  STATE
CNTY .                     :  COUNTY
SRVC .         Schlumberger:  SERVICE COMPANY
DATE .          13-Sep-2012:  DATE
API  .                     :  API NUMBER
UWI  .             15/9-F-4:  UNIQUE WELL ID
~Curve Information Block
#MNEM.UNIT         API CODE   Curve Description
#---------- ----------------  -----------------
DEPTH.M                    :  DEPTH (BOREHOLE)
CCLC .V                    :  CCL
CCLD .V                    :  CCL Discriminated Amplitude
CRRA .                     :  Near-Far Count Rate Ratio
CVEL .M/MIN                 :  Cable Velocity
DEVI .DEG                  :  Hole Deviation
FBEF .UA                   :  RST Far Effective Beam Current
FCOR .                     :  RST Far Carbon/Oxygen Ratio
FERD .                     :  RST Far IC Mode Capture Optimization Resolution Degradation Factor
FIRD .                     :  RST Far Inelastic Optimization Resolution Degradation Factor
GR   .GAPI                 :  Gamma Ray
NCOR .                     :  RST Near Carbon/Oxygen Ratio
NERD .                     :  RST Near IC Mode Capture Optimization Resolution Degradation Factor
NIRD .                     :  RST Near Inelastic Optimization Resolution Degradation Factor
RB_PCMS.DEG                  :  Relative Bearing
TENS .LBF                  :  Cable Tension
WPRE .PSI                  :  Well Pressure
WTEP .DEGC                 :  Well Temperature
WTPE .MS                   :  Well Temperature Period
~Parameter Information Block
#MNEM.UNIT            Value   Description
#---------- ----------------  -----------
APD  .M                  54:  Elevation of Depth Reference (LMF) above Permanent Datum
RUN  .                    1:  RUN NUMBER
PROJECT.     SLEIPNER_OST@st-vlinapp01:  
SET  .        RSTD_0912_IC2:  
~Other Information Block
# 
~A       DEPTH           CCLC           CCLD           CRRA           CVEL           DEVI           FBEF           FCOR           FERD           FIRD             GR           NCOR           NERD           NIRD        RB_PCMS           TENS           WPRE           WTEP           WTPE 
# ...
    3351.58080       -0.01570        0.00000         2.8369       -0.40320        55.7040       109.5991        -0.0307         4.8412         4.8412        25.9876    -0.00430000         2.7285         2.7285       356.8451      2332.0383      4989.8379        83.9404         3.9176
    3351.73320       -0.01270        0.00000         2.8144       -0.40560        55.7086       109.5930         0.1144         4.8821         4.8821        26.4078     0.04310000         2.7075         2.7075       356.9391      2333.0237      4989.9512        83.9323         3.9175
    3351.88560       -0.01120        0.00000         2.8294       -0.40570        55.7271       109.4642        -0.0267         4.8283         4.8283        26.5297    -0.08600000         2.6651         2.6651       356.9846      2326.0593      4990.0952        83.9254         3.9174
    3352.03800       -0.00930        0.00000         2.8227       -0.41270        55.7459       109.1898        -0.1587         4.9227         4.9227        26.9845    -0.04460000         2.6543         2.6543       356.8045      2322.1052      4990.2100        83.9169         3.9173
    3352.19040       -0.09340        0.00000         2.8178       -0.41180        55.7587       109.5740         0.0897         4.9180         4.9180        27.2645     0.02700000         2.6531         2.6531       356.7938      2326.9189      4990.3198        83.9095         3.9173
    3352.34280       -0.06810        0.00000         2.8247       -0.41810        55.7722       109.5513        -0.0021         4.7740         4.7740        27.9455    -0.01760000         2.6493         2.6493       356.8488      2327.3303      4990.4443        83.9027         3.9172
    3352.49520        0.07060        0.00000         2.8203       -0.41930        55.7890       110.2301        -0.0954         4.8720         4.8720        27.7076    -0.06180000         2.6623         2.6623       356.9061      2345.8171      4990.5586        83.8953         3.9172
    3352.64760       -0.00540        0.00000         2.8392       -0.42590        55.8117       109.9876        -0.0169         4.9243         4.9243        27.4966    -0.04340000         2.6115         2.6115       356.9594      2337.3250      4990.7017        83.8867         3.9171
    3352.80000       -0.00800        0.00000         2.8120       -0.42040        55.8386       109.8566         0.0174         5.0176         5.0176        27.4502    -0.10050000         2.5926         2.5926       356.8337      2328.9170      4990.8135        83.8836         3.9171
    3352.95240       -0.00490        0.00000         2.8321       -0.42640        55.8346       109.8063        -0.1232         4.9966         4.9966        27.0888     0.01530000         2.6283         2.6283       356.9931      2337.5403      4990.9429        83.8830         3.9170
    3353.10480       -0.00880        0.00000         2.8222       -0.42700        55.8580       109.1937        -0.0036         4.9123         4.9123        26.6372    -0.03980000         2.6056         2.6056       356.9637      2341.1609      4991.0439        83.8717         3.9169
    3353.25720       -0.01440        0.00000         2.8327       -0.43170        55.8448       109.1039        -0.1081         4.8949         4.8949        27.2994    -0.04310000         2.5646         2.5646       356.9998      2343.7231      4991.1924        83.8609         3.9168
    3353.40960        0.15660        0.00000         2.8489       -0.42980        55.8776       108.5587        -0.0040         4.8568         4.8568        27.2731    -0.00890000         2.5690         2.5690       357.1627      2336.8523      4991.2988        83.8511         3.9168
    3353.56200        0.22070        0.00000         2.8093       -0.43050        55.8814       109.6077         0.0763         4.9163         4.9163        27.5200    -0.00900000         2.4929         2.4929       357.3572      2331.9434      4991.4131        83.8450         3.9167
    3353.71440       -0.01030        0.00000         2.8095       -0.43160        55.9055       110.4463         0.0104         4.9592         4.9592        27.6057    -0.01380000         2.5351         2.5351       357.1090      2315.7888      4991.5259        83.8325         3.9166
    3353.86680       -0.00810        0.00000         2.8371       -0.42010        55.9133       110.7531        -0.2748         4.9283         4.9283        27.9539    -0.06490000         2.5477         2.5477       356.8279      2335.7690      4991.6777        83.8263         3.9165
    3354.01920       -0.01960        0.00000         2.8398       -0.42290        55.9045       110.9479        -0.0114         4.9567         4.9567        27.4689     0.05220000         2.5601         2.5601       356.8206      2334.3127      4991.7939        83.8080         3.9164
    3354.17160        0.15520        0.00000         2.8400       -0.42390        55.9040       111.6027        -0.0601         4.9689         4.9689        27.6340     0.08350000         2.4956         2.4956       356.8208      2335.4055      4991.9106        83.8073         3.9164
    3354.32400       -0.13730        0.00000         2.8488       -0.42220        55.9241       111.6353         0.0686         4.9183         4.9183        27.9232    -0.02260000         2.4995         2.4995       356.7360      2332.2830      4992.0459        83.7903         3.9162
    3354.47640        0.05580        0.00000         2.8574       -0.42270        55.9093       111.7842         0.0707         4.8503         4.8503        28.4041     0.02090000         2.4158         2.4158       356.7039      2309.3201      4992.1406        83.7687         3.9160
    3354.62880       -0.00490        0.00000         2.8618       -0.41880        55.9270       111.7271         0.0264         4.7159         4.7159        28.3543     0.01070000         2.3932         2.3932       356.8342      2358.0032      4992.2788        83.7691         3.9160
    3354.78120       -0.00900        0.00000         2.8588       -0.41240        55.9448       111.2834        -0.0736         4.9683         4.9683        29.1915    -0.10420000         2.3760         2.3760       356.7934      2331.3928      4992.4209        83.7539         3.9159
    3354.93360       -0.00860        0.00000         2.8384       -0.41100        55.9482       111.6737        -0.0755         4.8489         4.8489        28.6404    -0.02420000         2.3541         2.3541       356.9355      2347.9314      4992.5200        83.7444         3.9158
    3355.08600       -0.00910        0.00000         2.8461       -0.41350        55.9398       111.5287         0.0117         4.9320         4.9320        28.4421    -0.04910000         2.3541         2.3541       356.8139      2337.9253      4992.6353        83.7324         3.9157
    3355.23840       -0.12570        0.00000         2.8540       -0.41900        55.9246       112.2277        -0.0808         4.8338         4.8338        28.7599     0.00710000         2.3631         2.3631       356.9014      2325.5676      4992.7476        83.7133         3.9155
    3355.39080       -0.13430        0.00000         2.8526       -0.41660        55.9009       111.8624         0.0560         4.7273         4.7273        29.6143     0.01260000         2.3684         2.3684       356.9301      2339.5623      4992.8804        83.7038         3.9155
    3355.54320        0.04090        0.00000         2.8582       -0.41590        55.8815       112.4995         0.0716         4.7280         4.7280        29.5049    -0.04730000         2.3970         2.3970       356.8252      2321.5259      4993.0044        83.6862         3.9153
    3355.69560       -0.00790        0.00000         2.8769       -0.41280        55.8711       112.0887        -0.1051         4.6144         4.6144        30.5281    -0.03490000         2.3701         2.3701       356.7906      2335.1748      4993.1313        83.6744         3.9152
    3355.84800       -0.00630        0.00000         2.8752       -0.41550        55.8694       112.6841         0.0492         4.6584         4.6584        30.4031     0.04490000         2.3731         2.3731       356.7144      2334.2151      4993.2510        83.6599         3.9151
