~Version Information Block
VERS .                 2.00:  CWLS LOG ASCII STANDARD - VERSION 2.00
WRAP .                  YES:  Multiple lines per depth step
~Well Information Block
#MNEM.UNIT        Data Type   Information
#---------- ----------------  -----------
STRT .M          3513.58200:  START DEPTH
STOP .M          3649.06560:  STOP DEPTH
STEP .M             0.15240:  STEP
NULL .              -999.25:  NULL VALUE
COMP .              Statoil:  COMPANY
WELL .        NO_15/9-F-1_C:  WELL
FLD  .                Volve:  FIELD
LOC  .            North Sea:  LOCATION
CTRY .               Norway:  COUNTRY
STAT .                     :  STATE
CNTY .                     :  COUNTY
SRVC .         Schlumberger:  SERVICE COMPANY
DATE .          27-Nov-2014:  DATE
API  .                     :  API NUMBER
UWI  .           15/9-F-1 C:  UNIQUE WELL ID
LATI .     58° 26' 29.91" N:  LATITUDE
LONG .      1° 53' 14.71" E:  LONGITUDE
~Curve Information Block
#MNEM.UNIT         API CODE   Curve Description
#---------- ----------------  -----------------
DEPTH.M                    :  DEPTH (BOREHOLE)
BSAL .PPM                  :  Borehole Salinity
CCLC .V                    :  CCL
CIRF .                     :  RST Capture to Inelastic Ratio Far
CIRN .                     :  RST Capture to Inelastic Ratio Near
CVEL .M/SEC                 :  Cable Velocity
DFRB .DEG                  :  Calibrated Relative Bearing
DSIG .CU                   :  Sigma Difference
FBEF .UA                   :  RST Far Effective Beam Current
GR   .GAPI                 :  Gamma Ray
IRAT .                     :  RST Inelastic Ratio
PFC1 .IN                   :  PFCS CaliperX
PFC2 .IN                   :  PFCS CaliperY
RSCF .                     :  RST Far Detector Effective Unregulated
RSCN .                     :  RST Near Detector Effective
SFFA .CU                   :  RST Sigma Formation Far Apparent
SIBF .CU                   :  RST Sigma Borehole Fluid
SIGM .CU                   :  Formation Sigma (Neutron Capture Cross
TENS .LBF                  :  Cable Tension
TPHI .V/V                  :  Thermal Decay Porosity
~Parameter Information Block
#MNEM.UNIT            Value   Description
#---------- ----------------  -----------
APD  .M           54.900002:  Elevation of Depth Reference (LMF) above Permanent Datum
BHS  .                 CASE:  Borehole Status (Open or Cased Hole)
BS   .IN                8.5:  Bit Size
BSAL .PPM                 0:  Borehole Salinity
BSALOPT.              UNKNOWN:  Borehole Salinity Option
CSIZ .IN                  7:  Current Casing Size
CWEI .LB/F               29:  Casing Weight
EPD  .C3                  0:  Elevation of Permanent Datum above Mean Sea Level
LMF  .                   KB:  Logging Measured From (Name of Logging Elevation Reference)
MATR .                 SAND:  Rock Matrix for Neutron Porosity Corrections
PDAT .                  MSL:  Permanent Datum
RUN  .                Run 1:  RUN NUMBER
TAPE_NAME.     Statoil_Volve_15-9-F-1 C_PLT-RST_28Nov14_ConCu_R1L15Up_SigmaRepeat.las:  
TOOL_STRING.              UNKNOWN:  
WN   .           15/9-F-1 C:  WELL
PROJECT.     SLEIPNER_OST@st-vlinapp01:  
SET  .       RSTD_1114_SIG2:  
~Other Information Block
~Ascii Log Data
# ...
    3575.30400 
    26090.5996         0.0254         1.8232       0.834400      -0.162702 
      356.9830        -1.5116        82.8003        28.6851         0.3633 
        6.1905         6.0236         7.4626         9.4945        21.8793 
       31.2113        20.8228      4297.0000       0.305600
    3575.45640 
    25907.4004         0.0814         1.8598       0.811200      -0.163338 
      356.9830        -1.3620        79.0598        29.7883         0.3626 
        6.1905         6.0186         8.1237         9.7060        23.6699 
       31.1467        20.7590      4076.5000       0.297100
    3575.60880 
    25640.6992         0.0279         1.8157       0.805300      -0.163953 
      356.9830        -1.5394        81.5530        29.6045         0.3636 
        6.1905         6.0186         7.7250         9.7330        22.9412 
       31.0527        21.2583      4222.0000       0.292700
    3575.76120 
    25572.3984        -0.0447         1.8376       0.833200      -0.163953 
      358.3940        -1.6723        79.7963        31.4678         0.3559 
        6.1905         6.0186         7.7582         9.4386        23.3019 
       31.0286        21.2202      4236.0005       0.294300
    3575.91360 
    23963.8008        -0.0129         1.8329       0.805400      -0.162703 
      356.9830        -1.5463        81.7564        31.4678         0.3606 
        6.1905         6.0186         7.8055         9.6960        23.4821 
       30.4620        21.6481      4696.5005       0.295200
    3576.06600 
    24286.4004         0.0063         1.8014       0.813500      -0.161452 
      355.5720        -1.4492        81.2361        30.7322         0.3574 
        6.1905         6.0186         7.5244         9.3119        24.1458 
       30.5755        21.9210      4702.0000       0.305200
    3576.21840 
    23672.8984        -0.0084         1.8478       0.814700      -0.162702 
      355.5720        -1.2746        83.4577        30.9161         0.3611 
        6.1905         6.0186         7.6396         9.5704        24.0618 
       30.3596        22.7676      4621.0000       0.313400
    3576.37080 
    23510.0000        -0.0037         1.4587       0.785800      -0.161432 
      355.5720        -0.9420        83.1112        31.6516         0.3536 
        6.1905         6.0186         6.0263         9.0439        26.0078 
       30.3023        23.6277      4585.5000       0.325600
    3576.52320 
    24003.2988        -0.0086         1.3288       0.596800      -0.161412 
      355.5720        -0.8536        82.0327        29.9722         0.3564 
        6.1905         6.0186         5.7437         7.3291        26.7172 
       30.4759        24.6296      4497.0000       0.312500
    3576.67560 
    23895.3984         0.0899         1.3004       0.624400      -0.162272 
      355.5720        -0.6102        77.4923        32.3626         0.3598 
        6.1905         6.0186         5.8711         7.6963        27.0653 
       30.4379        24.5484      4390.3335       0.307500
    3576.82800 
    23294.2012         0.0508         1.4235       0.712900      -0.163530 
      355.5720        -0.1749        79.5346        32.9143         0.3602 
        6.1905         6.0186         6.0570         8.1573        25.7499 
       30.2264        23.6981      4274.3335       0.299500
    3576.98040 
    23681.1992        -0.0695         1.4248       0.634700      -0.165223 
      355.5720         0.0043        74.9540        36.9596         0.3574 
        6.1905         6.0186         6.7367         8.0230        24.1590 
       30.3625        23.0855      4299.0000       0.288000
    3577.13280 
    24404.0000        -0.0233         1.5284       0.659100      -0.163940 
      356.9830         0.3593        77.5063        39.9752         0.3589 
        6.1905         6.0186         7.0709         8.3745        25.2190 
       30.6169        22.7636      4338.3330       0.275500
    3577.28520 
    23790.1992        -0.0051         1.5363       0.662900      -0.163515 
      355.5720         0.6846        76.2534        44.2044         0.3598 
        6.1905         6.0186         7.4484         8.8936        24.7671 
       30.4009        22.8651      4745.3335       0.265400
    3577.43760 
    24287.2012        -0.0203         1.6029       0.697200      -0.162682 
      354.1610         0.7833        81.4617        44.7560         0.3570 
        6.1905         6.0186         7.0685         8.6902        24.4545 
       30.5758        22.2706      4570.3335       0.270800
    3577.59000 
    24111.0000        -0.0011         1.6341       0.701500      -0.162695 
      355.5720         0.7188        82.5991        45.6754         0.3473 
        6.1905         6.0186         7.0376         8.9647        23.4332 
       30.5138        21.8885      4625.3335       0.271500
    3577.74240 
    23678.8008         0.0032         1.7464       0.694000      -0.163133 
      355.5720         0.9230        84.6877        42.5495         0.3415 
        6.1905         6.0186         7.2055         8.3270        23.6179 
       30.3617        21.3267      4467.3335       0.267900
    3577.89480 
    22973.6992         0.0431         1.7305       0.696100      -0.162723 
      355.5720         0.9022        86.4993        39.1661         0.3401 
        6.1883         6.0186         7.0780         8.4337        22.7665 
       30.1138        21.5744      4431.0000       0.262900
    3578.04720 
    23034.2012         0.0905         1.7245       0.695100      -0.162662 
      355.5720         0.6888        86.6622        35.2434         0.3456 
        6.1905         6.0186         7.0546         8.3911        24.1284 
       30.1351        21.3358      4332.5000       0.268500
    3578.19960 
    22607.3008        -0.0120         1.6731       0.722300      -0.162662 
      355.5720         0.7105        81.4081        34.3240         0.3504 
        6.1905         6.0140         7.1365         8.5112        22.8677 
       29.9850        22.0311      4189.0005       0.269900
    3578.35200 
    22829.2012        -0.0175         1.6880       0.739300      -0.163318 
      354.1610         0.7413        79.6789        34.1401         0.3498 
        6.1905         6.0186         7.2967         8.7568        24.8327 
       30.0630        21.5383      4315.5000       0.269600
    3578.50440 
    21370.4004        -0.0148         1.7889       0.724500      -0.163338 
      355.5720         0.3659        83.8651        34.3240         0.3532 
        6.1905         6.0186         7.5182         8.9835        22.6421 
       29.5509        21.3078      4536.0000       0.256100
    3578.65680 
    21763.9004        -0.0009         1.8307       0.743700      -0.163358 
      354.1610         0.3487        77.5859        35.7950         0.3552 
        6.1905         6.0186         8.0694         8.8229        22.1465 
       29.6889        20.5437      4665.0005       0.240900
    3578.80920 
    22535.5000         0.0336         1.8654       0.746900      -0.162682 
      355.5720         0.1325        79.1188        36.2241         0.3594 
        6.1905         6.0070         8.4525         9.5878        22.5038 
       29.9598        20.1347      4546.0005       0.234500
    3578.96160 
    22895.3008         0.0110         2.0119       0.800000      -0.162682 
      355.5720         0.1897        78.8553        35.8563         0.3579 
        6.1905         6.0099         9.0182         9.8347        21.3940 
       30.0862        19.8083      4546.0000       0.232000
    3579.11400 
    23373.8008         0.0217         1.9689       0.795400      -0.161412 
      355.5720         0.3099        84.0644        33.8337         0.3603 
        6.1905         6.0186         8.2435         9.6154        21.1645 
       30.2545        19.7133      4360.0000       0.234700
    3579.26640 
    22970.3008        -0.0748         1.9499       0.781600      -0.162702 
      355.5720         0.2634        76.4910        31.8110         0.3616 
        6.1905         6.0186         8.7801         9.0201        22.1992 
       30.1126        19.2705      4411.5000       0.239700
