~Version Information Block
VERS .                 2.00:  CWLS LOG ASCII STANDARD - VERSION 2.00
WRAP .                  YES:  Multiple lines per depth step
~Well Information Block
#MNEM.UNIT        Data Type   Information
#---------- ----------------  -----------
STRT .M          3513.58200:  START DEPTH
STOP .M          3649.06560:  STOP DEPTH
STEP .M             0.15240:  STEP
NULL .              -999.25:  NULL VALUE
COMP .              Statoil:  COMPANY
WELL .        NO_15/9-F-1_C:  WELL
FLD  .                Volve:  FIELD
LOC  .            North Sea:  LOCATION
CTRY .               Norway:  COUNTRY
STAT .                     :  STATE
CNTY .                     :  COUNTY
SRVC .         Schlumberger:  SERVICE COMPANY
DATE .          27-Nov-2014:  DATE
API  .                     :  API NUMBER
UWI  .           15/9-F-1 C:  UNIQUE WELL ID
LATI .     58° 26' 29.91" N:  LATITUDE
LONG .      1° 53' 14.71" E:  LONGITUDE
~Curve Information Block
#MNEM.UNIT         API CODE   Curve Description
#---------- ----------------  -----------------
DEPTH.M                    :  DEPTH (BOREHOLE)
BSAL .PPM                  :  Borehole Salinity
CCLC .V                    :  CCL
CIRF .                     :  RST Capture to Inelastic Ratio Far
CIRN .                     :  RST Capture to Inelastic Ratio Near
CVEL .M/SEC                 :  Cable Velocity
DFRB .DEG                  :  Calibrated Relative Bearing
DSIG .CU                   :  Sigma Difference
FBEF .UA                   :  RST Far Effective Beam Current
GR   .GAPI                 :  Gamma Ray
IRAT .                     :  RST Inelastic Ratio
PFC1 .IN                   :  PFCS CaliperX
PFC2 .IN                   :  PFCS CaliperY
RSCF .                     :  RST Far Detector Effective Unregulated
RSCN .                     :  RST Near Detector Effective
SFFA .CU                   :  RST Sigma Formation Far Apparent
SIBF .CU                   :  RST Sigma Borehole Fluid
SIGM .CU                   :  Formation Sigma (Neutron Capture Cross
TENS .LBF                  :  Cable Tension
TPHI .V/V                  :  Thermal Decay Porosity
~Parameter Information Block
#MNEM.UNIT            Value   Description
#---------- ----------------  -----------
APD  .M           54.900002:  Elevation of Depth Reference (LMF) above Permanent Datum
BHS  .                 CASE:  Borehole Status (Open or Cased Hole)
BS   .IN                8.5:  Bit Size
BSAL .PPM                 0:  Borehole Salinity
BSALOPT.              UNKNOWN:  Borehole Salinity Option
CSIZ .IN                  7:  Current Casing Size
CWEI .LB/F               29:  Casing Weight
EPD  .C3                  0:  Elevation of Permanent Datum above Mean Sea Level
LMF  .                   KB:  Logging Measured From (Name of Logging Elevation Reference)
MATR .                 SAND:  Rock Matrix for Neutron Porosity Corrections
PDAT .                  MSL:  Permanent Datum
RUN  .                Run 1:  RUN NUMBER
TAPE_NAME.     Statoil_Volve_15-9-F-1 C_PLT-RST_28Nov14_ConCu_R1L15Up_SigmaRepeat.las:  
TOOL_STRING.              UNKNOWN:  
WN   .           15/9-F-1 C:  WELL
PROJECT.     SLEIPNER_OST@st-vlinapp01:  
SET  .       RSTD_1114_SIG2:  
~Other Information Block
~Ascii Log Data
# ...
    3567.07440 
    38967.8984        -0.0035         2.2397       0.868800      -0.163543 
      358.3940        -0.8708        78.1045        31.6271         0.3700 
        6.1883         5.9885         9.7972        10.2146        16.3793 
       35.7907        15.1986      4566.0000       0.241800
    3567.22680 
    38403.5000         0.0620         2.3211       0.826900      -0.163105 
      358.3940        -1.0689        77.8265        29.7883         0.3664 
        6.1905         5.9862        10.4857        10.2457        17.3712 
       35.5884        15.2292      4542.0000       0.237500
    3567.37920 
    39001.5000        -0.0701         2.4095       0.869300      -0.162272 
      358.3940        -1.1836        78.3124        28.0966         0.3604 
        6.1905         5.9862        10.5420        10.2445        17.2734 
       35.8027        15.6944      4497.0000       0.254300
    3567.53160 
    39515.8984        -0.0538         2.3796       0.855500      -0.162695 
      358.3940        -1.0292        78.7296        27.5450         0.3493 
        6.1905         5.9862        10.5361        10.4792        17.7768 
       35.9871        17.4334      4420.3335       0.272100
    3567.68400 
    39283.6016        -0.0033         1.6942       0.725300      -0.161862 
      358.3940        -1.0541        80.2761        24.7868         0.3490 
        6.1659         5.9862         7.5449         9.3211        22.6511 
       35.9038        19.6655      4331.3335       0.311800
    3567.83640 
    39353.5977         0.0051         1.5007       0.697700      -0.163318 
      358.3940        -1.0134        78.0100        27.1773         0.3482 
        6.1726         5.9862         6.7405         8.5242        24.0244 
       35.9289        21.4453      4305.0000       0.336800
    3567.98880 
    39131.6992        -0.0097         1.5298       0.733200      -0.162027 
      358.3940        -1.0422        79.3844        26.4417         0.3530 
        6.1703         5.9954         6.8071         9.1867        23.2261 
       35.8493        21.9126      4162.0000       0.363600
    3568.14120 
    39398.3984        -0.0049         1.5334       0.713200      -0.162682 
      358.3940        -1.0138        80.5467        26.6624         0.3473 
        6.1771         5.9931         6.5371         8.3786        24.1741 
       35.9450        21.4449      4070.0000       0.366700
    3568.29360 
    38619.5000        -0.0054         1.5125       0.689700      -0.164588 
      358.3940        -1.1609        77.9041        29.4206         0.3502 
        6.1860         5.9862         7.0032         8.7988        22.7333 
       35.6658        21.6568      4109.5000       0.360300
    3568.44600 
    39637.9023         0.0711         1.5480       0.702400      -0.164608 
      358.3940        -1.1727        77.4815        33.2820         0.3513 
        6.1905         5.9862         7.0073         8.3735        23.9686 
       36.0309        21.4997      4360.5000       0.353000
    3568.59840 
    39426.8008         0.0729         1.5547       0.720300      -0.164588 
      358.3940        -1.2857        82.8992        33.4659         0.3533 
        6.1905         5.9862         6.6222         8.8115        23.8024 
       35.9552        21.9373      4572.0000       0.347300
    3568.75080 
    38892.1992        -0.0862         1.5620       0.694600      -0.163318 
      358.3940        -1.2450        76.8434        36.4202         0.3528 
        6.1905         5.9862         7.1415         8.4560        24.1300 
       35.7635        21.8477      4597.0005       0.342600
    3568.90320 
    39216.3008         0.0106         1.6401       0.745700      -0.162662 
      358.3940        -1.0616        81.4616        37.1557         0.3637 
        6.1815         5.9862         6.8601         8.6449        23.7836 
       35.8797        22.3220      4528.5000       0.337700
    3569.05560 
    38682.0977         0.0014         1.5590       0.758400      -0.162007 
      358.3940        -1.0563        75.5289        37.8912         0.3642 
        6.1905         5.9862         7.0888         9.0094        25.3130 
       35.6882        21.8557      4514.0000       0.337400
    3569.20800 
    38642.1992         0.0012         1.6180       0.735100      -0.163235 
      358.3940        -1.2954        78.0395        36.7880         0.3577 
        6.1905         5.9862         7.3025         9.3290        22.8161 
       35.6739        21.7559      4362.5000       0.337900
    3569.36040 
    37699.5000         0.0014         1.7786       0.722600      -0.163872 
      358.3940        -1.3245        84.0941        39.7300         0.3497 
        6.1905         5.9862         7.5013         9.1716        23.5222 
       35.3364        21.5945      4232.5000       0.335100
    3569.51280 
    36822.0000         0.0064         1.6031       0.739300      -0.163912 
      358.3940        -1.2991        79.6138        38.4306         0.3472 
        6.1972         5.9862         6.8746         8.4380        24.8719 
       35.0226        21.9251      4225.0000       0.333500
    3569.66520 
    35935.3008        -0.0367         1.5978       0.711800      -0.163953 
      358.3940        -1.4200        82.1229        36.7757         0.3513 
        6.1995         5.9862         6.9678         9.0132        23.7874 
       34.7058        22.1533      4310.5000       0.329400
    3569.81760 
    35762.1992        -0.0605         1.6122       0.726700      -0.163993 
      358.3940        -1.5219        77.2469        37.2415         0.3471 
        6.2085         5.9862         7.5120         9.2279        24.1800 
       34.6440        21.8805      4576.5000       0.332200
    3569.97000 
    36198.3984        -0.0068         1.6668       0.712900      -0.163973 
      358.3940        -1.3114        83.5142        35.4028         0.3506 
        6.2152         5.9862         7.0729         8.7344        24.0183 
       34.7997        21.8134      4567.0005       0.323500
    3570.12240 
    36347.3008         0.0262         1.6376       0.747900      -0.163973 
      358.3940        -1.2763        79.9596        31.3574         0.3555 
        6.2152         5.9862         7.1733         9.0454        23.5618 
       34.8529        21.2621      4595.0000       0.326800
    3570.27480 
    34976.3984        -0.0161         1.7908       0.756900      -0.162682 
      358.3940        -1.0312        79.4225        29.8864         0.3563 
        6.2129         5.9862         7.6915         8.6426        22.4928 
       34.3636        21.6082      4534.9995       0.324000
    3570.42720 
    34781.1016         0.0088         1.6376       0.771100      -0.162027 
      358.3940        -0.9625        82.0924        32.0929         0.3591 
        6.2135         5.9862         6.8722         9.1367        25.0449 
       34.2939        22.2641      4460.0000       0.330600
    3570.57960 
    34773.8984        -0.0100         1.5315       0.742500      -0.162662 
      358.3940        -0.9543        80.7549        31.6271         0.3557 
        6.2050         5.9862         6.6410         9.0234        25.5088 
       34.2913        23.2851      4379.5005       0.325300
    3570.73200 
    36030.3008        -0.0175         1.5386       0.660800      -0.163318 
      358.3940        -0.7235        80.4606        31.9949         0.3518 
        6.1905         5.9862         6.9443         8.7414        25.5467 
       34.7397        23.2080      4329.0000       0.323300
    3570.88440 
    34944.0000        -0.0351         1.6412       0.690100      -0.163318 
      358.3940        -0.7043        81.3116        32.9143         0.3432 
        6.1529         5.9602         7.3003         8.9437        24.7979 
       34.3520        23.1616      4151.0000       0.319100
    3571.03680 
    34242.8008        -0.5819         1.5218       0.677500      -0.163973 
      358.3940        -0.6837        80.7714        33.0981         0.3366 
        6.1591         6.0093         6.9117         8.9352        25.3418 
       34.1020        23.1811      4021.0000       0.318300
